     2.11           OBSERVATION DATA    G (GPS)             RINEX VERSION / TYPE
teqc  2015Jun23     UNAVCO Archive Ops  20150829 00:14:15UTCPGM / RUN BY / DATE
Solaris x86 5.10|AMD64|cc SC5.8 -xarch=amd64|=+|=+          COMMENT
BIT 2 OF LLI FLAGS DATA COLLECTED UNDER A/S CONDITION       COMMENT
RIOP                                                        MARKER NAME
42006M001                                                   MARKER NUMBER
Patricia Mothes     Instituto Geofisico de Ecuador          OBSERVER / AGENCY
4927175199          TRIMBLE NETRS       1.2-5               REC # / TYPE / VERS
60261189            TRM41249.00     NONE                    ANT # / TYPE
  1255140.9798 -6253585.5781  -182569.6128                  APPROX POSITION XYZ
        0.0729        0.0000        0.0000                  ANTENNA: DELTA H/E/N
     1     1                                                WAVELENGTH FACT L1/2
     7    L1    L2    C1    P2    P1    S1    S2            # / TYPES OF OBSERV
    30.0000                                                 INTERVAL
    17                                                      LEAP SECONDS
input file: riop201508280000a.dat                           COMMENT
RINEX file created by UNAVCO GPS Archive.                   COMMENT
For more information contact archive@unavco.org             COMMENT
Monument ID: 11459                                          COMMENT
UNAVCO 4-char name:   RIOP                                  COMMENT
4-char name from Log or data file: RIOP                     COMMENT
Monument location: -1.6506 -78.6511 2793                    COMMENT
Visit ID: 106680                                            COMMENT
End of DB comments                                          COMMENT
 SNR is mapped to RINEX snr flag value [0-9]                COMMENT
  L1 & L2: min(max(int(snr_dBHz/6), 0), 9)                  COMMENT
  2015     8    28     0     0    0.0000000     GPS         TIME OF FIRST OBS
                                                            END OF HEADER
 15  8 28  0  0  0.0000000  0 11G05G24G13G20G06G12G15G25G18G02G29
  -5693932.66346  -4187617.45243  24878573.0084   24878564.9924
        39.0004         20.0004
 -24475398.13148 -15913379.05945  22060033.4924   22060025.5354
        48.0004         35.2504
 -43186037.54547 -24270710.49545  22205520.1954   22205511.8874
        47.5004         32.0004
 -15509334.69247  -7942099.08144  22965699.0784   22965688.7194
        43.0004         26.5004
   -967964.45646   -708052.43443  24662312.3204   24662305.4184
        39.5004         21.5004
 -13278435.15647 -10085699.99944  23007351.9774   23007344.6644
        45.7504         29.7504
 -25318697.35048 -22309550.76947  20413389.0634   20413379.4654
        52.5004         42.0004
  -7861857.05447  -5360500.08444  23576585.5234   23576582.5514
        43.2504         26.0004
  -8338795.96246  -3101434.54043  24536706.2734   24536700.4264
        37.7504         19.5004
 -17316470.55847 -11906747.77445  22118996.7194   22118985.8324
        46.0004         33.0004
 -19052050.87248 -14771537.39446  21489506.7814   21489497.4184
        49.0004         37.7504
 15  8 28  0  0 30.0000000  0 11G05G24G13G20G06G12G15G25G18G02G29
  -5654371.46245  -4156790.55243  24886099.8674   24886093.1414
        35.0004         19.5004
 -24535181.07547 -15959962.85445  22048656.9224   22048649.5514
        47.5004         34.7504
 -43101273.54347 -24204660.93145  22221650.6564   22221642.1134
        47.0004         31.7504
 -15485328.61947  -7923393.01744  22970267.1094   22970256.9844
        44.0004         27.2504
   -931233.97546   -679431.21944  24669301.8834   24669295.1564
        41.2504         24.5004
 -13243459.89747 -10058446.41144  23014008.0314   23014000.1914
        45.5004         29.7504
 -25276647.74448 -22276784.56247  20421390.6884   20421380.9144
        52.0004         42.0004
  -7850155.55847  -5351381.96444  23578812.7274   23578809.0514
        42.5004         26.0004
  -8332021.84546  -3096155.88643  24537996.8754   24537988.8594
        40.2504         19.5004
 -17322545.42547 -11911481.58445  22117840.6644   22117829.7774
        46.5004         33.5004
 -19119272.20248 -14823917.62946  21476714.6884   21476705.8524
        48.5004         38.0004
 15  8 28  0  1  0.0000000  0 11G05G24G13G20G06G12G15G25G18G02G29
  -5615054.16046  -4126153.73543  24893581.3674   24893575.0514
        37.0004         19.2504
 -24594897.05747 -16006494.48045  22037293.0314   22037285.7194
        46.2504         34.7504
 -43016201.65147 -24138371.46045  22237839.7734   22237830.9964
        47.5004         32.0004
 -15461448.06747  -7904784.77844  22974810.7814   22974801.5354
        43.2504         26.0004
   -894166.13546   -650547.04843  24676355.8674   24676348.5554
        38.2504         22.0004
 -13208603.06947 -10031285.08244  23020640.8834   23020633.5704
        45.2504         29.2504
 -25234100.62448 -22243630.61446  20429486.7424   20429477.0274
        51.5004         41.7504
  -7838433.96846  -5342248.19044  23581043.6094   23581040.1684
        41.2504         26.0004
  -8325181.81646  -3090825.88843  24539297.0554   24539290.7384
        37.7504         19.5004
 -17328255.72547 -11915931.31645  22116754.1484   22116743.4964
        45.7504         32.7504
 -19186062.06448 -14875961.66546  21464005.0704   21463995.8834
        49.2504         37.5004
 15  8 28  0  1 30.0000000  0 11G05G24G13G20G06G12G15G25G18G02G29
  -5575980.27746  -4095706.55843  24901018.3204   24901010.0124
        39.7504         18.2504
 -24654543.18647 -16052971.69245  22025941.9534   22025934.9344
        46.2504         34.5004
 -42930824.21547 -24071843.93245  22254086.9924   22254077.9224
        46.5004         32.2504
 -15437693.71847  -7886274.88744  22979332.0634   22979321.9384
        42.2504         26.5004
   -856760.71746   -621399.93043  24683474.2664   24683466.1334
        40.5004         23.7504
 -13173866.41447 -10004217.37844  23027251.5864   23027243.3364
        45.5004         29.0004
 -25191057.89048 -22210090.39946  20437677.2734   20437667.2664
        51.5004         41.5004
  -7826694.04746  -5333100.14344  23583276.9144   23583273.5904
        40.0004         26.0004
  -8318277.95746  -3085446.16443  24540612.6564   24540604.0554
        40.5004         20.2504
 -17333599.12747 -11920095.13245  22115737.4224   22115726.5354
        45.7504         32.7504
 -19252418.10948 -14927667.66046  21451377.8524   21451368.7814
        49.2504         38.0004
 15  8 28  0  2  0.0000000  0 11G05G24G13G20G06G12G15G25G18G02G29
  -5537149.29746  -4065448.65943  24908407.9304   24908398.5084
        40.0004         19.2504
 -24714117.33847 -16099392.91445  22014605.8284   22014598.1054
        46.7504         35.0004
 -42845144.23547 -24005080.66245  22270391.6884   22270382.7934
        46.0004         31.5004
 -15414067.02547  -7867864.47244  22983826.7274   22983817.6564
        42.2504         27.0004
   -819017.28646   -591989.41443  24690655.6484   24690648.9224
        38.7504         20.2504
 -13139251.57647  -9977244.59144  23033837.6254   23033830.2544
        45.0004         29.0004
 -25147521.76248 -22176165.63346  20445961.5864   20445951.6954
        51.7504         41.7504
  -7814937.90546  -5323939.45344  23585513.8204   23585510.9064
        41.5004         25.5004
  -8311312.11546  -3080018.12743  24541935.6954   24541929.7894
        38.7504         19.7504
 -17338574.08947 -11923971.83145  22114790.5944   22114780.1174
        46.2504         32.2504
 -19318338.16348 -14979033.92546  21438833.7344   21438824.4884
        49.5004         38.2504
 15  8 28  0  2 30.0000000  0 11G05G24G13G20G06G12G15G25G18G02G29
  -5498562.37446  -4035380.93543  24915749.6254   24915742.0204
        38.5004         19.0004
 -24773617.52547 -16145756.58945  22003282.9384   22003275.8014
        47.2504         35.0004
 -42759164.62647 -23938083.95345  22286752.7974   22286744.7814
        46.5004         31.5004
 -15390569.41247  -7849554.66244  22988298.6954   22988289.4494
        42.0004         25.5004
   -780935.66646   -562315.21843  24697902.4304   24697895.1764
        39.5004         20.2504
 -13104759.92947  -9950367.76444  23040401.1174   23040393.5124
        45.0004         29.0004
 -25103494.77348 -22141858.37846  20454338.9144   20454329.0234
        51.2504         41.7504
  -7803167.93546  -5314767.96044  23587753.7814   23587750.5744
        41.5004         27.0004
  -8304286.58146  -3074543.60543  24543274.0784   24543266.0634
        38.7504         20.0004
 -17343178.99647 -11927560.16345  22113914.2194   22113903.5084
        46.7504         32.5004
 -19383821.55248 -15030059.93646  21426372.6564   21426363.4104
        48.5004         37.5004
 15  8 28  0  3  0.0000000  0 11G05G24G13G20G06G12G15G25G18G02G29
  -5460218.52746  -4005502.63642  24923046.2114   24923038.3134
        38.7504         17.2504
 -24833040.48847 -16192060.11245  21991975.0554   21991967.7424
        45.7504         34.5004
 -42672887.41147 -23870855.36545  22303171.3054   22303163.6414
        46.5004         31.7504
 -15367201.61446  -7831346.01044  22992745.4534   22992736.2074
        41.2504         26.7504
   -742515.53546   -532377.49243  24705214.1094   24705206.0944
        39.2504         20.7504
 -13070393.02747  -9923588.09245  23046941.2664   23046932.7234
        46.0004         30.0004
 -25058978.77848 -22107170.29246  20462810.2734   20462799.8554
        52.0004         41.7504
  -7791385.60847  -5305586.88144  23589996.1564   23589992.6564
        42.7504         26.0004
  -8297202.99446  -3069023.80443  24544619.6804   24544614.0664
        37.7504         20.2504
 -17347411.20447 -11930858.04445  22113108.6174   22113098.6094
        45.5004         33.5004
 -19448865.01548 -15080743.13946  21413995.1484   21413985.7274
        49.5004         37.5004
 15  8 28  0  3 30.0000000  0 11G05G24G13G20G06G12G15G25G18G02G29
  -5422117.65646  -3975813.71343  24930296.1804   24930288.5744
        39.0004         18.2504
 -24892383.75447 -16238301.57945  21980682.1804   21980675.0434
        45.7504         34.5004
 -42586315.66847 -23803397.30145  22319646.0864   22319637.8954
        46.2504         30.5004
 -15343964.90547  -7813239.50544  22997167.9534   22997158.0634
        42.0004         27.0004
   -703756.38746   -502175.45443  24712589.0704   24712581.8164
        38.0004         19.7504
 -13036152.18447  -9896906.61845  23053455.9694   23053448.8914
        44.5004         30.0004
 -25013975.90348 -22072102.85147  20471373.8984   20471363.4224
        51.7504         42.0004
  -7779593.16947  -5296397.86744  23592241.0474   23592236.6094
        42.5004         26.0004
  -8290063.61746  -3063460.53043  24545980.3984   24545973.0274
        38.2504         18.2504
 -17351269.10747 -11933864.24945  22112374.9454   22112364.7624
        45.0004         33.0004
 -19513467.17848 -15131082.49146  21401701.3914   21401692.5554
        49.0004         38.2504
 15  8 28  0  4  0.0000000  0 11G05G24G13G20G06G12G15G25G18G02G29
  -5384259.81246  -3946314.14243  24937500.8984   24937492.9414
        38.0004         19.5004
 -24951644.92847 -16284479.20045  21969405.6174   21969397.8364
        46.2504         34.7504
 -42499451.74947 -23735711.58745  22336175.3134   22336167.7664
        46.0004         31.2504
 -15320860.72947  -7795236.30944  23001564.1884   23001554.1214
        42.5004         24.5004
   -664658.17646   -471709.26543  24720028.8754   24720021.5634
        39.5004         20.5004
 -13002039.71647  -9870325.16745  23059947.2664   23059939.7774
        45.0004         30.0004
 -24968488.34548 -22036657.65246  20480029.0234   20480019.3094
        51.7504         41.5004
  -7767792.64947  -5287202.58944  23594485.7114   23594481.9184
        42.5004         26.5004
  -8282870.17446  -3057855.17643  24547348.1024   24547341.6684
        37.7504         18.2504
 -17354750.75147 -11936577.24245  22111712.6334   22111701.6294
        45.0004         33.0004
 -19577626.09148 -15181076.43646  21389492.5164   21389483.4454
        49.2504         37.7504
 15  8 28  0  4 30.0000000  0 11G05G24G13G20G06G12G15G25G18G02G29
  -5346644.41746  -3917003.49443  24944658.5784   24944651.7344
        38.5004         19.2504
 -25010820.58347 -16330590.05145  21958144.8834   21958137.2194
        47.5004         35.5004
 -42412298.15547 -23667800.15345  22352761.0784   22352753.1214
        46.2504         30.5004
 -15297889.68947  -7777336.88544  23005935.1024   23005925.5634
        43.5004         26.7504
   -625220.73646   -440979.00343  24727533.8284   24727526.4574
        38.5004         21.0004
 -12968056.18647  -9843844.14145  23066414.4384   23066406.8914
        45.2504         31.2504
 -24922517.28248 -22000835.49646  20488777.0314   20488766.6724
        51.7504         41.7504
  -7755985.66847  -5278002.29744  23596732.6334   23596728.7814
        43.2504         26.5004
  -8275624.47446  -3052209.05442  24548726.9454   24548720.2194
        39.2504         17.7504
 -17357853.80447 -11938995.20745  22111121.8134   22111111.5124
        44.7504         32.2504
 -19641339.24448 -15230723.03846  21377368.4304   21377359.3014
        49.0004         37.7504
 15  8 28  0  5  0.0000000  0 11G05G24G13G20G06G12G15G25G18G02G29
  -5309272.78746  -3887882.77543  24951771.0634   24951763.1644
        39.5004         21.5004
 -25069910.00947 -16376633.85445  21946900.6334   21946892.7934
        46.0004         34.0004
 -42324858.97047 -23599666.20545  22369400.2194   22369392.7894
        44.7504         31.0004
 -15275054.00947  -7759542.94044  23010281.0004   23010270.9924
        43.2504         26.2504
   -585444.16046   -409984.35043  24735103.5164   24735095.6764
        40.2504         22.0004
 -12934204.14847  -9817465.53545  23072856.5704   23072847.6174
        45.5004         31.0004
 -24876066.65248 -21964639.61146  20497615.6724   20497605.3134
        51.2504         41.7504
  -7744175.50647  -5268799.52044  23598979.7034   23598976.0864
        43.0004         24.7504
  -8268329.67946  -3046524.74542  24550116.0784   24550108.0634
        38.7504         16.7504
 -17360577.83347 -11941117.83045  22110603.5784   22110592.9264
        45.7504         33.2504
 -19704606.56948 -15280022.23946  21365329.1334   21365320.4144
        48.7504         38.2504
 15  8 28  0  5 30.0000000  0 11G05G24G13G20G06G12G15G25G18G02G29
  -5272143.15246  -3858950.62643  24958836.4534   24958828.4964
        39.2504         20.0004
 -25128908.65147 -16422606.79545  21935673.2974   21935665.6334
        45.0004         35.0004
 -42237135.52547 -23531310.73245  22386093.4384   22386086.4774
        45.5004         30.5004
 -15252353.78447  -7741854.57344  23014600.8674   23014590.8594
        44.0004         27.0004
   -545327.19446   -378724.29443  24742736.9534   24742729.6414
        39.7504         22.7504
 -12900484.41447  -9791190.02345  23079271.5314   23079264.0434
        43.7504         30.2504
 -24829137.71648 -21928071.19146  20506545.7734   20506535.4734
        52.0004         41.7504
  -7732362.92547  -5259594.87044  23601227.4614   23601223.9024
        43.2504         24.7504
  -8260986.71146  -3040802.82843  24551513.7584   24551506.0944
        38.7504         18.5004
 -17362919.48147 -11942942.47945  22110158.2504   22110147.2464
        44.5004         33.5004
 -19767424.44348 -15328971.21646  21353375.0084   21353366.2304
        48.5004         38.2504
 15  8 28  0  6  0.0000000  0 11G05G24G13G20G06G12G15G25G18G02G29
  -5235256.28546  -3830207.62243  24965856.7974   24965847.7854
        40.5004         19.5004
 -25187814.79747 -16468507.45446  21924463.6484   21924456.1024
        46.5004         36.7504
 -42149131.30547 -23462736.46144  22402841.0474   22402833.2664
        45.7504         29.5004
 -15229790.92047  -7724273.25944  23018894.2424   23018884.2344
        43.5004         26.0004
   -504870.92946   -347200.05443  24750435.5164   24750428.2624
        41.5004         22.5004
 -12866898.89147  -9765019.05645  23085663.2504   23085654.1804
        44.5004         30.2504
 -24781733.35848 -21891132.35247  20515566.0394   20515555.7384
        52.5004         42.0004
  -7720550.66947  -5250390.45244  23603475.2034   23603471.5864
        42.7504         26.2504
  -8253598.29146  -3035045.51442  24552918.2114   24552911.1914
        38.0004         17.2504
 -17364877.85047 -11944468.46045  22109785.2424   22109774.7074
        45.2504         33.7504
 -19829792.27448 -15377569.50546  21341506.8134   21341498.0354
        49.0004         38.0004
 15  8 28  0  6 30.0000000  0 11G05G24G13G20G06G12G15G25G18G02G29
  -5198611.72546  -3801653.39143  24972828.8134   24972820.7384
        38.5004         19.5004
 -25246626.60647 -16514334.85646  21913272.2194   21913264.9064
        46.2504         36.0004
 -42060848.72147 -23393945.19545  22419640.9384   22419633.2154
        46.2504         31.0004
 -15207365.99847  -7706799.49244  23023161.5234   23023152.1604
        43.0004         26.5004
   -464074.45446   -315410.52243  24758198.6254   24758190.8444
        40.7504         21.7504
 -12833448.82347  -9738953.61645  23092027.7814   23092019.1804
        43.5004         30.0004
 -24733855.63748 -21853824.73846  20524676.7814   20524666.0124
        52.0004         41.0004
  -7708740.42747  -5241187.61744  23605722.2814   23605718.9574
        43.0004         26.0004
  -8246166.23346  -3029254.22842  24554333.2194   24554325.0864
        38.5004         17.7504
 -17366450.95847 -11945694.23945  22109486.2424   22109475.6484
        46.5004         32.5004
 -19891707.86648 -15425815.38746  21329724.4384   21329715.7774
        49.0004         37.7504
 15  8 28  0  7  0.0000000  0 11G05G24G13G20G06G12G15G25G18G02G29
  -5162208.79246  -3773287.48643  24979756.4924   24979747.9494
        40.0004         19.0004
 -25305340.00747 -16560085.43645  21902099.3134   21902091.7664
        45.2504         34.5004
 -41972289.48747 -23324938.14844  22436493.2814   22436485.9104
        45.5004         29.5004
 -15185079.86547  -7689433.97644  23027402.6024   23027393.8244
        43.0004         26.0004
   -422937.02546   -283355.27243  24766027.5864   24766019.6884
        40.5004         21.7504
 -12800135.06747  -9712994.38544  23098367.4774   23098358.4064
        44.0004         29.2504
 -24685506.31048 -21816149.76246  20533877.4774   20533866.4734
        51.7504         41.5004
  -7696933.77947  -5231987.56544  23607969.8754   23607965.5554
        43.5004         25.0004
  -8238691.99646  -3023430.05842  24555754.2734   24555747.7234
        37.7504         17.7504
 -17367636.58547 -11946618.07045  22109260.7424   22109249.5044
        45.0004         32.5004
 -19953169.04448 -15473707.17546  21318029.1254   21318020.1724
        49.0004         38.7504
 15  8 28  0  7 30.0000000  0 11G05G24G13G20G06G12G15G25G18G02G29
  -5126048.21346  -3745110.42543  24986637.2034   24986629.7734
        38.2504         20.2504
 -25363953.22347 -16605757.78445  21890944.8834   21890937.7464
        44.0004         35.0004
 -41883454.94547 -23255715.26845  22453397.0394   22453389.4924
        46.0004         30.5004
 -15162934.47646  -7672178.18844  23031617.0634   23031608.3444
        41.2504         25.2504
   -381459.68247   -251035.22843  24773920.7274   24773912.0084
        43.0004         22.0004
 -12766960.44647  -9687143.49544  23104679.6484   23104670.9304
        43.7504         29.2504
 -24636688.58948 -21778110.01946  20543166.5634   20543156.2624
        51.0004         41.5004
  -7685133.44347  -5222792.44444  23610214.6954   23610211.2544
        44.0004         26.5004
  -8231178.00946  -3017574.93343  24557185.4454   24557177.4304
        38.2504         18.5004
 -17368433.68547 -11947239.13445  22109108.0704   22109097.7114
        44.5004         32.5004
 -20014174.57948 -15521243.90046  21306420.0234   21306410.4264
        48.5004         38.0004
 15  8 28  0  8  0.0000000  0 11G05G24G13G20G06G12G15G25G18G02G29
  -5090129.34146  -3717121.72943  24993473.5554   24993464.1914
        40.5004         19.2504
 -25422464.17647 -16651350.61945  21879810.7894   21879803.0664
        44.5004         35.5004
 -41794351.73447 -23186283.68445  22470351.9614   22470344.7074
        44.7504         30.5004
 -15140930.21447  -7655032.38244  23035804.6484   23035795.8714
        42.2504         25.7504
   -339642.03846   -218450.07843  24781877.7974   24781870.0744
        41.2504         20.7504
 -12733925.77547  -9661401.72444  23110965.6724   23110956.8954
        43.7504         29.0004
 -24587404.52148 -21739707.09346  20552545.6254   20552534.9144
        51.0004         41.5004
  -7673341.04647  -5213603.49044  23612458.4924   23612455.1684
        43.2504         26.2504
  -8223626.61246  -3011690.63543  24558622.6954   24558614.1524
        39.2504         18.2504
 -17368839.83147 -11947555.56245  22109030.8134   22109020.3364
        44.0004         32.5004
 -20074722.40347 -15568423.95446  21294897.9844   21294889.2664
        47.2504         38.2504
 15  8 28  0  8 30.0000000  0 11G05G24G13G20G06G12G15G25G18G02G29
  -5054452.27446  -3689321.43643  25000262.5314   25000254.3404
        39.2504         20.0004
 -25480870.32047 -16696861.95845  21868696.2344   21868688.9804
        45.0004         34.7504
 -41704982.10247 -23116644.97544  22487358.9224   22487351.3754
        45.0004         28.0004
 -15119066.39447  -7637994.90844  23039966.0164   23039955.7734
        42.5004         26.0004
   -297483.78847   -185599.33843  24789899.9224   24789892.1994
        42.7504         22.2504
 -12701032.90747  -9635770.46644  23117224.2584   23117215.8914
        42.5004         29.0004
 -24537655.39148 -21700941.24246  20562012.2424   20562001.7664
        50.7504         40.0004
  -7661559.04447  -5204422.64744  23614699.4064   23614696.5514
        42.5004         25.5004
  -8216040.03246  -3005778.95843  24560065.7424   24560057.9614
        38.5004         18.5004
 -17368853.67247 -11947566.27845  22109028.8204   22109017.8164
        44.5004         32.5004
 -20134811.52147 -15615246.55246  21283463.5084   21283454.3204
        47.5004         38.0004
 15  8 28  0  9  0.0000000  0 11G05G24G13G20G06G12G15G25G18G02G29
  -5019014.91246  -3661707.89643  25007004.8674   25006996.8524
        39.2504         20.0004
 -25539165.98547 -16742286.72446  21857602.5004   21857594.7194
        45.0004         36.5004
 -41615346.82747 -23046799.42544  22504416.1094   22504408.6214
        45.5004         28.5004
 -15097345.02647  -7621068.77244  23044098.2734   23044088.6174
        42.5004         25.5004
   -254983.59046   -152482.31143  24797988.0234   24797979.3634
        39.5004         22.2504
 -12668280.90747  -9610248.75144  23123456.0314   23123447.0204
        42.5004         29.7504
 -24487442.17648 -21661813.46846  20571567.1334   20571556.4804
        50.7504         40.0004
  -7649787.48747  -5195249.94644  23616940.5084   23616937.2424
        42.0004         24.5004
  -8208418.17946  -2999839.78043  24561516.6804   24561508.7814
        38.7504         19.5004
 -17368472.09647 -11947268.90945  22109101.9384   22109090.6994
        45.0004         33.0004
 -20194438.02648 -15661708.64546  21272116.8524   21272107.8404
        48.0004         38.5004
 15  8 28  0  9 30.0000000  0 11G05G24G13G20G06G12G15G25G18G02G29
  -4983819.02046  -3634282.47343  25013702.6094   25013694.6524
        38.0004         18.2504
 -25597353.26347 -16787627.71545  21846530.7114   21846522.7544
        43.7504         33.7504
 -41525449.64947 -22976749.19845  22521522.5394   22521515.1094
        46.2504         32.0004
 -15075768.87047  -7604255.78544  23048203.3054   23048193.8244
        42.0004         25.5004
   -212143.30546   -119100.12243  24806139.2734   24806132.0784
        41.0004         22.7504
 -12635673.64447  -9584839.61244  23129660.8674   23129651.0354
        42.2504         28.2504
 -24436770.19348 -21622328.40846  20581209.3524   20581198.0554
        51.0004         40.5004
  -7638030.73747  -5186088.79444  23619178.2114   23619174.0084
        43.0004         25.5004
  -8200765.51146  -2993876.58042  24562971.2194   24562964.9614
        38.0004         16.7504
 -17367695.46147 -11946663.69645  22109248.8524   22109238.6094
        44.0004         33.0004
 -20253602.80947 -15707810.93246  21260857.8834   21260849.0474
        47.5004         39.0004
 15  8 28  0 10  0.0000000  0 11G05G24G13G20G06G12G15G25G18G02G29
  -4948863.46346  -3607044.36243  25020354.6414   25020346.4494
        37.0004         18.5004
 -25655426.56247 -16832879.69446  21835479.6174   21835471.9534
        46.5004         36.0004
 -41435293.36047 -22906497.60045  22538678.5314   22538670.6334
        46.2504         33.5004
 -15054337.86247  -7587556.13444  23052281.7734   23052272.3524
        43.5004         26.5004
   -168961.60646    -85451.92343  24814356.6954   24814349.1484
        40.5004         22.0004
 -12603210.94347  -9559542.89744  23135837.6644   23135827.4804
        42.5004         28.0004
 -24385640.22448 -21582486.41647  20590938.9144   20590927.7344
        52.2504         42.0004
  -7626289.25747  -5176939.49244  23621412.1484   23621408.2384
        43.0004         25.5004
  -8193082.96646  -2987890.05542  24564433.8134   24564426.9694
        38.2504         17.2504
 -17366520.60247 -11945748.18345  22109472.9844   22109461.7464
        45.0004         32.2504
 -20312302.66247 -15753550.90046  21249687.7974   21249678.4344
        47.7504         39.0004
 15  8 28  0 10 30.0000000  0 11G05G24G13G20G06G12G15G25G18G02G29
  -4914147.84846  -3579993.23543  25026960.8524   25026953.1294
        36.2504         18.5004
 -25713383.84047 -16878041.39445  21824450.9614   21824442.8874
        45.7504         35.5004
 -41344880.68348 -22836046.34046  22555883.2424   22555875.8714
        48.5004         38.2504
 -15033054.54747  -7570972.54544  23056332.2894   23056322.8674
        43.0004         25.5004
   -125438.58646    -51537.69944  24822638.2194   24822630.8484
        41.5004         24.7504
 -12570895.09047  -9534360.77744  23141985.5474   23141976.1254
        42.0004         28.7504
 -24334055.55748 -21542290.46946  20600754.7344   20600743.8484
        50.7504         40.5004
  -7614565.23347  -5167803.83744  23623642.6024   23623639.0434
        42.5004         25.2504
  -8185372.46946  -2981881.82042  24565901.7274   24565894.0634
        39.5004         16.7504
 -17364946.09947 -11944521.27445  22109772.0554   22109761.1094
        44.0004         32.2504
 -20370536.19548 -15798927.46446  21238606.1174   21238596.5784
        48.5004         38.5004
 15  8 28  0 11  0.0000000  0 11G05G24G13G20G06G12G15G25G18G02G29
  -4879673.07246  -3553129.71543  25033521.8134   25033513.5044
        37.0004         19.7504
 -25771222.95147 -16923110.89746  21813444.8984   21813436.5904
        46.5004         37.0004
 -41254214.48247 -22765397.23645  22573137.3364   22573129.2624
        46.0004         32.7504
 -15011918.31447  -7554502.91944  23060354.9454   23060345.1724
        42.5004         27.2504
    -81575.48246    -17358.55243  24830984.7194   24830977.5234
        39.5004         22.2504
 -12538729.23847  -9509295.95144  23148106.5084   23148096.8524
        44.0004         29.5004
 -24282019.15948 -21501742.60946  20610657.2114   20610645.8554
        51.7504         40.5004
  -7602861.63447  -5158684.09344  23625869.8364   23625866.8634
        43.0004         25.5004
  -8177636.79446  -2975853.99842  24567372.8674   24567365.7304
        38.2504         17.2504
 -17362971.30647 -11942982.47145  22110147.4064   22110136.8714
        45.0004         32.5004
 -20428302.61148 -15843940.02246  21227613.1724   21227603.9844
        48.0004         38.5004
 15  8 28  0 11 30.0000000  0 11G05G24G13G20G06G12G15G25G18G02G29
  -4845437.25646  -3526452.40843  25040036.3284   25040028.4304
        36.7504         19.5004
 -25828939.97347 -16968085.00945  21802461.0944   21802453.2544
        44.7504         35.0004
 -41163297.65646 -22694553.36744  22590438.2034   22590430.3054
        41.2504         25.7504
 -14990931.25247  -7538150.30744  23064348.9454   23064339.9344
        43.7504         27.5004
    -37370.79446     17086.85543  24839396.2034   24839388.7734
        39.0004         21.2504
 -12506713.13947  -9484348.13144  23154198.6094   23154188.8954
        42.7504         28.7504
 -24229531.67348 -21460843.14946  20620644.8524   20620633.7304
        51.5004         41.0004
  -7591179.11047  -5149580.76344  23628093.5314   23628089.2704
        43.5004         25.5004
  -8169876.63046  -2969806.92943  24568848.2034   24568841.8284
        38.2504         18.5004
 -17360593.34847 -11941129.47345  22110600.0234   22110589.5474
        45.2504         32.2504
 -20485599.18547 -15888586.41246  21216709.7344   21216700.5474
        47.5004         38.5004
 15  8 28  0 12  0.0000000  0 11G05G24G13G20G06G12G15G25G18G02G29
  -4811440.77046  -3499961.62643  25046505.6954   25046498.4414
        36.0004         18.5004
 -25886532.72447 -17012962.08145  21791502.1564   21791493.4384
        44.7504         35.0004
 -41072132.81946 -22618861.40453  22607787.0314   22607779.1334
        41.7504         22.0004
 -14970093.44946  -7521914.14744  23068314.7894   23068306.0704
        41.7504         25.0004
      7174.76046     51797.76243  24847873.2664   24847866.1884
        40.2504         22.5004
 -12474847.90147  -9459517.84544  23160262.8674   23160252.3914
        43.2504         29.7504
 -24176596.42248 -21419594.81047  20630718.3834   20630707.0864
        51.0004         42.0004
  -7579520.19447  -5140495.82644  23630311.9534   23630307.9264
        42.7504         26.2504
  -8162094.97746  -2963743.24243  24570329.8284   24570323.1024
        39.5004         18.5004
 -17357810.81147 -11938961.19845  22111129.4844   22111119.0084
        44.0004         33.0004
 -20542424.76848 -15932865.78446  21205896.2274   21205886.6294
        48.0004         38.5004
 15  8 28  0 12 30.0000000  0 11G05G24G13G20G06G12G15G25G18G02G29
  -4777684.22345  -3473657.76043  25052928.0864   25052921.1254
        34.7504         18.2504
 -25943999.95747 -17057741.32146  21780565.6884   21780557.2624
        46.5004         36.5004
 -40980723.96047 -22547634.34744  22625180.8834   22625174.0394
        43.0004         25.0004
 -14949405.71647  -7505794.48844  23072252.4774   23072243.4064
        42.7504         24.5004
     52060.30546     86773.49343  24856415.4454   24856407.7234
        41.0004         23.7504
 -12443135.36147  -9434806.18644  23166296.5004   23166287.0204
        43.2504         29.0004
 -24123216.31948 -21377999.56646  20640875.8524   20640864.4964
        51.2504         39.7504
  -7567887.59447  -5131431.40744  23632525.3284   23632521.7114
        43.2504         25.7504
  -8154294.57046  -2957664.96042  24571814.2584   24571807.0634
        38.2504         16.2504
 -17354623.09447 -11936477.20945  22111737.4454   22111725.6214
        44.7504         32.7504
 -20598778.89248 -15976777.75046  21195172.0784   21195162.4224
        48.7504         38.5004
 15  8 28  0 13  0.0000000  0 11G05G24G13G20G06G12G15G25G18G02G29
  -4744166.80845  -3447540.28742  25059306.4144   25059299.5124
        33.7504         17.7504
 -26001339.59347 -17102421.43245  21769654.1484   21769645.7234
        45.5004         35.7504
 -40889072.00847 -22476217.38844  22642622.6254   22642614.8444
        43.5004         27.7504
 -14928869.18947  -7489792.42744  23076160.6804   23076151.9614
        43.0004         28.0004
     97286.23547    122014.46543  24865021.5394   24865013.1724
        42.0004         22.0004
 -12411576.31647  -9410213.86645  23172301.8054   23172292.2074
        44.0004         30.0004
 -24069394.41648 -21336060.42546  20651117.6254   20651106.5044
        50.5004         41.0004
  -7556282.91147  -5122388.73844  23634733.8444   23634729.4064
        43.5004         25.0004
  -8146477.08146  -2951573.32243  24573301.9224   24573294.7854
        37.5004         18.2504
 -17351028.18647 -11933675.92845  22112420.3754   22112408.9614
        45.5004         32.5004
 -20654659.77647 -16020320.96846  21184537.7504   21184528.3874
        47.2504         39.0004
 15  8 28  0 13 30.0000000  0 11G05G24G13G20G06G12G15G25G18G02G29
  -4710888.61346  -3421609.13343  25065640.5864   25065631.9264
        36.5004         18.5004
 -26058548.27547 -17146999.57845  21758767.6094   21758759.5944
        45.5004         35.0004
 -40797179.23947 -22399886.99255  22660108.3834   22660101.2464
        46.0004         34.0004
 -14908483.09047  -7473906.32144  23080039.4224   23080030.7624
        42.7504         27.0004
    142852.08247    157520.33143  24873692.6954   24873684.6804
        42.5004         22.7504
 -12380173.30547  -9385743.42044  23178277.1334   23178267.2424
        44.0004         29.5004
 -24015132.33948 -21293778.26946  20661443.3364   20661431.9224
        51.0004         40.7504
  -7544708.51247  -5113369.65444  23636935.3914   23636932.2424
        42.5004         25.0004
  -8138644.36846  -2945469.81742  24574792.3984   24574785.2624
        37.0004         16.7504
 -17347024.96047 -11930556.45845  22113182.6334   22113171.6884
        44.5004         31.7504
 -20710066.27247 -16063494.57446  21173994.4064   21173984.9264
        47.5004         39.5004
 15  8 28  0 14  0.0000000  0 11G05G24G13G20G06G12G15G25G18G02G29
  -4677847.59146  -3395862.80843  25071927.8754   25071919.4494
        36.7504         19.0004
 -26115621.76447 -17191472.35246  21747906.5864   21747898.8634
        47.0004         37.2504
 -40705050.63147 -22328098.88844  22677640.0554   22677632.4494
        43.5004         26.7504
 -14888251.42947  -7458141.90444  23083889.3754   23083880.7154
        45.0004         28.0004
    188759.45347    193292.25244  24882428.1484   24882420.3674
        42.5004         24.5004
 -12348925.38447  -9361393.42045  23184222.9614   23184212.0744
        44.5004         31.5004
 -23960430.97348 -21251153.57846  20671852.6174   20671841.2034
        51.0004         41.0004
  -7533164.47547  -5104374.22844  23639132.4924   23639128.9924
        42.5004         26.5004
  -8130797.06446  -2939355.00542  24576285.0944   24576278.8954
        37.0004         16.2504
 -17342610.20247 -11927116.33045  22114022.3984   22114011.6884
        44.2504         32.5004
 -20764994.63948 -16106295.69146  21163541.8524   21163532.3714
        48.7504         39.2504
 15  8 28  0 14 30.0000000  0 11G05G24G13G20G06G12G15G25G18G02G29
  -4645044.27546  -3370301.69943  25078170.7974   25078160.9654
        37.0004         19.5004
 -26172558.65547 -17235838.87646  21737071.9144   21737064.1334
        46.5004         36.2504
 -40612687.31647 -22256127.75045  22695216.9384   22695209.5084
        44.7504         31.0004
 -14868174.29347  -7442498.25943  23087711.5004   23087702.5474
        42.0004         21.5004
    235007.74847    229329.97943  24891229.1884   24891221.5234
        42.5004         23.0004
 -12317835.67247  -9337166.96644  23190138.0784   23190127.6604
        42.2504         27.5004
 -23905294.37948 -21208189.92046  20682344.1884   20682333.3594
        50.0004         41.2504
  -7521653.59347  -5095404.63644  23641323.4304   23641319.2274
        43.2504         27.5004
  -8122938.14646  -2933231.08342  24577781.2504   24577774.4064
        37.2504         17.2504
 -17337783.18647 -11923354.98445  22114939.8834   22114929.8164
        45.5004         32.2504
 -20819444.87948 -16148724.27046  21153180.3984   21153170.5664
        50.0004         39.2504
 15  8 28  0 15  0.0000000  0 11G05G24G13G20G06G12G15G25G18G02G29
  -4612478.29545  -3344925.51343  25084366.0164   25084358.5864
        34.7504         18.5004
 -26229355.95247 -17280096.41946  21726263.6094   21726255.8874
        46.5004         36.2504
 -40520093.47047 -22183977.26545  22712837.2114   22712830.7774
        46.0004         32.5004
 -14848251.04447  -7426973.85544  23091502.7034   23091494.2774
        45.0004         28.0004
    281596.21047    265632.68644  24900094.6564   24900087.0514
        42.5004         27.0004
 -12286905.50447  -9313065.14644  23196024.7194   23196012.7774
        43.2504         29.5004
 -23849725.03348 -21164889.01646  20692919.0864   20692907.4964
        52.2504         41.5004
  -7510178.02847  -5086462.59944  23643506.9694   23643502.5904
        43.7504         24.5004
  -8115069.76246  -2927099.78842  24579277.9064   24579270.9454
        37.7504         16.7504
 -17332542.55947 -11919271.34345  22115938.1954   22115927.6024
        44.5004         32.0004
 -20873415.68748 -16190779.39346  21142909.8134   21142900.2154
        50.0004         39.0004
 15  8 28  0 15 30.0000000  0 11G05G24G13G20G06G12G15G25G18G02G29
  -4580149.77745  -3319734.34542  25090516.6954   25090509.6174
        33.5004         17.2504
 -26286011.35347 -17324243.49746  21715483.0084   21715475.0514
        46.2504         36.5004
 -40427270.22847 -22111647.62144  22730501.0314   22730493.3674
        43.7504         27.2504
 -14828483.55047  -7411570.82843  23095263.5864   23095256.4494
        43.0004         22.2504
    328524.56746    302200.23543  24909023.1414   24909016.2974
        41.2504         22.5004
 -12256134.69547  -9289086.90844  23201878.6564   23201867.4774
        42.5004         28.2504
 -23793725.92948 -21121253.38846  20703575.3674   20703564.0124
        49.0004         39.2504
  -7498739.78747  -5077549.59044  23645683.4454   23645679.1254
        42.5004         25.5004
  -8107193.75346  -2920962.57942  24580776.8524   24580770.0084
        38.0004         17.2504
 -17326886.91947 -11914864.30245  22117013.8754   22117003.3984
        45.5004         33.5004
 -20926905.56548 -16232459.76746  21132730.8674   21132721.2114
        50.7504         40.5004
 15  8 28  0 16  0.0000000  0 11G05G24G13G20G06G12G15G25G18G02G29
  -4548057.36645  -3294727.30443  25096624.5314   25096617.0434
        35.5004         19.0004
 -26342521.35547 -17368277.30946  21704729.3914   21704721.1414
        47.7504         39.0004
 -40334220.59946 -22039141.33143  22748206.6334   22748200.3164
        41.7504         23.7504
 -14808872.34046  -7382524.45654  23098995.9454   23098986.9344
        39.0004         24.2504
    375793.90047    339033.57344  24918019.4534   24918011.7894
        42.0004         24.0004
 -12225525.96746  -9265235.59444  23207702.7274   23207691.1954
        41.5004         26.0004
 -23737298.77248 -21077284.38846  20714312.9774   20714301.7974
        50.2504         39.0004
  -7487339.97247  -5068666.55144  23647853.5164   23647849.3714
        43.5004         26.7504
  -8099311.76446  -2914820.65443  24582278.6884   24582269.9694
        38.7504         18.2504
 -17320813.87047 -11910131.99945  22118169.3444   22118159.0434
        45.5004         33.0004
 -20979912.27348 -16273763.61146  21122643.9844   21122634.0354
        50.2504         39.5004
 15  8 28  0 16 30.0000000  0 11G05G24G13G20G06G12G15G25G18G02G29
  -4516201.39945  -3269904.31243  25102686.8054   25102679.7274
        34.7504         21.2504
 -26398885.14847 -17412197.49246  21694004.3054   21693995.5864
        47.2504         37.5004
 -40240949.02746 -21961604.79354  22765957.7274   22765950.1804
        41.5004         28.5004
 -14789418.82246  -7354134.37353  23102698.1414   23102690.7704
        38.5004         22.5004
    423402.83747    376131.46843  24927079.0704   24927071.6994
        42.0004         22.7504
 -12195080.26147  -9241511.15444  23213496.9534   23213484.6024
        42.2504         27.7504
 -23680447.48448 -21032985.14846  20725132.1174   20725121.0554
        50.5004         41.2504
  -7475981.46947  -5059815.70044  23650014.1884   23650010.1024
        42.2504         25.7504
  -8091426.49046  -2908676.21742  24583777.6484   24583770.9804
        38.7504         17.2504
 -17314323.26547 -11905074.30845  22119404.3134   22119394.0704
        46.0004         33.5004
 -21032434.77648 -16314689.84046  21112649.0704   21112639.2974
        49.7504         38.7504
 15  8 28  0 17  0.0000000  0 11G05G24G13G20G06G12G15G25G18G02G29
  -4484580.93545  -3245264.90443  25108704.0234   25108696.3594
        35.5004         19.5004
 -26455098.52447 -17456000.50646  21683307.3054   21683299.4654
        47.2504         36.7504
 -40147456.77347 -21888754.05445  22783748.6884   22783741.6094
        46.0004         30.0004
 -14770123.53447  -7339099.46144  23106370.7974   23106362.3134
        44.0004         29.7504
    471351.75546    413494.32943  24936202.9614   24936195.5314
        41.5004         22.7504
 -12164799.07547  -9217915.37544  23219258.3674   23219246.8954
        43.0004         29.0004
 -23623173.01648 -20988356.08046  20736031.4534   20736020.1564
        48.5004         39.2504
  -7464665.44746  -5050997.96344  23652167.1724   23652163.7894
        40.7504         26.0004
  -8083539.28746  -2902530.30942  24585278.0864   24585270.9494
        37.0004         17.7504
 -17307412.62047 -11899689.27545  22120719.7034   22120708.8754
        46.2504         32.7504
 -21084472.31148 -16355238.45146  21102746.6484   21102736.2304
        50.2504         40.5004
 15  8 28  0 17 30.0000000  0 11G05G24G13G20G06G12G15G25G18G02G29
  -4453195.24546  -3220808.41843  25114677.3594   25114668.4064
        36.5004         19.2504
 -26511157.99547 -17499683.30445  21672639.4844   21672631.7034
        46.7504         35.5004
 -40053746.55647 -21815733.24045  22801580.5704   22801573.7854
        46.5004         32.5004
 -14750987.97947  -7310374.43853  23110012.3914   23110004.6684
        47.2504         20.5004
    519640.31946    451121.78843  24945391.9144   24945384.6604
        40.5004         22.7504
 -12134683.03347  -9194448.24644  23224989.7034   23224977.8204
        43.0004         27.0004
 -23565477.70748 -20943399.00446  20747010.9064   20746999.7854
        50.0004         39.5004
  -7453393.83546  -5042214.81544  23654311.6954   23654307.6684
        41.7504         25.0004
  -8075652.11946  -2896384.36943  24586778.2344   24586771.9184
        37.2504         18.2504
 -17300080.67047 -11893976.00945  22122114.8524   22122104.4924
        44.7504         31.2504
 -21136022.84848 -16395407.64946  21092936.7114   21092926.9384
        50.0004         39.5004
 15  8 28  0 18  0.0000000  0 11G05G24G13G20G06G12G15G25G18G02G29
  -4422044.87845  -3196535.41943  25120604.1724   25120596.0394
        34.2504         19.5004
 -26567061.26847 -17543243.91846  21662001.0004   21661992.7504
        46.5004         36.7504
 -39959822.25947 -21742545.83644  22819454.5394   22819447.9884
        45.0004         25.7504
 -14732008.10746  -7265690.32453  23113623.0474   23113615.4414
        41.5004         22.2504
    568268.18646    489013.59443  24954646.4534   24954638.4964
        40.7504         22.5004
 -12104734.23446  -9171111.91244  23230688.3054   23230677.1844
        41.5004         25.5004
 -23507364.89747 -20898116.49545  20758069.3444   20758059.5704
        45.5004         35.5004
  -7442168.81047  -5033467.98944  23656448.3594   23656443.9804
        42.5004         26.2504
  -8067767.33546  -2890240.31442  24588280.2664   24588272.4264
        38.5004         16.7504
 -17292326.20347 -11887933.50545  22123590.3284   22123579.7934
        46.0004         33.0004
 -21187085.10048 -16435196.47346  21083219.8594   21083210.0274
        50.5004         40.0004
 15  8 28  0 18 30.0000000  0 11G05G24G13G20G06G12G15G25G18G02G29
  -4391128.59245  -3172444.97343  25126485.6174   25126479.6524
        31.5004         18.2504
 -26622806.05548 -17586681.15746  21651392.8914   21651385.2854
        48.7504         37.0004
 -39865685.22546 -21669192.49143  22837368.2424   22837361.5164
        38.2504         21.5004
 -14713191.12146  -7211660.56853  23117203.6804   23117194.2584
        37.5004         21.7504
    617235.57446    527169.96643  24963964.9224   24963956.4964
        41.2504         22.0004
 -12074951.26247  -9147904.07344  23236356.4064   23236343.9384
        44.2504         29.2504
 -23448835.60648 -20852508.63946  20769206.5704   20769195.5084
        50.7504         40.0004
  -7430991.68847  -5024758.49544  23658575.0474   23658571.1374
        42.5004         25.5004
  -8059886.25546  -2884099.15342  24589780.4384   24589772.8324
        37.7504         17.2504
 -17284147.41047 -11881560.32745  22125147.4304   22125136.1334
        45.5004         33.7504
 -21237658.90248 -16474605.07146  21073596.1254   21073586.5274
        49.7504         38.7504
 15  8 28  0 19  0.0000000  0 11G05G24G13G20G06G12G15G25G18G02G29
  -4360446.32545  -3148536.60343  25132324.9224   25132318.4884
        33.5004         18.5004
 -26678390.94847 -17629993.95145  21640815.6334   21640807.5594
        47.7504         35.5004
 -39771338.77147 -21595675.54943  22855321.6334   22855314.7304
        44.5004         22.5004
 -14694537.89348  -7197126.37745  23120753.7274   23120745.2424
        48.0004         30.5004
    666541.44446    565590.13743  24973346.9144   24973339.7194
        41.0004         21.0004
 -12045337.40247  -9124827.81544  23241991.2664   23241978.8554
        44.7504         28.2504
 -23389895.40348 -20806581.28546  20780422.2114   20780412.1454
        49.5004         40.7504
  -7419865.29647  -5016088.50444  23660692.5314   23660688.3284
        42.2504         25.7504
  -8052012.01146  -2877963.34342  24591278.2114   24591270.9574
        36.5004         17.7504
 -17275543.70647 -11874856.04845  22126784.6094   22126773.6054
        46.5004         33.0004
 -21287741.96848 -16513631.01946  21064065.8134   21064056.3914
        51.2504         41.2504
 15  8 28  0 19 30.0000000  0 12G05G24G13G21G20G06G12G15G25G18G02G29
  -4329997.53045  -3124810.22043  25138118.8054   25138112.0204
        34.2504         20.0004
 -26733812.12847 -17673179.22546  21630268.7664   21630260.7504
        47.5004         36.0004
 -39676786.52547 -21521998.67744  22873314.5314   22873307.9804
        45.7504         28.2504
    414332.54916                  26139211.898
        36.000
 -14676046.19647  -7182717.82144  23124272.6954   23124264.6214
        43.0004         24.0004
    716186.04946    604274.18844  24982793.7734   24982786.9884
        40.7504         25.2504
 -12015894.40247  -9101885.28644  23247593.4614   23247581.8714
        44.2504         28.0004
 -23330546.28048 -20760335.69347  20791716.3754   20791705.7234
        50.5004         42.0004
  -7408790.83447  -5007458.99244  23662799.3284   23662795.5944
        43.0004         25.5004
  -8044145.79145  -2871833.75042  24592774.3754   24592767.1214
        35.0004         16.7504
 -17266513.23647 -11867819.21945  22128502.6644   22128491.5434
        46.7504         33.5004
 -21337332.95248 -16552273.50746  21054629.2034   21054619.8984
        51.2504         41.0004
 15  8 28  0 20  0.0000000  0 12G05G24G13G21G20G06G12G15G25G18G02G29
  -4299780.71446  -3101264.63843  25143870.8054   25143861.8524
        37.5004         19.5004
 -26789066.57448 -17716234.77846  21619754.0314   21619746.7774
        48.0004         36.5004
 -39582030.42147 -21448163.01343  22891346.6174   22891339.4804
        42.5004         23.2504
    338516.07347    373481.43154  26124784.1564   26124774.5594
        43.0004         29.0004
 -14657717.82147  -7155075.05553  23127761.3364   23127752.9694
        42.0004         20.2504
    766170.00147    643222.70844  24992305.8914   24992297.4064
        42.2504         25.5004
 -11986621.58047  -9079075.41744  23253164.2034   23253152.2034
        44.5004         29.2504
 -23270788.97648 -20713771.95546  20803088.4064   20803078.2814
        49.0004         38.2504
  -7397769.17247  -4998870.62244  23664897.6884   23664893.4264
        43.2504         25.7504
  -8036288.75846  -2865711.33543  24594269.9304   24594262.0314
        36.5004         19.2504
 -17257053.73647 -11860448.10845  22130303.0784   22130291.8404
        47.2504         33.2504
 -21386429.17248 -16590530.29946  21045286.3984   21045276.6844
        50.7504         40.5004
 15  8 28  0 20 30.0000000  0 12G05G24G13G21G20G06G12G15G25G18G02G29
  -4269797.30746  -3077901.07243  25149575.4774   25149567.1684
        36.0004         18.5004
 -26844152.64648 -17759158.83846  21609271.8284   21609264.3404
        48.0004         36.5004
 -39487074.11547 -21374171.33745  22909415.8444   22909409.1174
        45.0004         30.0004
    262430.34046    314193.90844  26110304.5864   26110296.2774
        39.7504         24.7504
 -14639553.68547  -7140921.98143  23131218.9844   23131211.4384
        42.2504         22.0004
    816491.01447    682433.77543  25001881.7894   25001874.1254
        42.0004         23.0004
 -11957521.35547  -9056399.76845  23258702.1024   23258689.6334
        45.0004         30.7504
 -23210626.80747 -20666891.81146  20814536.7814   20814525.8364
        47.2504         37.5004
  -7386804.17847  -4990326.42644  23666983.9534   23666979.8094
        43.0004         26.5004
  -8028444.49046  -2859598.87442  24595762.4384   24595755.6524
        37.5004         17.7504
 -17247165.80947 -11852743.15345  22132184.1804   22132172.7074
        46.0004         32.7504
 -21435031.66848 -16628402.23946  21036037.6174   21036028.1954
        49.7504         38.5004
 15  8 28  0 21  0.0000000  0 12G05G24G13G21G20G06G12G15G25G18G02G29
  -4240046.12246  -3054718.61843  25155239.2584   25155229.1334
        37.5004         19.0004
 -26899067.15847 -17801949.48746  21598821.9534   21598814.2304
        47.2504         38.0004
 -39391920.29647 -21293701.00854  22927523.8984   22927516.8794
        44.5004         25.7504
    186077.82446    254698.45443  26095774.7814   26095766.5904
        36.0004         22.5004
                                  23134643.9144   23134637.7734
        42.2504         22.0004
    867150.19047    721908.41244  25011521.9694   25011514.9494
        42.2504         25.0004
 -11928595.39247  -9033860.41645  23264206.4304   23264194.2544
        44.5004         30.7504
 -23150063.43748 -20619699.65247  20826061.3524   20826050.4654
        50.2504         43.5004
  -7375896.45147  -4981826.81344  23669059.4924   23669054.7034
        42.0004         25.7504
  -8020613.87446  -2853496.98443  24597252.3524   24597245.2734
        36.0004         19.2504
 -17236846.61647 -11844702.04745  22134147.2814   22134136.7464
        46.0004         32.2504
 -21483138.40548 -16665887.87346  21026883.2344   21026873.4614
        50.0004         40.5004
 15  8 28  0 21 30.0000000  0 12G05G24G13G21G20G06G12G15G25G18G02G29
  -4210527.18146  -3031717.06343  25160855.9844   25160846.6804
        37.5004         19.7504
 -26953808.31948 -17844604.96046  21588405.2274   21588397.2704
        48.0004         36.2504
 -39296571.62147 -21219403.48745  22945667.0394   22945661.1334
        46.5004         34.0004
    109457.70345    194994.58842  26081192.2734   26081186.3094
        32.0004         17.2504
 -87073039.54047 -63553550.24843  23138038.7734   23138031.4614
        44.2504         22.7504
    918145.50446    761644.99543  25021225.6094   25021218.0044
        41.0004         22.2504
 -11899844.70147  -9011457.44145  23269678.3204   23269666.3204
        44.5004         31.5004
 -23089101.00448 -20572195.96847  20837661.6884   20837650.3914
        49.2504         42.0004
  -7365049.17646  -4973374.33144  23671123.9844   23671119.3134
        41.2504         27.5004
  -8012800.35246  -2847408.46842  24598739.4224   24598731.4654
        38.0004         16.7504
 -17226096.94447 -11836325.48945  22136192.4534   22136181.8594
        47.0004         32.0004
 -21530750.34748 -16702988.53846  21017823.8054   21017813.7974
        49.5004         36.2504
 15  8 28  0 22  0.0000000  0 12G05G24G13G21G20G06G12G15G25G18G02G29
  -4181239.45446  -3008895.68643  25166429.9924   25166420.5124
        38.5004         21.0004
 -27008372.79848 -17887122.80846  21578022.1414   21578014.0084
        48.2504         37.5004
 -39201030.84347 -21140597.10754  22963850.0004   22963841.7504
        42.0004         27.0004
     32572.30245    135083.88842  26066563.9694   26066556.0124
        34.2504         17.7504
 -87055370.711 7                  23141401.383
        44.500
    969477.80446    801644.14443  25030994.0314   25030986.1334
        41.7504         21.2504
 -11871269.48747  -8989191.19145  23275115.6954   23275103.9304
        45.0004         30.2504
 -23027744.13348 -20524385.75046  20849338.0314   20849326.6174
        49.0004         41.7504
  -7354263.17546  -4964969.59744  23673175.3914   23673171.6564
        40.2504         25.2504
  -8005004.92546  -2841334.06042  24600223.2664   24600215.2504
        37.2504         17.2504
 -17214914.33747 -11827611.69045  22138321.0234   22138310.1954
        45.5004         32.0004
 -21577863.99948 -16739700.57146  21008858.1334   21008847.9494
        49.2504         38.5004
 15  8 28  0 22 30.0000000  0 12G05G24G13G21G20G06G12G15G25G18G02G29
  -4152181.51246  -2986253.33843  25171958.0784   25171950.0044
        37.2504         19.2504
 -27062757.56647 -17929500.38746  21567672.4924   21567664.7704
        47.2504         37.5004
 -39105301.24346 -21066002.70344  22982065.6174   22982059.0664
        41.0004         26.5004
    -44577.74446     74967.10742  26051883.9924   26051874.9224
        37.7504         17.7504
 -87037867.01647 -63495844.06454  23144730.9304   23144723.2074
        44.0004         25.7504
   1021146.66246    841905.58143  25040826.2274   25040819.0904
        40.7504         22.7504
 -11842870.65747  -8967062.07244  23280519.7274   23280507.8444
        43.0004         29.5004
 -22965993.04348 -20476267.98246  20861088.7894   20861077.9614
        48.0004         40.2504
  -7343540.43047  -4956614.13644  23675216.0554   23675211.9694
        42.0004         25.2504
  -7997229.68346  -2835275.41342  24601703.0164   24601695.0594
        38.2504         16.7504
 -17203297.28647 -11818559.31445  22140531.6804   22140520.3834
        47.0004         32.5004
 -21624478.90148 -16776024.04746  20999987.3134   20999978.0664
        50.5004         40.7504
 15  8 28  0 23  0.0000000  0 12G05G24G13G14G20G06G12G15G25G18G02G29
  -4123354.06146  -2963790.55043  25177442.5394   25177435.8714
        36.0004         19.7504
 -27116960.04447 -17971736.03846  21557358.8284   21557350.5204
        47.2504         38.0004
 -39009384.81247 -20991262.62245  23000317.4534   23000310.6094
        45.5004         30.0004
   -294158.79955   -141756.95053  25118105.6094   25118099.6454
        34.5004         19.7504
 -87020532.39346 -63482335.87644  23148028.8834   23148021.1024
        38.2504         24.2504
   1073151.39846    882428.69143  25050722.9064   25050714.8914
        40.5004         19.7504
 -11814650.47847  -8945072.31344  23285889.6644   23285878.3674
        43.2504         26.5004
 -22903852.35348 -20427847.06546  20872914.2034   20872902.9654
        50.2504         41.5004
  -7332882.87146  -4948309.50944  23677244.1414   23677239.9964
        40.5004         25.2504
  -7989476.71046  -2829234.04542  24603177.7114   24603169.9304
        38.2504         16.7504
 -17191245.02147 -11809167.82445  22142825.1884   22142813.8914
        45.2504         32.2504
 -21670593.45148 -16811957.56147  20991212.2034   20991202.6054
        51.5004         44.5004
 15  8 28  0 23 30.0000000  0 12G05G24G13G14G20G06G12G15G25G18G02G29
  -4094764.81546  -2941513.34843  25182882.9144   25182876.4804
        36.0004         20.2504
 -27170986.39547 -18013834.36046  21547077.6644   21547069.1214
        46.5004         37.2504
 -38913293.88146 -20916386.86843  23018603.0474   23018596.9654
        41.5004         22.7504
   -389961.28445   -216407.95442  25099874.5864   25099872.7274
        35.5004         16.7504
 -87003375.35147 -63452632.78754  23151294.2664   23151284.7854
        42.5004         25.0004
   1125483.52046    923207.07543  25060680.8594   25060672.9024
        41.7504         20.0004
 -11786617.38247  -8923228.18844  23291223.5004   23291212.2034
        43.7504         29.5004
 -22841330.50848 -20379128.29547  20884811.0394   20884799.9774
        51.0004         43.5004
  -7322300.44846  -4940063.38644  23679257.4614   23679253.6684
        41.5004         24.7504
  -7981756.28046  -2823218.06143  24604647.1024   24604638.7344
        38.2504         18.5004
 -17178764.61047 -11799442.73245  22145199.6174   22145189.0234
        45.0004         30.7504
 -21716216.51048 -16847508.44246  20982531.0164   20982521.7704
        49.7504         39.7504
 15  8 28  0 24  0.0000000  0 12G05G24G13G14G20G06G12G15G25G18G02G29
  -4066393.16846  -2919405.91043  25188282.4224   25188275.0514
        36.0004         20.5004
 -27224813.16147 -18055777.15146  21536834.5784   21536825.9774
        47.2504         37.0004
 -38817010.22647 -20837098.72754  23036925.9064   23036919.4144
        45.5004         25.5004
   -485562.09246   -290901.73742  25081682.8364   25081679.7464
        36.0004         14.7504
 -86986377.57647 -63439388.53744  23154528.6334   23154521.5554
        42.7504         28.5004
   1178162.34946    964255.59943  25070705.3754   25070697.6524
        41.5004         21.7504
 -11758753.16747  -8901515.81244  23296526.5704   23296514.7464
        44.5004         27.2504
 -22778412.97648 -20330101.62846  20896783.9144   20896772.6174
        48.0004         38.5004
  -7311775.19847  -4931861.84644  23681261.0784   23681256.6414
        42.5004         26.0004
  -7974050.28046  -2817213.32743  24606112.8444   24606105.1804
        37.5004         19.0004
 -17165834.77347 -11789367.44345  22147660.2894   22147648.8164
        45.5004         30.7504
 -21761325.57348 -16882658.65046  20973947.2734   20973937.5004
        49.5004         38.2504
 15  8 28  0 24 30.0000000  0 12G05G24G13G14G20G06G12G15G25G18G02G29
  -4038250.55846  -2897476.74743  25193638.4454   25193631.6604
        38.5004         21.2504
 -27278451.46147 -18097573.25646  21526627.3134   21526619.5314
        47.0004         38.5004
 -38720549.97146 -20761934.90143  23055281.5474   23055274.9964
        41.5004         21.7504
   -580971.48046   -365246.38542  25063527.8204   25063524.9064
        36.0004         17.2504
 -86969547.12847 -63426272.96744  23157731.0164   23157724.5234
        44.0004         26.7504
   1231174.75046   1005563.99143  25080793.7664   25080785.8674
        40.0004         18.2504
 -11731071.43147  -8879945.55444  23301793.7894   23301782.3754
        45.5004         29.7504
 -22715114.05148 -20280777.86347  20908829.1954   20908818.3674
        50.5004         43.0004
  -7301321.51547  -4923716.04444  23683249.6884   23683245.4264
        42.2504         25.0004
  -7966373.14446  -2811231.09043  24607573.6484   24607565.7504
        38.2504         19.0004
 -17152467.29847 -11778951.13745  22150203.1254   22150192.2384
        45.0004         30.7504
 -21805932.03148 -16917416.91546  20965459.0554   20965449.1644
        51.2504         40.0004
 15  8 28  0 25  0.0000000  0 12G05G24G13G14G20G06G12G15G25G18G02G29
  -4010334.40046  -2875724.02543  25198951.9844   25198943.7344
        40.2504         22.0004
 -27331895.62147 -18139217.91546  21516457.5784   21516449.6214
        47.7504         38.0004
 -38623913.64747 -20686633.93343  23073671.4304   23073664.2934
        42.0004         22.0004
   -676185.06445   -439438.39942  25045406.6484   25045407.5434
        32.5004         14.7504
 -86952887.12047 -63413291.11743  23160900.8524   23160893.7154
        44.5004         20.2504
   1284522.48647   1047133.80243  25090945.2034   25090936.4844
        42.0004         19.0004
 -11703571.46847  -8858517.16344  23307026.9534   23307015.5394
        45.5004         28.0004
 -22651433.94148 -20231156.71446  20920947.2814   20920936.5124
        49.0004         41.7504
