     2.11           OBSERVATION DATA    G (GPS)             RINEX VERSION / TYPE
teqc  2008Oct2      WCDA Operator       20090110 00:18:51UTCPGM / RUN BY / DATE
Solaris x86 5.10|AMD64|cc SC5.8 -xarch=amd64|=+|=+          COMMENT
teqc  2008Oct2      WCDA Operator       20090109 01:18:39UTCCOMMENT
flin  WCDA-ACP   965000   CFS Flin Flon SASK Canada         MARKER NAME
40135M001                                                   MARKER NUMBER
PGC-WCDA            GEOL. SURV. CANADA                      OBSERVER / AGENCY
1115                AOA BENCHMARK ACT   3.3.32.4            REC # / TYPE / VERS
231                 AOAD/M_T        SCIS                    ANT # / TYPE
  -766174.4630 -3611375.3160  5184056.2210                  APPROX POSITION XYZ
        0.1500        0.0000        0.0000                  ANTENNA: DELTA H/E/N
     1     1                                                WAVELENGTH FACT L1/2
     7    C1    P1    P2    L1    L2    S1    S2            # / TYPES OF OBSERV
STATION INFORMATION EFFECTIVE FROM: 2001/01/13 18:20:00     COMMENT
                                TO: CURRENT DATE (above)    COMMENT
BIT 2 OF LLI FLAGS (+4) DATA COLLECTED UNDER 'AS' CONDITION COMMENT
L1 PHASE CENTRE 0.110m ABOVE ARP                            COMMENT
L2 PHASE CENTRE 0.128m ABOVE ARP                            COMMENT
where ARP is the Antenna Reference Point for HI measurement COMMENT
CONTACT gps@pgc.nrcan.gc.ca FOR ADDITIONAL INFORMATION      COMMENT
    P1 =    P1  TurboRogue; =    Y1  Benchmark              COMMENT
    L1 = L1(CA)                                             COMMENT
    P2 =    P2  TurboRogue; =    Y2  Benchmark              COMMENT
    L2 = L2(P2) TurboRogue; = L2(Y2) Benchmark              COMMENT
 SNR is mapped to RINEX snr flag value [0-9]                COMMENT
  L1 & L2: min(max(int(snr_dBHz/6), 0), 9)                  COMMENT
  2009     1     9     0     0    0.0000000     GPS         TIME OF FIRST OBS
                                                            END OF HEADER
 09  1  9  0  0  0.0000000  0 11G21G 6G26G 9G15G14G 3G24G18G22G19
  20986874.574    20986873.692    20986871.994   -24020519.252 6 -18717280.445 6
        40.200          37.900
  22397173.864    22397173.269    22397173.615   -12098731.001 5  -9427579.618 5
        32.000          32.700
  23665671.057    23665670.783    23665669.869    -3553424.318 2  -2768893.334 3
        17.000          21.600
  23080209.150    23080208.846    23080208.737    -9356912.399 3  -7291096.386 4
        23.800          25.900
  22383212.419    22383211.944    22383210.523   -12949486.205 5 -10090498.092 6
        34.000          36.200
  24858514.582    24858514.463    24858513.558    -1962473.909 1  -1529199.349 2
         6.500          16.100
  22440452.965    22440452.150    22440452.236   -11094377.814 5  -8644966.282 5
        31.000          30.600
  24637873.303    24637872.178    24637874.295     -584005.470 1   -455067.195 2
         6.500          13.900
  20413267.055    20413266.251    20413265.073   -25903286.460 6 -20184369.674 7
        38.400          46.800
  21276704.455    21276703.978    21276701.140   -20447036.938 6 -15932747.252 6
        40.500          41.000
  23530225.727    23530224.513    23530223.298    -7914012.238 3  -6166760.813 4
        23.400          27.100
 09  1  9  0  0 30.0000000  0 11G21G 6G26G 9G15G14G 3G24G18G22G19
  20998408.426    20998407.553    20998405.778   -23959909.310 6 -18670051.926 6
        40.400          37.800
  22402770.162    22402769.392    22402769.393   -12069324.379 5  -9404665.368 5
        32.300          32.600
  23687771.878    23687771.199    23687770.504    -3437286.601 2  -2678396.427 3
        17.000          21.100
  23061695.735    23061694.983    23061695.353    -9454201.023 3  -7366905.660 4
        23.400          26.500
  22398148.778    22398148.731    22398147.277   -12870992.910 5 -10029334.483 5
        33.900          35.900
  24836657.478    24836656.003    24836655.374    -2077337.578 1  -1618703.436 2
         6.500          15.100
  22444555.977    22444555.175    22444555.081   -11072817.404 5  -8628165.960 5
        30.800          30.400
  24658146.357    24658145.180    24658146.568     -477469.502     -372052.127 2
         3.000          12.600
  20412510.613    20412509.781    20412507.263   -25907261.777 6 -20187467.321 7
        38.400          46.800
  21265056.367    21265055.837    21265053.087   -20508247.735 6 -15980443.960 6
        40.500          41.100
  23518957.978    23518956.659    23518954.672    -7973227.266 4  -6212902.367 4
        24.600          26.500
 09  1  9  0  1  0.0000000  0 11G21G 6G26G 9G15G14G 3G24G18G22G19
  21010030.393    21010029.538    21010027.690   -23898835.399 6 -18622461.870 6
        40.400          37.700
  22408470.690    22408469.930    22408470.040   -12039368.803 5  -9381323.359 5
        32.300          32.700
  23709916.554    23709916.150    23709915.431    -3320915.701 2  -2587717.812 3
        16.100          20.500
  23043253.996    23043253.231    23043253.224    -9551113.856 3  -7442422.099 4
        23.400          26.200
  22413157.253    22413156.911    22413155.621   -12792124.143 5  -9967878.294 5
        33.800          35.500
  24814816.023    24814814.725    24814813.888    -2192118.849 1  -1708143.299 2
         9.000          17.800
  22448773.132    22448772.372    22448772.142   -11050655.972 5  -8610897.318 5
        31.000          30.200
  24678437.816    24678436.357    24678439.237     -370836.959     -288961.820 2
                        12.600
  20411830.168    20411829.346    20411828.152   -25910837.323 6 -20190253.453 7
        38.400          46.800
  21253468.510    21253468.017    21253465.174   -20569142.139 6 -16027894.132 6
        40.500          41.100
  23507783.983    23507782.146    23507780.447    -8031946.975 4  -6258657.974 4
        24.600          26.200
 09  1  9  0  1 30.0000000  0 11G 6G26G 9G15G21G14G 3G24G18G22G19
  22414274.197    22414273.667    22414273.667   -12008869.614 5  -9357557.753 5
        32.300          32.400
  23732103.604    23732103.344    23732103.248    -3204318.713 2  -2496863.033 3
        15.100          19.900
  23024883.310    23024882.743    23024882.728    -9647651.032 3  -7517645.827 4
        23.800          25.300
  22428235.606    22428235.300    22428233.970   -12712886.273 5  -9906134.491 5
        33.400          35.100
  21021739.657    21021738.821    21021737.024   -23837302.562 6 -18574514.204 6
        40.200          37.700
  24792989.349    24792988.120    24792987.056    -2306819.990 1  -1797520.708 2
         6.500          17.800
  22453103.814    22453102.951    22453102.961   -11027898.214 5  -8593163.997 5
        31.100          30.600
  24698746.326    24698744.990    24698748.156     -264113.541     -205800.741 2
                        13.900
  20411225.054    20411224.227    20411221.821   -25914017.271 6 -20192731.332 7
        38.400          46.900
  21241940.404    21241939.848    21241937.028   -20629723.266 6 -16075100.192 6
        40.500          41.300
  23496703.988    23496702.128    23496700.626    -8090173.523 4  -6304029.304 4
        25.300          27.100
 09  1  9  0  2  0.0000000  0 11G 6G26G 9G15G21G14G 3G24G18G22G19
  22420180.620    22420179.878    22420179.704   -11977832.161 5  -9333372.717 5
        32.100          32.100
  23754332.254    23754331.999    23754332.485    -3087502.958 2  -2405837.789 3
        15.100          19.900
  23006584.039    23006583.419    23006583.625    -9743813.540 3  -7592577.618 4
        23.000          24.900
  22443382.869    22443382.737    22443381.344   -12633285.715 5  -9844108.080 5
        33.500          35.100
  21033535.339    21033534.471    21033532.698   -23775315.978 6 -18526212.978 6
        40.200          37.300
  24771174.602    24771174.418    24771174.587    -2421443.075 1  -1886837.331 2
        11.000          16.100
  22457546.905    22457546.098    22457546.197   -11004549.378 5  -8574970.094 5
        30.800          31.100
  24719071.959    24719071.272    24719074.226     -157304.776     -122573.154 2
                        13.900
  20410694.385    20410693.567    20410692.403   -25916805.795 6 -20194904.201 7
        38.400          46.800
  21230471.128    21230470.647    21230467.804   -20689994.520 6 -16122064.793 6
        40.600          41.400
  23485717.470    23485716.046    23485714.360    -8147908.929 4  -6349017.901 4
        25.300          27.400
 09  1  9  0  2 30.0000000  0 11G21G 6G26G 9G15G14G 3G24G18G22G19
  21045417.461    21045416.541    21045414.608   -23712875.317 6 -18477557.912 6
        40.100          37.100
  22426189.258    22426188.592    22426188.571   -11946256.453 5  -9308768.267 5
        32.100          32.400
  23776602.504    23776602.831    23776603.060    -2970469.986 2  -2314643.255 3
        15.100          19.900
  22988357.764    22988356.993    22988356.580    -9839596.019 3  -7667213.280 4
        23.400          25.300
  22458599.126    22458599.095    22458597.839   -12553323.283 5  -9781799.680 5
        33.600          35.300
  24749377.590    24749377.475    24749378.129    -2535984.593 1  -1976090.412 2
        11.000          17.000
  22462102.631    22462101.701    22462101.876   -10980609.078 5  -8556315.313 5
        31.000          31.100
  24739414.572    24739414.350    24739415.482      -50410.794      -39279.148 2
         3.000          13.900
  20410238.462    20410237.677    20410235.218   -25919201.320 6 -20196770.841 7
        38.400          46.700
  21219061.347    21219060.812    21219057.954   -20749953.530 6 -16168786.085 6
        40.600          41.400
  23474825.153    23474823.489    23474821.237    -8205149.933 4  -6393621.276 4
        26.500          26.200
 09  1  9  0  3  0.0000000  0 11G21G 6G26G 9G15G14G 3G24G18G22G19
  21057384.611    21057383.741    21057382.085   -23649986.852 6 -18428553.912 6
        39.900          37.200
  22432298.980    22432298.450    22432298.171   -11914148.785 5  -9283749.307 5
        31.800          32.100
  23798914.368    23798914.229    23798913.492    -2853227.983 2  -2223285.840 3
        16.100          19.900
  22970202.697    22970201.976    22970201.783    -9935000.259 4  -7741554.204 4
        24.200          25.300
  22473882.939    22473882.837    22473881.655   -12473006.750 5  -9719215.360 5
        33.400          35.300
  24727597.210    24727597.253    24727596.835    -2650447.920 1  -2065282.545 2
        11.000          17.000
  22466769.837    22466768.860    22466768.700   -10956083.745 5  -8537204.652 5
        31.100          30.600
  24759772.405    24759771.297    24759770.731       56561.972       44076.245 2
         3.000          12.600
  20409856.452    20409855.642    20409854.534   -25921209.236 6 -20198335.442 7
        38.500          46.900
  21207709.948    21207709.517    21207706.563   -20809604.759 6 -16215267.547 6
        40.600          41.400
  23464025.931    23464024.214    23464022.085    -8261899.993 4  -6437842.106 4
        27.100          26.200
 09  1  9  0  3 30.0000000  0 11G21G 6G26G 9G15G14G 3G24G18G22G19
  21069438.602    21069437.758    21069436.136   -23586642.287 6 -18379194.518 6
        39.800          37.200
  22438511.604    22438510.980    22438510.927   -11881501.221 5  -9258309.635 5
        31.500          32.000
  23821267.114    23821266.273    23821264.047    -2735770.506 2  -2131760.487 3
        15.100          19.300
  22952122.248    22952121.570    22952121.142   -10030013.426 4  -7815590.398 4
        24.200          25.300
  22489235.330    22489235.241    22489233.892   -12392329.242 5  -9656349.779 5
        33.000          35.200
  24705833.323    24705832.301    24705832.494    -2764821.657 1  -2154404.852 2
        11.000          16.100
  22471549.895    22471548.925    22471548.646   -10930965.209 5  -8517631.760 5
        31.300          30.400
  24780142.673    24780141.578    24780142.272      163621.338 1    127499.162 1
         6.500          11.000
  20409549.887    20409549.033    20409546.641   -25922819.933 6 -20199590.528 7
        38.500          46.900
  21196419.536    21196418.927    21196415.947   -20868937.922 6 -16261501.169 6
        40.700          41.600
  23453321.949    23453320.509    23453318.420    -8318147.791 4  -6481671.547 4
        27.400          26.500
 09  1  9  0  4  0.0000000  0 11G 6G26G 9G15G21G14G 3G24G18G22G19
  22444826.285    22444825.850    22444825.771   -11848316.496 5  -9232451.402 5
        31.500          32.100
  23843658.043    23843657.457    23843655.558    -2618102.105 2  -2040070.808 3
        13.900          19.300
  22934116.167    22934115.736    22934115.605   -10124633.191 3  -7889320.036 4
        23.400          25.300
  22504655.663    22504655.554    22504654.025   -12311294.495 5  -9593205.821 5
        32.700          34.700
  21081578.945    21081578.200    21081576.729   -23522844.222 6 -18329481.741 6
        39.800          37.300
  24684084.861    24684083.935    24684084.182    -2879104.903 1  -2243456.685 2
         9.000          13.900
  22476441.960    22476441.117    22476440.803   -10905256.170 5  -8497598.733 5
        30.800          30.200
  24800530.736    24800530.127    24800530.821      270764.461 1    210987.324 1
         6.500          11.000
  20409318.828    20409317.893    20409316.840   -25924034.889 6 -20200537.236 7
        38.600          47.100
  21185189.158    21185188.654    21185185.655   -20927953.274 6 -16307487.141 6
        40.700          41.800
  23442713.908    23442712.148    23442710.353    -8373892.687 4  -6525109.120 4
        27.400          26.200
 09  1  9  0  4 30.0000000  0 11G21G 6G26G 9G15G14G 3G24G18G22G19
  21093805.732    21093804.934    21093803.337   -23458592.211 6 -18279415.243 6
        39.700          37.100
  22451243.552    22451242.911    22451242.981   -11814594.301 5  -9206174.368 5
        31.100          32.300
  23866088.496    23866087.970    23866087.127    -2500224.235 1  -1948217.928 3
        11.000          19.300
  22916186.637    22916186.208    22916185.569   -10218854.734 3  -7962739.358 4
        23.800          25.600
  22520143.837    22520143.728    22520142.369   -12229903.344 5  -9529784.142 5
        32.600          34.600
  24662355.131    24662354.476    24662353.844    -2993294.472 1  -2332435.523 2
         6.500          12.600
  22481446.185    22481445.385    22481445.530   -10878956.414 5  -8477105.420 5
        30.100          30.100
  24820935.165    24820934.850    24820936.941      377991.453 1    294540.837 1
         9.000          11.000
  20409163.008    20409162.264    20409159.844   -25924852.662 6 -20201174.458 7
        38.600          47.000
  21174019.697    21174019.192    21174016.171   -20986649.071 6 -16353224.114 6
        40.900          41.800
  23432202.811    23432201.091    23432199.176    -8429131.228 4  -6568152.133 4
        27.600          26.500
 09  1  9  0  5  0.0000000  0 11G21G 6G26G 9G15G14G 3G24G18G22G19
  21106118.628    21106117.798    21106116.177   -23393887.646 6 -18228996.113 6
        39.500          36.900
  22457762.698    22457761.969    22457762.013   -11780336.304 5  -9179479.822 5
        31.300          32.400
  23888558.690    23888558.751    23888557.752    -2382140.053 1  -1856204.287 3
        11.000          19.300
  22898333.860    22898332.975    22898332.505   -10312674.311 4  -8035845.481 4
        24.600          25.900
  22535699.668    22535699.470    22535698.032   -12148158.298 5  -9466086.703 5
        32.700          34.600
  24640643.364    24640643.542    24640641.971    -3107388.353 1  -2421339.781 1
         6.500          11.000
  22486563.060    22486562.230    22486562.384   -10852067.317 5  -8456152.873 5
        30.100          30.200
  24841355.111    24841354.322    24841357.409      485300.354      378158.167 2
         3.000          12.600
  20409083.029    20409082.217    20409081.149   -25925273.111 6 -20201502.073 7
        38.600          47.000
  21162911.135    21162910.675    21162907.761   -21045024.291 6 -16398711.288 7
        40.900          42.000
  23421787.549    23421785.545    23421784.257    -8483861.721 4  -6610799.271 4
        25.900          26.500
 09  1  9  0  5 30.0000000  0 11G 6G26G 9G15G21G14G 3G24G18G22G19
  22464382.275    22464381.576    22464381.504   -11745550.350 5  -9152373.885 5
        31.100          32.000
  23911066.243    23911065.591    23911066.590    -2263858.955 1  -1764037.196 3
         9.000          19.300
  22880555.886    22880555.227    22880555.536   -10406094.945 4  -8108640.722 4
        24.900          27.100
  22551320.570    22551320.657    22551319.328   -12066068.346 5  -9402120.505 5
        32.700          34.600
  21118516.199    21118515.325    21118513.738   -23328737.974 6 -18178230.147 6
        39.500          36.800
  24618949.740    24618949.502    24618947.287    -3221390.998 1  -2510172.968 1
         9.000           9.000
  22491790.680    22491789.768    22491789.814   -10824596.939 5  -8434747.391 5
        30.100          30.200
  24861790.187    24861789.549    24861788.888      592683.517      461833.366 1
                        11.000
  20409077.417    20409076.575    20409074.208   -25925303.158 6 -20201525.482 7
        38.600          47.300
  21151862.457    21151861.992    21151859.338   -21103084.431 6 -16443952.939 7
        40.600          42.100
  23411468.256    23411466.632    23411465.004    -8538088.968 4  -6653054.261 4
        26.200          26.500
 09  1  9  0  6  0.0000000  0 11G 6G26G 9G15G21G14G 3G24G18G22G19
  22471102.411    22471101.685    22471101.549   -11710236.078 5  -9124856.271 5
        31.100          32.000
  23933610.924    23933611.017    23933612.148    -2145382.204 1  -1671717.646 3
         9.000          18.600
  22862855.372    22862854.901    22862854.891   -10499111.277 4  -8181120.935 4
        25.600          27.600
  22567007.343    22567007.283    22567005.926   -11983633.578 5  -9337885.621 5
        32.300          34.400
  21130998.629    21130997.749    21130996.090   -23263142.633 6 -18127116.905 6
        39.400          36.600
  24597273.473    24597272.909    24597272.283    -3335298.843 1  -2598932.292 1
         6.500           6.500
  22497128.718    22497127.777    22497127.762   -10796544.764 5  -8412888.549 4
        30.100          29.900
  24882236.802    24882236.405    24882237.982      700141.403      545566.753 1
                         9.000
  20409146.368    20409145.522    20409144.273   -25924940.898 6 -20201243.195 7
        38.700          47.100
  21140874.619    21140874.151    21140871.272   -21160826.808 6 -16488946.987 7
        40.900          42.100
  23401245.821    23401244.099    23401242.252    -8591809.317 4  -6694914.270 4
        27.100          26.800
 09  1  9  0  6 30.0000000  0 11G21G 6G26G 9G15G14G 3G24G18G22G19
  21143564.602    21143563.779    21143562.061   -23197108.247 6 -18075661.540 6
        39.400          36.500
  22477921.753    22477921.152    22477920.940   -11674400.368 5  -9096932.336 5
        31.300          32.300
  23956191.783    23956192.809    23956193.522    -2026718.088 2  -1579252.100 3
        12.600          19.300
  22845231.519    22845231.042    22845230.689   -10591725.202 4  -8253287.583 4
        25.600          27.400
  22582758.254    22582758.214    22582756.874   -11900862.332 5  -9273388.545 5
        32.300          34.400
  24575615.079    24575614.973    24575613.632    -3449115.125 1  -2687620.268 1
         6.500           6.500
  22502576.444    22502575.703    22502575.610   -10767917.342 5  -8390581.476 5
        30.600          30.100
  24902700.093    24902700.373    24902700.059      807667.216      629353.065 1
                         6.500
  20409288.896    20409288.108    20409285.707   -25924191.678 6 -20200659.385 7
        38.700          47.200
  21129946.325    21129945.747    21129942.864   -21218255.943 6 -16533696.957 7
        41.000          42.100
  23391118.802    23391117.244    23391115.786    -8645026.225 4  -6736381.983 4
        27.100          27.600
 09  1  9  0  7  0.0000000  0 11G 6G26G 9G15G21G14G 3G24G18G22G19
  22484843.461    22484842.684    22484842.578   -11638027.582 5  -9068589.911 5
        31.300          32.300
  23978812.463    23978812.693    23978813.034    -1907852.685 1  -1486629.699 3
        11.000          18.600
  22827688.211    22827687.602    22827687.578   -10683916.380 4  -8325124.823 4
        24.900          27.600
  22598576.325    22598576.098    22598574.504   -11817739.845 5  -9208617.770 5
        32.700          34.300
  21156216.992    21156216.184    21156214.680   -23130618.782 6 -18023851.578 6
        39.100          36.600
  24553977.652    24553976.546    24553975.803    -3562821.015 1  -2776222.222 1
        11.000           9.000
  22508136.838    22508135.793    22508135.656   -10738698.712 5  -8367813.705 5
        30.400          30.100
  24923179.291    24923177.632    24923178.878      915276.317      713204.327 1
         3.000           9.000
  20409508.391    20409507.549    20409506.308   -25923038.628 6 -20199760.892 7
        38.700          47.300
  21119080.795    21119080.260    21119077.333   -21275354.576 6 -16578189.387 7
        41.000          42.100
  23381091.672    23381090.082    23381088.111    -8697720.803 4  -6777442.680 4
        27.100          27.600
 09  1  9  0  7 30.0000000  0 11G21G 6G26G 9G15G14G 3G24G18G22G19
  21168953.822    21168952.900    21168951.286   -23063687.291 6 -17971697.181 6
        39.100          36.400
  22491864.426    22491863.858    22491863.468   -11601130.910 5  -9039839.254 5
        31.500          31.800
  24001468.587    24001467.805    24001467.854    -1788800.509 1  -1393861.783 2
        11.000          17.800
  22810223.777    22810223.148    22810222.679   -10775693.000 4  -8396639.030 4
        24.900          27.100
  22614458.456    22614458.047    22614456.418   -11734280.130 5  -9143584.219 5
        32.400          34.600
  24532359.847    24532359.878    24532358.394    -3676425.961 2  -2864745.511 1
        12.600          11.000
  22513806.585    22513805.617    22513805.889   -10708902.145 4  -8344595.613 5
        29.900          30.200
  24943669.802    24943668.951    24943666.896     1022955.435 1    797110.123 1
         6.500           9.000
  20409802.441    20409801.521    20409799.124   -25921493.333 6 -20198556.755 7
        38.800          47.300
  21108276.220    21108275.699    21108272.721   -21332132.997 6 -16622432.306 7
        41.100          42.200
  23371161.254    23371159.689    23371158.473    -8749903.132 4  -6818104.235 4
        27.400          28.100
 09  1  9  0  8  0.0000000  0 11G21G 6G26G 9G15G14G 3G24G18G22G19
  21181774.534    21181773.676    21181771.876   -22996314.296 6 -17919198.747 6
        39.300          36.200
  22498985.038    22498984.477    22498984.396   -11563710.838 5  -9010680.754 5
        31.100          31.600
  24024157.724    24024158.193    24024156.760    -1669563.514 1  -1300949.840 2
        11.000          16.100
  22792838.857    22792838.227    22792837.762   -10867050.505 4  -8467826.649 4
        26.200          26.500
  22630403.966    22630403.568    22630402.220   -11650484.906 5  -9078289.235 5
        32.100          34.700
  24510761.774    24510761.582    24510760.105    -3789927.062 2  -2953187.926 2
        13.900          13.900
  22519586.513    22519585.570    22519585.683   -10678528.343 5  -8320927.724 5
        30.100          30.100
  24964172.243    24964171.352    24964171.867     1130704.129      881070.155 1
         3.000           6.500
  20410171.278    20410170.444    20410169.272   -25919554.897 6 -20197046.275 7
        38.800          47.400
  21097532.849    21097532.376    21097529.543   -21388589.355 6 -16666424.263 7
        41.200          42.400
  23361329.924    23361328.460    23361326.133    -8801570.583 4  -6858364.595 4
        27.600          27.400
 09  1  9  0  8 30.0000000  0 11G21G 6G26G 9G15G14G 3G24G18G22G19
  21194678.941    21194678.080    21194676.354   -22928500.303 6 -17866356.682 6
        39.000          36.000
  22506205.294    22506204.789    22506204.574   -11525768.404 5  -8981115.214 5
        31.000          31.600
  24046883.151    24046882.737    24046881.596    -1550144.207 2  -1207895.839 2
        12.600          16.100
  22775535.164    22775534.298    22775533.533   -10957984.811 4  -8538684.524 4
        26.500          26.500
  22646413.318    22646413.037    22646411.661   -11566355.510 5  -9012733.862 5
        32.100          34.600
  24489183.228    24489182.738    24489181.674    -3903322.035 2  -3041547.612 2
        12.600          15.100
  22525476.357    22525475.496    22525475.447   -10647577.952 5  -8296810.535 5
        30.200          30.100
  24984688.833    24984687.275    24984690.196     1238521.759      965083.893 1
         3.000           9.000
  20410615.065    20410614.183    20410611.789   -25917222.948 6 -20195229.161 7
        38.800          47.400
  21086851.194    21086850.678    21086847.759   -21444722.422 6 -16710164.307 7
        41.300          42.500
  23351596.034    23351594.411    23351592.249    -8852720.699 4  -6898221.833 4
        26.800          26.800
 09  1  9  0  9  0.0000000  0 11G21G 6G26G 9G15G14G 3G24G18G22G19
  21207666.562    21207665.743    21207664.141   -22860249.666 6 -17813174.378 6
        38.900          36.000
  22513523.791    22513523.294    22513523.347   -11487308.434 5  -8951146.411 5
        30.800          31.800
  24069641.830    24069641.214    24069639.194    -1430548.796 2  -1114704.622 2
        13.900          16.100
  22758311.115    22758310.298    22758309.991   -11048495.795 4  -8609212.531 4
        25.900          27.100
  22662484.984    22662484.767    22662483.381   -11481897.676 5  -8946922.556 5
        32.100          34.400
  24467624.498    24467623.427    24467623.036    -4016611.746 2  -3129825.268 2
        13.900          17.000
  22531474.732    22531474.006    22531473.988   -10616055.783 5  -8272247.808 5
        30.400          30.200
  25005218.018    25005216.768    25005220.151     1346403.433     1049147.479 1
                        11.000
  20411133.024    20411132.165    20411131.017   -25914500.667 6 -20193107.894 7
        38.700          47.300
  21076230.348    21076229.808    21076226.911   -21500534.972 6 -16753654.594 7
        41.300          42.500
  23341959.949    23341959.027    23341957.224    -8903355.183 4  -6937677.271 4
        26.800          27.400
 09  1  9  0  9 30.0000000  0 11G21G 6G26G 9G15G14G 3G24G18G22G19
  21220737.853    21220736.935    21220735.374   -22791560.144 6 -17759650.082 6
        38.800          36.000
  22520941.481    22520940.915    22520940.967   -11448328.559 5  -8920772.483 5
        30.400          31.600
  24092433.695    24092432.714    24092431.044    -1310776.271 2  -1021375.372 2
        15.100          16.100
  22741169.249    22741168.735    22741168.352   -11138576.049 4  -8679404.897 4
        25.600          27.600
  22678619.560    22678619.368    22678617.683   -11397110.389 5  -8880854.528 5
        32.100          34.100
  24446087.377    24446086.818    24446086.423    -4129790.637 2  -3218016.560 3
        13.900          18.600
  22537582.592    22537581.819    22537581.532   -10583959.842 5  -8247237.986 4
        30.200          29.900
  25025761.073    25025759.405    25025761.732     1454351.553     1133262.874 1
         3.000          11.000
  20411725.926    20411725.084    20411722.767   -25911384.352 6 -20190679.590 7
        38.700          47.100
  21065671.384    21065670.864    21065667.890   -21556022.227 6 -16796891.405 7
        41.300          42.500
  23332424.186    23332422.831    23332421.403    -8953468.211 4  -6976726.374 4
        26.800          27.900
 09  1  9  0 10  0.0000000  0 11G21G 6G26G 9G15G14G 3G24G18G22G19
  21233892.123    21233891.257    21233889.533   -22722434.473 6 -17705785.928 5
        38.900          35.800
  22528457.510    22528456.891    22528456.840   -11408832.209 5  -8889996.107 5
        30.400          31.600
  24115258.156    24115258.307    24115256.312    -1190831.424 2   -927911.822 2
        13.900          17.000
  22724109.957    22724109.294    22724109.021   -11228223.867 4  -8749260.302 4
        25.300          28.100
  22694815.902    22694815.750    22694813.888   -11311997.561 5  -8814532.841 5
        31.800          33.800
  24424571.779    24424570.968    24424570.309    -4242858.474 2  -3306121.307 3
        13.900          18.600
  22543798.931    22543798.078    22543797.666   -10551292.826 5  -8221783.171 4
        30.100          29.500
  25046314.421    25046312.850    25046314.306     1562362.778 1   1217427.405 1
         6.500           9.000
  20412393.590    20412392.714    20412391.564   -25907876.135 6 -20187945.908 7
        38.600          47.300
  21055174.344    21055173.784    21055170.878   -21611185.160 6 -16839875.502 7
        41.400          42.700
  23322987.145    23322985.671    23322984.016    -9003059.963 4  -7015369.288 4
        26.500          27.600
 09  1  9  0 10 30.0000000  0 11G21G 6G26G 9G15G14G 3G24G18G22G19
  21247129.143    21247128.364    21247126.735   -22652871.978 6 -17651581.389 5
        38.500          35.600
  22536071.933    22536071.258    22536070.943   -11368818.830 5  -8858816.855 5
        30.600          31.300
  24138116.164    24138115.694    24138114.328    -1070714.844 2   -834314.513 2
        12.600          17.800
  22707133.632    22707132.755    22707132.876   -11317433.730 4  -8818774.443 4
        25.300          28.100
  22711073.970    22711074.018    22711072.224   -11226559.483 5  -8747957.713 5
        31.600          33.600
  24403076.587    24403076.579    24403076.261    -4355811.227 2  -3394136.403 3
        15.100          19.300
  22550123.816    22550123.048    22550122.650   -10518054.547 5  -8195883.210 4
        30.200          29.500
  25066880.584    25066880.171    25066879.274     1670437.934     1301641.800 1
         3.000           9.000
  20413136.229    20413135.399    20413133.085   -25903973.529 6 -20184904.914 7
        38.800          47.400
  21044739.491    21044738.917    21044736.055   -21666020.860 6 -16882604.606 7
        41.300          42.800
  23313650.230    23313648.593    23313646.772    -9052126.603 4  -7053603.020 4
        26.200          27.600
 09  1  9  0 11  0.0000000  0 11G21G 6G26G 9G15G14G 3G24G18G22G19
  21260450.157    21260449.371    21260447.902   -22582869.839 6 -17597034.274 5
        38.400          35.600
  22543785.002    22543784.265    22543784.160   -11328286.087 5  -8827232.904 5
        30.600          31.500
  24161006.796    24161005.985    24161004.820     -950425.531 2   -740582.643 3
        12.600          18.600
  22690242.235    22690241.645    22690241.639   -11406197.789 4  -8887941.201 4
        25.600          28.600
  22727394.505    22727394.567    22727393.002   -11140794.398 5  -8681127.774 5
        31.600          33.600
  24381605.063    24381605.057    24381605.129    -4468642.814 2  -3482057.095 3
        15.100          19.300
  22556558.271    22556557.498    22556557.087   -10484241.880 5  -8169535.667 4
        30.400          29.500
  25087458.454    25087458.217    25087459.676     1778579.389     1385907.850 1
                         6.500
  20413954.572    20413953.712    20413952.638   -25899672.866 6 -20181553.740 7
        38.700          47.300
  21034367.832    21034367.287    21034364.201   -21720524.383 6 -16925074.873 7
        41.500          42.700
  23304414.004    23304412.319    23304410.587    -9100662.725 4  -7091423.357 4
        27.100          27.900
 09  1  9  0 11 30.0000000  0 11G21G 6G26G 9G15G14G 3G24G18G22G19
  21273853.424    21273852.529    21273850.807   -22512436.772 6 -17542151.370 5
        38.600          35.500
  22551595.414    22551594.696    22551594.537   -11287242.630 5  -8795250.994 5
        30.600          31.800
  24183928.013    24183926.931    24183926.102     -829973.636 2   -646724.051 2
        12.600          17.000
  22673435.391    22673434.747    22673434.441   -11494519.927 4  -8956763.608 4
        26.200          28.800
  22743775.752    22743775.590    22743773.761   -11054712.244 5  -8614050.757 5
        31.600          33.100
  24360156.381    24360155.549    24360155.497    -4581358.065 2  -3569887.151 3
        15.100          19.300
  22563099.791    22563099.024    22563099.049   -10449864.168 4  -8142747.851 4
        29.700          29.700
  25108049.295    25108047.227    25108049.179     1886778.631     1470218.887 1
                         6.500
  20414847.469    20414846.555    20414844.328   -25894981.409 6 -20177898.058 7
        38.900          47.600
  21024057.997    21024057.533    21024054.574   -21774702.086 6 -16967291.257 7
        41.500          42.800
  23295278.198    23295276.489    23295274.661    -9148673.552 4  -7128834.393 4
        27.600          28.400
 09  1  9  0 12  0.0000000  0 11G21G 6G26G 9G15G14G 3G24G18G22G19
  21287338.529    21287337.670    21287336.102   -22441570.906 6 -17486931.218 5
        38.400          35.200
  22559502.814    22559502.271    22559502.395   -11245687.283 5  -8762870.207 5
        30.400          31.800
  24206879.395    24206878.794    24206878.280     -709358.796 1   -552738.467 2
        11.000          16.100
  22656712.880    22656712.277    22656712.389   -11582394.042 4  -9025236.908 4
        25.900          29.000
  22760217.142    22760216.807    22760215.071   -10968312.183 5  -8546726.027 5
        31.100          33.000
  24338730.482    24338729.360    24338729.215    -4693952.804 2  -3657623.272 3
        15.100          18.600
  22569749.744    22569748.854    22569749.013   -10414920.114 4  -8115518.718 4
        29.700          29.900
  25128650.439    25128646.454    25128651.427     1995036.994     1554575.957
                         3.000
  20415815.101    20415814.244    20415813.131   -25889896.139 6 -20173935.503 7
        38.900          47.500
  21013811.018    21013810.509    21013807.659   -21828550.072 6 -17009250.716 7
        41.500          42.900
  23286242.036    23286240.439    23286239.535    -9196154.473 4  -7165832.483 4
        26.500          29.200
 09  1  9  0 12 30.0000000  0 10G21G22G 6G26G 9G15G14G 3G18G19
  21300905.598    21300904.769    21300903.073   -22370276.284 6 -17431376.969 5
        38.400          35.100
  21003626.718    21003626.174    21003623.048   -21882070.293 6 -17050954.775 7
        41.700          43.000
  22567507.475    22567506.783    22567506.472   -11203624.219 5  -8730093.801 5
        30.400          31.300
  24229861.233    24229860.467    24229860.913     -588586.760 1   -458630.397 2
        11.000          16.100
  22640077.151    22640076.360    22640076.068   -11669819.166 4  -9093360.342 4
        26.500          28.800
  22776717.617    22776717.514    22776716.016   -10881599.200 5  -8479157.466 5
        30.800          33.200
  24317328.007    24317326.943    24317325.923    -4806427.027 2  -3745265.491 3
        16.100          19.300
  22576506.193    22576505.324    22576505.418   -10379413.277 4  -8087851.053 4
        29.200          29.700
  20416857.143    20416856.295    20416854.058   -25884419.768 6 -20169668.200 7
        38.900          47.500
  23277307.679    23277305.882    23277304.803    -9243106.847 4  -7202418.736 4
        27.900          29.700
 09  1  9  0 13  0.0000000  0 10G21G22G 6G26G 9G15G14G 3G18G19
  21314552.121    21314551.465    21314549.867   -22298561.548 6 -17375495.355 5
        38.100          34.900
  20993503.098    20993502.573    20993499.467   -21935269.867 6 -17092408.983 7
        41.600          43.000
  22575606.399    22575605.879    22575605.636   -11161062.626 5  -8696928.926 5
        30.200          31.300
  24252871.722    24252870.936    24252871.073     -467667.763 1   -364407.818 2
        11.000          16.100
  22623525.235    22623524.356    22623524.328   -11756799.519 4  -9161137.216 4
        27.100          29.200
  22793276.033    22793275.850    22793274.690   -10794583.278 5  -8411352.846 5
        30.600          33.200
  24295947.250    24295946.306    24295944.357    -4918786.695 2  -3832818.448 3
        16.100          18.600
  22583367.897    22583367.270    22583367.285   -10343353.266 4  -8059752.345 4
        29.000          29.700
  20417972.284    20417971.441    20417970.299   -25878559.988 6 -20165102.131 7
        38.900          47.600
  23268472.422    23268471.117    23268469.642    -9289536.264 4  -7238597.493 5
        28.400          30.100
 09  1  9  0 13 30.0000000  0 10G21G 6G26G 9G15G14G 3G18G22G19
  21328284.040    21328283.201    21328281.624   -22226401.058 6 -17319266.408 5
        38.100          34.800
  22583805.814    22583805.079    22583804.717   -11117977.145 5  -8663355.835 5
        30.800          31.500
  24275914.626    24275913.358    24275913.576     -346577.492 1   -270051.774 2
         9.000          17.000
  22607063.523    22607063.101    22607062.915   -11843304.350 4  -9228543.537 4
        27.100          29.700
  22809897.174    22809896.942    22809895.582   -10707239.658 5  -8343292.888 5
        30.800          33.100
  24274592.940    24274591.826    24274590.797    -5031002.446 2  -3920259.249 3
        16.100          19.300
  22590340.165    22590339.494    22590339.694   -10306714.567 4  -8031202.713 4
        29.000          29.700
  20419165.474    20419164.598    20419162.337   -25872289.598 6 -20160216.109 7
        38.900          47.600
  20983445.629    20983445.132    20983442.325   -21988120.463 6 -17133591.250 7
        41.300          43.100
  23259742.575    23259740.802    23259739.320    -9335413.957 4  -7274346.332 4
        27.900          29.900
 09  1  9  0 14  0.0000000  0 10G21G 6G26G 9G15G14G 3G18G22G19
  21342097.381    21342096.542    21342094.960   -22153811.799 6 -17262703.355 5
        38.000          34.700
  22592100.867    22592100.227    22592100.138   -11074384.914 5  -8629387.864 5
        30.600          31.500
  24298986.451    24298985.325    24298985.418     -225334.279 1   -175576.569 2
         9.000          17.800
  22590690.742    22590690.056    22590689.721   -11929345.515 4  -9295588.564 4
        27.100          29.200
  22826577.325    22826576.994    22826575.671   -10619586.300 5  -8274991.571 5
        30.800          33.100
  24253263.226    24253262.657    24253261.454    -5143087.557 2  -4007598.265 3
        15.100          18.600
  22597419.219    22597418.316    22597418.514   -10269514.311 4  -8002215.495 4
        28.600          29.700
  20420433.786    20420432.992    20420431.833   -25865624.356 6 -20155022.408 7
        39.100          47.600
  20973452.347    20973451.911    20973448.914   -22040636.262 6 -17174512.640 7
        41.600          43.200
  23251114.813    23251113.216    23251111.066    -9380754.121 4  -7309676.304 4
        28.400          29.500
 09  1  9  0 14 30.0000000  0 10G21G 6G26G 9G15G14G 3G18G22G19
  21355991.510    21355990.675    21355988.917   -22080797.761 6 -17205809.305 5
        37.900          34.400
  22600491.927    22600491.292    22600491.058   -11030290.262 5  -8595028.397 5
        30.600          31.500
  24322085.563    24322085.166    24322085.076     -103943.476 1    -80986.352 3
         6.500          19.300
  22574406.151    22574405.476    22574404.833   -12014922.479 4  -9362271.874 4
        27.400          28.800
  22843315.065    22843314.991    22843313.377   -10531628.211 5  -8206452.805 5
        30.800          32.600
  24231958.029    24231957.865    24231957.294    -5255042.988 2  -4094836.239 2
        15.100          17.800
  22604604.283    22604603.406    22604603.556   -10231756.945 4  -7972794.184 5
        28.800          30.100
  20421776.765    20421775.981    20421773.787   -25858566.985 6 -20149523.148 7
        39.100          47.800
  20963522.267    20963521.764    20963518.779   -22092819.626 6 -17215174.990 7
        41.500          43.200
  23242588.912    23242587.299    23242585.169    -9425557.705 4  -7344588.166 4
        29.200          29.700
 09  1  9  0 15  0.0000000  0 10G21G 6G26G 9G15G14G 3G18G22G19
  21369965.560    21369964.661    21369962.740   -22007364.551 6 -17148588.626 5
        37.900          34.100
  22608976.932    22608976.303    22608976.413   -10985699.411 4  -8560282.283 5
        29.900          31.300
  24345211.775    24345211.820    24345211.168       17587.638 1     13713.183 3
         6.500          19.900
  22558209.506    22558208.839    22558208.043   -12100036.199 4  -9428594.234 4
        27.900          28.600
  22860109.713    22860109.514    22860107.903   -10443371.937 5  -8137681.677 5
        30.200          32.100
  24210678.306    24210677.850    24210676.921    -5366871.318 2  -4181975.184 2
        15.100          17.800
  22611894.587    22611893.525    22611893.618   -10193448.495 4  -7942943.436 5
        28.800          30.200
  20423193.645    20423192.726    20423191.597   -25851121.954 6 -20143721.818 8
        39.100          48.000
  20953654.583    20953654.109    20953651.165   -22144674.187 6 -17255581.126 7
        41.500          43.300
  23234164.714    23234162.962    23234161.215    -9469827.121 4  -7379083.797 5
        28.600          30.400
 09  1  9  0 15 30.0000000  0 10G21G 6G26G 9G15G14G 3G18G22G19
  21384020.888    21384020.120    21384018.304   -21933501.769 6 -17091033.214 5
        37.800          34.000
  22617558.563    22617557.945    22617557.870   -10940602.436 4  -8525141.779 5
        29.900          31.100
  24368367.282    24368366.750    24368366.579      139267.958 1    108528.954 3
         9.000          19.900
  22542103.574    22542102.964    22542102.722   -12184671.525 4  -9494543.813 4
        27.400          29.000
  22876962.743    22876962.507    22876960.975   -10354807.968 4  -8068670.787 5
        29.500          31.800
  24189425.450    24189424.355    24189423.468    -5478558.516 2  -4269004.156 2
        15.100          17.800
  22619291.070    22619290.315    22619289.799   -10154579.082 4  -7912655.583 4
        29.200          29.700
  20424686.243    20424685.396    20424683.211   -25843277.437 6 -20137609.205 7
        39.100          47.700
  20943851.904    20943851.433    20943848.420   -22196187.761 6 -17295721.561 7
        41.600          43.400
  23225844.605    23225842.823    23225841.242    -9513549.775 4  -7413153.383 5
        28.400          30.600
 09  1  9  0 16  0.0000000  0 11G21G 6G26G 9G15G14G24G 3G18G22G19
  21398155.469    21398154.594    21398152.836   -21859224.665 6 -17033154.952 5
        37.400          33.900
  22626233.932    22626233.253    22626233.183   -10895014.541 4  -8489618.756 5
        29.700          31.100
  24391548.300    24391547.850    24391546.580      261081.212 2    203448.316 3
        13.900          19.900
  22526087.287    22526086.657    22526086.277   -12268838.553 4  -9560128.476 4
        27.600          29.500
  22893871.526    22893871.258    22893869.705   -10265952.416 4  -7999432.699 5
        29.200          31.800
  24168195.709    24168195.133    24168194.700    -5590116.214 2  -4355932.207 2
        16.100          16.100
  25293827.655    25293829.603                          -1.0661

  22626791.510    22626790.646    22626790.439   -10115163.491 4  -7881942.125 4
        29.200          29.200
  20426252.333    20426251.525    20426250.520   -25835047.185 6 -20131196.014 7
        39.100          47.700
  20934111.788    20934111.290    20934108.359   -22247372.206 6 -17335605.532 7
        41.500          43.600
  23217625.786    23217623.950    23217622.677    -9556737.360 4  -7446806.035 5
        28.400          30.200
 09  1  9  0 16 30.0000000  0 10G21G 6G26G 9G15G14G 3G18G22G19
  21412368.241    21412367.495    21412365.830   -21784534.743 6 -16974955.021 5
        37.300          33.800
  22635001.886    22635001.293    22635001.154   -10848937.960 4  -8453714.937 5
        29.500          30.800
  24414753.394    24414752.969    24414751.609      383024.256 2    298468.820 3
        13.900          19.300
  22510160.552    22510159.959    22510159.245   -12352534.297 4  -9625345.907 4
        28.100          29.500
  22910835.421    22910835.082    22910833.377   -10176808.356 4  -7929969.785 5
        29.500          32.100
  24146991.408    24146990.796    24146991.031    -5701543.075 2  -4442758.316 2
        15.100          16.100
  22634395.285    22634394.491    22634394.244   -10075203.964 4  -7850804.833 4
        28.800          29.000
  20427891.907    20427891.030    20427888.927   -25826431.678 6 -20124482.630 7
        39.100          47.900
  20924434.189    20924433.714    20924430.745   -22298227.786 6 -17375233.247 7
        41.400          43.600
  23209509.313    23209507.991    23209506.372    -9599388.999 4  -7480041.060 5
        28.400          30.400
 09  1  9  0 17  0.0000000  0 10G21G 6G26G 9G15G14G 3G18G22G19
  21426657.614    21426656.697    21426654.800   -21709445.668 6 -16916444.059 5
        37.500          33.500
  22643860.383    22643859.895    22643859.492   -10802386.615 4  -8417441.169 5
        29.900          30.800
  24437979.679    24437979.269    24437978.592      505082.132 2    393578.798 3
        12.600          19.300
  22494321.831    22494321.029    22494320.498   -12435767.453 4  -9690202.887 4
        28.100          29.700
  22927850.765    22927850.371    22927848.954   -10087390.156 4  -7860293.266 5
        28.600          32.300
  24125811.489    24125810.497    24125809.262    -5812848.786 2  -4529490.027 2
        16.100          15.100
  22642100.235    22642099.491    22642099.466   -10034714.534 4  -7819254.624 4
        28.800          29.000
  20429602.243    20429601.386    20429600.335   -25817443.380 6 -20117478.753 7
        39.200          47.700
  20914817.184    20914816.713    20914813.705   -22348765.809 6 -17414613.513 7
        41.400          43.700
  23201493.168    23201491.447    23201490.031    -9641515.183 4  -7512866.639 5
        28.100          30.200
 09  1  9  0 17 30.0000000  0 10G21G 6G26G 9G15G14G 3G18G22G19
  21441031.562    21441030.690    21441028.934   -21633909.436 6 -16857584.668 5
        37.300          33.400
  22652818.190    22652817.649    22652817.636   -10755312.866 4  -8380760.323 5
        29.500          31.100
  24461237.197    24461236.778    24461236.288      627301.788 1    488814.828 2
        11.000          17.800
  22478580.993    22478580.217    22478579.844   -12518485.455 4  -9754658.448 4
        28.600          29.900
  22944927.703    22944927.323    22944925.948    -9997650.631 4  -7790366.371 5
        28.800          32.300
  24104663.843    24104662.600    24104661.411    -5923982.030 2  -4616087.359 2
        17.000          15.100
  22649915.235    22649914.413    22649914.063    -9993647.641 4  -7787254.452 4
        28.800          29.200
  20431393.063    20431392.256    20431390.118   -25808032.742 6 -20110145.785 8
        39.300          48.000
  20905270.101    20905269.634    20905266.720   -22398935.675 6 -17453706.902 7
        41.300          43.800
  23193586.934    23193585.145    23193583.470    -9683064.955 4  -7545243.074 5
        28.400          30.400
 09  1  9  0 18  0.0000000  0 10G21G 6G26G 9G15G14G 3G18G22G19
  21455485.190    21455484.303    21455482.494   -21557955.235 6 -16798399.580 5
        37.200          33.400
  22661869.455    22661869.062    22661869.098   -10707746.075 4  -8343695.294 5
        29.000          31.100
  24484519.476    24484519.701    24484519.423      749652.776 1    584153.223 2
        11.000          16.100
  22462933.926    22462933.068    22462932.549   -12600712.345 4  -9818731.322 4
        28.400          29.500
  22962060.444    22962060.012    22962058.123    -9907619.643 4  -7720212.357 5
        28.800          31.600
  24083543.508    24083542.816    24083542.230    -6034968.395 2  -4702570.226 2
        17.000          15.100
  22657834.168    22657833.361    22657833.178    -9952032.568 4  -7754827.113 4
        28.600          29.000
  20433258.931    20433258.127    20433257.049   -25798227.497 6 -20102505.328 8
        39.300          48.000
  20895787.965    20895787.486    20895784.746   -22448764.289 6 -17492534.382 7
        41.300          44.000
  23185784.600    23185782.652    23185781.183    -9724064.454 4  -7577190.730 5
        28.100          30.200
 09  1  9  0 18 30.0000000  0 10G21G 6G26G 9G15G14G 3G18G22G19
  21470016.169    21470015.456    21470013.758   -21481593.308 6 -16738896.795 5
        37.000          33.400
  22671013.047    22671012.564    22671012.635   -10659697.231 4  -8306254.647 5
        28.800          30.800
  24507824.771    24507824.579    24507825.239      872123.258 1    679584.724 2
         6.500          13.900
  22447378.569    22447377.641    22447377.582   -12682453.925 4  -9882426.040 4
        27.600          29.500
  22979245.875    22979245.399    22979243.668    -9817308.443 4  -7649839.991 5
        28.800          31.300
  24062449.823    24062448.666    24062448.403    -6145815.012 2  -4788944.203 2
        17.000          16.100
  22665855.311    22665854.633    22665854.472    -9909880.228 4  -7721981.138 4
        28.600          29.000
  20435198.123    20435197.354    20435195.256   -25788036.787 6 -20094564.513 8
        39.300          48.000
  20886369.467    20886368.945    20886366.039   -22498259.839 6 -17531102.330 7
        41.500          44.100
  23178085.759    23178083.834    23178082.546    -9764521.381 4  -7608715.588 5
        28.100          30.200
 09  1  9  0 19  0.0000000  0 10G21G 6G26G 9G15G14G 3G18G22G19
  21484625.020    21484624.211    21484622.553   -21404823.496 6 -16679076.170 5
        36.900          33.200
  22680248.196    22680247.458    22680247.421   -10611166.534 4  -8268438.513 5
        28.600          30.400
  24531152.932    24531152.673    24531152.596      994712.261 1    775108.590 1
         6.500          11.000
  22431917.183    22431916.453    22431915.892   -12763705.496 4  -9945738.927 4
        28.100          29.500
  22996484.766    22996484.430    22996482.913    -9726717.879 4  -7579249.932 5
        29.700          31.300
  24041382.944    24041382.249    24041382.408    -6256518.362 2  -4875206.529 2
        15.100          17.000
  22673979.051    22673978.078    22673977.955    -9867190.990 4  -7688716.797 4
        28.600          29.000
  20437211.048    20437210.177    20437209.024   -25777459.396 6 -20086322.385 8
        39.400          48.100
  20877014.640    20877014.101    20877011.033   -22547419.995 6 -17569408.936 7
        41.500          44.100
  23170491.195    23170489.238    23170487.733    -9804432.708 4  -7639815.312 5
        28.600          30.100
 09  1  9  0 19 30.0000000  0 10G21G 6G26G 9G15G14G 3G18G22G19
  21499312.566    21499311.669    21499310.099   -21327639.950 6 -16618933.162 5
        36.400          33.000
  22689576.100    22689575.614    22689575.443   -10562148.591 4  -8230242.720 5
        28.800          30.600
  24554504.949    24554504.043    24554503.016     1117424.336 1    870728.375 1
         6.500           6.500
  22416550.791    22416550.148    22416549.608   -12844456.239 4 -10008661.555 4
        28.800          29.700
  23013777.742    23013777.361    23013775.716    -9635843.147 4  -7508438.437 5
        29.700          31.300
  24020345.905    24020345.951    24020345.840    -6367069.140 2  -4961349.967 2
        16.100          17.000
  22682206.056    22682205.130    22682204.957    -9823958.907 4  -7655029.462 4
        28.800          29.200
  20439298.799    20439297.943    20439295.900   -25766487.943 6 -20077773.195 8
        39.400          48.300
  20867724.956    20867724.453    20867721.547   -22596236.449 6 -17607447.725 7
        41.400          44.100
  23163002.004    23163000.182    23162998.229    -9843789.733 4  -7670483.108 4
        29.200          29.700
 09  1  9  0 20  0.0000000  0 10G21G 6G26G 9G15G14G 3G18G22G19
  21514078.963    21514078.082    21514076.138   -21250043.329 6 -16558468.269 5
        36.600          32.700
  22698996.611    22698995.900    22698995.927   -10512644.195 4  -8191667.867 5
        28.600          30.600
  24577880.617    24577879.098    24577878.534     1240257.796 1    966442.732 1
         6.500           6.500
  22401280.039    22401279.659    22401279.394   -12924701.822 4 -10071190.560 5
        28.800          30.100
  23031124.403    23031124.121    23031122.351    -9544685.529 4  -7437406.522 5
        28.800          31.300
  23999338.691    23999338.024    23999338.814    -6477464.391 2  -5047372.242 3
        16.100          18.600
  22690535.316    22690534.486    22690534.704    -9780185.468 4  -7620920.285 4
        28.400          29.500
  20441461.703    20441460.889    20441459.808   -25755121.459 6 -20068916.189 8
        39.500          48.100
  20858501.351    20858500.782    20858497.876   -22644707.678 6 -17645217.504 7
        41.600          44.400
  23155617.716    23155616.403    23155614.662    -9882590.308 4  -7700717.310 4
        29.200          29.000
 09  1  9  0 20 30.0000000  0 10G21G 6G26G 9G15G14G 3G18G22G19
  21528920.923    21528920.020    21528918.230   -21172047.706 6 -16497692.462 5
        36.400          32.700
  22708506.521    22708505.858    22708505.799   -10462667.916 4  -8152725.309 5
        28.400          30.400
  24601275.984    24601275.003    24601272.984     1363197.485 1   1062239.829 1
         6.500           9.000
  22386104.532    22386103.927    22386103.625   -13004451.324 4 -10133333.004 5
        29.000          30.400
  23048521.980    23048521.778    23048520.171    -9453260.009 4  -7366165.858 5
        28.400          31.500
  23978358.411    23978357.783    23978358.290    -6587714.614 2  -5133281.454 3
        17.000          19.300
  22698965.721    22698964.969    22698964.693    -9735884.832 4  -7586400.312 4
        28.400          29.200
  20443697.412    20443696.610    20443694.593   -25743372.698 6 -20059761.307 8
        39.500          48.200
  20849341.045    20849340.519    20849337.463   -22692845.474 6 -17682727.466 7
        41.600          44.400
  23148337.896    23148336.661    23148334.936    -9920845.185 4  -7730526.296 4
        28.800          29.000
 09  1  9  0 21  0.0000000  0 10G21G 6G26G 9G15G14G 3G18G22G19
  21543841.344    21543840.458    21543838.696   -21093640.445 6 -16436595.904 5
        36.300          32.700
  22718108.685    22718108.086    22718108.325   -10412207.632 4  -8113405.609 5
        28.600          30.400
  24624693.093    24624691.949    24624690.947     1486254.863 1   1158128.679 1
         6.500           6.500
  22371026.420    22371025.525    22371025.296   -13083687.512 4 -10195075.460 5
        28.800          30.400
  23065972.887    23065972.595    23065971.266    -9361554.748 4  -7294707.214 5
        27.900          31.500
  23957409.197    23957409.186    23957408.988    -6697803.650 2  -5219065.070 3
        17.800          19.900
  22707498.424    22707497.557    22707497.570    -9691044.734 4  -7551459.974 4
        27.900          29.500
  20446008.565    20446007.786    20446006.596   -25731227.710 6 -20050297.671 8
        39.500          48.400
  20840247.008    20840246.502    20840243.502   -22740634.535 6 -17719965.686 7
        41.600          44.500
  23141165.380    23141163.760    23141162.008    -9958539.220 4  -7759898.251 4
        28.800          29.000
 09  1  9  0 21 30.0000000  0 10G21G 6G26G 9G15G14G 3G18G22G19
  21558838.944    21558838.065    21558836.176   -21014827.636 6 -16375183.334 5
        36.200          32.400
  22727801.915    22727801.264    22727801.359   -10361269.990 4  -8073713.935 5
        28.600          30.400
  24648131.163    24648129.853    24648129.617     1609422.535 1   1254103.447 1
         9.000           6.500
  22356045.618    22356044.772    22356044.431   -13162411.793 4 -10256419.032 5
        28.400          30.200
  23083475.372    23083475.029    23083473.801    -9269576.886 4  -7223036.152 5
        27.600          30.800
  23936490.529    23936490.046    23936489.718    -6807734.472 2  -5304725.410 3
        17.800          20.500
  22716132.577    22716131.837    22716131.816    -9645671.873 4  -7516104.500 4
        27.900          29.500
  20448394.196    20448393.386    20448391.317   -25718691.322 6 -20040529.050 8
        39.500          48.400
  20831218.633    20831218.097    20831215.107   -22788079.341 6 -17756935.660 7
        41.700          44.700
  23134098.661    23134096.997    23134094.708    -9995675.671 4  -7788835.726 4
        29.000          28.600
 09  1  9  0 22  0.0000000  0 10G21G 6G26G 9G15G14G 3G18G22G19
  21573913.943    21573913.139    21573911.524   -20935606.742 6 -16313452.777 5
        36.000          32.400
  22737586.372    22737585.762    22737585.734   -10309852.767 4  -8033648.566 5
        28.600          30.400
  24671589.885    24671588.640    24671588.367     1732701.709 1   1350165.076 1
         9.000           9.000
  22341163.267    22341162.743    22341162.744   -13240616.952 4 -10317358.095 5
        28.400          30.400
  23101030.140    23101030.015    23101028.961    -9177324.342 4  -7151151.062 5
        27.600          30.800
  23915602.073    23915601.602    23915601.864    -6917500.792 2  -5390257.573 3
        17.000          20.500
  22724868.352    22724867.507    22724868.077    -9599764.510 4  -7480332.529 4
        27.900          29.500
  20450854.830    20450854.053    20450852.854   -25705759.995 6 -20030452.682 8
        39.600          48.400
  20822256.561    20822256.058    20822253.183   -22835174.843 6 -17793633.444 7
        41.700          44.800
  23127138.714    23127137.273    23127135.471   -10032249.267 4  -7817334.617 4
        29.200          29.000
 09  1  9  0 22 30.0000000  0 10G21G 6G26G 9G15G14G 3G18G22G19
  21589065.856    21589064.917    21589063.284   -20855983.620 5 -16251408.799 5
        35.900          32.100
  22747460.950    22747460.274    22747460.196   -10257962.343 4  -7993214.473 5
        28.800          30.600
  24695068.569    24695067.660    24695069.090     1856085.606 1   1446308.329 1
         6.500           9.000
  22326380.173    22326379.603    22326379.116   -13318304.170 4 -10377893.571 5
        29.200          30.400
  23118636.692    23118636.541    23118634.465    -9084803.906 4  -7079057.208 5
        28.100          30.200
  23894745.676    23894745.290    23894744.386    -7027105.059 2  -5475663.450 3
        17.000          20.500
  22733704.860    22733703.889    22733704.291    -9553328.498 4  -7444148.629 4
        27.900          29.200
  20453390.116    20453389.310    20453387.325   -25692437.614 6 -20020071.601 8
        39.700          48.700
  20813360.377    20813359.839    20813356.981   -22881924.547 6 -17830061.778 7
        41.600          44.900
  23120285.420    23120283.827    23120281.960   -10068263.070 4  -7845397.311 4
        28.800          29.000
 09  1  9  0 23  0.0000000  0 10G 6G26G 9G15G21G14G 3G18G22G19
  22757424.115    22757423.440    22757423.453   -10205605.276 4  -7952416.758 5
        28.400          30.600
  24718566.524    24718564.960    24718566.642     1979567.135 1   1542527.623 1
         6.500           9.000
  22311695.334    22311694.533    22311694.066   -13395474.624 4 -10438026.370 5
        29.500          30.400
  23136292.717    23136292.328    23136290.223    -8992022.557 4  -7006760.043 5
        28.400          30.200
  21604292.956    21604292.196    21604290.470   -20775964.345 5 -16189056.126 5
