     2.11           OBSERVATION DATA    G (GPS)             RINEX VERSION / TYPE
teqc  2008Oct2      WCDA Operator       20090103 00:19:03UTCPGM / RUN BY / DATE
Solaris x86 5.10|AMD64|cc SC5.8 -xarch=amd64|=+|=+          COMMENT
teqc  2008Oct2      WCDA Operator       20090102 01:18:40UTCCOMMENT
flin  WCDA-ACP   965000   CFS Flin Flon SASK Canada         MARKER NAME
40135M001                                                   MARKER NUMBER
PGC-WCDA            GEOL. SURV. CANADA                      OBSERVER / AGENCY
1115                AOA BENCHMARK ACT   3.3.32.4            REC # / TYPE / VERS
231                 AOAD/M_T        SCIS                    ANT # / TYPE
  -766174.4630 -3611375.3160  5184056.2210                  APPROX POSITION XYZ
        0.1500        0.0000        0.0000                  ANTENNA: DELTA H/E/N
     1     1                                                WAVELENGTH FACT L1/2
     7    C1    P1    P2    L1    L2    S1    S2            # / TYPES OF OBSERV
STATION INFORMATION EFFECTIVE FROM: 2001/01/13 18:20:00     COMMENT
                                TO: CURRENT DATE (above)    COMMENT
BIT 2 OF LLI FLAGS (+4) DATA COLLECTED UNDER 'AS' CONDITION COMMENT
L1 PHASE CENTRE 0.110m ABOVE ARP                            COMMENT
L2 PHASE CENTRE 0.128m ABOVE ARP                            COMMENT
where ARP is the Antenna Reference Point for HI measurement COMMENT
CONTACT gps@pgc.nrcan.gc.ca FOR ADDITIONAL INFORMATION      COMMENT
    P1 =    P1  TurboRogue; =    Y1  Benchmark              COMMENT
    L1 = L1(CA)                                             COMMENT
    P2 =    P2  TurboRogue; =    Y2  Benchmark              COMMENT
    L2 = L2(P2) TurboRogue; = L2(Y2) Benchmark              COMMENT
 SNR is mapped to RINEX snr flag value [0-9]                COMMENT
  L1 & L2: min(max(int(snr_dBHz/6), 0), 9)                  COMMENT
  2009     1     2     0     0    0.0000000     GPS         TIME OF FIRST OBS
                                                            END OF HEADER
 09  1  2  0  0  0.0000000  0 10G21G26G 9G15G 6G 3G18G19G22G24
  20474327.856    20474327.045    20474325.431   -26776914.263 6 -20865118.607 7
        40.000          44.800
  22486648.921    22486648.575    22486647.697    -9565547.590 4  -7453664.051 4
        26.200          26.800
  24237699.473    24237699.230    24237701.815    -4013011.919    -3127020.834 2
         3.000          17.000
  21674254.419    21674254.275    21674252.992   -16727043.008 6 -13034049.490 6
        38.300          40.400
  22249503.548    22249502.966    22249502.800   -12656807.928 5  -9862443.868 5
        33.500          33.100
  22396068.398    22396067.457    22396067.493   -11404700.237 5  -8886774.625 5
        30.100          30.200
  20575870.592    20575869.826    20575868.017   -24857161.194 6 -19369207.691 7
        38.400          47.100
  24295937.720    24295936.098    24295933.303    -3791355.498 3  -2954300.674 3
        19.300          21.600
  22038183.439    22038182.919    22038180.423   -16269805.730 5 -12677764.058 5
        35.200          35.600
  23512567.498    23512566.643    23512567.581    -6541673.058 3  -5097400.747 3
        19.900          23.000
 09  1  2  0  0 30.0000000  0 10G21G26G 9G15G 6G 3G18G19G22G24
  20480593.397    20480592.529    20480590.962   -26743988.997 6 -20839462.559 7
        40.200          44.800
  22505239.019    22505238.620    22505237.626    -9467856.639 4  -7377541.210 4
        26.200          26.800
  24216297.238    24216296.201    24216297.179    -4125487.678 1  -3214664.190 3
         6.500          18.600
  21684528.926    21684528.883    21684527.580   -16673048.934 6 -12991976.189 6
        38.100          40.100
  22248947.479    22248946.798    22248946.465   -12659731.125 5  -9864721.679 5
        33.600          33.000
  22393523.733    22393522.980    22393523.137   -11418071.213 4  -8897193.561 5
        29.900          30.200
  20570947.276    20570946.496    20570945.488   -24883033.675 6 -19389368.056 7
        38.300          47.200
  24280087.458    24280085.000    24280083.180    -3874644.605 2  -3019201.241 3
        17.000          21.600
  22023431.515    22023431.126    22023428.594   -16347325.816 5 -12738169.306 5
        35.100          35.500
  23531395.129    23531394.179    23531395.590    -6442733.946 3  -5020305.353 3
        21.100          23.000
 09  1  2  0  1  0.0000000  0 10G21G26G 9G15G 6G 3G18G19G22G24
  20486952.916    20486952.044    20486950.308   -26710570.291 6 -20813422.009 7
        40.300          44.700
  22523907.210    22523906.726    22523905.975    -9369755.761 4  -7301098.954 4
        25.900          27.400
  24194925.974    24194924.638    24194924.358    -4237801.517 1  -3302181.431 3
         9.000          19.900
  21694897.629    21694897.687    21694896.305   -16618560.858 6 -12949517.940 6
        38.200          40.000
  22248500.736    22248500.178    22248499.742   -12662078.277 5  -9866550.624 5
        33.800          32.700
  22391096.458    22391095.911    22391095.835   -11430825.892 5  -8907132.261 5
        30.100          30.400
  20566096.720    20566095.960    20566094.145   -24908522.619 6 -19409229.561 7
        38.100          46.800
  24264304.353    24264302.962    24264302.329    -3957573.876 2  -3083821.400 3
        16.100          22.100
  22008728.620    22008728.222    22008725.840   -16424589.597 5 -12798374.839 5
        35.200          35.800
  23550254.577    23550253.898    23550254.971    -6343625.991 3  -4943078.386 3
        21.100          23.000
 09  1  2  0  1 30.0000000  0 10G21G26G 9G15G 6G 3G18G19G22G24
  20493406.405    20493405.549    20493403.943   -26676656.197 6 -20786995.439 7
        40.300          44.700
  22542653.073    22542652.441    22542651.843    -9271246.102 4  -7224338.178 4
        25.900          27.600
  24173584.085    24173582.948    24173583.233    -4349947.965 1  -3389568.223 3
         9.000          19.300
  21705360.497    21705360.421    21705359.105   -16563578.754 6 -12906674.740 6
        38.100          39.900
  22248164.051    22248163.401    22248163.168   -12663847.002 5  -9867928.840 5
        33.100          32.800
  22388787.438    22388786.481    22388786.587   -11442962.247 5  -8916589.159 5
        30.200          30.600
  20561319.833    20561319.021    20561318.173   -24933625.701 6 -19428790.392 7
        38.100          46.800
  24248592.350    24248591.859    24248590.227    -4040138.760 2  -3148157.656 3
        16.100          21.100
  21994075.605    21994075.015    21994072.153   -16501593.828 5 -12858378.108 5
        35.300          35.600
  23569147.150    23569146.129    23569147.150    -6244348.316 3  -4865719.178 3
        19.900          23.400
 09  1  2  0  2  0.0000000  0 10G21G26G 9G15G 6G 3G18G19G22G24
  20499953.921    20499952.985    20499951.242   -26642249.284 6 -20760184.855 7
        40.300          44.400
  22561475.017    22561474.844    22561474.150    -9172333.631 4  -7147263.514 4
        25.300          27.400
  24152274.296    24152273.618    24152274.636    -4461926.158 1  -3476823.862 2
         6.500          17.800
  21715916.678    21715916.350    21715914.947   -16508107.413 6 -12863450.315 6
        38.100          40.000
  22247937.013    22247936.454    22247936.311   -12665040.098 5  -9868858.525 5
        33.500          33.000
  22386594.975    22386594.243    22386594.307   -11454481.850 5  -8925565.466 5
        30.100          30.600
  20556615.903    20556615.139    20556613.233   -24958345.039 6 -19448052.205 7
        38.100          46.900
  24232950.979    24232950.284    24232948.850    -4122339.137 2  -3212209.892 3
        17.800          23.400
  21979471.078    21979470.665    21979467.948   -16578340.083 5 -12918180.352 6
        35.400          36.100
  23588069.805    23588069.453    23588070.724    -6144905.099 3  -4788230.988 3
        19.900          23.800
 09  1  2  0  2 30.0000000  0 10G21G26G 9G15G 6G 3G18G19G22G24
  20506596.049    20506595.200    20506593.508   -26607343.816 6 -20732985.787 7
        40.200          44.300
  22580374.666    22580374.527    22580373.702    -9073015.198 4  -7069872.518 4
        25.600          26.800
  24130999.971    24130999.972    24131000.248    -4573725.738 2  -3563940.370 2
        12.600          17.800
  21726566.121    21726566.092    21726564.794   -16452142.302 6 -12819841.134 6
        37.900          39.900
  22247820.704    22247820.165    22247819.954   -12665651.041 5  -9869334.572 5
        33.400          32.800
  22384521.810    22384520.938    22384520.807   -11465378.370 5  -8934056.254 5
        30.200          30.200
  20551986.289    20551985.508    20551984.568   -24982674.179 6 -19467009.961 7
        38.100          47.000
  24217380.604    24217379.639    24217376.776    -4204166.445 3  -3275971.414 3
        19.300          23.800
  21964917.367    21964916.848    21964914.004   -16654821.093 5 -12977775.917 6
        35.500          36.000
  23607026.664    23607025.536    23607026.319    -6045291.083 3  -4710609.704 3
        19.300          23.400
 09  1  2  0  3  0.0000000  0 10G21G26G 9G15G 6G 3G18G19G22G24
  20513332.876    20513332.013    20513330.361   -26571941.633 6 -20705399.673 7
        40.300          44.200
  22599351.342    22599350.978    22599349.265    -8973295.678 4  -6992168.985 4
        25.900          26.200
  24109760.329    24109759.888    24109759.904    -4685344.849 2  -3650916.252 2
        12.600          16.100
  21737309.190    21737309.226    21737307.878   -16395686.906 6 -12775849.904 6
        37.800          40.000
  22247814.808    22247814.315    22247814.039   -12665681.473 5  -9869358.286 5
        33.100          32.800
  22382566.573    22382565.727    22382565.429   -11475653.001 5  -8942062.460 5
        30.600          30.400
  20547430.571    20547429.832    20547427.905   -25006614.198 6 -19485664.511 7
        38.100          46.800
  24201880.703    24201879.213    24201877.363    -4285619.719 3  -3339441.490 4
        19.900          24.200
  21950413.726    21950413.196    21950410.441   -16731037.631 5 -13037165.405 6
        35.500          36.300
  23626014.987    23626013.420    23626014.124    -5945509.082 3  -4632857.520 3
        18.600          22.600
 09  1  2  0  3 30.0000000  0 10G21G26G 9G15G 6G 3G18G19G22G24
  20520162.362    20520161.555    20520159.824   -26536052.425 6 -20677434.051 7
        40.400          44.100
  22618401.048    22618400.572    22618399.232    -8873187.875 4  -6914162.881 4
        25.900          26.500
  24088552.498    24088552.334    24088552.203    -4796789.499 1  -3737756.176 2
        11.000          12.600
  21748143.662    21748143.446    21748141.996   -16338752.943 6 -12731485.775 6
        37.700          39.700
  22247917.732    22247917.149    22247917.072   -12665141.263 5  -9868937.328 5
        33.400          33.200
  22380728.006    22380727.184    22380727.031   -11485315.328 5  -8949591.537 5
        30.800          30.600
  20542947.276    20542946.449    20542945.432   -25030174.636 6 -19504023.281 7
        38.100          46.800
  24186449.512    24186447.737    24186447.501    -4366706.007 3  -3402625.599 4
        20.500          25.300
  21935958.844    21935958.321    21935955.735   -16806998.238 5 -13096355.463 6
        35.600          36.500
  23645031.764    23645031.117    23645031.931    -5845570.558 2  -4554983.362 3
        17.800          22.600
 09  1  2  0  4  0.0000000  0 10G21G26G 9G15G 6G 3G18G19G22G24
  20527085.834    20527084.964    20527083.346   -26499669.255 6 -20649083.523 7
        40.300          44.000
  22637525.086    22637524.495    22637523.875    -8772687.732 4  -6835851.085 4
        24.600          26.800
  24067379.801    24067379.687    24067379.052    -4908048.752 1  -3824451.646 2
        11.000          13.900
  21759069.824    21759069.620    21759068.303   -16281335.205 6 -12686744.678 6
        37.700          39.800
  22248130.611    22248130.058    22248129.666   -12664023.004 5  -9868065.952 5
        33.200          33.000
  22379006.952    22379006.131    22379006.105   -11494357.819 5  -8956637.629 5
        30.400          30.800
  20538537.436    20538536.620    20538534.696   -25053347.785 6 -19522080.269 7
        38.100          46.700
  24171091.426    24171090.331    24171088.884    -4447415.400 3  -3465516.029 4
        20.500          24.900
  21921554.299    21921553.735    21921551.045   -16882694.709 5 -13155339.705 6
        35.800          36.500
  23664079.715    23664078.987    23664080.680    -5745469.182 2  -4476982.312 3
        17.000          22.100
 09  1  2  0  4 30.0000000  0 10G21G26G 9G15G 6G 3G18G19G22G24
  20534103.502    20534102.719    20534101.127   -26462790.981 6 -20620347.205 7
        40.400          44.000
  22656723.774    22656723.476    22656723.068    -8671797.272 4  -6757235.136 4
        24.200          27.400
  24046244.246    24046243.823    24046243.831    -5019117.944 2  -3910999.023 2
        13.900          16.100
  21770087.689    21770087.648    21770086.396   -16223434.376 6 -12641627.147 6
        37.600          39.800
  22248453.348    22248452.765    22248452.772   -12662325.321 5  -9866743.073 5
        33.000          33.000
  22377404.772    22377403.886    22377403.804   -11502778.425 5  -8963199.126 5
        30.600          31.000
  20534201.957    20534201.114    20534200.191   -25076131.839 6 -19539834.062 7
        38.100          47.000
  24155805.742    24155804.483    24155803.181    -4527744.321 3  -3528110.000 4
        21.100          24.600
  21907200.352    21907199.927    21907197.228   -16958124.478 5 -13214116.125 6
        35.800          36.500
  23683159.663    23683159.253    23683160.383    -5645204.808 2  -4398854.262 3
        17.000          21.600
 09  1  2  0  5  0.0000000  0 10G21G26G 9G15G 6G 3G18G19G22G24
  20541215.575    20541214.790    20541213.073   -26425417.207 6 -20591224.781 7
        40.600          43.900
  22675996.791    22675996.591    22675995.732    -8570518.827 4  -6678316.868 4
        24.600          27.100
  24025146.058    24025145.199    24025145.590    -5129992.350 2  -3997394.599 2
        16.100          17.800
  21781197.590    21781197.509    21781196.174   -16165051.923 6 -12596134.318 6
        37.500          39.800
  22248886.775    22248886.403    22248886.410   -12660047.670 5  -9864968.270 5
        33.100          33.400
  22375920.702    22375919.869    22375919.774   -11510577.036 5  -8969275.948 5
        30.800          30.600
  20529940.380    20529939.554    20529937.432   -25098525.796 6 -19557283.885 7
        38.000          46.600
  24140593.358    24140591.828    24140589.682    -4607689.425 3  -3590404.896 4
        20.500          24.200
  21892897.566    21892897.127    21892894.488   -17033285.762 6 -13272683.337 6
        36.100          36.500
  23702270.091    23702269.391    23702270.942    -5544778.255 2  -4320599.818 3
        17.800          21.600
 09  1  2  0  5 30.0000000  0 10G21G26G 9G15G 6G 3G18G19G22G24
  20548422.015    20548421.124    20548419.332   -26387547.870 6 -20561716.205 7
        40.600          43.800
  22695343.092    22695342.469    22695341.527    -8468855.394 4  -6599098.593 4
        24.600          26.800
  24004084.747    24004084.664    24004084.959    -5240668.488 3  -4083635.732 3
        18.600          18.600
  21792398.930    21792398.704    21792397.448   -16106189.340 6 -12550267.367 6
        37.200          39.700
  22249430.727    22249430.127    22249430.168   -12657189.788 5  -9862741.345 5
        33.000          33.400
  22374555.207    22374554.516    22374554.137   -11517752.862 5  -8974867.497 5
        31.300          30.600
  20525753.399    20525752.527    20525751.560   -25120528.937 6 -19574429.176 7
        38.000          46.600
  24125453.614    24125452.195    24125449.814    -4687247.781 3  -3652398.424 3
        21.100          23.800
  21878646.180    21878645.761    21878643.214   -17108177.450 6 -13331040.477 6
        36.100          36.800
  23721412.348    23721411.128    23721412.189    -5444190.065 2  -4242219.428 3
        17.800          21.100
 09  1  2  0  6  0.0000000  0 10G21G26G 9G15G 6G 3G18G19G22G24
  20555722.184    20555721.397    20555719.594   -26349184.402 6 -20531822.591 7
        40.500          43.600
  22714761.124    22714760.679    22714759.793    -8366811.175 4  -6519583.614 4
        24.600          27.100
  23983062.858    23983061.581    23983061.893    -5351143.620 2  -4169720.216 3
        17.800          19.900
  21803690.780    21803690.699    21803689.456   -16046849.679 6 -12504028.665 6
        37.200          39.700
  22250084.698    22250084.178    22250084.113   -12653752.831 5  -9860063.190 5
        33.200          33.200
  22373308.016    22373307.242    22373307.214   -11524306.563 5  -8979974.270 5
        31.300          30.800
  20521640.468    20521639.696    20521637.550   -25142142.263 6 -19591270.720 7
        37.900          46.600
  24110386.349    24110385.279    24110384.209    -4766418.125 3  -3714089.594 3
        19.900          23.800
  21864446.071    21864445.613    21864442.934   -17182799.436 6 -13389187.462 6
        36.000          36.700
  23740584.394    23740583.192    23740583.060    -5343442.898 3  -4163715.172 3
        18.600          19.900
 09  1  2  0  6 30.0000000  0 10G21G26G 9G15G 6G 3G18G19G22G24
  20563115.760    20563114.943    20563113.246   -26310330.758 6 -20501547.018 7
        40.500          43.600
  22734250.329    22734250.130    22734249.514    -8264393.071 4  -6439777.296 4
        24.200          27.400
  23962076.728    23962076.421    23962077.157    -5461417.663 2  -4255648.000 3
        16.100          20.500
  21815072.186    21815072.217    21815070.934   -15987038.638 6 -12457422.641 6
        37.100          39.400
  22250848.474    22250847.786    22250847.503   -12649740.752 5  -9856936.898 5
        33.500          33.000
  22372178.647    22372177.834    22372177.686   -11530241.666 5  -8984599.012 5
        31.300          31.000
  20517601.115    20517600.315    20517599.308   -25163369.057 6 -19607811.069 7
        37.900          46.500
  24095395.374    24095393.836    24095393.042    -4845201.532 3  -3775479.243 4
        19.900          24.200
  21850296.668    21850296.290    21850293.670   -17257154.364 6 -13447126.343 6
        36.200          36.800
  23759784.864    23759783.969    23759784.173    -5242541.561 3  -4085090.760 3
        19.900          19.300
 09  1  2  0  7  0.0000000  0 10G21G26G 9G15G 6G 3G18G19G22G24
  20570603.477    20570602.618    20570600.856   -26270982.775 6 -20470886.252 7
        40.500          43.300
  22753811.731    22753811.204    22753810.465    -8161599.643 4  -6359678.535 4
        24.200          27.600
  23941132.897    23941132.067    23941132.608    -5571482.444 2  -4341412.686 3
        16.100          22.100
  21826543.996    21826543.964    21826542.786   -15926753.997 6 -12410447.578 6
        36.900          39.500
  22251722.122    22251721.485    22251721.101   -12645149.062 5  -9853358.955 5
        33.500          33.100
  22371167.861    22371166.937    22371166.846   -11535554.075 5  -8988738.550 5
        31.600          31.100
  20513636.257    20513635.417    20513633.242   -25184204.631 6 -19624046.583 7
        37.900          46.500
  24080480.289    24080478.083    24080475.889    -4923590.807 3  -3836561.785 4
        21.100          24.200
  21836199.631    21836199.020    21836196.246   -17331236.692 6 -13504852.814 6
        36.500          37.000
  23779014.856    23779014.016    23779015.172    -5141482.826 3  -4006343.695 3
        19.300          19.300
 09  1  2  0  7 30.0000000  0 10G21G26G 9G15G 6G 3G18G19G22G24
  20578183.831    20578182.979    20578181.087   -26231147.907 6 -20439846.090 7
        40.500          43.100
  22773442.056    22773441.859    22773440.815    -8058441.700 4  -6279295.733 4
        24.600          27.100
  23920227.988    23920226.993    23920227.147    -5681341.781 2  -4427017.285 3
        15.100          23.000
  21838104.260    21838104.154    21838102.840   -15866005.145 6 -12363110.809 6
        36.900          39.300
  22252704.876    22252704.186    22252704.064   -12639985.275 5  -9849335.226 5
        33.500          33.400
  22370274.072    22370273.235    22370273.146   -11540250.528 5  -8992398.118 5
        31.800          31.100
  20509744.485    20509743.718    20509742.686   -25204655.953 6 -19639982.675 7
        37.900          46.500
  24065636.023    24065634.521    24065632.448    -5001591.041 3  -3897341.161 4
        21.600          24.200
  21822152.640    21822152.254    21822149.632   -17405052.491 6 -13562371.603 6
        36.600          37.000
  23798274.086    23798273.246    23798274.235    -5040275.311 2  -3927480.707 3
        17.800          19.900
 09  1  2  0  8  0.0000000  0 10G21G26G 9G15G 6G 3G18G19G22G24
  20585858.235    20585857.422    20585855.759   -26190817.497 6 -20408419.795 7
        40.300          43.000
  22793142.792    22793142.432    22793141.450    -7954913.273 3  -6198624.216 4
        23.800          25.900
  23899362.182    23899362.559    23899363.058    -5790983.207 2  -4512452.104 3
        13.900          23.000
  21849754.169    21849754.045    21849752.659   -15804784.756 6 -12315406.605 6
        36.900          39.100
  22253798.020    22253797.352    22253797.247   -12634240.721 5  -9844858.942 5
        33.500          33.100
  22369499.501    22369498.627    22369498.245   -11544321.954 5  -8995570.653 5
        31.800          31.300
  20505927.709    20505926.904    20505924.646   -25224713.392 6 -19655611.843 7
        37.800          46.400
  24050868.648    24050866.955    24050865.330    -5079190.729 3  -3957808.442 3
        20.500          23.400
  21808158.794    21808158.311    21808155.382   -17478591.943 6 -13619675.060 6
        36.800          36.900
  23817563.593    23817562.607    23817563.154    -4938911.352 2  -3848495.823 3
        17.000          19.900
 09  1  2  0  8 30.0000000  0 10G21G26G 9G15G 6G 3G18G19G22G24
  20593626.724    20593625.977    20593624.201   -26149994.053 6 -20376609.309 7
        40.500          43.000
  22812912.633    22812912.284    22812911.852    -7851019.227 3  -6117667.803 4
        23.000          25.600
  23878541.473    23878540.509    23878540.472    -5900404.438 2  -4597715.329 3
        13.900          22.600
  21861493.003    21861492.899    21861491.500   -15743097.006 6 -12267338.225 6
        37.100          39.000
  22255001.223    22255000.514    22255000.368   -12627917.247 5  -9839931.560 5
        33.100          33.100
  22368842.945    22368842.235    22368842.244   -11547769.997 5  -8998257.419 5
        31.300          31.500
  20502185.482    20502184.663    20502183.703   -25244378.508 6 -19670935.302 7
        37.800          46.200
  24036178.250    24036177.010    24036174.880    -5156389.012 3  -4017962.904 3
        18.600          23.000
  21794217.280    21794216.649    21794213.651   -17551856.043 6 -13676763.948 6
        36.800          37.000
  23836881.805    23836880.514    23836881.737    -4837394.108 2  -3769391.513 3
        16.100          21.100
 09  1  2  0  9  0.0000000  0 10G21G26G 9G15G 6G 3G18G19G22G24
  20601488.114    20601487.312    20601485.611   -26108682.678 6 -20344418.623 7
        40.600          43.000
  22832751.066    22832750.616    22832749.980    -7746767.809 3  -6036432.915 4
        22.600          25.600
  23857761.311    23857760.399    23857759.814    -6009606.905 2  -4682808.080 3
        16.100          23.400
  21873319.221    21873319.225    21873317.897   -15680949.078 6 -12218911.258 6
        37.100          39.100
  22256313.730    22256313.153    22256312.864   -12621020.090 5  -9834557.147 5
        33.200          33.200
  22368304.772    22368303.878    22368303.674   -11550600.133 5  -9000462.718 5
        31.500          31.300
  20498517.088    20498516.338    20498513.993   -25263656.091 6 -19685956.784 7
        37.700          46.300
  24021564.628    24021562.489    24021560.710    -5233188.550 3  -4077806.662 3
        19.900          23.000
  21780326.965    21780326.389    21780323.815   -17624848.808 6 -13733641.402 6
        36.900          37.400
  23856227.364    23856226.781    23856227.552    -4735729.771 2  -3690172.565 3
        17.000          21.600
 09  1  2  0  9 30.0000000  0 10G21G26G 9G15G 6G 3G18G19G22G24
  20609441.996    20609441.174    20609439.371   -26066885.207 6 -20311849.158 7
        40.700          42.900
  22852656.786    22852656.720    22852655.478    -7642163.746 3  -5954923.269 4
        23.000          25.900
  23837022.438    23837021.346    23837022.032    -6118588.254 2  -4767728.542 3
        17.000          23.400
  21885232.706    21885232.573    21885231.116   -15618344.335 6 -12170128.339 6
        37.000          39.000
  22257735.041    22257734.518    22257734.216   -12613550.908 5  -9828737.006 5
        33.200          33.100
  22367883.134    22367882.290    22367882.232   -11552813.848 5  -9002187.686 5
        31.300          31.000
  20494922.039    20494921.280    20494920.345   -25282547.317 6 -19700677.205 7
        37.700          45.900
  24007025.675    24007024.043    24007022.615    -5309588.150 3  -4137338.783 3
        21.600          23.800
  21766488.348    21766487.948    21766485.277   -17697570.171 6 -13790307.375 6
        37.200          37.400
  23875600.807    23875600.106    23875601.453    -4633921.054 2  -3610841.124 3
        16.100          21.600
 09  1  2  0 10  0.0000000  0 10G21G26G 9G15G 6G 3G18G19G22G24
  20617488.730    20617487.888    20617486.120   -26024599.582 6 -20278899.321 7
        40.500          42.700
  22872629.751    22872629.126    22872628.494    -7537207.430 3  -5873139.120 4
        23.000          26.200
  23816327.331    23816326.036    23816326.376    -6227342.244 2  -4852471.830 3
        15.100          22.100
  21897233.067    21897232.864    21897231.447   -15555282.185 6 -12120988.998 6
        36.800          39.100
  22259265.686    22259265.171    22259264.989   -12605507.589 5  -9822469.483 5
        33.200          33.100
  22367579.807    22367578.901    22367578.882   -11554408.426 5  -9003430.208 5
        31.300          31.100
  20491401.395    20491400.563    20491398.234   -25301049.337 6 -19715094.352 7
        37.700          46.200
  23992564.695    23992563.192    23992561.276    -5385582.980 3  -4196555.494 4
        22.100          24.200
  21752702.296    21752701.776    21752698.957   -17770016.863 6 -13846759.327 6
        37.300          37.200
  23895002.986    23895002.377    23895002.844    -4531966.731 2  -3531396.235 3
        16.100          21.100
 09  1  2  0 10 30.0000000  0 10G21G26G 9G15G 6G 3G18G19G22G24
  20625628.038    20625627.247    20625625.628   -25981826.305 6 -20245569.496 7
        40.500          42.700
  22892668.517    22892668.004    22892667.216    -7431902.495 3  -5791083.304 4
        23.400          26.200
  23795674.692    23795673.681    23795674.603    -6335865.801 2  -4937035.587 3
        12.600          20.500
  21909319.959    21909319.894    21909318.458   -15491764.792 6 -12071494.919 6
        36.900          38.900
  22260905.367    22260904.885    22260904.521   -12596890.516 5  -9815754.874 5
        33.000          33.100
  22367394.246    22367393.393    22367393.257   -11555383.828 5  -9004190.265 5
        31.300          31.000
  20487954.591    20487953.770    20487952.711   -25319162.092 6 -19729208.171 7
        37.700          46.100
  23978180.359    23978179.276    23978177.371    -5461170.615 3  -4255454.923 4
        22.100          24.600
  21738968.661    21738968.039    21738965.283   -17842187.959 6 -13902996.514 6
        37.300          37.500
  23914431.667    23914430.429    23914431.478    -4429868.299 2  -3451839.060 3
        13.900          20.500
 09  1  2  0 11  0.0000000  0 10G21G26G 9G15G 6G 3G18G19G22G24
  20633860.501    20633859.650    20633857.872   -25938565.195 6 -20211859.538 7
        40.600          42.600
  22912773.025    22912772.408    22912771.990    -7326251.582 3  -5708757.920 4
        22.600          26.200
  23775069.109    23775067.885    23775068.072    -6444154.633 2  -5021416.422 3
        13.900          21.600
  21921493.160    21921493.107    21921491.520   -15427794.050 6 -12021647.581 6
        36.900          38.600
  22262654.301    22262653.605    22262653.499   -12587699.574 5  -9808593.099 5
        32.800          33.000
  22367326.562    22367325.817    22367325.722   -11555739.784 5  -9004467.633 5
        31.100          31.300
  20484582.100    20484581.214    20484578.952   -25336884.999 6 -19743018.221 7
        37.700          46.200
  23963875.318    23963873.703    23963871.393    -5536348.302 3  -4314034.931 4
        22.600          24.200
  21725287.362    21725286.945    21725284.226   -17914082.017 6 -13959017.828 6
        37.200          37.700
  23933887.164    23933886.060    23933887.557    -4327626.681 2  -3372170.311 3
        15.100          20.500
 09  1  2  0 11 30.0000000  0 10G21G26G 9G15G 6G 3G18G19G22G24
  20642185.808    20642184.924    20642183.247   -25894814.908 6 -20177768.406 7
        40.600          42.400
  22932942.925    22932942.713    22932942.123    -7220255.640 3  -5626163.677 4
        22.100          25.900
  23754507.585    23754507.095    23754508.012    -6552202.698 2  -5105609.672 3
        17.800          23.000
  21933752.521    21933752.433    21933750.772   -15363370.218 6 -11971447.186 6
        36.700          38.200
  22264513.092    22264512.453    22264512.032   -12577933.060 5  -9800982.830 5
        33.400          32.800
  22367376.533    22367375.811    22367376.238   -11555474.433 5  -9004260.858 5
        30.600          31.500
  20481284.197    20481283.391    20481282.345   -25354215.539 6 -19756522.530 7
        37.700          46.200
  23949647.393    23949646.098    23949644.536    -5611111.481 3  -4372291.939 4
        22.100          24.200
  21711659.938    21711659.348    21711656.638   -17985695.957 6 -14014820.881 6
        37.200          37.800
  23953370.996    23953370.077    23953370.598    -4225240.978 2  -3292389.280 3
        17.000          19.300
 09  1  2  0 12  0.0000000  0 10G21G26G 9G15G 6G 3G18G19G22G24
  20650603.523    20650602.660    20650601.027   -25850579.327 6 -20143299.119 7
        40.500          42.200
  22953177.680    22953177.275    22953176.806    -7113921.756 3  -5543306.101 4
        21.100          25.900
  23733992.963    23733992.290    23733992.456    -6660010.184 3  -5189615.453 3
        19.300          21.600
  21946097.253    21946097.050    21946095.441   -15298498.960 6 -11920898.147 6
        36.600          38.300
  22266480.211    22266479.550    22266479.172   -12567595.158 5  -9792927.327 5
        33.200          32.800
  22367544.990    22367544.071    22367543.978   -11554591.929 5  -9003573.192 5
        30.800          31.100
  20478060.277    20478059.523    20478057.143   -25371157.119 6 -19769723.754 7
        37.700          46.200
  23935498.699    23935497.402    23935496.345    -5685461.408 3  -4430226.921 3
        21.600          23.800
  21698085.101    21698084.482    21698081.698   -18057032.720 6 -14070407.941 6
        37.500          37.800
  23972880.620    23972879.821    23972880.406    -4122716.423 2  -3212500.028 3
        17.800          18.600
 09  1  2  0 12 30.0000000  0 10G21G26G 9G15G 6G 3G18G19G22G24
  20659113.568    20659112.740    20659111.099   -25805858.479 6 -20108451.703 7
        40.400          42.100
  22973476.235    22973475.823    22973475.427    -7007252.098 3  -5460186.891 4
        21.600          25.300
  23713523.786    23713523.450    23713523.171    -6767572.625 3  -5273430.315 3
        19.900          19.300
  21958526.648    21958526.610    21958525.134   -15233181.383 6 -11870001.325 6
        36.700          38.400
  22268556.505    22268555.739    22268555.417   -12556685.215 5  -9784426.076 5
        33.100          33.000
  22367830.176    22367829.540    22367829.545   -11553091.325 5  -9002403.888 5
        30.600          31.300
  20474910.723    20474909.888    20474908.866   -25387708.323 6 -19782620.790 7
        37.600          46.100
  23921430.857    23921428.886    23921426.610    -5759394.920 3  -4487837.428 3
        23.000          23.000
  21684563.309    21684562.787    21684559.912   -18128090.290 6 -14125777.454 6
        37.900          38.000
  23992417.160    23992416.157    23992416.819    -4020053.313 2  -3132502.802 3
        17.800          19.300
 09  1  2  0 13  0.0000000  0 10G21G26G 9G15G 6G 3G18G19G22G24
  20667716.717    20667715.897    20667714.239   -25760648.659 6 -20073223.274 7
        40.500          42.000
  22993838.844    22993838.631    22993837.783    -6900245.870 3  -5376805.425 4
        21.600          24.900
  23693104.550    23693103.255    23693102.830    -6874882.268 3  -5357048.207 3
        18.600          19.300
  21971041.331    21971041.360    21971039.752   -15167415.709 6 -11818755.329 6
        36.500          38.100
  22270741.752    22270741.194    22270741.195   -12545199.785 5  -9775476.396 5
        32.700          33.200
  22368234.367    22368233.424    22368233.695   -11550968.386 5  -9000749.651 5
        30.400          31.500
  20471836.013    20471835.232    20471832.794   -25403865.157 6 -19795210.522 7
        37.700          45.900
  23907441.307    23907440.105    23907437.879    -5832905.337 3  -4545118.272 3
        22.600          22.600
  21671095.492    21671094.963    21671092.068   -18198863.506 6 -14180925.397 6
        37.900          37.900
  24011980.140    24011979.326    24011979.907    -3917248.705 2  -3052395.325 3
        17.000          20.500
 09  1  2  0 13 30.0000000  0 10G21G26G 9G15G 6G 3G18G19G22G24
  20676412.946    20676412.093    20676410.357   -25714950.276 6 -20037614.139 6
        40.700          41.900
  23014265.153    23014264.659    23014263.794    -6792906.301 3  -5293164.212 4
        21.100          24.600
  23672732.606    23672731.208    23672731.318    -6981935.378 2  -5440466.175 3
        17.000          19.300
  21983640.979    21983640.973    21983639.416   -15101204.453 6 -11767162.140 6
        36.400          38.300
  22273036.697    22273036.162    22273035.981   -12533139.363 5  -9766078.673 5
        32.800          33.100
  22368756.318    22368755.608    22368755.713   -11548223.744 5  -8998610.972 5
        30.600          31.500
  20468836.545    20468835.812    20468834.770   -25419627.787 6 -19807493.087 7
        37.700          46.000
  23893533.379    23893531.516    23893530.872    -5905990.437 3  -4602067.682 3
        20.500          22.600
  21657682.059    21657681.644    21657678.717   -18269351.455 6 -14235851.054 6
        38.100          38.200
  24031569.896    24031568.793    24031569.774    -3814304.253 2  -2972178.905 3
        16.100          21.100
 09  1  2  0 14  0.0000000  0 10G21G26G 9G15G 6G 3G18G19G22G24
  20685200.410    20685199.602    20685197.745   -25668772.228 6 -20001631.238 6
        40.700          41.900
  23034752.347    23034751.804    23034750.731    -6685245.102 3  -5209272.380 3
        21.100          23.400
  23652408.187    23652407.674    23652407.764    -7088737.056 2  -5523688.208 3
        17.800          19.300
  21996323.401    21996323.235    21996321.805   -15034557.976 6 -11715229.817 6
        36.200          38.100
  22275439.765    22275439.063    22275438.954   -12520512.739 5  -9756239.750 5
        32.800          33.100
  22369395.808    22369395.056    22369394.660   -11544866.300 5  -8995994.783 5
        31.300          31.300
  20465910.558    20465909.726    20465907.205   -25435004.194 6 -19819474.698 7
        37.600          45.900
  23879706.208    23879704.399    23879702.667    -5978656.430 3  -4658690.497 3
        21.100          22.600
  21644321.377    21644320.846    21644318.097   -18339561.996 6 -14290560.540 6
        38.000          38.400
  24051183.778    24051183.011    24051184.434    -3711229.857 2  -2891861.220 3
        13.900          21.100
 09  1  2  0 14 30.0000000  0 10G21G26G 9G15G 6G 3G18G19G22G24
  20694080.092    20694079.310    20694077.572   -25622108.198 6 -19965269.649 6
        40.700          41.800
  23055301.877    23055301.438    23055300.365    -6577257.990 3  -5125126.563 3
        22.600          23.400
  23632135.058    23632134.137    23632133.888    -7195275.955 2  -5606705.509 3
        17.800          21.100
  22009089.684    22009089.566    22009088.051   -14967471.068 6 -11662954.299 6
        36.000          37.900
  22277951.598    22277950.953    22277950.633   -12507313.279 5  -9745954.455 5
        32.800          33.000
  22370152.389    22370151.537    22370151.521   -11540889.010 5  -8992895.591 5
        30.600          31.300
  20463059.451    20463058.651    20463057.578   -25449986.438 6 -19831149.168 7
        37.500          45.700
  23865959.790    23865958.327    23865956.645    -6050893.486 3  -4714979.104 3
        22.600          23.000
  21631015.144    21631014.643    21631011.894   -18409486.433 6 -14345047.082 6
        37.900          38.500
  24070824.041    24070823.192    24070824.419    -3608019.273 2  -2811437.417 3
        12.600          21.100
 09  1  2  0 15  0.0000000  0 10G21G26G 9G15G 6G 3G18G19G22G24
  20703052.339    20703051.481    20703049.713   -25574959.818 6 -19928530.648 6
        40.900          41.900
  23075912.329    23075911.883    23075910.810    -6468949.711 3  -5040730.471 3
        22.600          23.800
  23611911.452    23611911.040    23611911.119    -7301549.906 2  -5689516.352 3
        16.100          22.600
  22021939.106    22021938.935    22021937.377   -14899947.292 6 -11610338.360 6
        36.000          38.000
  22280571.681    22280571.186    22280571.176   -12493542.763 5  -9735224.182 5
        32.700          33.000
  22371026.978    22371026.107    22371026.128   -11536293.266 5  -8989314.487 5
        30.800          31.100
  20460283.196    20460282.362    20460279.897   -25464576.082 6 -19842517.721 7
        37.500          45.900
  23852295.553    23852293.941    23852292.207    -6122700.623 3  -4770932.708 4
        22.600          24.200
  21617763.301    21617762.783    21617760.103   -18479125.011 6 -14399310.883 6
        37.900          38.600
  24090489.919    24090488.503    24090489.904    -3504675.161 2  -2730909.556 3
        12.600          21.100
 09  1  2  0 15 30.0000000  0 10G21G26G 9G15G 6G 3G18G19G22G24
  20712116.271    20712115.344    20712113.537   -25527328.852 6 -19891415.612 6
        40.800          41.600
  23096582.254    23096582.146    23096581.378    -6360324.465 3  -4956087.403 4
        22.100          24.200
  23591738.448    23591737.709    23591738.797    -7407556.465 2  -5772118.780 3
        15.100          23.800
  22034870.683    22034870.542    22034869.188   -14831990.280 5 -11557384.839 6
        35.800          37.900
  22283300.435    22283299.821    22283299.886   -12479203.014 5  -9724050.351 5
        32.700          33.000
  22372018.793    22372017.972    22372018.044   -11531080.890 5  -8985252.892 5
        30.600          31.500
  20457581.480    20457580.640    20457579.547   -25478774.149 6 -19853581.150 7
        37.600          46.000
  23838713.732    23838712.197    23838709.900    -6194076.734 3  -4826550.426 4
        23.000          24.600
  21604565.893    21604565.323    21604562.606   -18548478.296 6 -14453352.373 6
        37.800          38.600
  24110179.832    24110178.805    24110180.903    -3401200.086 2  -2650279.668 3
        12.600          21.600
 09  1  2  0 16  0.0000000  0 10G21G26G 9G15G 6G 3G18G19G22G24
  20721271.533    20721270.745    20721269.066   -25479216.334 6 -19853925.340 6
        40.600          41.500
  23117312.723    23117312.590    23117311.806    -6251385.635 3  -4871199.989 4
        21.100          24.200
  23571618.243    23571617.182    23571617.570    -7513292.134 2  -5854510.156 3
        17.000          23.400
  22047884.303    22047884.374    22047882.881   -14763602.632 5 -11504095.762 6
        35.700          37.700
  22286137.532    22286136.948    22286136.761   -12464294.859 5  -9712433.607 5
        32.700          33.000
  22373127.737    22373126.958    22373127.282   -11525252.395 5  -8980711.204 5
        30.200          31.500
  20454954.054    20454953.298    20454950.684   -25492580.740 6 -19864339.536 7
        37.500          45.800
  23825212.824    23825211.281    23825209.849    -6265019.768 3  -4881830.702 4
        23.400          24.600
  21591422.901    21591422.415    21591419.389   -18617545.429 6 -14507170.893 6
        38.200          38.600
  24129895.229    24129894.255    24129896.451    -3297595.808 1  -2569549.099 3
        11.000          21.600
 09  1  2  0 16 30.0000000  0 10G21G26G 9G15G 6G 3G18G19G22G24
  20730518.920    20730518.102    20730516.411   -25430621.365 6 -19816059.130 6
        40.700          41.400
  23138102.634    23138102.249    23138101.132    -6142135.153 3  -4786069.742 3
        21.100          23.400
  23551549.985    23551549.216    23551548.886    -7618751.834 3  -5936686.516 3
        18.600          22.600
  22060980.056    22060979.922    22060978.517   -14694784.563 5 -11450471.283 6
        35.500          37.700
  22289082.881    22289082.412    22289081.974   -12448817.585 5  -9700373.400 5
        33.000          33.000
  22374354.346    22374353.500    22374353.586   -11518806.584 5  -8975688.488 5
        30.400          31.100
  20452401.574    20452400.779    20452399.692   -25505994.185 6 -19874791.574 7
        37.500          45.700
  23811795.252    23811794.522    23811792.752    -6335525.869 3  -4936770.495 4
        22.100          24.900
  21578334.612    21578334.152    21578331.235   -18686323.969 6 -14560764.537 6
        38.100          38.700
  24149635.731    24149634.588    24149635.645    -3193862.094 2  -2488717.671 3
        12.600          20.500
 09  1  2  0 17  0.0000000  0 10G21G26G 9G15G 6G 3G18G19G22G24
  20739856.063    20739855.188    20739853.387   -25381554.847 6 -19777825.478 6
        40.700          41.300
  23158949.502    23158949.111    23158947.365    -6032586.549 3  -4700707.181 3
        21.100          23.400
  23531532.577    23531531.553    23531531.806    -7723942.514 3  -6018653.233 3
        18.600          22.600
  22074155.003    22074154.983    22074153.647   -14625549.306 5 -11396521.729 6
        35.400          37.700
  22292134.418    22292133.859    22292133.546   -12432781.988 5  -9687878.130 5
        32.800          33.100
  22375696.200    22375695.520    22375695.514   -11511755.009 5  -8970193.739 5
        31.000          31.000
  20449922.037    20449921.190    20449918.669   -25519024.564 6 -19884945.121 7
        37.400          45.800
  23798460.846    23798459.115    23798457.934    -6405603.292 3  -4991376.261 4
        22.600          25.300
  21565299.628    21565299.087    21565296.079   -18754823.639 6 -14614140.876 6
        38.300          38.700
  24169397.575    24169397.120    24169398.112    -3090010.962 2  -2407794.736 3
        12.600          19.900
 09  1  2  0 17 30.0000000  0 10G21G26G 9G15G 6G 3G18G19G22G24
  20749287.074    20749286.198    20749284.362   -25331994.791 6 -19739207.251 6
        40.700          41.200
  23179856.549    23179855.756    23179854.166    -5922719.959 3  -4615096.831 3
        20.500          23.000
  23511571.733    23511570.937    23511570.995    -7828837.492 3  -6100389.526 3
        19.300          23.400
  22087413.703    22087413.483    22087412.098   -14555875.740 5 -11342230.633 6
        35.500          37.700
  22295296.136    22295295.423    22295295.434   -12416165.879 5  -9674930.513 5
        32.400          33.000
  22377157.834    22377157.104    22377157.119   -11504074.371 5  -8964208.819 5
        31.100          31.100
  20447519.640    20447518.794    20447517.640   -25531648.710 6 -19894782.116 7
        37.400          45.600
  23785211.579    23785209.728    23785208.804    -6475226.934 3  -5045628.428 4
        21.600          25.300
  21552322.164    21552321.711    21552318.737   -18823020.104 6 -14667280.957 6
        38.500          38.800
  24189188.046    24189186.503    24189186.697    -2986020.544 2  -2326763.269 3
        13.900          19.300
 09  1  2  0 18  0.0000000  0 10G21G26G 9G15G 6G 3G18G19G22G24
  20758808.285    20758807.449    20758805.731   -25281959.620 6 -19700218.807 6
        40.600          41.000
  23200819.308    23200818.880    23200817.829    -5812556.506 3  -4529255.188 3
        20.500          23.400
  23491664.462    23491664.177    23491663.818    -7933450.907 3  -6181906.435 3
        19.300          23.800
  22100751.634    22100751.490    22100749.934   -14485784.245 5 -11287613.879 6
        35.500          37.400
  22298564.968    22298564.380    22298564.137   -12398988.157 5  -9661545.277 5
        32.400          33.000
  22378735.805    22378734.978    22378734.873   -11495783.110 5  -8957748.087 5
        31.300          30.800
  20445191.265    20445190.464    20445187.797   -25543884.636 6 -19904316.606 7
        37.400          45.800
  23772045.965    23772044.293    23772042.383    -6544412.160 3  -5099538.969 4
        21.600          24.600
  21539399.270    21539398.788    21539395.783   -18890930.511 6 -14720198.135 6
        38.600          38.900
  24208998.663    24208997.789    24208998.013    -2881910.388 2  -2245638.505 3
        15.100          19.300
 09  1  2  0 18 30.0000000  0 10G21G26G 9G15G 6G 3G18G19G22G24
  20768420.470    20768419.680    20768417.925   -25231446.789 6 -19660858.158 6
        40.500          40.700
  23221839.099    23221839.085    23221837.806    -5702096.141 3  -4443182.177 3
        20.500          23.400
  23471812.651    23471811.879    23471811.838    -8037775.973 3  -6263198.644 4
        19.900          24.200
  22114169.019    22114168.957    22114167.502   -14415273.680 5 -11232670.574 6
        35.100          37.200
  22301941.163    22301940.652    22301940.388   -12381245.936 5  -9647720.172 5
        32.300          32.800
  22380430.090    22380429.172    22380429.177   -11486878.947 5  -8950809.759 5
        31.000          30.600
  20442937.321    20442936.584    20442935.507   -25555728.706 6 -19913545.748 7
        37.400          45.500
  23758965.651    23758964.089    23758961.434    -6613153.353 3  -5153103.487 4
        22.100          24.900
  21526531.743    21526531.224    21526528.124   -18958550.665 6 -14772889.143 6
        38.700          38.900
  24228832.776    24228831.779    24228832.688    -2777678.431 2  -2164418.805 2
        16.100          17.800
 09  1  2  0 19  0.0000000  0 10G21G26G 9G15G 6G 3G18G19G22G24
  20778123.217    20778122.423    20778120.687   -25180458.993 6 -19621127.410 6
        40.500          40.700
  23242914.387    23242914.683    23242913.737    -5591343.871 3  -4356881.697 3
        19.900          23.400
  23452015.035    23452014.329    23452014.341    -8141810.759 3  -6344264.691 3
        21.100          23.400
  22127665.914    22127665.784    22127664.356   -14344348.498 5 -11177404.196 6
        35.300          37.200
  22305424.433    22305423.738    22305423.507   -12362941.950 5  -9633457.316 5
        32.100          32.700
  22382240.626    22382239.978    22382239.835   -11477364.132 5  -8943395.610 5
        31.500          30.400
  20440757.691    20440756.936    20440754.196   -25567183.183 6 -19922471.322 7
        37.400          45.600
  23745968.600    23745966.974    23745965.136    -6681450.500 3  -5206322.011 4
        22.100          24.900
  21513718.949    21513718.413    21513715.436   -19025882.043 6 -14825355.135 6
        38.600          39.100
  24248690.008    24248689.161    24248689.571    -2673327.967 2  -2083106.757 2
        15.100          17.000
 09  1  2  0 19 30.0000000  0 10G21G26G 9G15G 6G 3G18G19G22G24
  20787918.222    20787917.329    20787915.654   -25128986.226 6 -19581018.763 6
        40.500          40.700
  23264047.408    23264047.156    23264046.339    -5480292.410 3  -4270348.076 3
        19.900          23.400
  23432275.643    23432275.017    23432274.808    -8245541.165 3  -6425093.564 3
        19.900          22.100
  22141242.862    22141242.971    22141241.434   -14273000.381 5 -11121808.258 6
        35.300          37.200
  22309016.205    22309015.571    22309015.611   -12344066.310 5  -9618749.027 5
        32.000          33.000
  22384169.382    22384168.632    22384168.301   -11467228.557 5  -8935497.744 5
        31.500          30.200
  20438654.263    20438653.500    20438652.205   -25578236.690 6 -19931084.442 7
        37.400          45.600
  23733058.706    23733057.242    23733056.020    -6749290.675 3  -5259184.454 4
        22.100          25.600
  21500963.276    21500962.784    21500960.008   -19092912.650 6 -14877586.750 6
        38.600          39.300
  24268571.504    24268569.852    24268571.268    -2568849.784 2  -2001695.187 2
        13.900          15.100
 09  1  2  0 20  0.0000000  0 11G21G26G 9G15G14G 6G 3G18G19G22G24
  20797805.500    20797804.645    20797802.922   -25077028.053 6 -19540531.868 6
        40.400          40.600
  23285236.673    23285236.330    23285234.694    -5368943.670 3  -4183582.837 3
        19.300          22.600
  23412594.550    23412594.382    23412594.396    -8348962.597 3  -6505681.686 3
        19.300          21.600
  22154900.520    22154900.443    22154898.812   -14201229.918 5 -11065883.215 6
        35.400          37.100
  25270697.900    25270696.723    25270694.418          -1.0281          -.99011
         3.000          11.000
  22312717.041    22312716.395    22312716.120   -12324618.908 5  -9603595.191 5
        32.300          33.000
  22386216.534    22386215.643    22386215.304   -11456472.031 5  -8927116.031 5
        31.300          30.600
  20436627.421    20436626.616    20436623.865   -25588888.067 6 -19939384.215 7
        37.400          45.700
  23720237.256    23720235.506    23720233.899    -6816670.531 3  -5311688.214 4
        23.400          25.300
  21488265.265    21488264.780    21488262.080   -19159640.584 6 -14929582.517 6
        38.600          39.400
  24288476.970    24288476.150    24288476.507    -2464244.050 2  -1920184.247 2
        12.600          13.900
 09  1  2  0 20 30.0000000  0 11G21G26G 9G15G14G 6G 3G18G19G22G24
  20807780.278    20807779.470    20807777.720   -25024610.249 6 -19499686.823 6
        40.400          40.500
  23306476.806    23306476.468    23306474.801    -5257325.806 3  -4096607.868 3
        19.300          22.100
  23392969.332    23392968.789    23392968.481    -8452096.271 3  -6586045.583 3
        19.300          22.100
  22168632.947    22168632.893    22168631.411   -14129064.697 5 -11009650.576 6
        35.300          36.900
  25248641.560    25248641.201    25248639.959     -115902.748 1    -90313.963 2
         6.500          13.900
  22316521.467    22316520.920    22316520.746   -12304625.395 5  -9588015.832 5
        32.100          33.000
  22388376.391    22388375.745    22388375.523   -11445119.832 5  -8918270.153 5
        31.300          30.600
  20434672.284    20434671.476    20434670.172   -25599162.311 6 -19947390.109 7
        37.400          45.700
  23707498.880    23707496.947    23707495.132    -6883612.678 3  -5363850.902 4
        23.400          25.900
  21475620.593    21475620.026    21475617.061   -19226089.909 6 -14981361.190 6
        38.900          39.400
  24308401.968    24308401.551    24308401.878    -2359537.518 1  -1838594.760 2
        11.000          13.900
 09  1  2  0 21  0.0000000  0 11G22G21G26G 9G15G14G 6G 3G18G19G24
  21463032.262    21463031.824    21463028.980   -19292240.963 6 -15032907.446 6
        39.100          39.600
  20817845.734    20817844.889    20817843.257   -24971715.211 6 -19458469.906 6
        40.300          40.400
  23327770.589    23327770.085    23327769.425    -5145423.383 3  -4009411.175 3
        18.600          22.100
  23373402.402    23373401.998    23373402.057    -8554920.011 3  -6666167.954 3
        18.600          23.400
  22182443.757    22182443.605    22182442.162   -14056488.573 5 -10953097.752 6
        34.900          36.800
  25226592.288    25226593.011    25226593.039     -231762.216 1   -180594.045 2
         9.000          16.100
  22320433.828    22320433.087    22320432.814   -12284067.813 5  -9571996.933 5
        32.300          32.800
  22390653.542    22390652.841    22390652.763   -11433154.105 5  -8908946.210 5
        31.100          30.600
  20432792.433    20432791.657    20432788.883   -25609040.754 6 -19955087.585 7
        37.400          45.700
  23694847.304    23694845.673    23694843.275    -6950096.547 4  -5415656.486 4
        24.600          25.900
  24328349.050    24328349.346    24328349.432    -2254712.723 1  -1756913.154 2
         9.000          13.900
 09  1  2  0 21 30.0000000  0 11G22G21G26G 9G15G14G 6G 3G18G19G24
  21450500.291    21450499.846    21450496.930   -19358096.946 6 -15084223.779 6
        39.100          39.700
  20828001.341    20828000.489    20827998.817   -24918347.797 6 -19416884.906 6
        40.200          40.300
  23349117.505    23349117.276    23349116.180    -5033243.675 3  -3921998.405 3
        19.300          21.600
  23353895.020    23353894.350    23353894.913    -8657434.034 3  -6746048.971 4
        20.500          24.600
  22196331.470    22196331.462    22196329.901   -13983507.917 5 -10896229.707 6
        34.800          36.500
  25204549.881    25204549.833    25204552.807     -347581.473     -270842.775 2
         3.000          13.900
  22324451.955    22324451.407    22324450.976   -12262951.457 5  -9555542.615 5
        32.400          32.600
  22393046.420    22393045.558    22393045.397   -11420580.065 5  -8899148.251 5
        31.000          30.600
  20430987.272    20430986.424    20430985.181   -25618527.201 6 -19962479.603 7
        37.400          45.600
  23682282.989    23682281.178    23682278.665    -7016123.953 3  -5467106.379 4
        23.800          25.300
  24348319.890    24348318.909    24348318.191    -2149775.295 1  -1675143.773 2
         9.000          12.600
 09  1  2  0 22  0.0000000  0 11G22G21G26G 9G15G14G 6G 3G18G19G24
  21438024.904    21438024.378    21438021.349   -19423655.982 6 -15135308.722 6
        39.200          39.600
  20838246.520    20838245.827    20838244.236   -24864507.719 6 -19374931.599 6
        40.200          40.200
  23370516.780    23370516.280    23370515.906    -4920788.884 2  -3834371.278 3
        17.800          21.600
  23334446.913    23334446.121    23334446.497    -8759633.707 3  -6825685.054 4
        20.500          24.600
  22210295.812    22210295.816    22210294.220   -13910124.339 5 -10839047.694 6
        34.800          36.500
  25182517.423    25182517.798    25182521.265     -463357.576     -361057.886 1
         3.000          11.000
  22328576.653    22328576.095    22328575.924   -12241276.094 5  -9538652.717 5
        32.400          32.700
  22395555.123    22395554.185    22395554.020   -11407396.997 5  -8888875.724 5
        30.800          30.800
  20429256.782    20429255.904    20429253.096   -25627620.926 6 -19969565.608 7
        37.300          45.800
  23669805.511    23669803.678    23669801.605    -7081691.759 3  -5518198.159 4
        23.000          24.900
  24368309.951    24368309.108    24368308.586    -2044725.390 1  -1593286.739 2
        11.000          12.600
 09  1  2  0 22 30.0000000  0 11G22G21G26G 9G15G14G 6G 3G18G19G24
  21425606.393    21425605.863    21425602.812   -19488916.271 6 -15186160.881 6
        39.500          39.700
  20848582.156    20848581.284    20848579.664   -24810194.943 6 -19332609.954 6
        40.200          40.200
  23391968.625    23391967.907    23391967.257    -4808060.992 2  -3746531.371 3
        17.800          21.600
  23315059.435    23315058.922    23315059.122    -8861514.405 3  -6905072.599 3
        20.500          23.400
  22224337.000    22224336.907    22224335.129   -13836338.633 5 -10781552.332 6
        34.800          36.300
  25160498.138    25160495.448    25160498.339     -579087.671     -451237.145 1
         3.000           9.000
  22332807.655    22332807.106    22332806.891   -12219041.445 5  -9521327.013 5
        32.300          32.600
  22398179.790    22398178.911    22398178.848   -11393604.225 5  -8878128.106 5
        30.800          31.100
  20427601.175    20427600.390    20427598.955   -25636320.718 6 -19976344.651 7
        37.300          45.500
  23657415.890    23657414.143    23657412.873    -7146796.589 3  -5568929.183 4
        23.400          25.900
  24388321.639    24388320.784    24388319.913    -1939563.615 1  -1511342.531 2
        11.000          12.600
 09  1  2  0 23  0.0000000  0 11G22G21G26G 9G15G14G 6G 3G18G19G24
  21413244.813    21413244.346    21413241.390   -19553875.469 6 -15236778.420 6
        39.300          39.800
  20859007.567    20859006.755    20859005.027   -24755408.532 6 -19289919.254 6
        40.000          39.800
  23413471.531    23413471.456    23413470.409    -4695061.689 2  -3658479.977 3
        17.000          22.100
  23295734.096    23295733.437    23295733.384    -8963070.999 3  -6984207.593 4
        20.500          24.200
  22238454.477    22238454.320    22238452.615   -13762151.723 5 -10723744.345 6
        34.900          36.500
  25138483.743    25138482.569    25138484.311     -694767.784 1   -541377.501 1
         6.500           9.000
  22337145.284    22337144.746    22337144.501   -12196247.080 5  -9503565.164 5
        32.300          32.600
  22400920.126    22400919.425    22400919.577   -11379201.641 5  -8866905.304 5
        31.000          31.100
  20426020.997    20426020.163    20426017.312   -25644624.750 6 -19982815.315 7
        37.300          45.600
  23645115.922    23645114.317    23645112.576    -7211434.924 3  -5619296.704 4
        23.800          26.800
  24408354.261    24408353.773    24408353.106    -1834289.920 1  -1429311.126 2
         9.000          13.900
 09  1  2  0 23 30.0000000  0 11G22G21G26G 9G15G14G 6G 3G18G19G24
  21400940.220    21400939.702    21400936.765   -19618537.089 6 -15287164.084 6
        39.300          39.900
  20869522.260    20869521.470    20869519.654   -24700153.862 6 -19246863.670 6
        40.200          39.600
  23435025.557    23435024.917    23435023.248    -4581798.623 3  -3570223.053 3
        18.600          21.100
  23276469.473    23276468.778    23276469.252    -9064304.433 3  -7063090.763 4
        20.500          25.300
  22252646.834    22252646.596    22252644.806   -13687570.695 5 -10665629.256 6
        34.800          36.200
  25116481.483    25116480.335    25116479.585     -810400.893 1   -631481.162 1
         6.500           9.000
  22341588.440    22341587.784    22341587.555   -12172898.424 5  -9485371.398 5
        32.100          32.600
  22403776.411    22403775.636    22403775.289   -11364194.477 5  -8855211.405 5
        31.000          31.000
  20424515.066    20424514.308    20424512.911   -25652537.544 6 -19988981.115 7
        37.300          45.300
  23632904.330    23632902.459    23632900.372    -7275609.317 4  -5669302.712 4
        24.900          26.500
  24428407.194    24428406.465    24428406.577    -1728910.125 1  -1347197.060 2
         6.500          15.100
 09  1  2  0 24  0.0000000  0 11G22G21G26G 9G15G14G 6G 3G18G19G24
  21388693.056    21388692.495    21388689.486   -19682896.661 6 -15337314.382 6
        39.500          39.800
  20880126.420    20880125.595    20880123.835   -24644428.523 6 -19203441.337 6
