     2.11           OBSERVATION DATA    G (GPS)             RINEX VERSION / TYPE
teqc  2008Oct2      WCDA Operator       20090119 20:58:14UTCPGM / RUN BY / DATE
Solaris x86 5.10|AMD64|cc SC5.8 -xarch=amd64|=+|=+          COMMENT
teqc  2008Oct2      WCDA Operator       20090119 20:58:14UTCCOMMENT
teqc  2008Oct2      WCDA Operator       20090118 01:18:22UTCCOMMENT
flin  WCDA-ACP   965000   CFS Flin Flon SASK Canada         MARKER NAME
40135M001                                                   MARKER NUMBER
PGC-WCDA            GEOL. SURV. CANADA                      OBSERVER / AGENCY
1115                AOA BENCHMARK ACT   3.3.32.4            REC # / TYPE / VERS
231                 AOAD/M_T        SCIS                    ANT # / TYPE
  -766174.4630 -3611375.3160  5184056.2210                  APPROX POSITION XYZ
        0.1500        0.0000        0.0000                  ANTENNA: DELTA H/E/N
     1     1                                                WAVELENGTH FACT L1/2
     7    C1    P1    P2    L1    L2    S1    S2            # / TYPES OF OBSERV
STATION INFORMATION EFFECTIVE FROM: 2001/01/13 18:20:00     COMMENT
                                TO: CURRENT DATE (above)    COMMENT
BIT 2 OF LLI FLAGS (+4) DATA COLLECTED UNDER 'AS' CONDITION COMMENT
L1 PHASE CENTRE 0.110m ABOVE ARP                            COMMENT
L2 PHASE CENTRE 0.128m ABOVE ARP                            COMMENT
where ARP is the Antenna Reference Point for HI measurement COMMENT
CONTACT gps@pgc.nrcan.gc.ca FOR ADDITIONAL INFORMATION      COMMENT
    P1 =    P1  TurboRogue; =    Y1  Benchmark              COMMENT
    L1 = L1(CA)                                             COMMENT
    P2 =    P2  TurboRogue; =    Y2  Benchmark              COMMENT
    L2 = L2(P2) TurboRogue; = L2(Y2) Benchmark              COMMENT
 SNR is mapped to RINEX snr flag value [0-9]                COMMENT
  L1 & L2: min(max(int(snr_dBHz/6), 0), 9)                  COMMENT
  2009     1    18     0     0    0.0000000     GPS         TIME OF FIRST OBS
                                                            END OF HEADER
 09  1 18  0  0  0.0000000  0 10G21G28G 9G15G 6G19G22G 3G18G14
  22066104.569    22066103.978    22066102.057   -16548932.428 6 -12895265.432 5
        36.300          30.600
  25532885.112    25532886.213    25532883.991     -296058.673 1   -230695.282 1
         6.500           9.000
  21945792.533    21945792.118    21945792.037   -11348271.006 6  -8842805.150 5
        36.000          34.500
  23682880.328    23682880.161    23682878.818    -6235279.116 4  -4858648.525 4
        28.800          29.500
  23067819.138    23067818.927    23067819.567    -7800727.200 4  -6078484.907 4
        29.700          29.700
  22983002.585    22983000.962    22982999.398    -9380820.148 5  -7309726.811 5
        33.100          31.300
  20585304.487    20585304.015    20585300.902   -22626299.825 7 -17630874.171 7
        44.600          47.200
  23022988.918    23022988.543    23022988.471    -5443340.347 4  -4241561.033 4
        29.700          29.000
  20548921.982    20548921.283    20548919.707   -24409094.584 7 -19020065.323 7
        42.100          47.900
  23275149.388    23275148.492    23275148.351   -10465575.195 4  -8154990.090 4
        27.100          25.900
 09  1 18  0  0 30.0000000  0 10G21G28G 9G15G 6G19G22G 3G18G14
  22083410.299    22083409.732    22083407.885   -16457989.577 5 -12824400.879 5
        35.600          30.600
  25528796.724    25528796.441    25528795.916     -317541.738 1   -247435.267 1
         6.500          11.000
  21934218.813    21934218.240    21934217.992   -11409092.193 5  -8890198.259 5
        35.900          34.800
  23701871.166    23701871.316    23701870.539    -6135479.339 4  -4780882.445 4
        28.600          29.700
  23080143.114    23080142.429    23080142.505    -7735967.973 4  -6028023.176 4
        29.900          29.200
  22979250.399    22979249.007    22979247.888    -9400535.169 5  -7325089.164 5
        32.300          32.300
  20578426.950    20578426.531    20578423.602   -22662440.095 7 -17659035.413 7
        44.500          47.300
  23034565.014    23034564.671    23034565.386    -5382504.601 5  -4194156.567 4
        30.400          29.000
  20553521.871    20553521.275    20553519.732   -24384921.022 7 -19001228.773 7
        42.100          47.800
  23255425.779    23255424.895    23255424.110   -10569224.960 4  -8235756.127 4
        27.600          25.900
 09  1 18  0  1  0.0000000  0 10G21G28G 9G15G 6G19G22G 3G18G14
  22100781.978    22100781.162    22100779.808   -16366699.730 5 -12753265.936 5
        35.500          30.800
  25524806.257    25524804.905    25524801.563     -338530.337 2   -263789.981 2
        12.600          12.600
  21922760.690    21922760.180    21922759.583   -11469305.120 6  -8937117.397 5
        36.300          34.700
  23720899.410    23720899.178    23720898.673    -6035486.676 4  -4702966.087 5
        27.400          30.200
  23092543.040    23092542.757    23092542.864    -7670804.050 5  -5977246.117 4
        30.100          29.000
  22975610.999    22975609.409    22975607.845    -9419663.968 5  -7339994.709 5
        33.400          32.800
  20571619.413    20571619.079    20571616.209   -22698213.531 7 -17686910.803 7
        44.700          47.500
  23046230.187    23046229.584    23046229.550    -5321209.124 5  -4146393.861 4
        31.600          28.800
  20558194.953    20558194.190    20558192.703   -24360364.716 7 -18982093.986 7
        42.300          47.900
  23235743.799    23235743.326    23235742.590   -10672651.557 4  -8316348.264 4
        27.900          25.900
 09  1 18  0  1 30.0000000  0 10G21G28G 9G15G 6G19G22G 3G18G14
  22118220.522    22118219.770    22118218.695   -16275059.050 5 -12681857.622 5
        35.600          30.600
  25520906.895    25520906.602    25520902.650     -359018.018 2   -279754.424 2
        16.100          13.900
  21911420.298    21911419.594    21911418.603   -11528902.081 6  -8983556.572 5
        37.000          34.800
  23739964.790    23739964.392    23739963.783    -5935298.202 4  -4624897.149 4
        25.900          29.200
  23105021.289    23105020.761    23105020.850    -7605232.272 4  -5926151.228 4
        29.200          29.000
  22972084.232    22972082.358    22972080.636    -9438200.620 5  -7354438.845 5
        35.100          33.000
  20564883.115    20564882.723    20564879.558   -22733614.253 7 -17714495.780 7
        44.900          47.400
  23057982.173    23057981.607    23057981.654    -5259450.790 5  -4098270.481 4
        30.800          29.000
  20562941.534    20562940.974    20562939.456   -24335420.735 7 -18962657.111 7
        42.600          47.800
  23216106.339    23216105.785    23216105.248   -10775847.838 4  -8396760.936 4
        27.900          26.500
 09  1 18  0  2  0.0000000  0 10G21G28G 9G15G 6G19G22G 3G18G14
  22135723.748    22135723.240    22135722.288   -16183077.419 5 -12610183.621 5
        35.500          30.200
  25517100.662    25517100.880    25517098.633     -379012.014 2   -295334.134 2
        15.100          15.100
  21900195.064    21900194.659    21900194.048   -11587888.153 6  -9029519.716 5
        36.900          35.400
  23759065.281    23759065.042    23759064.135    -5834923.928 4  -4546683.441 4
        25.600          28.400
  23117574.150    23117573.596    23117574.081    -7539262.887 4  -5874746.514 4
        28.400          28.600
  22968668.010    22968666.318    22968664.177    -9456152.388 5  -7368427.236 5
        35.800          32.300
  20558216.132    20558215.747    20558212.645   -22768649.276 7 -17741795.788 7
        44.800          47.500
  23069821.148    23069820.252    23069820.035    -5197240.129 5  -4049794.645 4
        30.200          29.000
  20567760.879    20567760.107    20567758.219   -24310096.978 7 -18942924.310 7
        42.600          47.600
  23196511.669    23196510.902    23196510.258   -10878819.947 4  -8476998.924 4
        28.100          26.800
 09  1 18  0  2 30.0000000  0 10G21G28G 9G15G 6G19G22G 3G18G14
  22153292.435    22153291.773    22153290.613   -16090755.333 5 -12538244.336 5
        35.700          30.200
  25513389.271    25513389.126    25513389.051     -398510.158 2   -310527.442 2
        12.600          16.100
  21889087.074    21889086.741    21889086.061   -11646259.458 6  -9075003.823 5
        36.700          34.800
  23778200.878    23778201.303    23778199.411    -5734364.811 4  -4468325.689 4
        26.200          27.900
  23130203.730    23130203.206    23130202.969    -7472897.184 4  -5823032.993 4
        28.600          28.100
  22965363.457    22965361.849    22965359.156    -9473517.720 6  -7381958.652 5
        36.100          31.500
  20551618.763    20551618.474    20551615.626   -22803317.119 7 -17768809.685 7
        44.700          47.700
  23081744.498    23081744.035    23081744.262    -5134578.303 5  -4000967.243 4
        30.100          29.000
  20572651.966    20572651.297    20572649.553   -24284393.059 7 -18922895.276 7
        42.700          47.600
  23176959.550    23176959.013    23176958.573   -10981564.826 4  -8557059.848 4
        28.400          27.100
 09  1 18  0  3  0.0000000  0 10G21G28G 9G15G 6G19G22G 3G18G14
  22170925.262    22170924.535    22170922.966   -15998096.157 5 -12466042.381 5
        35.800          30.200
  25509774.628    25509774.268    25509772.470     -417513.214 2   -325334.943 2
        12.600          12.600
  21878096.977    21878096.497    21878095.363   -11704014.613 6  -9120007.820 5
        37.100          34.500
  23797371.080    23797371.413    23797369.610    -5633624.314 4  -4389826.583 4
        27.100          27.400
  23142907.692    23142907.054    23142907.138    -7406139.045 4  -5771013.675 4
        28.600          28.600
  22962169.742    22962168.540    22962166.990    -9490297.414 5  -7395033.731 5
        35.400          32.600
  20545091.666    20545091.310    20545088.155   -22837618.285 7 -17795537.856 7
        44.700          47.500
  23093753.446    23093753.072    23093752.956    -5071469.728 4  -3951791.733 4
        29.700          28.400
  20577615.314    20577614.615    20577613.131   -24258310.199 7 -18902570.966 7
        42.500          47.700
  23157451.079    23157450.149    23157449.908   -11084082.312 4  -8636943.569 4
        28.100          26.800
 09  1 18  0  3 30.0000000  0 10G21G28G 9G15G 6G19G22G 3G18G14
  22188622.036    22188621.432    22188619.817   -15905097.978 5 -12393576.267 4
        35.400          29.900
  25506253.103    25506251.485    25506252.417     -436016.420 1   -339753.005 1
         6.500          11.000
  21867225.001    21867224.565    21867223.777   -11761147.038 6  -9164526.591 5
        37.100          35.100
  23816576.327    23816576.426    23816574.902    -5532700.885 4  -4311184.942 4
        28.100          27.900
  23155686.044    23155685.282    23155685.720    -7338986.887 4  -5718687.326 4
        27.900          28.400
  22959088.496    22959087.438    22959085.516    -9506487.185 5  -7407649.137 5
        34.700          32.300
  20538634.956    20538634.556    20538631.472   -22871548.133 7 -17821976.692 7
        44.700          47.600
  23105848.582    23105848.104    23105847.338    -5007912.303 5  -3902266.464 4
        30.100          27.900
  20582651.394    20582650.727    20582649.006   -24231845.088 7 -18881948.794 7
        42.600          47.400
  23137987.065    23137986.374    23137986.075   -11186365.984 4  -8716645.108 4
        28.600          26.800
 09  1 18  0  4  0.0000000  0 10G21G28G 9G15G 6G19G22G 3G18G14
  22206384.749    22206383.679    22206381.326   -15811757.898 5 -12320843.745 4
        34.700          29.000
  25502828.263    25502826.489    25502828.240     -454014.315     -353777.265 2
         3.000          12.600
  21856473.153    21856472.399    21856471.805   -11817649.743 6  -9208554.649 5
        36.400          35.500
  23835816.868    23835816.746    23835815.056    -5431591.992 4  -4232398.776 4
        28.100          27.900
  23168538.763    23168538.870    23168539.106    -7271438.675 4  -5666052.363 4
        27.600          28.100
  22956121.639    22956120.243    22956118.158    -9522081.627 5  -7419800.649 5
        35.400          32.700
  20532250.067    20532249.620    20532246.729   -22905101.439 7 -17848122.115 7
        44.800          47.800
  23118027.849    23118027.698    23118028.247    -4943904.317 4  -3852390.110 4
        29.700          28.100
  20587761.177    20587760.501    20587758.744   -24204993.376 7 -18861025.379 7
        42.800          47.400
  23118568.516    23118567.900    23118567.551   -11288410.057 4  -8796159.940 4
        28.600          27.100
 09  1 18  0  4 30.0000000  0 10G21G28G 9G15G 6G19G22G 3G18G14
  22224208.740    22224208.363    22224206.100   -15718088.826 5 -12247854.855 4
        35.100          29.000
  25499498.828    25499498.208    25499496.495     -471517.086 1   -367415.731 1
         9.000           9.000
  21845839.090    21845838.387    21845837.738   -11873531.105 6  -9252098.546 5
        36.600          35.100
  23855090.314    23855089.877    23855088.265    -5330310.728 4  -4153478.302 4
        27.400          27.900
  23181465.620    23181465.770    23181466.235    -7203507.778 4  -5613119.210 4
        28.100          29.000
  22953265.336    22953264.209    22953262.072    -9537091.185 5  -7431496.389 5
        35.800          32.000
  20525934.862    20525934.460    20525931.434   -22938288.236 7 -17873981.951 7
        45.000          47.900
  23130292.294    23130291.528    23130292.025    -4879458.573 4  -3802172.655 4
        29.500          28.800
  20592942.515    20592941.710    20592940.110   -24177766.004 7 -18839809.242 7
        42.900          47.500
  23099194.145    23099193.598    23099193.234   -11390223.165 4  -8875494.791 4
        28.600          27.100
 09  1 18  0  5  0.0000000  0 10G21G28G 9G15G 6G19G22G 3G18G14
  22242096.680    22242096.302    22242094.494   -15624086.532 5 -12174606.300 4
        34.900          29.500
  25496262.300    25496260.611    25496260.047     -488517.754     -380662.962 1
         3.000           9.000
  21835324.269    21835324.009    21835323.519   -11928782.412 6  -9295151.495 5
        36.700          34.800
  23874397.060    23874396.345    23874395.020    -5228853.028 4  -4074420.359 4
        25.900          27.900
  23194467.062    23194466.805    23194466.691    -7135190.323 4  -5559884.842 4
        29.200          28.800
  22950521.640    22950520.496    22950518.120    -9551509.395 6  -7442731.375 5
        36.300          31.800
  20519690.589    20519690.192    20519687.234   -22971101.544 7 -17899550.760 8
        45.000          48.000
  23142639.376    23142638.760    23142639.311    -4814572.131 4  -3751611.787 4
        28.800          28.800
  20598195.823    20598195.174    20598193.869   -24150157.516 7 -18818296.132 7
        42.700          47.500
  23079865.539    23079864.697    23079864.125   -11491797.291 4  -8954643.420 4
        29.000          27.100
 09  1 18  0  5 30.0000000  0 10G21G28G 9G15G 6G19G22G 3G18G14
  22260047.947    22260047.057    22260045.166   -15529755.176 5 -12101101.356 4
        34.300          29.500
  25493120.583    25493122.374    25493119.470     -505018.069     -393520.264 1
                         6.500
  21824930.750    21824930.210    21824929.845   -11983403.542 6  -9337713.395 5
        37.000          35.400
  23893735.642    23893735.748    23893734.262    -5127223.484 4  -3995228.510 4
        25.900          27.100
  23207540.232    23207539.859    23207539.783    -7066491.376 4  -5506353.211 4
        29.000          28.800
  22947890.092    22947888.507    22947886.880    -9565338.019 5  -7453506.914 5
        35.800          32.000
  20513517.319    20513516.848    20513513.749   -23003543.812 7 -17924830.440 8
        45.100          48.100
  23155070.217    23155069.550    23155069.845    -4749249.749 4  -3700711.230 4
        29.200          29.500
  20603521.776    20603521.076    20603519.369   -24122170.519 7 -18796488.077 7
        42.700          47.200
  23060581.242    23060580.802    23060580.398   -11593133.009 4  -9033606.285 4
        29.000          27.100
 09  1 18  0  6  0.0000000  0 10G21G28G 9G15G 6G19G22G 3G18G14
  22278059.836    22278058.947    22278056.749   -15435102.063 5 -12027345.696 4
        33.900          28.600
  25490077.426    25490076.180    25490072.590     -521022.465     -405991.298 1
         3.000           6.500
  21814656.394    21814655.798    21814655.383   -12037397.229 6  -9379786.379 5
        37.700          35.600
  23913105.716    23913106.940    23913105.049    -5025429.464 4  -3915908.476 4
        26.200          27.100
  23220684.906    23220684.278    23220683.966    -6997418.629 4  -5452530.293 4
        28.800          28.600
  22945369.672    22945368.234    22945366.636    -9578582.027 5  -7463826.916 5
        35.100          32.300
  20507413.178    20507412.872    20507409.752   -23035619.226 7 -17949824.264 8
        45.000          48.000
  23167582.443    23167581.775    23167581.461    -4683499.543 4  -3649477.296 4
        29.500          28.400
  20608918.514    20608917.847    20608916.097   -24093810.604 7 -18774389.439 7
        42.800          47.100
  23041341.499    23041342.093    23041341.059   -11694234.057 4  -9112386.301 4
        29.200          26.500
 09  1 18  0  6 30.0000000  0 10G21G28G 9G15G 6G19G22G 3G18G14
  22296132.648    22296132.163    22296129.950   -15340127.138 5 -11953339.257 4
        33.900          28.800
  25487127.823    25487126.903    25487122.213     -536528.362 1   -418073.770 1
         6.500           9.000
  21804501.797    21804501.266    21804500.414   -12090759.429 6  -9421367.293 5
        37.900          34.900
  23932508.439    23932509.023    23932507.157    -4923471.232 4  -3836460.485 4
        25.900          26.800
  23233898.849    23233898.558    23233899.269    -6927972.748 4  -5398416.626 4
        27.600          29.000
  22942961.495    22942959.848    22942957.750    -9591239.191 5  -7473689.642 5
        35.100          32.100
  20501379.732    20501379.444    20501376.289   -23067325.305 7 -17974530.291 8
        45.100          48.200
  23180174.652    23180174.177    23180174.171    -4617321.967 4  -3597910.352 4
        28.400          27.400
  20614386.293    20614385.617    20614384.210   -24065076.256 7 -18751999.032 7
        42.800          47.200
  23022149.045    23022148.681    23022147.546   -11795096.188 4  -9190980.145 4
        29.000          26.800
 09  1 18  0  7  0.0000000  0 10G21G28G 9G15G 6G19G22G 3G18G14
  22314270.386    22314269.431    22314267.379   -15244816.846 5 -11879071.503 4
        33.900          29.200
  25484274.202    25484272.634    25484271.991     -551519.809     -429755.400 1
         3.000           9.000
  21794470.937    21794470.232    21794469.717   -12143472.051 6  -9462442.052 5
        37.400          35.400
  23951945.128    23951944.553    23951942.987    -4821335.788 4  -3756874.418 4
        25.300          26.800
  23247188.346    23247187.771    23247187.864    -6858140.738 4  -5344002.097 4
        27.900          28.100
  22940666.904    22940665.690    22940663.917    -9603293.762 5  -7483082.805 5
        35.300          32.100
  20495419.706    20495419.292    20495416.236   -23098646.138 7 -17998936.129 8
        45.100          48.300
  23192851.454    23192851.046    23192851.498    -4550704.306 4  -3546000.511 4
        28.400          27.600
  20619928.460    20619927.810    20619926.193   -24035952.499 7 -18729305.196 7
        42.800          46.900
  23003004.205    23003003.775    23003003.269   -11895702.609 4  -9269374.717 4
        29.200          27.100
 09  1 18  0  7 30.0000000  0 10G21G28G 9G15G 6G19G22G 3G18G14
  22332469.053    22332468.118    22332466.520   -15149180.067 5 -11804549.352 4
        33.900          29.500
  25481518.059    25481516.778    25481517.814     -566003.255     -441041.193 1
         3.000          11.000
  21784562.393    21784561.995    21784561.532   -12195539.778 6  -9503014.275 5
        37.300          35.800
  23971413.413    23971412.538    23971410.425    -4719032.014 4  -3677157.186 4
        25.300          26.200
  23260548.398    23260547.848    23260547.910    -6787932.286 4  -5289294.213 4
        28.600          27.600
  22938487.319    22938485.773    22938483.555    -9614752.650 6  -7492011.804 5
        36.600          32.300
  20489532.075    20489531.521    20489528.218   -23129587.773 7 -18023046.489 8
        45.100          48.300
  23205610.910    23205610.115    23205610.444    -4483656.008 4  -3493755.092 4
        28.600          27.100
  20625543.664    20625542.989    20625540.927   -24006446.487 7 -18706313.493 7
        43.200          46.800
  22983907.291    22983906.879    22983906.613   -11996058.278 4  -9347573.908 4
        29.900          27.400
 09  1 18  0  8  0.0000000  0 10G21G28G 9G15G 6G19G22G 3G18G14
  22350727.250    22350726.792    22350725.443   -15053228.466 5 -11729781.875 4
        34.300          28.800
  25478856.714    25478855.816    25478856.415     -579987.200     -451937.820 1
         3.000           6.500
  21774776.009    21774775.402    21774774.597   -12246969.502 6  -9543089.368 5
        37.200          35.400
  23990910.651    23990910.313    23990907.915    -4616571.457 4  -3597317.782 4
        25.300          26.200
  23273977.295    23273977.147    23273977.619    -6717359.319 4  -5234302.301 4
        28.800          28.100
  22936417.923    22936416.732    22936414.506    -9625624.619 6  -7500483.457 5
        36.500          31.800
  20483714.107    20483713.690    20483710.721   -23160159.345 7 -18046868.486 8
        45.100          48.500
  23218448.869    23218448.188    23218448.953    -4416189.316 4  -3441183.638 4
        28.400          26.800
  20631229.171    20631228.417    20631226.602   -23976568.181 7 -18683031.695 7
        43.100          46.700
  22964856.801    22964856.281    22964855.508   -12096170.776 5  -9425583.618 4
        30.400          27.400
 09  1 18  0  8 30.0000000  0 10G21G28G 9G15G 6G19G22G 3G18G14
  22369046.900    22369046.308    22369044.574   -14956959.194 5 -11654766.859 4
        34.300          27.900
  25476292.554    25476291.095    25476288.733     -593466.569 1   -462441.314
         6.500           3.000
  21765111.962    21765111.251    21765110.704   -12297754.751 6  -9582662.273 5
        37.600          35.900
  24010438.448    24010438.041    24010435.909    -4513951.870 4  -3517354.463 4
        25.300          27.100
  23287476.294    23287476.441    23287477.275    -6646419.763 4  -5179024.739 4
        28.600          28.400
  22934461.853    22934460.558    22934458.214    -9635904.915 5  -7508494.078 5
        35.500          31.800
  20477967.655    20477967.357    20477964.403   -23190355.908 7 -18070398.270 8
        45.100          48.600
  23231367.146    23231366.961    23231367.358    -4348302.264 4  -3388284.656 4
        28.400          26.800
  20636986.295    20636985.645    20636983.825   -23946313.172 7 -18659456.358 7
        43.100          46.700
  22945853.408    22945853.070    22945852.074   -12196033.918 5  -9503399.032 4
        31.000          27.600
 09  1 18  0  9  0.0000000  0 10G21G28G 9G15G 6G19G22G 3G18G14
  22387427.834    22387427.134    22387425.609   -14860366.880 5 -11579500.119 4
        33.800          27.600
  25473823.864    25473822.340    25473820.990     -606433.058 1   -472545.028 1
         9.000           6.500
  21755572.217    21755571.734    21755571.122   -12347885.316 6  -9621725.038 5
        38.100          35.900
  24029996.756    24029996.794    24029994.996    -4411167.195 4  -3437262.514 4
        24.600          26.800
  23301047.133    23301046.828    23301047.448    -6575108.493 4  -5123457.527 4
        28.400          27.900
  22932619.912    22932618.223    22932616.302    -9645585.444 5  -7516037.331 5
        34.600          31.800
  20472294.567    20472294.275    20472291.209   -23220168.349 7 -18093628.740 8
        45.100          48.500
  23244367.688    23244366.856    23244366.529    -4279989.646 4  -3335054.046 4
        28.800          27.100
  20642816.874    20642816.118    20642814.517   -23915674.084 7 -18635581.738 7
        43.200          46.800
  22926899.483    22926898.792    22926897.655   -12295638.317 5  -9581012.820 4
        30.600          27.600
 09  1 18  0  9 30.0000000  0 10G21G28G 9G15G 6G19G22G 3G18G14
  22405868.343    22405867.255    22405865.889   -14763462.710 5 -11503990.376 4
        33.000          27.600
  25471453.432    25471452.433    25471451.634     -618895.854 1   -482256.380 1
         9.000           9.000
  21746156.063    21746155.482    21746154.728   -12397367.894 6  -9660282.889 5
        37.800          35.500
  24049585.106    24049585.039    24049583.300    -4308229.501 4  -3357051.330 4
        24.600          26.500
  23314686.062    23314685.245    23314685.506    -6503437.613 4  -5067610.098 4
        27.900          27.400
  22930889.926    22930888.168    22930886.975    -9654675.605 5  -7523120.571 5
        34.600          32.000
  20466692.886    20466692.522    20466689.543   -23249606.046 7 -18116567.200 8
        45.300          48.800
  23257445.929    23257445.223    23257444.899    -4211263.859 4  -3281501.474 4
        29.900          27.100
  20648718.599    20648717.880    20648716.141   -23884661.004 7 -18611415.698 7
        43.400          46.800
  22907992.398    22907992.289    22907990.949   -12394991.585 5  -9658430.916 4
        30.200          27.400
 09  1 18  0 10  0.0000000  0 10G 9G21G28G15G 6G19G22G 3G18G14
  21736863.392    21736862.817    21736862.463   -12446200.150 6  -9698333.983 5
        37.500          35.800
  22424367.195    22424366.373    22424365.528   -14666248.232 5 -11428238.847 4
        32.800          27.600
  25469176.411    25469175.855    25469175.950     -630853.801 1   -491574.389 1
        11.000          11.000
  24069202.370    24069202.467    24069200.676    -4205140.380 4  -3276722.130 4
        24.900          26.800
  23328392.103    23328391.858    23328392.028    -6431409.260 4  -5011484.129 4
        27.900          27.400
  22929271.720    22929270.086    22929269.387    -9663174.824 5  -7529743.337 5
        34.000          32.300
  20461162.749    20461162.326    20461159.256   -23278668.170 7 -18139213.004 8
        45.500          48.900
  23270601.970    23270601.543    23270601.322    -4142127.022 4  -3227628.622 4
        29.200          27.100
  20654691.134    20654690.520    20654688.933   -23853273.645 7 -18586958.014 7
        43.400          46.600
  22889134.326    22889134.041    22889132.960   -12494091.238 5  -9735651.399 4
        30.200          27.100
 09  1 18  0 10 30.0000000  0 10G 9G21G28G15G 6G19G22G 3G18G14
  21727695.447    21727694.805    21727693.954   -12494379.715 6  -9735876.486 5
        38.000          35.600
  22442925.877    22442924.999    22442923.444   -14568725.283 5 -11352246.947 4
        33.400          27.900
  25466999.075    25466996.919    25466996.551     -642305.752 1   -500497.861 1
         9.000           9.000
  24088848.320    24088848.258    24088846.512    -4101901.608 4  -3196276.327 4
        24.200          26.800
  23342166.472    23342165.967    23342166.177    -6359025.838 4  -4955081.477 4
        27.900          27.400
  22927766.968    22927765.849    22927764.664    -9671082.676 5  -7535905.298 5
        34.600          32.700
  20455704.022    20455703.650    20455700.450   -23307353.702 7 -18161565.358 8
        45.500          48.800
  23283835.347    23283834.767    23283835.296    -4072581.699 4  -3173437.471 4
        27.600          26.800
  20660735.148    20660734.431    20660732.852   -23821512.273 7 -18562208.883 7
        43.300          46.400
  22870325.105    22870324.657    22870323.822   -12592935.191 5  -9812672.628 4
        30.600          27.100
 09  1 18  0 11  0.0000000  0 10G 9G21G28G15G 6G19G22G 3G18G14
  21718653.196    21718652.591    21718652.074   -12541896.643 6  -9772902.657 5
        38.100          35.600
  22461543.220    22461542.662    22461541.141   -14470888.068 5 -11276010.153 4
        33.200          28.100
  25464914.607    25464915.623    25464912.522     -653243.853 1   -509021.126
         6.500           3.000
  24108523.176    24108523.735    24108521.962    -3998507.544 4  -3115709.520 4
        24.200          26.500
  23356008.030    23356008.007    23356009.147    -6286282.094 4  -4898398.053 4
        28.100          27.900
  22926376.753    22926375.293    22926373.737    -9678391.200 5  -7541600.237 5
        34.700          32.700
  20450318.337    20450318.065    20450315.033   -23335653.940 7 -18183617.491 8
        45.500          48.900
  23297148.409    23297147.699    23297148.290    -4002622.897 4  -3118924.130 4
        26.800          26.200
  20666851.665    20666850.951    20666849.240   -23789369.728 7 -18537162.737 7
        43.200          46.200
  22851565.933    22851565.855    22851564.953   -12691513.960 5  -9889487.236 4
        30.800          27.900
 09  1 18  0 11 30.0000000  0 10G 9G21G28G15G 6G19G22G 3G18G14
  21709737.164    21709736.620    21709735.825   -12588751.064 6  -9809412.589 5
        38.500          35.800
  22480220.632    22480219.520    22480217.937   -14372741.086 5 -11199532.000 4
        33.000          28.100
  25462932.487    25462931.150    25462929.884     -663670.086 1   -517145.560 1
         9.000           9.000
  24128227.166    24128227.546    24128225.893    -3894962.790 3  -3035025.288 4
        22.600          26.200
  23369918.572    23369918.992    23369919.335    -6213183.066 4  -4841437.792 4
        28.800          27.900
  22925099.851    22925097.796    22925096.356    -9685102.545 5  -7546829.870 5
        34.000          32.300
  20445006.229    20445005.840    20445002.734   -23363570.945 7 -18205370.994 8
        45.600          49.100
  23310539.160    23310538.516    23310538.992    -3932255.764 4  -3064092.589 4
        27.400          26.800
  20673040.129    20673039.500    20673037.893   -23756848.688 7 -18511821.668 7
        43.200          46.300
  22832858.007    22832857.354    22832856.577   -12789828.486 5  -9966095.928 4
        31.300          28.400
 09  1 18  0 12  0.0000000  0 10G 9G21G28G15G 6G19G22G 3G18G14
  21700945.941    21700945.472    21700945.058   -12634948.113 6  -9845410.269 6
        38.400          36.400
  22498954.517    22498953.644    22498951.816   -14274293.409 5 -11122819.544 4
        33.500          28.100
  25461042.009    25461042.674    25461043.766     -673591.553 1   -524876.586 1
        11.000          11.000
  24147958.873    24147958.305    24147956.501    -3791276.506 3  -2954230.785 4
        22.100          26.200
  23383894.743    23383894.920    23383895.598    -6139738.549 4  -4784208.317 4
        27.600          28.400
  22923935.327    22923933.552    22923931.255    -9691223.848 5  -7551599.716 5
        34.100          32.100
  20439765.454    20439765.063    20439761.887   -23391111.599 7 -18226831.237 8
        45.700          49.200
  23324005.870    23324004.840    23324005.313    -3861489.833 4  -3008950.310 4
        27.600          26.800
  20679299.190    20679298.535    20679296.965   -23723956.692 7 -18486191.533 7
        43.400          46.200
  22814198.622    22814198.079    22814197.301   -12887884.201 5 -10042502.953 4
        31.500          29.000
 09  1 18  0 12 30.0000000  0 10G 9G21G28G15G 6G19G22G 3G18G14
  21692280.427    21692280.054    21692279.669   -12680485.043 6  -9880893.577 6
        38.400          36.400
  22517745.503    22517744.626    22517742.481   -14175546.377 5 -11045873.812 4
        33.600          27.400
  25459252.789    25459251.896    25459248.950     -683006.055 1   -532212.512 1
         9.000          11.000
  24167716.161    24167715.816    24167713.602    -3687450.370 3  -2873327.309 4
        23.000          26.200
  23397936.031    23397935.888    23397937.229    -6065950.420 4  -4726711.100 4
        26.500          28.100
  22922882.582    22922881.032    22922878.959    -9696754.587 5  -7555909.370 5
        34.500          31.600
  20434596.565    20434596.198    20434592.985   -23418274.246 7 -18247996.926 8
        45.800          49.200
  23337546.942    23337546.470    23337547.018    -3790327.165 4  -2953498.881 4
        27.600          27.100
  20685629.316    20685628.572    20685626.768   -23690693.668 7 -18460272.285 7
        43.500          46.100
  22795588.896    22795588.148    22795587.487   -12985678.284 5 -10118706.108 4
        31.600          29.000
 09  1 18  0 13  0.0000000  0 10G 9G21G28G15G 6G19G22G 3G18G14
  21683741.901    21683741.325    21683740.567   -12725357.835 6  -9915859.385 6
        38.800          36.400
  22536593.069    22536592.386    22536590.408   -14076500.134 5 -10968694.921 4
        33.400          26.800
  25457558.143    25457557.096    25457555.244     -691911.945 1   -539152.102 2
         6.500          12.600
  24187500.291    24187500.006    24187497.453    -3583484.132 3  -2792314.652 4
        23.800          25.900
  23412044.083    23412042.983    23412043.120    -5991819.591 4  -4668946.850 4
        26.500          27.100
  22921943.232    22921941.547    22921939.032    -9701692.868 5  -7559757.395 5
        34.600          31.600
  20429499.866    20429499.515    20429496.379   -23445056.616 7 -18268866.300 8
        45.700          49.200
  23351163.633    23351163.289    23351164.078    -3718768.793 4  -2897739.133 4
        26.500          27.400
  20692029.904    20692029.201    20692027.290   -23657057.825 7 -18434062.533 7
        43.500          45.800
  22777029.519    22777029.088    22777028.145   -13083207.346 5 -10194702.758 4
        32.000          29.000
 09  1 18  0 13 30.0000000  0 10G 9G21G28G15G 6G19G22G 3G18G14
  21675330.363    21675329.897    21675329.394   -12769557.643 6  -9950300.775 6
        38.300          36.000
  22555498.084    22555497.690    22555496.103   -13977150.269 5 -10891279.443 4
        32.000          26.800
  25455960.305    25455959.796    25455959.250     -700302.625 1   -545690.249 2
         9.000          13.900
  24207312.405    24207311.949    24207308.522    -3479373.829 3  -2711189.744 4
        23.400          24.900
  23426216.085    23426215.682    23426215.293    -5917342.237 4  -4610912.548 4
        26.800          25.900
  22921116.974    22921115.457    22921113.548    -9706031.921 5  -7563138.465 5
        34.900          32.400
  20424477.294    20424476.883    20424473.622   -23471451.843 7 -18289433.999 8
        45.900          49.300
  23364856.145    23364856.076    23364856.683    -3646811.053 4  -2841668.178 4
        26.200          26.200
  20698502.497    20698501.896    20698500.046   -23623043.346 7 -18407557.737 7
        43.600          45.700
  22758521.925    22758521.651    22758521.122   -13180463.062 5 -10270486.413 4
        32.100          29.700
 09  1 18  0 14  0.0000000  0 10G 9G21G28G15G 6G19G22G 3G18G14
  21667046.618    21667045.938    21667045.718   -12813091.118 6  -9984222.960 6
        38.300          36.500
  22574460.286    22574459.434    22574457.373   -13877507.404 5 -10813635.664 4
        32.000          26.200
  25454461.211    25454461.343    25454457.279     -708185.909 1   -551833.098 1
        11.000          11.000
  24227149.583    24227149.315    24227145.246    -3375129.569 3  -2629960.449 4
        23.800          24.200
  23440452.763    23440451.960    23440452.178    -5842529.454 4  -4552616.872 4
        27.100          26.200
  22920403.722    22920402.535    22920400.475    -9709780.306 5  -7566059.284 5
        35.600          32.300
  20419526.463    20419526.034    20419522.881   -23497467.721 7 -18309706.106 8
        45.700          49.400
  23378623.749    23378623.739    23378623.913    -3574465.228 4  -2785294.814 4
        27.600          26.200
  20705045.610    20705044.915    20705043.271   -23588659.052 7 -18380764.777 7
        43.400          45.700
  22740066.285    22740065.629    22740064.942   -13277452.148 5 -10346062.293 4
        32.600          29.900
 09  1 18  0 14 30.0000000  0 10G 9G21G28G15G 6G19G22G 3G18G14
  21658889.611    21658889.050    21658888.340   -12855957.304 6 -10017625.174 6
        38.600          36.500
  22593477.373    22593476.136    22593473.725   -13777574.748 5 -10735766.058 4
        32.300          26.200
  25453057.149    25453056.186    25453054.711     -715562.100 2   -557580.731 2
        12.600          13.900
  24247010.470    24247011.040    24247007.222    -3270754.529 4  -2548629.249 3
        24.200          23.000
  23454751.722    23454751.224    23454752.185    -5767384.811 4  -4494062.613 4
        26.200          26.200
  22919802.532    22919800.861    22919799.287    -9712939.112 5  -7568520.690 5
        34.600          31.800
  20414647.951    20414647.570    20414644.310   -23523104.717 7 -18329682.978 8
        45.800          49.400
  23392464.407    23392463.915    23392464.196    -3501734.771 4  -2728621.735 4
        27.400          26.800
  20711658.888    20711658.255    20711656.636   -23553906.081 7 -18353684.538 7
        43.500          45.800
  22721660.623    22721660.323    22721659.350   -13374173.962 5 -10421429.922 5
        32.800          30.100
 09  1 18  0 15  0.0000000  0 10G 9G21G28G15G 6G19G22G 3G18G14
  21650859.219    21650858.749    21650858.632   -12898153.444 6 -10050505.278 6
        37.800          37.100
  22612548.537    22612547.747    22612545.309   -13677353.019 5 -10657671.208 4
        32.600          25.900
  25451749.479    25451749.916    25451748.406     -722430.234 2   -562932.509 2
        12.600          16.100
  24266896.491    24266897.138    24266894.142    -3166250.331 3  -2467197.398 3
        23.000          22.100
  23469113.203    23469113.371    23469114.445    -5691910.385 4  -4435251.383 4
        26.200          25.300
  22919313.923    22919312.195    22919310.255    -9715507.563 5  -7570522.073 5
        34.600          31.500
  20409841.508    20409841.159    20409838.007   -23548361.565 7 -18349363.633 8
        45.800          49.400
  23406378.345    23406377.208    23406376.928    -3428621.904 4  -2671650.691 4
        27.600          25.900
  20718342.363    20718341.683    20718339.966   -23518784.442 7 -18326317.023 7
        43.600          45.600
  22703306.530    22703306.102    22703304.905   -13470626.278 5 -10496587.551 4
        33.000          29.900
 09  1 18  0 15 30.0000000  0 10G 9G21G28G15G 6G19G22G 3G18G14
  21642958.348    21642957.874    21642957.933   -12939674.103 6 -10082859.021 6
        38.400          37.600
  22631674.806    22631674.235    22631672.245   -13576841.231 5 -10579350.337 4
        32.300          25.900
  25450539.570    25450538.643    25450540.454     -728787.127 2   -567885.916 2
        13.900          17.800
  24286808.067    24286807.900    24286805.750    -3061615.255 3  -2385663.577 3
        22.600          21.100
  23483539.470    23483538.916    23483539.046    -5616105.345 4  -4376182.525 4
        26.200          24.200
  22918938.346    22918936.537    22918934.575    -9717482.176 5  -7572060.727 5
        34.400          31.800
  20405108.550    20405108.142    20405105.078   -23573234.117 7 -18368744.838 8
        45.800          49.600
  23420363.274    23420362.348    23420362.703    -3355126.436 4  -2614381.498 4
        26.500          26.200
  20725096.601    20725095.896    20725093.937   -23483291.079 7 -18298659.854 7
        43.500          45.300
  22685004.399    22685004.017    22685002.886   -13566803.790 5 -10571531.051 4
        33.100          29.900
 09  1 18  0 16  0.0000000  0 10G 9G21G28G15G 6G19G22G 3G18G14
  21635187.344    21635186.924    21635186.267   -12980511.360 6 -10114680.253 6
        38.900          36.700
  22650856.999    22650856.632    22650855.088   -13476035.750 5 -10500800.611 4
        31.600          25.900
  25449428.612    25449428.334    25449428.844     -734626.195 1   -572435.789 2
        11.000          17.000
  24306744.430    24306744.520    24306743.183    -2956845.517 3  -2304024.819 3
        22.600          21.600
  23498028.359    23498028.006    23498027.738    -5539966.341 4  -4316853.447 4
        25.900          24.600
  22918676.436    22918674.694    22918672.892    -9718857.260 5  -7573132.221 5
        34.300          31.800
  20400449.815    20400449.406    20400446.433   -23597715.881 7 -18387821.526 8
        45.900          49.800
  23434422.409    23434421.673    23434421.764    -3281244.302 4  -2556811.003 4
        25.300          26.200
  20731922.495    20731921.757    20731919.906   -23447420.653 7 -18270708.867 7
        43.500          45.200
  22666756.535    22666755.881    22666754.668   -13662698.619 5 -10646254.271 4
        33.100          29.900
 09  1 18  0 16 30.0000000  0 10G 9G21G28G15G 6G19G22G 3G18G14
  21627546.564    21627545.979    21627545.368   -13020665.056 6 -10145968.833 6
        38.700          36.500
  22670094.546    22670094.432    22670093.231   -13374940.212 5 -10422024.873 4
        31.000          26.200
  25448415.790    25448414.643    25448413.355     -739949.523 1   -576583.879 2
         9.000          12.600
  24326706.444    24326706.501    24326705.535    -2851945.100 3  -2222284.226 3
        23.400          21.600
  23512579.710    23512579.123    23512578.848    -5463498.134 4  -4257267.838 4
        26.200          24.200
  22918528.603    22918527.146    22918525.117    -9719634.693 5  -7573738.026 5
        34.800          31.800
  20395865.152    20395864.752    20395861.803   -23621808.173 7 -18406594.737 8
        45.900          49.900
  23448552.758    23448553.005    23448553.965    -3206980.597 4  -2498943.196 4
        25.300          26.500
  20738819.500    20738818.910    20738817.056   -23411175.268 7 -18242465.702 7
        43.500          45.100
  22648561.943    22648561.493    22648560.194   -13758310.899 5 -10720757.327 4
        33.400          29.900
 09  1 18  0 17  0.0000000  0 10G 9G21G28G15G 6G19G22G 3G18G14
  21620033.031    21620032.422    21620031.960   -13060148.108 6 -10176734.830 6
        38.600          36.700
  22689384.922    22689384.316    22689383.069   -13273571.452 5 -10343036.246 4
        30.800          26.200
  25447499.956    25447499.056    25447495.395     -744770.791 1   -580340.743 1
        11.000           9.000
  24346690.804    24346690.568    24346689.382    -2746930.650 4  -2140454.785 3
        24.600          21.600
  23527190.067    23527189.891    23527189.836    -5386718.015 4  -4197439.185 4
        26.200          24.600
  22918492.116    22918490.593    22918487.948    -9719829.419 5  -7573889.763 5
        35.500          32.300
  20391352.002    20391351.566    20391348.560   -23645525.564 7 -18425075.816 8
        45.900          49.900
  23462755.067    23462754.853    23462755.163    -3132353.526 4  -2440792.229 4
        26.500          26.200
  20745785.452    20745784.731    20745782.938   -23374570.129 7 -18213942.214 7
        43.500          45.100
  22630418.887    22630418.203    22630417.101   -13853653.624 5 -10795050.336 4
        33.400          29.900
 09  1 18  0 17 30.0000000  0 10G 9G21G28G15G 6G19G22G 3G18G14
  21612651.944    21612651.128    21612650.873   -13098937.342 6 -10206960.197 6
        38.600          37.100
  22708730.893    22708729.948    22708728.437   -13171909.927 5 -10263819.470 4
        30.600          26.200
  25446676.836    25446679.894    25446677.569     -749068.408     -583689.514 1
         3.000           9.000
  24366700.032    24366699.673    24366697.981    -2641782.767 4  -2058521.366 3
        24.200          21.100
  23541863.839    23541863.737    23541864.251    -5309607.174 4  -4137352.831 4
        26.200          25.900
  22918569.706    22918567.839    22918566.348    -9719420.174 5  -7573570.880 5
        34.800          33.100
  20386914.239    20386913.907    20386910.842   -23668845.687 7 -18443247.333 8
        46.100          50.000
  23477029.595    23477028.921    23477028.678    -3057343.602 4  -2382342.945 4
        26.500          25.300
  20752823.491    20752822.841    20752821.182   -23337584.100 7 -18185121.928 7
        43.400          45.100
  22612330.742    22612330.584    22612329.519   -13948703.737 5 -10869115.341 4
        33.500          29.900
 09  1 18  0 18  0.0000000  0 10G 9G21G28G15G 6G19G22G 3G18G14
  21605399.020    21605398.648    21605398.416   -13137046.506 6 -10236655.633 6
        37.700          36.400
  22728128.811    22728127.910    22728126.388   -13069973.531 5 -10184388.524 4
        30.400          26.500
  25445962.302    25445961.120    25445957.598     -752858.072 1   -586642.555 1
         6.500          11.000
  24386731.062    24386730.849    24386728.909    -2536518.973 3  -1976497.639 3
        23.400          21.100
  23556597.207    23556597.037    23556597.956    -5232183.992 4  -4077023.099 4
        25.300          27.100
  22918759.154    22918757.503    22918755.945    -9718422.941 5  -7572793.807 5
        34.700          32.800
  20382549.371    20382549.018    20382545.845   -23691783.443 7 -18461120.899 8
        46.100          50.000
  23491372.715    23491371.660    23491371.978    -2981969.750 4  -2323610.077 4
        25.300          24.900
  20759930.879    20759930.367    20759928.544   -23300233.389 7 -18156017.478 7
        43.500          44.800
  22594296.611    22594296.185    22594295.087   -14043475.159 5 -10942963.188 4
        33.500          29.900
 09  1 18  0 18 30.0000000  0 10G 9G21G28G15G 6G19G22G 3G18G14
  21598277.402    21598277.108    21598276.741   -13174471.815 6 -10265818.198 6
        38.400          36.600
  22747578.322    22747577.880    22747576.383   -12967762.344 5 -10104743.452 4
        30.400          26.500
  25445337.960    25445337.795    25445332.642     -756137.247 1   -589197.803 1
        11.000           9.000
  24406783.890    24406783.856    24406781.929    -2431139.229 3  -1894383.550 3
        23.800          21.600
  23571389.684    23571389.415    23571390.190    -5154449.136 4  -4016450.511 4
        24.600          26.800
  22919060.870    22919059.573    22919057.517    -9716835.450 5  -7571556.813 5
        35.200          31.800
  20378257.906    20378257.481    20378254.362   -23714336.387 7 -18478694.617 8
        46.200          50.200
  23505785.390    23505784.335    23505784.560    -2906232.269 4  -2264593.841 4
        25.300          24.600
  20767108.518    20767107.766    20767105.784   -23262516.439 7 -18126627.641 7
        43.600          44.700
  22576316.219    22576315.449    22576314.414   -14137964.251 5 -11016591.020 5
        33.500          30.200
 09  1 18  0 19  0.0000000  0 10G 9G21G28G15G 6G19G22G 3G18G14
  21591286.682    21591286.168    21591285.477   -13211211.475 6 -10294446.497 6
        39.000          36.900
  22767080.863    22767080.106    22767078.512   -12865278.243 5 -10024885.707 4
        30.400          26.500
  25444810.043    25444809.094    25444806.865     -758906.100 1   -591355.418 2
        11.000          12.600
  24426858.407    24426858.681    24426856.783    -2325645.651 3  -1812180.774 3
        23.400          21.600
  23586241.083    23586240.702    23586240.927    -5076405.291 4  -3955637.155 4
        24.600          26.200
  22919474.507    22919473.522    22919471.954    -9714658.149 5  -7569860.221 5
        34.600          31.800
  20374039.328    20374038.972    20374035.885   -23736504.389 7 -18495968.376 8
        46.100          50.200
  23520265.117    23520264.769    23520265.666    -2830134.340 4  -2205296.756 4
        24.900          24.200
  20774355.463    20774354.814    20774352.917   -23224433.802 7 -18096952.857 7
        43.800          44.800
  22558389.461    22558388.870    22558387.722   -14232169.121 5 -11089997.380 5
        33.500          30.200
 09  1 18  0 19 30.0000000  0 10G 9G21G28G15G 6G19G22G 3G18G14
  21584427.490    21584426.930    21584426.386   -13247256.585 6 -10322533.582 6
        38.600          37.000
  22786635.998    22786635.175    22786633.339   -12762516.062 4  -9944811.301 4
        29.900          26.200
  25444379.589    25444379.991    25444377.225     -761156.816 1   -593109.163 2
        11.000          12.600
  24446956.232    24446956.022    24446954.159    -2220033.062 3  -1729885.250 3
        23.800          21.600
  23601152.105    23601152.012    23601151.713    -4998047.868 4  -3894579.439 4
        25.300          25.900
  22920003.020    22920001.701    22919999.856    -9711883.656 5  -7567698.283 5
        34.700          32.300
  20369895.613    20369895.256    20369892.123   -23758279.230 7 -18512935.780 8
        46.100          50.200
  23534814.381    23534814.788    23534815.578    -2753671.240 4  -2145715.124 3
        24.900          23.800
  20781673.337    20781672.586    20781670.908   -23185978.370 7 -18066987.583 7
        43.800          44.800
  22540518.536    22540517.910    22540516.663   -14326080.793 5 -11163175.279 5
        33.600          30.100
 09  1 18  0 20  0.0000000  0 10G 9G21G28G15G 6G19G22G 3G18G14
  21577700.795    21577700.155    21577699.392   -13282606.068 6 -10350078.618 6
        38.900          37.000
  22806243.405    22806242.673    22806240.748   -12659479.259 4  -9864522.908 4
        29.900          25.600
  25444050.558    25444050.235    25444047.951     -762890.441 2   -594459.996 1
        12.600          11.000
  24467076.174    24467075.969    24467074.006    -2114304.155 3  -1647499.095 3
        23.400          22.600
  23616123.027    23616122.133    23616121.627    -4919380.643 4  -3833280.301 4
        24.200          25.900
  22920645.011    22920643.226    22920641.029    -9708513.650 5  -7565072.301 5
        34.700          32.700
  20365826.472    20365826.150    20365823.298   -23779661.627 7 -18529597.381 8
        46.000          50.300
  23549434.723    23549434.357    23549435.103    -2676846.720 4  -2085851.870 3
        24.900          23.400
  20789061.685    20789061.054    20789059.388   -23147151.694 7 -18036733.027 7
        43.800          44.600
  22522703.453    22522703.102    22522701.552   -14419698.589 5 -11236124.191 4
        33.800          29.500
 09  1 18  0 20 30.0000000  0 10G 9G21G28G15G 6G19G22G 3G18G14
  21571105.163    21571104.666    21571104.435   -13317265.804 6 -10377086.197 6
        39.100          37.700
  22825901.020    22825900.437    22825898.112   -12556176.813 5  -9784027.504 4
        30.200          24.900
  25443820.149    25443818.778    25443815.809     -764114.400 2   -595413.663 1
        12.600          11.000
  24487214.927    24487215.333    24487213.941    -2008468.142 3  -1565029.481 3
        22.600          23.400
  23631148.672    23631148.721    23631148.859    -4840413.460 4  -3771747.448 4
        24.200          24.600
  22921397.916    22921396.250    22921394.624    -9704555.487 5  -7561988.009 5
        34.600          33.200
  20361831.206    20361830.765    20361827.537   -23800658.127 7 -18545958.282 8
        46.000          50.200
  23564120.853    23564120.536    23564120.836    -2599671.197 4  -2025715.097 3
        25.600          23.400
  20796519.312    20796518.603    20796516.917   -23107961.544 7 -18006195.243 7
        43.600          44.600
  22504943.824    22504943.240    22504941.605   -14513027.904 5 -11308848.315 4
        34.100          29.900
 09  1 18  0 21  0.0000000  0 10G 9G21G28G15G 6G19G22G 3G18G14
  21564640.640    21564640.314    21564639.730   -13351235.352 6 -10403555.956 6
        38.900          37.200
  22845608.886    22845607.985    22845605.668   -12452612.328 4  -9703327.903 4
        29.900          24.600
  25443682.624    25443682.641    25443681.421     -764829.409 2   -595970.892 1
        13.900          11.000
  24507374.577    24507375.094    24507373.850    -1902528.375 3  -1482479.012 3
        21.600          23.800
  23646231.959    23646231.701    23646232.562    -4761150.510 4  -3709984.108 3
        24.200          23.400
  22922262.580    22922261.576    22922259.292    -9700010.943 5  -7558446.810 5
        35.300          33.000
  20357909.154    20357908.760    20357905.363   -23821269.593 7 -18562019.161 8
        46.100          50.300
  23578874.249    23578873.185    23578872.832    -2522148.867 4  -1965308.080 3
        26.200          23.800
  20804045.706    20804044.973    20804043.385   -23068409.580 7 -17975375.528 7
        43.500          44.400
  22487238.631    22487238.185    22487236.960   -14606068.749 5 -11381347.649 5
        34.300          30.600
 09  1 18  0 21 30.0000000  0 10G 9G21G28G15G 6G19G22G 3G18G14
  21558308.453    21558307.851    21558307.116   -13384513.161 6 -10429486.712 6
        39.300          37.100
  22865365.977    22865364.947    22865362.759   -12348788.257 4  -9622426.057 4
        28.800          24.900
  25443642.842    25443641.849    25443641.468     -765035.841 1   -596131.687 1
         6.500           9.000
  24527555.081    24527554.266    24527552.696    -1796487.319 3  -1399849.625 4
        21.600          24.200
  23661371.330    23661370.510    23661371.312    -4681595.189 3  -3647992.945 3
        23.800          22.600
  22923239.242    22923237.904    22923235.627    -9694880.671 5  -7554449.199 5
        34.800          32.400
  20354059.923    20354059.512    20354056.434   -23841495.914 7 -18577779.921 8
        46.000          50.300
  23593691.707    23593690.427    23593690.639    -2444283.271 4  -1904633.604 4
        25.600          24.600
  20811640.963    20811640.276    20811638.298   -23028496.950 7 -17944274.778 7
        43.700          44.100
  22469589.227    22469588.406    22469587.150   -14698819.792 5 -11453621.173 5
        34.500          30.600
 09  1 18  0 22  0.0000000  0 10G 9G21G28G15G 6G19G22G 3G18G14
  21552110.449    21552109.839    21552109.284   -13417084.465 6 -10454866.942 6
        39.400          37.600
  22885174.043    22885173.355    22885171.183   -12244693.506 4  -9541313.279 4
        28.600          24.900
  25443702.998    25443701.145    25443699.936     -764720.970     -595886.377 1
         3.000           9.000
  24547755.944    24547754.613    24547753.211    -1690333.442 3  -1317132.324 4
        21.100          24.600
  23676567.827    23676567.011    23676567.187    -4601736.716 4  -3585765.576 3
        24.200          22.100
  22924328.749    22924327.438    22924325.759    -9689152.183 5  -7549985.448 5
        33.600          32.400
  20350286.821    20350286.387    20350283.232   -23861323.568 7 -18593230.037 8
        45.800          50.200
  23608574.655    23608574.135    23608574.702    -2366063.568 4  -1843683.192 4
        24.900          24.200
  20819306.881    20819306.277    20819304.584   -22988210.952 7 -17912883.090 7
        43.600          44.000
  22451996.641    22451996.098    22451995.475   -14791266.042 5 -11525657.191 5
        34.400          31.000
 09  1 18  0 22 30.0000000  0 10G 9G21G28G15G 6G19G22G 3G18G14
  21546045.728    21546044.959    21546044.546   -13448954.236 6 -10479700.518 6
        38.800          37.600
  22905032.182    22905031.636    22905029.610   -12140336.309 4  -9459996.007 4
        27.900          24.600
  25443860.935    25443859.940    25443857.703     -763889.882 1   -595238.662 1
         9.000           9.000
  24567975.033    24567974.487    24567973.435    -1584075.203 3  -1234333.707 4
        20.500          24.600
  23691821.008    23691820.483    23691819.679    -4521583.884 4  -3523308.865 3
        25.600          23.000
  22925531.668    22925530.265    22925528.678    -9682831.625 5  -7545060.339 5
        34.400          32.100
  20346588.539    20346588.198    20346585.273   -23880757.836 7 -18608373.617 8
        45.900          50.500
  23623524.297    23623524.343    23623525.148    -2287498.787 4  -1782463.865 3
        24.900          23.400
  20827042.987    20827042.377    20827040.590   -22947558.041 7 -17881205.492 7
        43.700          44.000
  22434461.421    22434461.093    22434460.662   -14883412.052 5 -11597459.258 5
        34.300          31.500
 09  1 18  0 23  0.0000000  0 10G 9G21G28G15G 6G19G22G 3G18G14
  21540113.460    21540112.964    21540112.478   -13480126.411 6 -10503990.513 6
        38.600          37.000
  22924939.223    22924938.615    22924936.875   -12035724.236 4  -9378480.113 4
        28.100          24.200
  25444117.879    25444117.670    25444113.586     -762548.997 1   -594193.738 1
         9.000          11.000
  24588212.446    24588213.122    24588212.337    -1477719.920 3  -1151459.478 4
        21.100          25.300
  23707128.008    23707127.180    23707126.556    -4441145.120 4  -3460629.319 3
        25.900          23.000
  22926845.941    22926844.604    22926842.918    -9675924.829 5  -7539678.434 5
        34.600          31.600
  20342964.171    20342963.854    20342961.017   -23899803.828 7 -18623214.635 8
        46.000          50.600
  23638540.001    23638539.533    23638540.371    -2208597.713 4  -1720982.523 3
        25.600          23.800
  20834847.808    20834847.087    20834845.372   -22906543.960 7 -17849246.464 7
        43.700          44.100
  22416983.697    22416982.994    22416981.995   -14975261.696 5 -11669030.383 5
        34.700          31.300
 09  1 18  0 23 30.0000000  0 10G 9G21G28G15G 6G19G22G 3G18G14
  21534316.756    21534316.020    21534315.023   -13510590.713 6 -10527728.921 6
        38.800          36.500
  22944896.216    22944895.408    22944893.649   -11930850.792 4  -9296760.572 4
        27.900          24.200
  25444470.574    25444469.653    25444467.056     -760689.514 1   -592744.817 1
         6.500          11.000
  24608471.236    24608471.780    24608470.713    -1371260.636 3  -1068504.194 4
        21.600          25.600
  23722490.287    23722489.325    23722489.175    -4360414.385 4  -3397722.255 3
        25.300          23.400
  22928273.727    22928272.203    22928270.145    -9668423.483 5  -7533833.231 5
        34.500          31.500
  20339415.893    20339415.325    20339412.266   -23918452.368 7 -18637745.963 8
        46.000          50.600
  23653620.618    23653619.303    23653619.568    -2129354.110 4  -1659234.295 3
        25.600          23.800
  20842722.548    20842721.968    20842720.168   -22865160.802 7 -17816999.838 7
        43.600          43.800
  22399563.886    22399563.187    22399561.861   -15066804.522 5 -11740362.455 5
        34.700          31.300
 09  1 18  0 24  0.0000000  0 10G 9G21G28G15G 6G19G22G 3G18G14
  21528653.982    21528653.489    21528653.123   -13540346.171 6 -10550914.979 6
        38.600          37.100
  22964901.996    22964901.271    22964899.518   -11825718.870 4  -9214839.600 3
        28.100          23.400
  25444922.989    25444922.056    25444922.014     -758312.019 1   -590892.233 2
        11.000          13.900
  24628749.106    24628749.555    24628748.549    -1264700.056 3   -985469.963 4
        22.100          26.200
  23737908.823    23737907.814    23737907.097    -4279395.162 4  -3334590.418 4
        25.300          24.600
  22929814.241    22929812.539    22929810.617    -9660329.061 5  -7527525.888 5
        34.800          31.800
  20335942.441    20335942.072    20335938.960   -23936703.805 7 -18651967.857 8
        46.000          50.500
  23668763.948    23668763.617    23668763.713    -2049771.609 4  -1597221.966 4
        25.600          24.600
  20850667.482    20850666.793    20850665.196   -22823409.775 7 -17784466.568 7
        43.500          43.700
