     2.11           OBSERVATION DATA    G (GPS)             RINEX VERSION / TYPE
teqc  2008Oct2      WCDA Operator       20090121 01:36:33UTCPGM / RUN BY / DATE
Solaris x86 5.10|AMD64|cc SC5.8 -xarch=amd64|=+|=+          COMMENT
teqc  2008Oct2      WCDA Operator       20090121 01:36:32UTCCOMMENT
teqc  2008Oct2      WCDA Operator       20090120 01:18:20UTCCOMMENT
flin  WCDA-ACP   965000   CFS Flin Flon SASK Canada         MARKER NAME
40135M001                                                   MARKER NUMBER
PGC-WCDA            GEOL. SURV. CANADA                      OBSERVER / AGENCY
1115                AOA BENCHMARK ACT   3.3.32.4            REC # / TYPE / VERS
231                 AOAD/M_T        SCIS                    ANT # / TYPE
  -766174.4630 -3611375.3160  5184056.2210                  APPROX POSITION XYZ
        0.1500        0.0000        0.0000                  ANTENNA: DELTA H/E/N
     1     1                                                WAVELENGTH FACT L1/2
     7    C1    P1    P2    L1    L2    S1    S2            # / TYPES OF OBSERV
STATION INFORMATION EFFECTIVE FROM: 2001/01/13 18:20:00     COMMENT
                                TO: CURRENT DATE (above)    COMMENT
BIT 2 OF LLI FLAGS (+4) DATA COLLECTED UNDER 'AS' CONDITION COMMENT
L1 PHASE CENTRE 0.110m ABOVE ARP                            COMMENT
L2 PHASE CENTRE 0.128m ABOVE ARP                            COMMENT
where ARP is the Antenna Reference Point for HI measurement COMMENT
CONTACT gps@pgc.nrcan.gc.ca FOR ADDITIONAL INFORMATION      COMMENT
    P1 =    P1  TurboRogue; =    Y1  Benchmark              COMMENT
    L1 = L1(CA)                                             COMMENT
    P2 =    P2  TurboRogue; =    Y2  Benchmark              COMMENT
    L2 = L2(P2) TurboRogue; = L2(Y2) Benchmark              COMMENT
 SNR is mapped to RINEX snr flag value [0-9]                COMMENT
  L1 & L2: min(max(int(snr_dBHz/6), 0), 9)                  COMMENT
  2009     1    20     0     0    0.0000000     GPS         TIME OF FIRST OBS
                                                            END OF HEADER
 09  1 20  0  0  0.0000000  0 10G28G14G19G 6G 3G18G 9G15G21G22
  25478038.880    25478037.759    25478036.148     -601224.994 1   -468486.458 1
         6.500           9.000
  22950033.753    22950033.405    22950032.409   -12085265.152 5  -9417085.336 4
        30.600          27.400
  22938267.219    22938265.935    22938263.743    -9896976.395 6  -7711924.644 5
        36.400          32.000
  23279233.435    23279233.020    23279232.980    -6668407.431 4  -5196158.110 4
        28.800          27.600
  23222086.940    23222086.045    23222086.221    -4935922.717 4  -3846170.347 4
        28.600          27.400
  20630941.931    20630941.303    20630939.638   -23864703.110 7 -18595863.659 7
        43.100          46.700
  21770853.782    21770853.286    21770852.739   -15057812.857 6 -11733361.547 5
        37.700          35.500
  24007244.473    24007243.977    24007242.037    -5887338.950 4  -4587525.656 4
        25.900          27.400
  22359115.768    22359115.328    22359113.853   -15157570.996 5 -11811089.127 4
        34.500          28.100
  20481316.143    20481315.857    20481313.281   -23763116.442 7 -18516703.952 8
        45.200          48.500
 09  1 20  0  0 30.0000000  0 10G28G14G19G 6G 3G18G 9G15G21G22
  25475516.995    25475514.942    25475515.256     -614472.721 1   -478809.235 1
         6.500           6.500
  22931064.333    22931063.607    22931062.846   -12184950.941 5  -9494762.546 4
        31.000          27.900
  22936320.828    22936319.208    22936316.814    -9907206.734 5  -7719896.325 5
        35.400          31.600
  23292752.131    23292751.997    23292752.483    -6597363.901 4  -5140799.523 4
        28.600          27.600
  23235025.247    23235024.426    23235024.774    -4867932.173 4  -3793190.713 4
        28.800          27.400
  20636699.252    20636698.554    20636696.888   -23834448.311 7 -18572288.482 7
        43.200          46.700
  21761238.228    21761237.562    21761236.965   -15108344.908 6 -11772737.150 5
        37.800          35.800
  24026797.594    24026797.197    24026795.579    -5784583.844 4  -4507456.766 4
        25.300          27.400
  22377460.421    22377459.914    22377458.425   -15061170.418 5 -11735971.802 4
        34.100          28.100
  20475598.282    20475597.986    20475595.078   -23793164.900 7 -18540118.324 8
        45.300          48.600
 09  1 20  0  1  0.0000000  0 10G28G14G19G 6G 3G18G 9G15G21G22
  25473091.605    25473090.928    25473091.213     -627208.923 1   -488733.575 1
         9.000           9.000
  22912144.018    22912143.215    22912142.366   -12284377.608 5  -9572237.843 4
        30.600          27.900
  22934487.368    22934485.778    22934484.095    -9916838.571 5  -7727401.635 5
        34.800          31.800
  23306341.685    23306341.604    23306342.165    -6525950.624 4  -5085152.819 4
        28.600          27.600
  23248043.824    23248043.149    23248043.285    -4799517.829 4  -3739880.837 4
        29.000          27.100
  20642529.274    20642528.645    20642527.023   -23803810.985 7 -18548415.232 7
        43.300          46.700
  21751746.594    21751745.961    21751745.399   -15158222.592 6 -11811602.859 5
        38.100          35.500
  24046382.055    24046381.890    24046379.853    -5681666.602 4  -4427261.545 4
        25.600          26.800
  22395866.065    22395865.351    22395863.937   -14964448.798 5 -11660604.324 4
        33.200          27.900
  20469953.037    20469952.761    20469949.897   -23822830.580 7 -18563234.426 8
        45.500          48.600
 09  1 20  0  1 30.0000000  0 10G28G14G19G 6G 3G18G 9G15G21G22
  25470766.639    25470765.417    25470765.186     -639434.782 1   -498260.204 1
        11.000          11.000
  22893272.451    22893272.159    22893271.145   -12383545.674 5  -9649511.639 4
        30.200          27.400
  22932767.931    22932766.258    22932765.143    -9925873.957 5  -7734442.186 5
        34.700          32.100
  23320001.167    23320000.724    23320000.837    -6454172.495 4  -5029221.818 4
        28.600          27.600
  23261142.435    23261141.990    23261142.025    -4730684.867 4  -3686244.753 4
        29.500          27.400
  20648431.897    20648431.229    20648429.526   -23772793.419 7 -18524245.691 7
        43.400          46.600
  21742379.530    21742379.150    21742378.379   -15207445.648 6 -11849958.471 5
        37.900          35.300
  24065996.307    24065996.307    24065994.501    -5578592.115 4  -4346943.764 4
        26.200          26.800
  22414331.998    22414331.288    22414329.981   -14867409.863 5 -11584989.592 4
        33.100          27.600
  20464380.703    20464380.268    20464377.295   -23852115.226 7 -18586053.615 8
        45.500          48.900
 09  1 20  0  2  0.0000000  0 10G28G14G19G 6G 3G18G 9G15G21G22
  25468534.908    25468534.776    25468534.546     -651158.276 2   -507395.387 1
        12.600          11.000
  22874449.753    22874449.174    22874448.001   -12482461.697 5  -9726589.048 4
        30.600          27.400
  22931159.402    22931158.455    22931157.520    -9934321.219 5  -7741024.474 5
        34.400          32.600
  23333727.087    23333726.793    23333727.096    -6382040.785 4  -4973015.298 4
        28.100          27.600
  23274318.585    23274317.819    23274317.972    -4661444.336 4  -3632291.121 4
        28.600          27.100
  20654404.832    20654404.266    20654402.722   -23741404.270 7 -18499786.607 7
        43.400          46.600
  21733136.327    21733135.737    21733135.249   -15256020.199 6 -11887808.746 5
        37.900          35.700
  24085638.720    24085638.777    24085637.122    -5475370.129 4  -4266511.081 4
        25.300          27.100
  22432856.437    22432855.633    22432854.477   -14770064.508 5 -11509136.084 4
        33.600          27.900
  20458878.869    20458878.507    20458875.563   -23881026.665 7 -18608581.995 8
        45.600          48.800
 09  1 20  0  2 30.0000000  0 10G 9G28G14G19G 6G 3G18G15G21G22
  21724017.863    21724017.195    21724016.595   -15303939.047 6 -11925148.093 5
        38.400          35.900
  25466400.138    25466400.766    25466399.649     -662373.735 1   -516134.614 1
         9.000           9.000
  22855675.352    22855675.359    22855674.131   -12581118.891 5  -9803464.771 4
        31.000          27.600
  22929665.176    22929664.375    22929663.158    -9942175.021 5  -7747144.309 5
        34.800          32.800
  23347520.449    23347520.282    23347521.393    -6309552.604 4  -4916531.010 4
        27.900          27.600
  23287572.752    23287571.824    23287572.060    -4591793.970 4  -3578018.117 4
        27.600          26.800
  20660449.479    20660448.884    20660447.393   -23709638.997 7 -18475034.434 7
        43.400          46.400
  24105310.081    24105310.018    24105308.267    -5371998.359 4  -4185961.716 4
        24.600          27.100
  22451439.530    22451438.842    22451437.621   -14672409.663 5 -11433041.417 4
        33.500          27.900
  20453449.342    20453449.022    20453445.926   -23909558.926 7 -18630814.912 8
        45.700          48.800
 09  1 20  0  3  0.0000000  0 10G 9G28G14G19G 6G 3G18G15G21G22
  21715025.006    21715024.483    21715024.215   -15351195.345 6 -11961971.165 6
        38.400          36.000
  25464363.216    25464361.489    25464362.525     -673076.715 1   -524474.672 1
         6.500           6.500
  22836952.471    22836952.032    22836950.980   -12679510.489 5  -9880133.534 4
        31.100          28.400
  22928284.651    22928283.591    22928282.345    -9949430.590 5  -7752797.983 5
        34.800          32.700
  23361382.942    23361382.807    23361383.636    -6236705.914 4  -4859767.369 4
        28.400          28.100
  23300904.927    23300904.045    23300904.601    -4521731.726 4  -3523424.171 4
        27.100          26.500
  20666566.671    20666565.985    20666564.445   -23677493.528 7 -18449986.008 7
        43.400          46.300
  24125009.522    24125009.993    24125008.145    -5268473.569 3  -4105293.079 4
        23.800          26.800
  22470082.067    22470081.346    22470080.278   -14574442.453 5 -11356703.352 4
        33.200          28.400
  20448092.763    20448092.452    20448089.463   -23937707.344 7 -18652748.740 8
        45.700          48.900
 09  1 20  0  3 30.0000000  0 10G 9G28G14G19G 6G 3G18G15G21G22
  21706156.985    21706156.492    21706155.782   -15397798.016 6 -11998284.919 5
        38.800          35.900
  25462422.464    25462422.531    25462419.755     -683277.185 2   -532423.156 1
        12.600           6.500
  22818277.748    22818277.455    22818276.616   -12777646.216 5  -9956602.907 4
        31.600          28.600
  22927016.759    22927014.924    22927013.284    -9956098.691 5  -7757993.904 5
        34.500          32.400
  23375311.222    23375311.215    23375311.500    -6163514.455 4  -4802735.070 4
        28.100          28.400
  23314312.848    23314312.349    23314313.099    -4451271.363 4  -3468519.984 4
        27.100          26.800
  20672753.829    20672753.249    20672751.728   -23644979.182 7 -18424650.148 7
        43.400          46.300
  24144736.133    24144736.403    24144734.912    -5164809.164 3  -4024515.636 4
        23.000          26.800
  22488782.101    22488780.968    22488779.670   -14476175.974 5 -11280132.095 4
        33.000          28.100
  20442807.495    20442807.198    20442804.222   -23965482.042 7 -18674391.347 8
        45.800          49.100
 09  1 20  0  4  0.0000000  0 10G 9G28G14G19G 6G 3G18G15G21G22
  21697413.954    21697413.651    21697413.619   -15443739.547 6 -12034083.495 6
        38.100          36.400
  25460577.007    25460576.734    25460576.715     -692969.743 1   -539975.809 2
        11.000          12.600
  22799653.324    22799653.035    22799652.089   -12875518.934 5 -10032867.342 4
        32.100          29.200
  22925860.724    22925859.058    22925856.858    -9962174.395 5  -7762728.207 5
        34.500          32.000
  23389304.896    23389304.651    23389305.854    -6089975.842 4  -4745432.278 4
        27.100          28.400
  23327797.376    23327796.784    23327797.419    -4380410.576 4  -3413303.785 4
        27.400          26.800
  20679012.260    20679011.576    20679010.067   -23612091.130 7 -18399023.090 7
        43.500          46.200
  24164489.835    24164490.240    24164488.418    -5061002.252 3  -3943627.149 4
        23.800          26.500
  22507539.143    22507538.067    22507536.529   -14377607.118 5 -11203325.219 4
        33.200          27.400
  20437594.490    20437594.103    20437591.008   -23992877.333 7 -18695738.314 8
        45.800          49.100
 09  1 20  0  4 30.0000000  0 10G 9G28G14G19G 6G 3G18G15G21G22
  21688798.655    21688798.143    21688797.941   -15489015.860 6 -12069363.721 6
        38.400          36.700
  25458830.999    25458830.844    25458829.082     -702151.458 1   -547130.264 2
        11.000          12.600
  22781079.651    22781079.083    22781078.186   -12973124.914 5 -10108923.926 4
        32.100          28.800
  22924816.598    22924815.393    22924813.840    -9967655.482 5  -7766999.178 5
        34.300          31.500
  23403364.625    23403364.689    23403365.461    -6016090.519 4  -4687859.327 4
        26.800          27.400
  23341357.440    23341357.130    23341357.801    -4309149.900 4  -3357776.006 4
        27.100          27.100
  20685342.225    20685341.554    20685339.913   -23578827.870 7 -18373103.659 7
        43.500          46.100
  24184270.590    24184271.152    24184269.086    -4957052.958 4  -3862627.695 4
        24.600          26.500
  22526353.219    22526352.488    22526351.131   -14278735.876 5 -11126282.702 4
        33.400          26.800
  20432454.032    20432453.638    20432450.621   -24019890.436 7 -18716787.475 8
        45.900          49.300
 09  1 20  0  5  0.0000000  0 10G 9G28G14G19G 6G 3G18G15G21G22
  21680309.455    21680308.925    21680308.221   -15533628.017 6 -12104126.431 6
        38.900          36.500
  25457180.613    25457179.519    25457180.474     -710825.630 1   -553889.313 2
         9.000          13.900
  22762556.131    22762555.714    22762554.917   -13070465.451 5 -10184773.679 4
        32.100          29.200
  22923886.735    22923885.349    22923883.413    -9972544.722 5  -7770808.971 5
        34.700          31.500
  23417491.098    23417489.934    23417489.388    -5941864.174 4  -4630020.624 4
        26.800          25.900
  23354993.203    23354992.395    23354992.863    -4237495.168 4  -3301941.174 4
        26.200          26.500
  20691742.628    20691741.965    20691740.317   -23545192.873 7 -18346894.563 7
        43.500          45.900
  24204078.069    24204078.059    24204075.947    -4852966.186 4  -3781521.131 4
        24.600          25.300
  22545223.875    22545223.552    22545222.359   -14179566.988 5 -11049008.254 4
        32.700          26.800
  20427385.787    20427385.469    20427382.394   -24046523.985 7 -18737540.879 8
        46.000          49.300
 09  1 20  0  5 30.0000000  0 10G 9G28G14G19G 6G 3G18G15G21G22
  21671946.758    21671946.230    21671945.852   -15577572.293 6 -12138368.709 6
        38.300          36.200
  25455627.413    25455626.926    25455624.994     -718989.926 1   -560250.965 1
        11.000          11.000
  22744084.008    22744083.417    22744082.794   -13167537.042 5 -10260413.852 4
        32.000          29.500
  22923069.186    22923067.947    22923066.246    -9976840.562 5  -7774156.383 5
        35.200          32.300
  23431679.900    23431679.299    23431679.523    -5867297.856 4  -4571916.996 4
        27.100          26.200
  23368703.016    23368702.736    23368702.837    -4165447.381 4  -3245800.052 4
        26.500          26.200
  20698214.271    20698213.652    20698211.889   -23511184.554 7 -18320394.572 7
        43.600          45.800
  24223911.961    24223911.552    24223908.850    -4748742.696 4  -3700308.044 4
        24.900          24.200
  22564152.006    22564151.442    22564149.848   -14080101.431 5 -10971502.650 4
        32.300          26.800
  20422390.294    20422389.901    20422386.790   -24072775.850 7 -18757996.867 8
        46.000          49.300
 09  1 20  0  6  0.0000000  0 10G 9G28G14G19G 6G 3G18G15G21G22
  21663711.382    21663710.966    21663710.617   -15620850.033 6 -12172091.617 6
        38.600          36.500
  25454169.940    25454169.705    25454166.898     -726647.037 2   -566217.490 2
        12.600          12.600
  22725662.313    22725662.269    22725661.558   -13264341.431 5 -10335845.822 4
        32.600          29.900
  22922364.083    22922362.849    22922361.073    -9980546.384 5  -7777044.030 5
        35.400          32.100
  23445933.023    23445932.258    23445932.745    -5792397.327 4  -4513552.955 4
        26.500          26.200
  23382487.766    23382487.207    23382487.304    -4093012.297 4  -3189357.126 4
        27.600          26.800
  20704756.082    20704755.402    20704753.833   -23476806.879 7 -18293606.767 7
        43.600          45.800
  24243770.010    24243770.137    24243767.077    -4644387.209 4  -3618992.092 3
        25.300          23.000
  22583135.853    22583135.064    22583132.805   -13980344.220 5 -10893769.770 4
        32.700          26.500
  20417466.734    20417466.317    20417463.249   -24098648.695 7 -18778157.518 8
        45.900          49.300
 09  1 20  0  6 30.0000000  0 10G 9G28G14G19G 6G 3G18G15G21G22
  21655604.472    21655604.168    21655603.458   -15663451.897 6 -12205287.855 6
        38.700          36.500
  25452809.480    25452809.070    25452809.241     -733789.715 1   -571783.234 2
        11.000          13.900
  22707294.000    22707293.577    22707292.628   -13360869.529 5 -10411062.497 4
        32.800          29.900
  22921772.025    22921770.831    22921769.376    -9983654.871 5  -7779466.215 5
        34.400          31.800
  23460249.653    23460249.393    23460250.342    -5717158.170 4  -4454925.055 4
        26.200          25.900
  23396346.323    23396345.395    23396345.722    -4020186.030 4  -3132609.403 4
        26.800          26.500
  20711369.462    20711368.792    20711367.233   -23442053.420 7 -18266526.146 7
        43.600          45.700
  24263653.786    24263654.050    24263651.644    -4539895.079 4  -3537569.669 3
        24.200          22.600
  22602175.497    22602174.562    22602172.495   -13880290.421 5 -10815805.789 4
        32.400          26.200
  20412616.835    20412616.478    20412613.499   -24124134.572 7 -18798016.640 8
        46.000          49.400
 09  1 20  0  7  0.0000000  0 10G 9G28G14G19G 6G 3G18G15G21G22
  21647626.116    21647625.699    21647625.594   -15705376.882 6 -12237956.667 6
        38.100          36.800
  25451547.701    25451548.439    25451547.512     -740418.689 2   -576948.724 2
        13.900          16.100
  22688978.431    22688977.697    22688976.468   -13457120.282 5 -10486063.062 4
        32.700          29.500
  22921294.133    22921292.847    22921291.201    -9986167.077 5  -7781423.764 5
        34.600          31.800
  23474631.188    23474630.846    23474631.424    -5641584.036 4  -4396036.122 4
        26.800          24.900
  23410278.368    23410277.714    23410277.671    -3946972.136 4  -3075559.626 4
        27.100          25.900
  20718054.159    20718053.505    20718051.782   -23406925.091 7 -18239153.412 7
        43.700          45.500
  24283563.758    24283563.529    24283561.558    -4435269.189 4  -3456043.050 3
        24.200          22.100
  22621270.339    22621269.763    22621268.086   -13779942.877 5 -10737612.916 4
        32.400          26.500
  20407840.556    20407840.228    20407837.229   -24149234.194 7 -18817574.785 8
        46.000          49.500
 09  1 20  0  7 30.0000000  0 10G 9G28G14G19G 6G 3G18G15G21G22
  21639776.563    21639776.172    21639775.913   -15746627.609 6 -12270100.071 6
        38.800          36.900
  25450383.451    25450383.400    25450383.973     -746538.243 2   -581717.198 2
        13.900          17.800
  22670714.404    22670713.896    22670712.489   -13553097.015 5 -10560850.110 4
        32.700          29.500
  22920928.539    22920927.417    22920925.735    -9988087.787 5  -7782920.407 5
        34.800          32.000
  23489075.507    23489074.769    23489074.622    -5565682.300 4  -4336891.918 4
        26.500          24.600
  23424281.904    23424281.449    23424282.508    -3873377.947 4  -3018213.516 4
        25.900          26.800
  20724809.085    20724808.479    20724806.735   -23371427.226 7 -18211492.730 7
        43.600          45.400
  24303496.544    24303497.316    24303495.773    -4330515.898 4  -3374417.126 3
        24.900          22.100
  22640420.219    22640419.770    22640418.271   -13679308.392 5 -10659196.453 4
        32.100          26.500
  20403137.053    20403136.689    20403133.685   -24173951.519 7 -18836835.031 8
        46.000          49.600
 09  1 20  0  8  0.0000000  0 10G 9G28G14G19G 6G 3G18G15G21G22
  21632056.820    21632056.268    21632055.632   -15787196.176 6 -12301711.928 6
        39.100          36.500
  25449316.951    25449317.199    25449316.085     -752141.444 2   -586083.229 2
        12.600          15.100
  22652504.498    22652503.833    22652502.621   -13648791.641 5 -10635417.330 4
        33.000          29.700
  22920677.133    22920675.705    22920674.001    -9989410.853 5  -7783951.372 5
        34.500          32.000
  23503581.683    23503581.268    23503580.879    -5489449.362 4  -4277489.641 4
        26.200          24.200
  23438360.090    23438359.302    23438359.590    -3799400.450 4  -2960568.731 4
        25.900          26.500
  20731635.755    20731635.010    20731633.295   -23335553.795 7 -18183539.404 7
        43.600          45.300
  24323455.499    24323455.906    24323454.694    -4225631.529 4  -3292689.117 3
        24.900          22.600
  22659625.685    22659625.432    22659624.222   -13578382.569 5 -10580552.976 4
        32.000          26.800
  20398507.522    20398507.137    20398504.217   -24198279.520 7 -18855791.903 8
        46.000          49.700
 09  1 20  0  8 30.0000000  0 10G 9G28G14G19G 6G 3G18G15G21G22
  21624466.616    21624466.140    21624465.787   -15827082.167 6 -12332791.913 6
        38.800          36.600
  25448350.668    25448350.170    25448346.486     -757230.135 2   -590048.304 1
        12.600           9.000
  22634347.948    22634347.305    22634346.343   -13744204.305 5 -10709764.841 4
        33.200          29.700
  22920539.235    22920537.762    22920535.886    -9990138.048 5  -7784518.014 5
        34.900          32.400
  23518150.255    23518150.049    23518149.664    -5412889.628 4  -4217832.707 4
        26.200          24.200
  23452509.221    23452508.891    23452509.223    -3725043.754 4  -2902628.471 4
        26.500          26.200
  20738533.034    20738532.397    20738530.708   -23299307.131 7 -18155295.245 7
        43.600          45.100
  24343439.280    24343439.159    24343438.070    -4120619.809 4  -3210861.888 3
        25.300          22.600
  22678886.178    22678885.551    22678884.616   -13477169.423 5 -10501685.609 4
        31.600          26.800
  20393951.892    20393951.568    20393948.663   -24222219.359 7 -18874446.313 8
        46.100          49.900
 09  1 20  0  9  0.0000000  0 10G 9G28G14G19G 6G 3G18G15G21G22
  21617005.865    21617005.254    21617004.633   -15866289.418 6 -12363343.003 6
        38.800          36.500
  25447478.785    25447478.221    25447476.401     -761809.662 1   -593616.705 1
        11.000           9.000
  22616244.366    22616243.861    22616242.871   -13839338.724 5 -10783895.536 4
        33.200          29.700
  22920513.286    22920511.628    22920509.767    -9990275.073 5  -7784624.783 5
        34.800          32.400
  23532780.095    23532779.798    23532779.896    -5336011.462 4  -4157927.654 4
        26.500          25.900
  23466730.078    23466729.707    23466729.400    -3650316.054 4  -2844399.094 4
        27.100          25.900
  20745500.465    20745499.807    20745498.205   -23262693.203 7 -18126764.909 7
        43.600          45.200
  24363445.109    24363444.900    24363443.754    -4015488.020 4  -3128941.070 3
        24.900          22.100
  22698199.822    22698198.986    22698197.712   -13375676.386 5 -10422600.145 4
        31.300          26.200
  20389469.300    20389468.921    20389465.920   -24245776.502 7 -18892802.515 8
        46.100          49.900
 09  1 20  0  9 30.0000000  0 10G 9G28G14G19G 6G 3G18G15G21G22
  21609674.396    21609674.016    21609673.808   -15904814.997 6 -12393362.930 6
        38.800          36.800
  25446703.993    25446703.501    25446701.436     -765878.815 1   -596787.544 1
         6.500           9.000
  22598194.649    22598193.937    22598192.617   -13934192.431 5 -10857807.495 4
        33.400          29.700
  22920599.162    22920597.392    22920596.192    -9989821.179 5  -7784271.103 5
        34.500          32.700
  23547469.967    23547469.486    23547469.946    -5258816.538 4  -4097775.785 4
        25.600          26.800
  23481020.166    23481019.576    23481019.705    -3575219.529 4  -2785882.338 4
        26.200          25.600
  20752537.895    20752537.197    20752535.622   -23225711.415 7 -18097947.926 7
        43.500          45.000
  24383473.753    24383473.657    24383472.113    -3910237.268 4  -3046927.575 3
        24.200          22.100
  22717566.518    22717565.445    22717564.523   -13273904.876 5 -10343297.687 4
        30.800          26.500
  20385059.454    20385059.094    20385056.093   -24268949.612 7 -18910859.469 8
        46.100          49.900
 09  1 20  0 10  0.0000000  0 10G 9G28G14G19G 6G 3G18G15G21G22
  21602474.111    21602473.783    21602473.726   -15942649.994 6 -12422844.731 6
        38.200          36.500
  25446029.330    25446028.449    25446026.147     -769430.471 1   -599555.151 1
        11.000          11.000
  22580199.759    22580198.985    22580197.716   -14028756.366 5 -10931493.659 4
        33.600          29.900
  22920799.026    22920797.597    22920796.240    -9988769.496 5  -7783451.594 5
        34.700          32.700
  23562220.608    23562220.459    23562220.948    -5181300.447 4  -4037373.646 4
        25.300          27.100
  23495382.224    23495381.333    23495380.903    -3499750.027 4  -2727074.942 4
        26.500          24.600
  20759646.229    20759645.661    20759643.976   -23188355.570 7 -18068839.464 7
        43.500          44.700
  24403525.993    24403525.873    24403524.635    -3804862.991 4  -2964817.825 3
        24.200          22.600
  22736987.170    22736986.124    22736984.941   -13171849.576 5 -10263774.112 4
        30.800          26.800
  20380724.517    20380724.126    20380721.176   -24291730.355 7 -18928610.683 8
        46.200          50.100
 09  1 20  0 10 30.0000000  0 10G 9G28G14G19G 6G 3G18G15G21G22
  21595404.464    21595404.019    21595403.541   -15979804.663 6 -12451796.394 6
        39.100          36.800
  25445449.239    25445448.216    25445445.912     -772476.023 2   -601928.291 2
        12.600          12.600
  22562257.404    22562256.954    22562255.959   -14123041.037 5 -11004962.206 5
        33.800          30.400
  22921110.982    22921109.611    22921107.365    -9987132.098 5  -7782175.701 5
        35.400          31.800
  23577029.535    23577029.105    23577030.046    -5103477.858 4  -3976732.694 4
        25.600          27.100
  23509810.709    23509810.089    23509810.556    -3423922.090 4  -2667988.237 4
        25.300          24.200
  20766823.850    20766823.204    20766821.468   -23150637.649 7 -18039448.871 7
        43.600          44.700
  24423599.074    24423598.936    24423597.843    -3699378.344 4  -2882622.054 3
        24.200          22.600
  22756458.472    22756457.830    22756456.370   -13069524.803 5 -10184040.546 4
        31.100          25.900
  20376461.725    20376461.448    20376458.472   -24314130.948 7 -18946065.680 8
        46.200          50.100
 09  1 20  0 11  0.0000000  0 10G 9G28G14G19G 6G 3G18G15G21G22
  21588465.060    21588464.649    21588464.044   -16016271.475 6 -12480212.086 6
        39.100          36.900
  25444968.283    25444966.894    25444964.486     -775009.660 2   -603902.584 2
        12.600          13.900
  22544370.354    22544369.694    22544368.606   -14217038.930 5 -11078207.290 5
        33.600          30.100
  22921534.937    22921533.467    22921531.589    -9984903.685 5  -7780439.268 5
        35.200          31.500
  23591898.123    23591897.543    23591897.796    -5025346.088 4  -3915850.804 4
        25.900          26.500
  23524309.176    23524308.837    23524309.315    -3347733.216 4  -2608620.315 4
        25.900          24.200
  20774071.289    20774070.674    20774068.990   -23112552.764 7 -18009772.325 7
        43.800          44.800
  24443693.787    24443693.962    24443692.579    -3593779.897 4  -2800337.627 3
        24.600          22.600
  22775982.421    22775981.774    22775980.157   -12966927.175 5 -10104094.367 4
        30.600          25.900
  20372272.643    20372272.261    20372269.308   -24336144.796 7 -18963219.313 8
        46.100          50.100
 09  1 20  0 11 30.0000000  0 10G 9G28G14G19G 6G 3G18G15G21G22
  21581658.185    21581657.704    21581657.207   -16052041.604 6 -12508084.890 6
        38.600          36.900
  25444582.297    25444581.951    25444580.863     -777024.194 2   -605472.305 2
        12.600          13.900
  22526538.982    22526538.674    22526537.436   -14310741.108 5 -11151221.953 4
        33.800          29.700
  22922072.615    22922071.420    22922069.376    -9982077.162 5  -7778236.774 5
        35.300          32.100
  23606825.529    23606825.217    23606825.423    -4946900.235 4  -3854724.170 4
        25.300          26.800
  23538877.380    23538876.308    23538876.533    -3271178.836 4  -2548967.554 3
        25.300          23.400
  20781389.834    20781389.108    20781387.551   -23074093.668 7 -17979804.188 7
        43.700          44.700
  24463811.194    24463811.053    24463809.844    -3488062.453 4  -2717960.384 3
        24.200          23.400
  22795559.324    22795558.714    22795556.591   -12864050.885 5 -10023931.050 4
        30.400          24.900
  20368158.537    20368158.217    20368155.365   -24357764.001 7 -18980065.439 8
        46.100          50.200
 09  1 20  0 12  0.0000000  0 10G 9G28G14G19G 6G 3G18G15G21G22
  21574982.510    21574981.952    21574981.274   -16087123.444 6 -12535421.376 6
        39.000          37.100
  25444296.620    25444295.627    25444295.486     -778529.673 2   -606645.430 2
        13.900          12.600
  22508762.485    22508762.263    22508761.042   -14404155.882 5 -11224012.669 4
        33.600          29.900
  22922722.012    22922720.783    22922719.206    -9978662.856 5  -7775576.264 5
        34.800          32.600
  23621810.779    23621810.128    23621810.790    -4868153.236 4  -3793362.886 4
        24.900          25.900
  23553512.721    23553511.732    23553511.869    -3194271.588 4  -2489039.821 4
        25.900          24.200
  20788777.525    20788776.859    20788775.187   -23035271.107 7 -17949552.834 7
        43.700          44.600
  24483948.028    24483948.603    24483947.985    -3382238.198 3  -2635499.980 4
        23.000          24.200
  22815186.335    22815186.065    22815183.881   -12760908.516 5  -9943560.388 4
        31.000          24.600
  20364117.788    20364117.437    20364114.485   -24378998.334 7 -18996611.662 8
        46.100          50.200
 09  1 20  0 12 30.0000000  0 10G 9G28G14G19G 6G 3G18G15G21G22
  21568438.111    21568437.595    21568437.336   -16121514.492 6 -12562219.581 6
        39.200          37.500
  25444107.064    25444106.965    25444105.009     -779524.885 2   -607420.990 1
        13.900          11.000
  22491041.952    22491041.353    22491040.088   -14497280.968 5 -11296577.651 5
        34.000          30.200
  22923483.643    22923482.559    22923480.930    -9974660.286 5  -7772457.373 5
        34.500          33.100
  23636853.042    23636852.307    23636852.498    -4789106.986 4  -3731768.413 3
        25.300          23.400
  23568213.971    23568213.398    23568213.414    -3117013.660 4  -2428838.845 3
        26.500          23.800
  20796234.502    20796233.787    20796232.090   -22996084.674 7 -17919017.942 7
        43.700          44.500
  24504105.423    24504106.534    24504105.792    -3276307.931 3  -2552956.919 4
        22.600          24.600
  22834864.486    22834863.578    22834861.534   -12657501.417 5  -9862983.441 4
        30.400          24.600
  20360150.610    20360150.279    20360147.093   -24399846.423 7 -19012856.911 8
        46.100          50.100
 09  1 20  0 13  0.0000000  0 10G 9G28G14G19G 6G 3G18G15G21G22
  21562026.707    21562026.299    21562025.469   -16155205.775 6 -12588472.504 6
        39.100          36.700
  25444016.496    25444016.683    25444015.223     -780002.446 1   -607793.183 1
        11.000          11.000
  22473377.822    22473377.277    22473375.834   -14590107.110 5 -11368909.688 5
        34.300          30.200
  22924359.195    22924357.864    22924355.843    -9970062.329 5  -7768874.549 5
        35.100          32.700
  23651952.102    23651952.151    23651952.542    -4709756.753 4  -3669937.057 3
        24.600          22.600
  23582983.851    23582982.989    23582982.959    -3039400.521 4  -2368361.069 4
        26.500          24.200
  20803761.651    20803761.105    20803759.524   -22956527.339 7 -17888194.036 7
        43.700          44.300
  24524285.246    24524285.745    24524284.789    -3170266.359 3  -2470327.128 4
        22.100          24.600
  22854593.555    22854592.658    22854590.714   -12553824.062 4  -9782195.922 4
        29.500          24.900
  20356258.340    20356257.976    20356254.999   -24420300.259 7 -19028794.955 8
        46.100          50.300
 09  1 20  0 13 30.0000000  0 10G 9G28G14G19G 6G 3G18G15G21G22
  21555749.133    21555748.390    21555747.796   -16188195.452 6 -12614178.737 6
        39.100          36.700
  25444024.544    25444022.309    25444020.671     -779962.202     -607761.802 1
         3.000           9.000
  22455770.988    22455770.138    22455769.059   -14682632.351 5 -11441007.258 5
        34.300          30.800
  22925347.543    22925345.992    22925344.037    -9964869.149 5  -7764827.903 5
        34.400          32.100
  23667109.701    23667109.365    23667109.407    -4630105.304 4  -3607870.992 3
        24.600          22.600
  23597820.094    23597819.089    23597818.893    -2961435.061 4  -2307608.784 4
        26.200          24.200
  20811359.899    20811359.276    20811357.395   -22916599.767 7 -17857081.634 7
        43.800          44.100
  24544485.982    24544485.649    24544484.516    -3064115.185 3  -2387611.877 4
        21.600          24.900
  22874373.520    22874372.989    22874370.923   -12449878.703 4  -9701199.561 4
        29.500          25.300
  20352441.146    20352440.773    20352437.850   -24440359.053 7 -19044425.173 8
        46.100          50.300
 09  1 20  0 14  0.0000000  0 10G 9G28G14G19G 6G 3G18G15G21G22
  21549603.738    21549603.227    21549602.512   -16220489.804 6 -12639343.152 6
        39.600          37.100
  25444129.141    25444127.502    25444125.974     -779412.268 1   -607333.370 1
         6.500          11.000
  22438219.932    22438219.158    22438218.340   -14774863.590 5 -11512875.744 5
        34.500          31.300
  22926447.119    22926445.566    22926443.947    -9959089.411 5  -7760324.216 5
        33.900          32.000
  23682322.368    23682321.860    23682321.624    -4550163.500 4  -3545578.689 3
        24.900          23.400
  23612719.426    23612719.162    23612720.326    -2883128.441 4  -2246590.649 4
        25.300          24.200
  20819026.496    20819025.887    20819024.296   -22876310.509 7 -17825687.402 7
        43.700          44.100
  24564704.491    24564704.095    24564703.316    -2957864.729 3  -2304819.276 4
        21.600          25.300
  22894202.992    22894202.153    22894199.851   -12345675.642 4  -9620002.400 4
        28.800          24.200
  20348697.884    20348697.501    20348694.412   -24460030.815 7 -19059753.814 8
        46.100          50.300
 09  1 20  0 14 30.0000000  0 10G 9G28G14G19G 6G 3G18G15G21G22
  21543590.735    21543590.157    21543589.738   -16252086.915 6 -12663964.260 6
        39.200          37.100
  25444332.336    25444331.255    25444328.031     -778351.999 1   -606507.166 1
        11.000          11.000
  22420724.818    22420724.292    22420723.673   -14866798.403 5 -11584513.231 5
        34.100          31.300
  22927658.576    22927657.217    22927655.463    -9952723.018 5  -7755363.387 5
        34.400          31.600
  23697591.192    23697590.115    23697588.861    -4469933.611 4  -3483061.914 3
        25.900          23.400
  23627686.013    23627685.808    23627686.034    -2804482.845 4  -2185308.363 3
        25.300          23.800
  20826762.289    20826761.663    20826759.880   -22835659.509 7 -17794011.288 7
        43.800          44.000
  24584941.700    24584941.626    24584940.390    -2851516.707 3  -2221950.690 4
        22.100          25.300
  22914080.150    22914079.793    22914077.856   -12241216.375 4  -9538605.582 4
        28.800          24.200
  20345028.227    20345027.867    20345025.031   -24479314.339 7 -19074779.928 8
        46.100          50.500
 09  1 20  0 15  0.0000000  0 10G 9G28G14G19G 6G 3G18G15G21G22
  21537711.180    21537710.759    21537710.233   -16282983.243 6 -12688039.300 6
        39.100          36.700
  25444629.530    25444628.646    25444627.857     -776779.492 1   -605281.814 2
         9.000          12.600
  22403287.339    22403286.797    22403286.017   -14958433.374 5 -11655917.091 5
        34.500          31.100
  22928981.437    22928980.309    22928978.476    -9945768.651 5  -7749944.390 5
        34.400          31.300
  23712911.482    23712910.681    23712910.572    -4389416.420 4  -3420321.252 3
        25.600          23.400
  23642716.572    23642716.038    23642716.461    -2725499.392 4  -2123762.837 4
        25.900          24.200
  20834567.011    20834566.318    20834564.659   -22794645.326 7 -17762052.178 7
        43.800          43.800
  24605197.931    24605197.788    24605196.027    -2745070.941 3  -2139005.937 4
        23.000          25.600
  22934007.417    22934006.426    22934004.986   -12136500.777 4  -9457009.040 4
        28.600          24.200
  20341432.936    20341432.595    20341429.767   -24498207.274 7 -19089501.685 8
        46.100          50.500
 09  1 20  0 15 30.0000000  0 10G 9G28G14G19G 6G 3G18G15G21G22
  21531965.507    21531965.008    21531964.093   -16313178.107 6 -12711567.755 6
        39.300          36.500
  25445026.627    25445026.525    25445025.561     -774695.090 1   -603657.611 2
         9.000          12.600
  22385907.214    22385906.533    22385905.787   -15049767.449 5 -11727086.482 5
        34.500          31.600
  22930416.932    22930415.405    22930413.866    -9938226.967 5  -7744067.754 5
        34.100          31.500
  23728287.596    23728287.098    23728286.657    -4308615.306 4  -3357359.363 4
        25.300          24.200
  23657810.660    23657810.164    23657810.077    -2646181.259 4  -2061956.514 4
        26.200          24.200
  20842440.452    20842439.790    20842438.275   -22753269.085 7 -17729810.946 7
        43.600          43.700
  24625471.920    24625471.552    24625470.406    -2638529.758 3  -2055986.827 4
        23.000          26.500
  22953982.371    22953981.537    22953979.754   -12031531.987 4  -9375215.208 3
        28.600          23.800
  20337912.350    20337911.938    20337908.858   -24516709.688 7 -19103919.143 8
        46.100          50.500
 09  1 20  0 16  0.0000000  0 10G 9G28G14G19G 6G 3G18G15G21G22
  21526354.341    21526353.756    21526353.451   -16342664.921 6 -12734544.472 6
        39.100          37.100
  25445520.704    25445520.452    25445522.174     -772094.029 2   -601630.903 2
        12.600          15.100
  22368585.092    22368584.743    22368584.270   -15140793.719 5 -11798016.026 5
        35.100          32.300
  22931964.601    22931963.256    22931961.912    -9930093.470 5  -7737729.953 5
        34.500          32.100
  23743717.784    23743717.482    23743717.805    -4227527.839 4  -3294174.348 4
        25.300          25.300
  23672967.596    23672967.248    23672968.143    -2566526.368 4  -1999887.782 4
        24.200          24.900
  20850383.844    20850383.274    20850381.660   -22711525.851 7 -17697283.748 7
        43.700          43.600
  24645763.392    24645764.300    24645763.566    -2531889.914 3  -1972890.880 4
        22.100          27.100
  22974005.717    22974005.191    22974003.628   -11926307.005 4  -9293221.731 3
        28.800          23.400
  20334466.488    20334466.178    20334463.259   -24534816.185 7 -19118028.098 8
        46.100          50.400
 09  1 20  0 16 30.0000000  0 10G28G14G19G 6G 3G18G 9G15G21G22
  25446114.254    25446113.606    25446114.476     -768977.047 1   -599202.161 1
        11.000          11.000
  22351322.414    22351321.848    22351320.973   -15231511.223 5 -11868704.971 5
        35.400          32.000
  22933625.055    22933623.700    22933621.985    -9921369.323 5  -7730931.910 5
        34.800          32.600
  23759201.066    23759201.210    23759201.626    -4146157.620 4  -3230769.001 4
        24.200          24.900
  23688190.190    23688189.080    23688189.545    -2486538.247 4  -1937559.392 4
        24.900          24.200
  20858397.277    20858396.543    20858394.655   -22669417.218 7 -17664471.821 7
        43.900          43.500
  21520878.083    21520877.507    21520876.827   -16371443.002 6 -12756968.932 6
        39.500          36.900
  24666073.284    24666075.809    24666074.496    -2425154.119 3  -1889720.137 4
        22.100          27.400
  22994077.742    22994077.057    22994075.706   -11820828.597 4  -9211030.774 4
        28.400          24.200
  20331096.406    20331096.020    20331093.016   -24552526.708 7 -19131828.498 8
        46.200          50.400
 09  1 20  0 17  0.0000000  0 10G 9G28G14G19G 6G 3G18G15G21G22
  21515534.172    21515533.700    21515533.102   -16399524.581 6 -12778850.673 6
        39.500          36.800
  25446803.033    25446802.263    25446802.478     -765357.571 1   -596381.756 1
         9.000          11.000
  22334115.846    22334115.382    22334114.223   -15321932.069 5 -11939162.763 5
        35.400          31.800
  22935394.268    22935393.183    22935391.699    -9912068.508 5  -7723684.512 5
        34.400          32.400
  23774737.331    23774736.621    23774736.479    -4064520.932 4  -3167156.013 4
        25.300          24.200
  23703471.848    23703470.927    23703470.830    -2406233.849 4  -1874984.541 3
        26.200          23.800
  20866476.754    20866476.146    20866474.556   -22626957.251 7 -17631386.127 7
        43.800          43.400
  24686400.424    24686401.707    24686401.488    -2318337.823 3  -1806486.664 4
        21.600          26.800
  23014194.733    23014194.228    23014192.917   -11715112.429 4  -9128654.568 3
        28.400          23.800
  20327799.162    20327798.746    20327795.555   -24569854.479 7 -19145330.650 8
        46.300          50.500
 09  1 20  0 17 30.0000000  0 10G 9G28G14G19G 6G 3G18G15G21G22
  21510329.052    21510328.763    21510328.287   -16426876.113 6 -12800163.542 6
        39.300          36.800
  25447594.202    25447593.604    25447592.770     -761203.949 2   -593145.168 1
        13.900           9.000
  22316971.782    22316971.413    22316970.815   -15412022.756 5 -12009363.280 5
        35.300          32.300
  22937280.432    22937279.201    22937277.148    -9902159.725 5  -7715963.387 5
        34.900          32.400
  23790328.490    23790327.686    23790327.588    -3982588.712 4  -3103312.721 3
        25.900          23.800
  23718818.396    23718817.677    23718817.820    -2325583.397 4  -1812140.031 4
        25.600          24.200
  20874629.691    20874628.972    20874627.311   -22584114.350 7 -17598002.044 7
        43.800          43.300
  24706749.127    24706749.038    24706748.738    -2211410.919 3  -1723166.995 4
        21.100          27.600
  23034362.808    23034362.374    23034360.635   -11609128.732 4  -9046069.883 3
        28.100          23.000
  20324580.603    20324580.265    20324577.278   -24586767.103 7 -19158509.311 8
        46.300          50.500
 09  1 20  0 18  0.0000000  0 10G 9G28G14G19G 6G 3G18G15G21G22
  21505258.804    21505258.322    21505257.470   -16453523.010 6 -12820927.344 6
        39.600          36.700
  25448482.015    25448480.864    25448478.663     -756543.103 1   -589513.430 1
        11.000           9.000
  22299886.529    22299885.981    22299885.362   -15501808.258 5 -12079325.990 5
        35.600          32.600
  22939277.157    22939275.443    22939273.243    -9891670.116 5  -7707789.654 5
        35.600          32.400
  23805970.123    23805969.635    23805969.037    -3900390.114 4  -3039261.876 4
        25.300          24.200
  23734225.007    23734224.850    23734225.358    -2244616.849 4  -1749049.205 4
        24.200          24.900
  20882850.117    20882849.434    20882847.837   -22540915.546 7 -17564340.634 7
        43.800          43.300
  24727112.376    24727112.215    24727111.853    -2104401.847 3  -1639783.284 4
        19.300          26.500
  23054576.896    23054575.936    23054574.119   -11502906.298 4  -8963299.174 3
        28.100          22.600
  20321436.443    20321435.988    20321432.862   -24603290.765 7 -19171384.884 8
        46.200          50.500
 09  1 20  0 18 30.0000000  0 10G 9G28G14G19G 6G 3G18G15G21G22
  21500322.286    21500321.823    21500321.449   -16479462.384 6 -12841139.832 6
        39.000          36.900
  25449465.539    25449464.656    25449463.307     -751373.076 1   -585484.632 1
         9.000           9.000
  22282859.785    22282859.166    22282858.462   -15591285.079 5 -12149048.171 5
        35.900          32.600
  22941383.611    22941382.172    22941380.635    -9880598.763 5  -7699162.625 5
        35.700          33.400
  23821661.816    23821661.356    23821662.655    -3817926.513 3  -2975004.558 4
        23.000          25.600
  23749693.679    23749692.665    23749692.857    -2163335.458 4  -1685713.084 4
        24.900          25.300
  20891138.560    20891137.968    20891136.172   -22497359.438 7 -17530400.803 7
        44.000          43.100
  24747491.148    24747491.065    24747490.238    -1997311.179 3  -1556336.032 4
        18.600          25.600
  23074835.557    23074834.680    23074833.306   -11396445.625 4  -8880342.813 3
        28.400          22.100
  20318366.241    20318365.936    20318362.944   -24619423.285 7 -19183955.671 8
        46.200          50.500
 09  1 20  0 19  0.0000000  0 10G 9G28G14G19G 6G 3G18G15G21G22
  21495521.121    21495520.568    21495520.042   -16504694.084 6 -12860800.888 6
        39.300          37.000
  25450545.492    25450543.526    25450544.577     -745695.564     -581060.650 2
         3.000          12.600
  22265891.439    22265890.981    22265890.360   -15680453.175 5 -12218529.784 5
        35.800          32.400
  22943600.941    22943599.502    22943597.899    -9868947.479 6  -7690083.697 5
        36.100          33.600
  23837403.834    23837403.410    23837404.726    -3735201.847 3  -2910543.778 4
        22.100          25.600
  23765219.821    23765218.837    23765219.208    -2081743.452 4  -1622134.874 4
        25.600          25.300
  20899494.477    20899493.839    20899492.086   -22453448.854 7 -17496184.758 7
        43.900          43.000
  24767885.685    24767885.436    24767883.672    -1890141.781 2  -1472827.405 4
        17.800          25.600
  23095138.346    23095138.053    23095137.288   -11289750.209 4  -8797203.529 3
        28.400          22.600
  20315370.711    20315370.408    20315367.415   -24635165.303 7 -19196222.172 8
        46.400          50.600
 09  1 20  0 19 30.0000000  0 10G 9G28G14G19G 6G 3G18G15G21G22
  21490855.838    21490855.336    21490854.334   -16529210.672 6 -12879904.710 6
        39.300          36.800
  25451722.957    25451722.845    25451722.955     -739504.730 1   -576236.611 2
         6.500          15.100
  22248983.721    22248983.121    22248982.252   -15769304.813 6 -12287764.816 5
        36.100          32.400
  22945929.242    22945927.716    22945925.998    -9856710.929 5  -7680548.713 5
        35.500          33.500
  23853196.112    23853195.402    23853196.486    -3652213.010 3  -2845877.158 4
        21.100          24.600
  23780806.030    23780805.079    23780805.310    -1999837.614 4  -1558312.156 4
        24.900          24.900
  20907918.984    20907918.327    20907916.555   -22409177.820 7 -17461687.845 7
        44.000          42.900
  24788296.228    24788295.992    24788292.828    -1782889.303 2  -1389254.043 4
        17.800          24.600
  23115487.812    23115487.045    23115485.614   -11182816.124 4  -8713878.269 3
        27.600          22.100
  20312450.624    20312450.341    20312447.278   -24650510.388 7 -19208179.372 8
        46.400          50.600
 09  1 20  0 20  0.0000000  0 10G 9G28G14G19G 6G 3G18G15G21G22
  21486326.329    21486325.852    21486325.405   -16553012.832 6 -12898451.837 6
        39.400          37.300
  25452999.336    25452998.955    25452996.959     -732802.554 1   -571014.167 2
         9.000          13.900
  22232135.718    22232135.193    22232134.559   -15857839.843 6 -12356753.137 5
        36.000          32.700
  22948368.386    22948367.014    22948365.577    -9843891.338 5  -7670559.408 5
        35.400          34.000
  23869038.581    23869037.757    23869038.308    -3568964.434 3  -2781008.156 4
        22.100          24.600
  23796450.710    23796449.821    23796449.951    -1917622.368 4  -1494248.340 4
        24.200          24.600
  20916411.526    20916410.915    20916409.255   -22364548.646 7 -17426911.859 7
        43.900          42.800
  24808720.544    24808721.159    24808716.867    -1675557.800 2  -1305619.109 3
        17.000          23.400
  23135881.569    23135880.343    23135879.435   -11075647.388 4  -8630370.165 3
        26.200          22.100
  20309605.840    20309605.556    20309602.468   -24665460.120 7 -19219828.504 8
        46.500          50.600
 09  1 20  0 20 30.0000000  0 10G 9G28G14G19G 6G 3G18G15G21G22
  21481933.230    21481932.752    21481931.991   -16576098.208 6 -12916440.429 6
        39.400          36.800
  25454369.457    25454370.132    25454369.378     -725587.786     -565392.295 1
         3.000          11.000
  22215349.178    22215348.482    22215347.622   -15946055.849 6 -12425492.854 5
        36.400          33.100
  22950919.231    22950917.552    22950915.896    -9830488.055 5  -7660115.288 5
        35.600          33.600
  23884930.533    23884929.435    23884929.163    -3485457.622 3  -2715937.921 4
        23.400          24.600
  23812155.222    23812154.348    23812153.730    -1835099.769 4  -1429945.013 4
        24.600          24.900
  20924972.623    20924971.927    20924970.254   -22319560.102 7 -17391855.843 7
        43.900          42.700
  24829160.416    24829160.604    24829156.473    -1568147.638 2  -1221922.886 3
        17.000          22.600
  23156319.041    23156318.200    23156317.110   -10968244.779 4  -8546679.826 3
        26.500          22.600
  20306836.585    20306836.285    20306833.094   -24680012.520 7 -19231168.029 8
        46.400          50.500
 09  1 20  0 21  0.0000000  0 10G14G28G19G 6G 3G18G 9G15G21G22
  22198621.970    22198621.645    22198620.394   -16033956.773 6 -12493987.060 5
        36.600          32.800
  25455841.177    25455840.594    25455837.834     -717866.224     -559375.440 1
         3.000          11.000
  22953579.720    22953578.130    22953576.351    -9816507.709 5  -7649221.508 5
        35.900          33.400
  23900866.732    23900866.400    23900867.160    -3401700.860 3  -2650672.909 4
        23.000          24.200
  23827914.877    23827914.366    23827914.259    -1752278.295 4  -1365408.810 4
        24.900          25.300
  20933600.797    20933600.196    20933598.479   -22274218.208 7 -17356524.489 7
        44.000          42.600
  21477675.923    21477675.406    21477674.868   -16598471.167 6 -12933873.889 6
        39.800          37.000
  24849612.862    24849613.219    24849609.757    -1460666.359 2  -1138171.324 3
        16.100          22.100
  23176800.628    23176799.436    23176798.064   -10860615.952 4  -8462813.214 3
        26.500          22.600
  20304141.999    20304141.641    20304138.471   -24694172.839 7 -19242202.036 8
        46.400          50.500
 09  1 20  0 21 30.0000000  0 10G14G28G19G 6G 3G18G 9G15G21G22
  22181956.256    22181955.740    22181954.516   -16121536.700 6 -12562231.141 5
        36.700          33.000
  25457407.465    25457406.172    25457404.657     -709634.075 2   -552960.933 1
        12.600          11.000
  22956350.622    22956349.314    22956347.385    -9801946.520 5  -7637875.117 5
        35.700          33.600
  23916853.211    23916852.825    23916853.121    -3317693.074 3  -2585212.306 4
        23.800          24.200
  23843731.553    23843731.266    23843731.823    -1669156.668 4  -1300638.706 4
        24.200          24.900
  20942297.165    20942296.479    20942294.603   -22228519.748 7 -17320915.297 7
        44.000          42.500
  21473555.584    21473554.838    21473554.009   -16620126.273 6 -12950747.981 6
        40.000          37.000
  24870079.655    24870079.112    24870076.757    -1353111.496 2  -1054362.438 3
        15.100          21.600
  23197324.697    23197323.937    23197322.302   -10752759.119 4  -8378768.926 3
        26.500          21.600
  20301522.815    20301522.427    20301519.451   -24707936.175 7 -19252926.704 8
        46.400          50.600
 09  1 20  0 22  0.0000000  0 10G14G28G19G 6G 3G18G 9G15G21G22
  22165353.665    22165353.121    22165352.032   -16208783.868 6 -12630215.931 5
        36.900          33.400
  25459070.497    25459069.689    25459070.073     -700881.293 1   -546140.634 2
         6.500          12.600
  22959233.427    22959232.009    22959230.539    -9786794.966 5  -7626068.701 5
        35.300          33.800
  23932889.064    23932888.604    23932888.332    -3233426.513 4  -2519550.058 3
        24.200          23.400
  23859608.020    23859607.539    23859607.859    -1585727.449 3  -1235628.946 4
        23.000          24.600
  20951062.704    20951062.078    20951060.524   -22182455.039 7 -17285020.711 7
        43.800          42.500
  21469572.750    21469572.198    21469571.749   -16641052.415 6 -12967054.058 6
        39.400          37.000
  24890562.495    24890561.493    24890559.593    -1245474.302 2   -970489.317 3
        15.100          21.100
  23217893.362    23217893.403    23217891.672   -10644666.122 4  -8294540.584 3
        26.500          21.100
  20298981.374    20298981.023    20298977.934   -24721291.961 7 -19263333.798 8
        46.600          50.600
 09  1 20  0 22 30.0000000  0 10G14G28G19G 6G 3G18G 9G15G21G22
  22148812.441    22148812.051    22148811.207   -16295705.500 6 -12697947.054 5
        36.600          33.400
  25460834.583    25460833.798    25460836.142     -691617.091     -538921.691 1
         3.000          11.000
  22962227.459    22962225.919    22962224.058    -9771062.835 5  -7613809.901 5
        35.900          33.400
  23948970.948    23948970.601    23948970.911    -3148912.944 3  -2453695.349 4
        23.400          24.200
  23875540.214    23875539.598    23875540.357    -1502002.491 3  -1170388.729 4
        23.400          24.600
  20959896.656    20959895.953    20959894.037   -22136033.379 7 -17248847.985 7
        44.000          42.100
  21465728.211    21465727.724    21465727.011   -16661257.070 6 -12982797.932 6
        39.700          37.200
  24911057.745    24911057.665    24911055.616    -1137765.486 2   -886560.333 3
        13.900          20.500
  23238505.604    23238505.564    23238504.283   -10536347.784 4  -8210136.669 3
        26.500          21.100
  20296515.884    20296515.485    20296512.321   -24734248.734 7 -19273429.977 8
        46.600          50.600
 09  1 20  0 23  0.0000000  0 10G14G28G19G 6G 3G18G 9G15G21G22
  22132333.399    22132332.853    22132331.683   -16382304.759 6 -12765426.976 5
        36.800          33.200
  25462697.468    25462696.521    25462695.751     -681846.458 1   -531308.259 1
         9.000           9.000
  22965330.733    22965329.238    22965327.543    -9754755.654 5  -7601102.998 5
        35.800          33.100
  23965098.592    23965098.483    23965099.507    -3064160.150 3  -2387654.215 3
        23.000          23.800
  23891527.432    23891526.537    23891527.676    -1417989.627 3  -1104924.174 4
        23.000          24.600
  20968797.106    20968796.491    20968794.627   -22089260.289 7 -17212401.411 6
        43.900          41.900
  21462019.588    21462019.050    21462018.756   -16680744.380 6 -12997982.833 6
        39.500          37.200
  24931566.594    24931565.972    24931564.690    -1029991.719 2   -802580.773 3
        13.900          20.500
  23259160.412    23259159.412    23259158.025   -10427811.486 4  -8125562.926 3
        26.200          21.600
  20294125.357    20294124.972    20294121.811   -24746810.973 7 -19283218.724 8
        46.600          50.700
 09  1 20  0 23 30.0000000  0 10G14G28G19G 6G 3G18G 9G15G21G22
  22115916.173    22115915.518    22115914.044   -16468580.008 6 -12832654.427 5
        37.000          33.400
  25464652.230    25464651.555    25464650.471     -671569.413 2   -523300.115 1
        13.900          11.000
  22968542.655    22968541.249    22968539.531    -9737874.187 5  -7587948.594 5
        34.500          32.300
  23981270.856    23981271.426    23981272.037    -2979170.634 3  -2321428.646 3
        22.100          23.000
  23907569.247    23907568.485    23907568.860    -1333691.649 3  -1039237.472 3
        22.100          23.400
  20977764.749    20977764.122    20977762.197   -22042135.983 7 -17175681.161 7
        44.000          42.100
  21458448.094    21458447.704    21458447.157   -16699513.026 6 -13012607.741 6
        39.900          37.000
  24952088.430    24952087.517    24952085.751     -922154.885 2   -718552.076 3
        16.100          20.500
  23279854.185    23279854.024    23279852.633   -10319059.243 4  -8040820.920 3
        25.300          21.100
  20291809.929    20291809.563    20291806.474   -24758978.290 7 -19292699.737 8
        46.600          50.800
 09  1 20  0 24  0.0000000  0 10G14G28G19G 6G 3G18G 9G15G21G22
  22099562.069    22099561.354    22099560.363   -16554520.339 6 -12899620.889 5
        37.100          33.800
  25466704.480    25466704.281    25466703.752     -660776.960 1   -514890.416 2
         9.000          13.900
  22971865.600    22971864.232    22971862.665    -9720409.297 5  -7574339.587 5
        34.000          31.500
  23997490.722    23997490.898    23997491.242    -2893937.407 3  -2255013.163 3
        22.100          21.100
  23923665.814    23923665.213    23923665.220    -1249101.556 3   -973323.115 3
        23.400          21.100
  20986800.763    20986800.092    20986798.296   -21994651.005 7 -17138679.874 7
        44.000          42.200
  21455015.666    21455015.020    21455014.252   -16717552.227 6 -13026664.250 6
        40.000          36.800
  24972621.832    24972621.791    24972619.699     -814246.828 2   -634467.856 3
        17.000          19.900
  23300592.532    23300591.757    23300590.234   -10210083.328 4  -7955904.613 3
        25.600          21.100
