     2.11           OBSERVATION DATA    G (GPS)             RINEX VERSION / TYPE
teqc  2008Oct2      WCDA Operator       20090117 00:18:47UTCPGM / RUN BY / DATE
Solaris x86 5.10|AMD64|cc SC5.8 -xarch=amd64|=+|=+          COMMENT
teqc  2008Oct2      WCDA Operator       20090116 01:18:28UTCCOMMENT
flin  WCDA-ACP   965000   CFS Flin Flon SASK Canada         MARKER NAME
40135M001                                                   MARKER NUMBER
PGC-WCDA            GEOL. SURV. CANADA                      OBSERVER / AGENCY
1115                AOA BENCHMARK ACT   3.3.32.4            REC # / TYPE / VERS
231                 AOAD/M_T        SCIS                    ANT # / TYPE
  -766174.4630 -3611375.3160  5184056.2210                  APPROX POSITION XYZ
        0.1500        0.0000        0.0000                  ANTENNA: DELTA H/E/N
     1     1                                                WAVELENGTH FACT L1/2
     7    C1    P1    P2    L1    L2    S1    S2            # / TYPES OF OBSERV
STATION INFORMATION EFFECTIVE FROM: 2001/01/13 18:20:00     COMMENT
                                TO: CURRENT DATE (above)    COMMENT
BIT 2 OF LLI FLAGS (+4) DATA COLLECTED UNDER 'AS' CONDITION COMMENT
L1 PHASE CENTRE 0.110m ABOVE ARP                            COMMENT
L2 PHASE CENTRE 0.128m ABOVE ARP                            COMMENT
where ARP is the Antenna Reference Point for HI measurement COMMENT
CONTACT gps@pgc.nrcan.gc.ca FOR ADDITIONAL INFORMATION      COMMENT
    P1 =    P1  TurboRogue; =    Y1  Benchmark              COMMENT
    L1 = L1(CA)                                             COMMENT
    P2 =    P2  TurboRogue; =    Y2  Benchmark              COMMENT
    L2 = L2(P2) TurboRogue; = L2(Y2) Benchmark              COMMENT
 SNR is mapped to RINEX snr flag value [0-9]                COMMENT
  L1 & L2: min(max(int(snr_dBHz/6), 0), 9)                  COMMENT
  2009     1    16     0     0    0.0000000     GPS         TIME OF FIRST OBS
                                                            END OF HEADER
 09  1 16  0  0  0.0000000  0 11G 6G26G 9G15G 3G21G18G14G28G19G22
  22877002.027    22877001.364    22877001.631    -9501944.251 4  -7404109.454 4
        27.600          29.500
  24991592.385    24991590.677    24991588.468     3474202.446     2707176.708 2
                        12.600
  22151818.700    22151818.041    22151817.560   -14996966.540 5 -11685941.150 5
        30.800          31.500
  23369180.446    23369180.976    23369179.719    -7733994.421 4  -6026480.497 4
        26.200          29.200
  22847083.529    22847082.737    22847083.103    -8884595.843 4  -6923059.118 4
        27.900          28.600
  21790884.835    21790883.977    21790882.480   -19802606.434 5 -15430595.449 5
        34.600          30.800
  20485434.715    20485433.956    20485432.443   -25718614.565 6 -20040467.934 8
        40.500          49.200
  23611759.658    23611758.610    23611758.340    -8551791.555 3  -6663730.234 3
        20.500          22.100
  25613128.196    25613127.882    25613123.135     -122731.727      -95633.133 1
                         6.500
  23056199.411    23056197.835    23056196.228   -10310349.034 5  -8034034.277 5
        30.400          31.000
  20708194.433    20708193.939    20708191.127   -23291803.563 7 -18149449.053 7
        42.700          45.900
 09  1 16  0  0 30.0000000  0 11G 6G26G 9G15G 3G21G18G14G28G19G22
  22888009.097    22888008.359    22888009.131    -9444100.739 4  -7359036.593 4
        27.100          29.700
  25015297.411    25015296.577    25015292.639     3598765.468     2804238.595 1
                        11.000
  22138419.795    22138419.104    22138418.667   -15067378.055 5 -11740807.235 5
        31.300          31.300
  23387490.133    23387490.304    23387488.734    -7637778.701 4  -5951507.190 4
        25.600          28.600
  22857175.847    22857174.953    22857175.166    -8831560.932 4  -6881733.214 4
        27.600          28.400
  21807053.721    21807052.926    21807051.610   -19717637.359 5 -15364385.791 5
        34.400          30.400
  20488859.343    20488858.531    20488856.965   -25700618.538 6 -20026445.047 8
        40.500          49.200
  23591380.239    23591380.031    23591379.413    -8658882.529 3  -6747177.709 3
        21.100          22.100
  25607516.765    25607516.242    25607514.281     -152218.846     -118608.122 1
                         9.000
  23050673.588    23050672.081    23050671.039   -10339384.636 5  -8056659.415 5
        30.200          31.000
  20700189.020    20700188.466    20700185.602   -23333872.812 7 -18182230.273 7
        42.700          46.000
 09  1 16  0  1  0.0000000  0 11G 6G26G 9G15G 3G21G18G14G28G19G22
  22899100.451    22899100.053    22899100.403    -9385814.487 4  -7313618.739 4
        26.800          29.500
  25039015.798    25039013.677    25039008.334     3723395.222     2901352.632 1
                        11.000
  22125127.824    22125127.109    22125126.549   -15137227.858 5 -11795235.644 5
        31.300          31.300
  23405843.229    23405843.346    23405841.843    -7541332.449 4  -5876354.229 4
        25.600          28.100
  22867362.571    22867361.942    22867362.113    -8778027.305 4  -6840018.712 4
        27.400          27.900
  21823294.437    21823293.733    21823292.045   -19632291.816 5 -15297882.783 5
        34.400          30.600
  20492357.439    20492356.595    20492355.186   -25682235.329 6 -20012120.461 8
        40.500          49.100
  23571037.432    23571037.015    23571037.092    -8765782.286 3  -6830476.187 3
        21.100          22.600
  25601996.066    25601994.762    25601992.231     -181228.141     -141211.664 1
                         9.000
  23045257.692    23045256.166    23045254.855   -10367846.840 5  -8078837.731 5
        30.800          31.300
  20692251.189    20692250.667    20692247.718   -23375586.374 7 -18214734.332 7
        42.700          46.100
 09  1 16  0  1 30.0000000  0 11G 6G26G 9G15G 3G21G18G14G28G19G22
  22910274.788    22910274.162    22910274.737    -9327093.557 4  -7267862.194 4
        26.500          29.200
  25062739.825    25062738.399    25062736.165     3848083.236     2998512.105 1
                         9.000
  22111942.104    22111941.450    22111941.114   -15206518.557 5 -11849228.369 5
        31.100          32.100
  23424238.831    23424238.730    23424237.208    -7444663.627 4  -5801027.846 4
        24.900          27.600
  22877643.013    22877642.253    22877642.733    -8724003.824 4  -6797922.500 4
        27.600          27.900
  21839605.586    21839604.719    21839603.300   -19546577.068 5 -15231092.081 5
        34.500          30.600
  20495928.225    20495927.439    20495925.893   -25663470.919 6 -19997498.830 8
        40.500          49.100
  23550731.199    23550730.467    23550730.813    -8872494.550 3  -6913628.547 3
        21.100          22.600
  25596566.419    25596565.355    25596563.816     -209764.238     -163447.601 1
         3.000           6.500
  23039949.870    23039948.304    23039946.598   -10395740.113 5  -8100572.749 5
        31.100          31.000
  20684380.008    20684379.514    20684376.642   -23416949.379 7 -18246965.229 7
        42.700          46.300
 09  1 16  0  2  0.0000000  0 11G 6G26G 9G15G 3G21G18G14G28G19G22
  22921532.946    22921532.316    22921532.791    -9267931.890 4  -7221762.205 4
        26.800          29.200
  25086476.974    25086477.884    25086473.581     3972834.943     3095721.137 1
                         6.500
  22098865.334    22098864.646    22098864.133   -15275239.133 5 -11902776.844 5
        31.800          32.400
  23442678.437    23442677.981    23442676.479    -7347766.260 4  -5725523.375 4
        25.600          28.100
  22888017.935    22888017.148    22888017.726    -8669484.063 4  -6755439.577 4
        27.600          28.100
  21855987.932    21855987.216    21855985.697   -19460486.623 5 -15164008.631 5
        34.100          30.600
  20499573.051    20499572.224    20499570.721   -25644317.413 6 -19982574.011 8
        40.500          49.100
  23530462.360    23530461.622    23530461.478    -8979008.953 3  -6996626.739 3
        21.100          22.100
  25591224.932    25591224.724    25591221.311     -237817.859     -185307.532
                         3.000
  23034752.327    23034750.521    23034748.759   -10423055.389 5  -8121857.374 5
        31.100          31.100
  20676577.295    20676576.757    20676573.912   -23457953.088 7 -18278916.159 7
        42.700          46.300
 09  1 16  0  2 30.0000000  0 11G 6G26G 9G15G 3G21G18G14G28G19G22
  22932874.058    22932873.726    22932874.278    -9208332.417 4  -7175321.063 4
        26.800          29.000
  25110226.525    25110227.330    25110225.453     4097648.198     3192978.382
                         3.000
  22085896.784    22085896.245    22085895.764   -15343387.341 5 -11955879.320 5
        31.600          32.300
  23461160.245    23461160.031    23461158.306    -7250643.056 4  -5649842.945 4
        26.200          27.900
  22898486.917    22898485.882    22898485.966    -8614471.012 4  -6712572.268 4
        26.800          27.900
  21872441.431    21872440.598    21872439.034   -19374022.908 5 -15096634.311 4
        33.800          29.900
  20503291.639    20503290.861    20503289.295   -25624775.918 6 -19967346.863 8
        40.600          49.000
  23510231.409    23510230.307    23510229.887    -9085324.533 3  -7079470.010 3
        21.100          22.100
  25585979.636    25585979.870    25585977.124     -265388.913 1   -206790.590
         6.500           3.000
  23029664.208    23029662.448    23029661.189   -10449792.412 5  -8142691.405 5
        30.800          31.600
  20668842.838    20668842.285    20668839.525   -23498597.583 7 -18310587.183 7
        42.600          46.400
 09  1 16  0  3  0.0000000  0 11G 6G26G 9G15G 3G21G18G14G28G19G22
  22944298.286    22944297.547    22944298.077    -9148299.563 4  -7128542.223 4
        27.100          28.800
  25133988.278    25133988.138    25133987.359     4222517.263     3290278.947
                         3.000
  22073037.607    22073037.103    22073036.625   -15410962.467 5 -12008535.232 5
        31.600          32.400
  23479683.781    23479683.421    23479682.248    -7153298.970 4  -5573990.399 4
        25.600          28.100
  22909048.009    22909047.334    22909047.825    -8558969.201 4  -6669324.117 4
        26.500          28.400
  21888965.177    21888964.409    21888963.226   -19287189.463 5 -15028971.894 4
        33.800          29.900
  20507083.594    20507082.831    20507081.317   -25604848.747 6 -19951819.189 8
        40.600          48.900
  23490037.785    23490037.158    23490036.682    -9191441.275 3  -7162158.337 3
        22.100          21.600
  25580826.796    25580825.843    25580825.870     -292477.785 2   -227898.928 2
        12.600          12.600
  23024686.010    23024684.360    23024682.964   -10475952.788 5  -8163076.118 5
        31.000          31.100
  20661176.624    20661176.083    20661173.232   -23538883.791 7 -18341979.019 7
        42.700          46.400
 09  1 16  0  3 30.0000000  0 10G 6G 9G15G 3G21G18G14G28G19G22
  22955802.776    22955802.340    22955802.734    -9087842.930 4  -7081433.164 4
        27.900          28.600
  22060286.781    22060286.027    22060285.695   -15477968.931 5 -12060748.029 5
        32.000          32.400
  23498247.798    23498247.584    23498246.628    -7055743.453 4  -5497973.115 4
        24.600          28.400
  22919700.829    22919700.256    22919700.868    -8502988.368 4  -6625702.700 4
        26.500          28.400
  21905557.400    21905556.828    21905555.534   -19199995.870 5 -14961028.841 4
        33.600          29.900
  20510947.626    20510946.849    20510945.281   -25584543.449 6 -19935996.872 8
        40.600          48.900
  23469881.084    23469880.645    23469879.821    -9297364.625 3  -7244695.984 3
        22.100          21.600
  25575757.493    25575756.895    25575758.120     -319090.460     -248635.967
                         3.000
  23019816.624    23019814.770    23019813.127   -10501542.900 5  -8183016.448 5
        31.000          30.800
  20653577.171    20653576.706    20653573.824   -23578818.636 7 -18373097.066 7
        42.700          46.400
 09  1 16  0  4  0.0000000  0 10G 6G 9G15G 3G21G18G14G28G19G22
  22967388.668    22967388.203    22967388.046    -9026959.150 4  -7033991.263 4
        27.600          27.600
  22047645.758    22047645.114    22047644.523   -15544397.912 5 -12112510.856 5
        32.400          32.100
  23516852.928    23516852.883    23516851.612    -6957973.063 3  -5421788.407 4
        23.800          28.800
  22930445.507    22930444.634    22930445.304    -8446524.767 4  -6581705.099 4
        26.500          28.100
  21922219.057    21922218.386    21922217.190   -19112438.202 5 -14892802.099 4
        33.200          29.700
  20514884.625    20514883.799    20514882.296   -25563854.468 6 -19919875.581 8
        40.600          48.900
  23449763.208    23449761.959    23449761.752    -9403087.323 3  -7327077.274 3
        21.600          21.600
  25570789.116    25570788.574    25570787.397     -345221.811 1   -268998.284
         6.500           3.000
  23015056.494    23015054.905    23015053.337   -10526555.842 5  -8202506.980 5
        31.100          31.300
  20646046.073    20646045.575    20646042.598   -23618395.436 7 -18403936.120 7
        42.700          46.500
 09  1 16  0  4 30.0000000  0 10G 6G 9G15G 3G21G18G14G28G19G22
  22979059.284    22979058.665    22979058.580    -8965630.689 4  -6986202.855 4
        27.900          27.600
  22035119.059    22035118.358    22035117.744   -15610226.933 5 -12163806.178 5
        32.400          32.600
  23535502.605    23535502.313    23535500.600    -6859970.347 4  -5345422.641 4
        24.200          27.900
  22941285.262    22941284.489    22941285.070    -8389561.256 4  -6537317.955 4
        26.200          28.400
  21938953.724    21938952.942    21938951.506   -19024498.392 5 -14824277.582 4
        33.500          29.700
  20518898.234    20518897.436    20518895.946   -25542762.383 6 -19903440.179 8
        40.700          48.800
  23429686.084    23429685.945    23429685.971    -9508587.582 3  -7409285.228 3
        22.100          22.600
  25565912.144    25565911.589    25565910.664     -370849.987 1   -288968.592 1
         6.500           9.000
  23010410.355    23010408.794    23010407.272   -10550971.144 5  -8221531.850 5
        31.100          31.300
  20638586.816    20638586.252    20638583.404   -23657593.978 7 -18434480.426 7
        42.600          46.600
 09  1 16  0  5  0.0000000  0 10G 6G 9G15G 3G21G18G14G28G19G22
  22990809.980    22990809.208    22990809.390    -8903880.166 4  -6938085.566 4
        27.100          27.600
  22022703.267    22022702.516    22022701.844   -15675473.163 5 -12214647.373 5
        32.700          33.000
  23554192.225    23554191.918    23554189.934    -6761757.761 4  -5268893.347 4
        25.300          27.400
  22952216.306    22952215.447    22952215.684    -8332120.027 4  -6492558.562 4
        26.500          28.100
  21955756.973    21955756.065    21955754.385   -18936198.198 5 -14755472.251 4
        33.500          29.500
  20522984.705    20522983.901    20522982.426   -25521287.701 6 -19886706.653 8
        40.600          48.700
  23409649.419    23409648.996    23409648.465    -9613883.659 3  -7491334.082 3
        22.600          22.600
  25561124.873    25561124.303    25561124.767     -395992.784     -308559.981 1
                         9.000
  23005874.198    23005872.559    23005871.161   -10574808.302 5  -8240106.236 5
        31.000          31.300
  20631195.734    20631195.226    20631192.437   -23696434.102 7 -18464745.445 7
        42.700          46.800
 09  1 16  0  5 30.0000000  0 10G 6G 9G15G 3G21G18G14G28G19G22
  23002640.339    23002640.010    23002640.398    -8841708.506 4  -6889640.120 4
        26.800          27.900
  22010398.899    22010398.182    22010397.714   -15740132.551 5 -12265031.290 5
        32.700          33.100
  23572921.556    23572920.872    23572919.334    -6663335.991 4  -5192201.046 4
        24.900          27.100
  22963237.328    22963236.403    22963237.379    -8274202.414 4  -6447427.958 4
        25.900          28.600
  21972628.284    21972627.408    21972625.776   -18847538.406 5 -14686386.708 4
        33.100          29.200
  20527144.229    20527143.446    20527141.862   -25499429.509 6 -19869674.291 8
        40.700          48.600
  23389652.094    23389651.061    23389650.444    -9718972.190 3  -7573221.220 3
        23.000          23.000
  25556437.065    25556436.323    25556432.731     -420649.352     -327772.761 1
         3.000           9.000
  23001448.411    23001446.806    23001445.533   -10598065.421 5  -8258228.649 5
        31.000          31.300
  20623873.418    20623872.914    20623869.972   -23734913.383 7 -18494729.291 7
        42.700          46.800
 09  1 16  0  6  0.0000000  0 10G 6G 9G15G 3G21G18G14G28G19G22
  23014550.926    23014550.390    23014550.895    -8779119.735 4  -6840869.656 4
        26.500          27.900
  21998206.092    21998205.530    21998205.309   -15804204.013 5 -12314957.087 5
        32.600          33.100
  23591689.673    23591689.137    23591687.683    -6564709.177 4  -5115348.979 4
        24.900          27.900
  22974348.787    22974348.003    22974348.619    -8215812.460 4  -6401929.313 4
        26.200          28.400
  21989567.904    21989566.945    21989564.978   -18758521.830 5 -14617023.153 4
        33.000          29.000
  20531376.420    20531375.573    20531374.004   -25477189.512 6 -19852344.415 8
        40.700          48.500
  23369694.110    23369693.266    23369692.304    -9823853.359 3  -7654946.778 3
        23.000          23.000
  25551833.126    25551835.717    25551833.390     -444820.658     -346607.434 2
                        12.600
  22997133.160    22997131.711    22997130.313   -10620743.067 5  -8275899.518 5
        31.300          31.600
  20616619.487    20616618.953    20616615.962   -23773032.982 7 -18524432.864 7
        42.800          46.800
 09  1 16  0  6 30.0000000  0 10G 6G 9G15G 3G21G18G14G28G19G22
  23026541.561    23026540.929    23026540.819    -8716110.325 4  -6791771.420 4
        26.200          27.600
  21986127.485    21986126.778    21986126.358   -15867679.098 5 -12364418.172 5
        32.800          33.400
  23610497.277    23610496.541    23610495.567    -6465873.601 4  -5038334.226 4
        24.200          28.400
  22985550.526    22985549.659    22985550.075    -8156946.771 4  -6356059.949 4
        25.900          27.900
  22006575.438    22006574.586    22006572.928   -18669145.084 5 -14547378.947 4
        32.800          29.000
  20535682.197    20535681.370    20535679.840   -25454562.438 6 -19834712.922 8
        40.900          48.500
  23349776.862    23349775.837    23349775.303    -9928519.208 3  -7736504.566 3
        23.000          23.400
  25547330.533    25547329.044    25547327.590     -468499.099 1   -365058.110 2
         6.500          15.100
  22992929.479    22992927.667    22992926.083   -10642834.996 5  -8293113.984 5
        31.500          31.100
  20609435.046    20609434.602    20609431.857   -23810786.329 7 -18553851.048 7
        42.600          46.900
 09  1 16  0  7  0.0000000  0 10G 6G 9G15G 3G21G18G14G28G19G22
  23038611.900    23038611.276    23038611.501    -8652679.149 4  -6742344.541 4
        25.600          28.100
  21974163.182    21974162.454    21974161.943   -15930551.316 5 -12413409.493 5
        32.800          33.100
  23629344.267    23629344.024    23629342.876    -6366828.333 4  -4961156.067 4
        24.200          27.600
  22996843.239    22996842.247    22996842.665    -8097604.516 4  -6309819.245 4
        25.900          28.100
  22023651.896    22023651.248    22023649.481   -18579406.537 5 -14477452.819 4
        32.700          28.600
  20540062.275    20540061.507    20540059.939   -25431544.924 6 -19816777.192 8
        41.000          48.500
  23329901.672    23329900.811    23329900.059   -10032964.521 3  -7817890.497 3
        23.800          23.400
  25542918.393    25542917.093    25542917.219     -491680.629 1   -383121.590 2
         6.500          15.100
  22988837.624    22988836.082    22988834.297   -10664336.772 5  -8309868.600 5
        31.500          30.800
  20602321.466    20602320.925    20602318.096   -23848169.095 7 -18582980.462 7
        42.700          47.000
 09  1 16  0  7 30.0000000  0 10G 6G 9G15G 3G21G18G14G28G19G22
  23050760.044    23050759.369    23050759.922    -8588838.988 4  -6692598.987 4
        25.600          28.600
  21962311.970    21962311.446    21962310.869   -15992828.331 5 -12461937.017 5
        32.700          33.200
  23648229.361    23648229.215    23648227.716    -6267585.896 3  -4883824.285 4
        23.800          26.800
  23008223.382    23008222.498    23008223.654    -8037798.211 4  -6263216.933 4
        25.600          28.400
  22040795.406    22040794.734    22040792.958   -18489318.134 5 -14407254.071 4
        33.000          28.800
  20544514.709    20544513.866    20544512.306   -25408147.552 6 -19798545.467 8
        41.000          48.400
  23310066.100    23310065.619    23310065.472   -10137197.503 3  -7899110.980 4
        23.800          24.600
  25538598.136    25538596.757    25538597.328     -514374.981     -400805.587 2
         3.000          12.600
  22984856.277    22984854.530    22984853.018   -10685258.276 5  -8326171.085 5
        31.300          30.600
  20595276.294    20595275.771    20595272.973   -23885191.449 7 -18611829.043 7
        42.700          47.000
 09  1 16  0  8  0.0000000  0 10G 6G 9G15G 3G21G18G14G28G19G22
  23062986.431    23062985.759    23062986.034    -8524590.883 4  -6642535.533 4
        26.500          28.600
  21950575.429    21950574.695    21950574.194   -16054506.185 5 -12509997.659 5
        33.000          33.500
  23667151.828    23667151.943    23667150.244    -6168147.231 3  -4806339.607 4
        23.800          27.100
  23019692.913    23019692.179    23019692.445    -7977528.843 4  -6216253.796 4
        26.200          28.100
  22058005.039    22058004.379    22058002.854   -18398880.265 5 -14336783.008 4
        32.400          28.800
  20549039.390    20549038.542    20549037.126   -25384369.463 6 -19780017.077 8
        41.000          48.400
  23290272.347    23290271.627    23290271.645   -10241215.184 3  -7980163.698 4
        23.800          24.900
  25534374.878    25534373.301    25534373.699     -536578.769 1   -418107.091 2
         9.000          12.600
  22980986.408    22980984.528    22980982.701   -10705597.383 5  -8342019.745 5
        31.100          30.600
  20588300.255    20588299.779    20588296.928   -23921851.006 7 -18640394.923 7
        42.800          47.100
 09  1 16  0  8 30.0000000  0 10G 6G 9G15G 3G21G18G14G28G19G22
  23075289.818    23075289.282    23075289.514    -8459934.966 4  -6592154.305 4
        25.900          28.400
  21938953.099    21938952.588    21938952.396   -16115579.731 5 -12557587.414 5
        33.100          33.600
  23686112.422    23686112.021    23686110.262    -6068511.865 3  -4728701.657 4
        23.000          27.100
  23031249.528    23031248.705    23031249.290    -7916796.497 4  -6168929.899 4
        25.900          27.600
  22075281.372    22075280.530    22075279.339   -18308092.682 5 -14266039.461 4
        31.800          29.500
  20553637.162    20553636.377    20553634.859   -25360208.348 6 -19761190.224 8
        41.000          48.400
  23270519.927    23270519.379    23270519.194   -10345013.129 3  -8061045.190 4
        23.000          24.600
  25530243.208    25530241.897    25530239.830     -558289.700 1   -435024.702 1
        11.000           6.500
  22977226.651    22977225.114    22977223.721   -10725351.132 5  -8357412.271 5
        30.800          31.000
  20581393.950    20581393.442    20581390.402   -23958144.698 7 -18668675.714 7
        42.900          47.200
 09  1 16  0  9  0.0000000  0 10G 6G 9G15G 3G21G18G14G28G19G22
  23087670.766    23087670.264    23087670.495    -8394873.683 4  -6541457.222 4
        25.900          28.100
  21927447.009    21927446.445    21927445.733   -16176046.522 5 -12604704.379 5
        33.400          33.400
  23705109.403    23705109.108    23705106.994    -5968682.448 3  -4650912.509 4
        22.100          26.800
  23042894.645    23042893.721    23042893.676    -7855603.863 4  -6121247.332 4
        26.500          27.600
  22092623.987    22092622.973    22092621.685   -18216957.509 5 -14195025.060 4
        31.800          29.200
  20558307.629    20558306.769    20558305.302   -25335664.982 6 -19742065.515 8
        41.000          48.300
  23250810.256    23250809.410    23250808.895   -10448589.944 3  -8141754.377 4
        23.400          24.600
  25526203.830    25526203.059    25526203.637     -579507.023     -451557.775 1
         3.000          11.000
  22973578.984    22973577.749    22973576.251   -10744519.034 5  -8372348.294 5
        30.800          31.500
  20574556.914    20574556.447    20574553.562   -23994072.226 7 -18696671.184 7
        42.800          47.200
 09  1 16  0  9 30.0000000  0 10G 6G 9G15G 3G21G18G14G28G19G22
  23100129.141    23100128.540    23100128.435    -8329404.553 4  -6490442.321 4
        26.200          27.400
  21916057.280    21916056.631    21916056.353   -16235898.819 5 -12651342.515 5
        33.100          33.800
  23724143.939    23724143.550    23724141.282    -5868656.403 3  -4572970.150 4
        21.600          26.500
  23054626.771    23054626.196    23054626.677    -7793949.170 4  -6073204.723 4
        26.500          27.900
  22110033.234    22110032.318    22110030.917   -18125471.356 5 -14123737.166 4
        31.800          28.800
  20563051.647    20563050.859    20563049.262   -25310734.640 6 -19722639.267 8
        41.100          48.100
  23231143.590    23231142.921    23231142.336   -10551938.639 3  -8222285.806 4
        23.800          24.900
  25522264.234    25522263.007    25522262.706     -600224.794 2   -467701.575 2
        12.600          12.600
  22970044.421    22970042.728    22970041.297   -10763095.515 5  -8386823.456 5
        31.300          31.500
  20567790.948    20567790.469    20567787.614   -24029627.829 7 -18724376.839 7
        42.800          47.300
 09  1 16  0 10  0.0000000  0 10G 6G 9G15G 3G21G18G14G28G19G22
  23112662.561    23112662.405    23112662.536    -8263537.883 4  -6439117.651 4
        25.300          27.100
  21904783.739    21904783.154    21904782.709   -16295141.966 5 -12697505.990 5
        33.500          33.500
  23743213.806    23743213.279    23743211.263    -5768443.599 3  -4494882.254 4
        21.600          25.300
  23066445.488    23066444.808    23066445.217    -7731842.113 4  -6024809.618 4
        26.200          28.100
  22127507.041    22127506.431    22127504.968   -18033644.305 5 -14052183.634 4
        31.800          28.400
  20567867.816    20567866.980    20567865.386   -25285425.657 6 -19702917.973 8
        41.100          48.000
  23211519.460    23211518.632    23211518.031   -10655065.391 4  -8302644.297 4
        24.200          24.900
  25518414.649    25518413.131    25518412.466     -620449.672 2   -483461.146 2
        13.900          12.600
  22966620.377    22966618.740    22966617.253   -10781088.070 5  -8400843.625 5
        31.600          31.300
  20561094.376    20561093.845    20561090.874   -24064818.918 7 -18751798.459 7
        42.800          47.300
 09  1 16  0 10 30.0000000  0 10G 6G 9G15G 3G21G18G14G28G19G22
  23125271.654    23125271.184    23125271.253    -8197277.804 4  -6387486.435 4
        24.900          26.500
  21893626.027    21893625.370    21893625.071   -16353775.236 5 -12743194.241 5
        33.200          33.800
  23762318.465    23762317.648    23762315.903    -5668047.885 3  -4416651.831 4
        21.600          25.300
  23078349.365    23078348.521    23078348.948    -7669287.023 4  -5976065.398 4
        26.200          27.600
  22145045.498    22145044.819    22145043.360   -17941479.611 5 -13980367.003 4
        31.800          28.100
  20572755.648    20572754.870    20572753.232   -25259739.655 6 -19682902.899 7
        41.100          47.900
  23191937.310    23191936.512    23191935.945   -10757969.792 3  -8382829.518 4
        23.800          24.900
  25514655.769    25514656.965    25514657.170     -640182.311 1   -498837.194 1
        11.000          11.000
  22963307.620    22963306.129    22963304.127   -10798497.534 5  -8414409.432 5
        32.000          31.000
  20554466.931    20554466.396    20554463.442   -24099646.377 7 -18778936.730 7
        42.900          47.400
 09  1 16  0 11  0.0000000  0 10G 6G 9G15G 3G21G18G14G28G19G22
  23137957.406    23137957.012    23137957.471    -8130613.220 4  -6335540.010 4
        24.900          27.400
  21882587.575    21882587.096    21882586.742   -16411782.247 5 -12788394.492 5
        33.200          33.800
  23781459.249    23781458.986    23781457.787    -5567457.808 3  -4338269.957 4
        21.600          24.900
  23090340.518    23090339.977    23090340.226    -7606272.616 4  -5926963.262 4
        25.900          27.400
  22162650.371    22162649.588    22162648.375   -17848965.434 5 -13908278.052 4
        31.300          28.400
  20577717.719    20577716.941    20577715.352   -25233663.609 6 -19662583.898 7
        41.200          47.900
  23172399.973    23172399.349    23172399.177   -10860636.443 3  -8462829.475 4
        23.800          24.900
  25511000.006    25510999.996    25510998.364     -659409.024 1   -513818.899 2
        11.000          13.900
  22960107.958    22960106.695    22960105.176   -10815309.903 5  -8427509.973 5
        31.600          31.000
  20547911.275    20547910.755    20547907.855   -24134096.120 7 -18805780.672 7
        42.900          47.400
 09  1 16  0 11 30.0000000  0 10G 6G 9G15G 3G21G18G14G28G19G22
  23150719.187    23150718.600    23150718.904    -8063551.504 4  -6283284.152 4
        24.600          27.100
  21871668.111    21871667.589    21871667.064   -16469165.227 5 -12833108.489 5
        33.500          33.600
  23800636.398    23800636.170    23800634.995    -5466680.866 3  -4259742.444 4
        22.100          25.300
  23102418.046    23102417.049    23102417.289    -7542806.586 4  -5877509.218 4
        26.200          27.100
  22180320.397    22180319.455    22180318.377   -17756108.879 5 -13835922.312 4
        30.800          28.400
  20582753.202    20582752.348    20582750.722   -25207202.811 6 -19641965.087 7
        41.200          47.800
  23152907.522    23152906.934    23152906.970   -10963068.379 3  -8542646.542 4
        23.800          25.300
  25507439.157    25507438.418    25507436.266     -678133.929 2   -528409.793 1
        12.600          11.000
  22957021.588    22957019.930    22957018.501   -10831530.031 5  -8440149.026 5
        31.000          31.300
  20541426.760    20541426.252    20541423.322   -24168172.603 7 -18832333.766 7
        42.900          47.600
 09  1 16  0 12  0.0000000  0 10G 6G 9G15G 3G21G18G14G28G19G22
  23163554.611    23163553.781    23163553.824    -7996102.389 4  -6230726.400 4
        24.600          27.400
  21860866.254    21860865.732    21860865.444   -16525928.922 5 -12877339.930 5
        33.500          34.100
  23819847.609    23819847.354    23819846.071    -5365726.235 3  -4181076.471 4
        22.600          25.900
  23114578.941    23114578.175    23114578.494    -7478898.703 4  -5827710.868 4
        25.900          27.100
  22198053.854    22198052.981    22198051.782   -17662919.182 5 -13763306.985 4
        31.000          28.100
  20587860.207    20587859.410    20587857.869   -25180364.833 6 -19621052.369 7
        41.200          47.800
  23133459.194    23133458.625    23133458.540   -11065271.177 4  -8622285.050 4
        24.600          25.300
  25503967.539    25503968.046    25503966.082     -696363.168     -542614.526 1
         3.000           9.000
  22954046.701    22954045.001    22954043.442   -10847164.208 5  -8452331.476 5
        31.600          31.300
  20535012.047    20535011.512    20535008.555   -24201882.173 7 -18858600.956 7
        42.900          47.600
 09  1 16  0 12 30.0000000  0 10G 6G 9G15G 3G21G18G14G28G19G22
  23176461.469    23176461.269    23176462.013    -7928270.755 4  -6177870.601 4
        24.200          27.600
  21850182.480    21850181.915    21850181.629   -16582073.040 5 -12921088.574 5
        33.600          34.300
  23839091.051    23839091.209    23839090.050    -5264598.545 3  -4102275.681 4
        22.100          25.900
  23126822.921    23126822.270    23126822.611    -7414554.190 4  -5777572.296 4
        25.300          26.800
  22215849.845    22215848.959    22215847.769   -17569400.778 5 -13690435.509 4
        31.000          27.900
  20593038.596    20593037.767    20593036.197   -25153152.383 6 -19599847.859 7
        41.300          47.700
  23114054.390    23114053.481    23114053.117   -11167246.196 4  -8701746.071 4
        24.900          25.300
  25500593.834    25500592.487    25500591.410     -714098.297     -556434.041 1
         3.000           9.000
  22951182.686    22951180.972    22951179.257   -10862214.425 5  -8464058.866 5
        32.400          31.300
  20528666.709    20528666.187    20528663.336   -24235226.726 7 -18884583.713 7
        43.000          47.700
 09  1 16  0 13  0.0000000  0 10G 6G 9G15G 3G21G18G14G28G19G22
  23189443.202    23189442.387    23189442.947    -7860055.189 4  -6124715.634 4
        24.900          27.900
  21839617.867    21839617.182    21839616.392   -16637591.204 5 -12964349.466 5
        33.900          33.600
  23858368.311    23858368.695    23858367.118    -5163296.132 3  -4023338.736 4
        22.100          26.200
  23139151.031    23139150.356    23139150.442    -7349771.258 4  -5727092.099 4
        25.300          27.100
  22233708.613    22233707.839    22233706.646   -17475551.247 5 -13617306.019 4
        30.600          27.900
  20598288.724    20598287.958    20598286.349   -25125561.927 6 -19578348.799 7
        41.200          47.500
  23094693.635    23094693.028    23094692.623   -11268986.315 4  -8781024.049 4
        24.900          25.900
  25497312.146    25497311.725    25497312.605     -731335.080 1   -569865.422 2
         6.500          12.600
  22948430.721    22948429.081    22948427.344   -10876676.470 5  -8475327.989 5
        32.400          31.100
  20522391.818    20522391.330    20522388.374   -24268201.568 7 -18910278.390 7
        43.000          47.800
 09  1 16  0 13 30.0000000  0 10G 6G 9G15G 3G21G18G14G28G19G22
  23202498.762    23202497.951    23202498.459    -7791450.000 4  -6071257.060 4
        25.300          28.600
  21829173.965    21829173.366    21829172.927   -16692473.026 5 -13007114.503 5
        33.600          33.900
  23877680.232    23877680.184    23877678.569    -5061813.070 3  -3944261.045 4
        21.100          25.900
  23151563.170    23151562.537    23151563.007    -7284544.386 4  -5676265.955 4
        25.300          27.600
  22251631.600    22251630.914    22251629.725   -17381364.502 5 -13543913.773 4
        30.600          27.600
  20603612.467    20603611.670    20603610.075   -25097585.578 6 -19556549.042 7
        41.200          47.400
  23075379.933    23075379.146    23075378.521   -11370481.880 4  -8860111.462 4
        25.300          25.600
  25494131.347    25494129.606    25494128.918     -748063.710 1   -582900.594 1
         6.500           9.000
  22945792.158    22945790.530    22945788.777   -10890541.579 5  -8486131.983 5
        32.100          31.000
  20516188.925    20516188.446    20516185.534   -24300797.894 7 -18935678.116 7
        43.000          47.900
 09  1 16  0 14  0.0000000  0 10G 6G 9G15G 3G21G18G14G28G19G22
  23215626.236    23215625.450    23215626.495    -7722461.600 4  -6017499.882 4
        24.600          27.900
  21818851.134    21818850.500    21818850.149   -16746720.125 5 -13049384.953 5
        34.100          34.400
  23897025.681    23897025.068    23897022.749    -4960155.309 3  -3865047.217 4
        21.600          24.900
  23164058.626    23164057.789    23164058.293    -7218880.064 4  -5625098.955 4
        24.900          26.800
  22269618.052    22269617.226    22269615.956   -17286846.181 5 -13470263.157 4
        30.200          27.100
  20609008.730    20609007.966    20609006.455   -25069227.768 6 -19534452.046 7
        41.300          47.400
  23056112.116    23056111.195    23056110.467   -11471735.282 4  -8939010.175 4
        25.300          25.600
  25491041.365    25491041.288    25491040.328     -764288.440     -595543.225 1
         3.000           6.500
  22943266.456    22943264.858    22943263.462   -10903813.562 5  -8496473.798 5
        32.300          31.100
  20510057.493    20510057.006    20510054.117   -24333018.973 7 -18960785.447 8
        43.100          48.000
 09  1 16  0 14 30.0000000  0 10G 6G 9G15G 3G21G18G14G28G19G22
  23228824.305    23228824.172    23228824.903    -7653102.846 4  -5963454.116 4
        24.200          27.600
  21808647.538    21808646.924    21808646.398   -16800340.325 5 -13091166.905 5
        34.100          34.100
  23916401.396    23916400.956    23916398.794    -4858335.327 3  -3785706.957 4
        21.600          24.900
  23176634.548    23176633.935    23176634.577    -7152791.360 4  -5573601.261 4
        24.900          27.400
  22287665.183    22287664.214    22287663.079   -17192008.862 4 -13396363.967 4
        29.700          26.800
  20614475.838    20614474.935    20614473.375   -25040499.043 6 -19512066.023 7
        41.300          47.400
  23036888.507    23036887.910    23036886.879   -11572754.968 4  -9017726.772 4
        25.600          25.600
  25488049.903    25488048.568    25488049.605     -780017.938 1   -607799.677 1
         6.500           6.500
  22940852.094    22940850.159    22940848.591   -10916502.194 5  -8506361.031 5
        32.300          30.800
  20503995.428    20503994.990    20503992.126   -24364874.525 7 -18985607.949 8
        43.100          48.100
 09  1 16  0 15  0.0000000  0 10G 6G 9G15G 3G21G18G14G28G19G22
  23242094.428    23242093.957    23242094.226    -7583371.526 4  -5909118.043 4
        24.200          27.100
  21798564.658    21798563.989    21798563.474   -16853326.160 5 -13132454.550 5
        34.100          34.000
  23935808.789    23935808.200    23935806.072    -4756350.469 3  -3706238.250 4
        21.100          24.900
  23189292.122    23189291.633    23189291.927    -7086276.015 4  -5521771.140 4
        24.900          26.800
  22305773.433    22305772.536    22305771.289   -17096849.358 4 -13322213.727 4
        29.700          27.100
  20620014.062    20620013.280    20620011.706   -25011394.997 6 -19489387.541 7
        41.400          47.200
  23017710.851    23017709.789    23017709.234   -11673534.422 4  -9096256.175 4
        25.600          25.600
  25485151.155    25485150.158    25485148.534     -795247.739 1   -619667.036 1
         6.500           6.500
  22938549.225    22938547.871    22938546.046   -10928602.143 5  -8515789.554 5
        32.700          30.200
  20498004.182    20498003.693    20498000.754   -24396359.386 7 -19010141.600 8
        43.100          48.200
 09  1 16  0 15 30.0000000  0 10G 6G 9G15G 3G21G18G14G28G19G22
  23255435.403    23255434.867    23255435.612    -7513261.668 3  -5854486.992 4
        23.800          26.500
  21788604.672    21788604.058    21788603.472   -16905666.897 5 -13173239.530 5
        34.400          34.500
  23955248.162    23955247.424    23955246.098    -4654194.605 3  -3626636.305 4
        21.100          25.300
  23202031.446    23202031.003    23202032.032    -7019328.307 3  -5469604.091 4
        23.800          27.100
  22323944.025    22323943.268    22323941.927   -17001361.440 4 -13247807.575 4
        29.900          26.800
  20625625.335    20625624.537    20625622.909   -24981907.485 6 -19466410.255 7
        41.400          47.100
  22998580.602    22998579.785    22998579.412   -11774063.268 4  -9174590.299 4
        25.300          25.600
  25482348.107    25482348.408    25482348.738     -809968.401 1   -631137.700 2
         6.500          13.900
  22936360.407    22936359.029    22936357.249   -10940104.820 5  -8524752.662 5
        32.700          30.400
  20492085.180    20492084.590    20492081.682   -24427464.352 7 -19034379.226 8
        43.100          48.300
 09  1 16  0 16  0.0000000  0 10G 6G 9G15G 3G21G18G14G28G19G22
  23268848.559    23268847.604    23268847.831    -7442779.973 3  -5799566.200 4
        23.800          26.500
  21778767.025    21778766.382    21778765.918   -16957364.213 5 -13213523.130 5
        34.400          34.700
  23974718.213    23974718.639    23974717.514    -4551873.749 3  -3546905.753 4
        19.900          25.300
  23214852.859    23214852.110    23214852.690    -6951955.040 4  -5417105.442 4
        24.900          27.100
  22342176.460    22342175.646    22342174.201   -16905551.206 5 -13173150.264 4
        30.100          27.100
  20631308.634    20631307.839    20631306.203   -24952041.341 6 -19443137.930 7
        41.400          47.000
  22979497.478    22979496.920    22979496.491   -11874343.891 4  -9252730.993 4
        25.600          25.900
  25479644.299    25479643.798    25479643.587     -824183.591     -642214.471 1
                        11.000
  22934284.804    22934283.003    22934280.943   -10951014.408 5  -8533253.628 5
        32.400          30.400
  20486237.631    20486237.154    20486234.238   -24458192.851 7 -19058323.505 8
        43.200          48.400
 09  1 16  0 16 30.0000000  0 10G 6G 9G15G 3G21G18G14G28G19G22
  23282330.725    23282330.254    23282330.813    -7371926.801 4  -5744355.946 4
        24.200          26.200
  21769052.437    21769051.767    21769051.242   -17008413.818 5 -13253302.029 5
        34.400          34.300
  23994220.524    23994220.797    23994220.031    -4449388.013 3  -3467046.752 4
        19.300          25.900
  23227754.184    23227753.459    23227754.307    -6884156.514 4  -5364275.408 4
        24.200          26.800
  22360470.085    22360469.363    22360467.728   -16809418.635 4 -13098241.777 4
        29.900          27.100
  20637064.525    20637063.683    20637062.074   -24921794.477 6 -19419568.942 7
        41.400          47.000
  22960463.156    22960462.226    22960461.548   -11974372.344 4  -9330675.197 4
        25.900          25.600
  25477037.677    25477036.488    25477034.473     -837889.968     -652894.663
         3.000           3.000
  22932322.139    22932320.299    22932318.560   -10961328.164 5  -8541290.317 5
        32.000          30.800
  20480462.430    20480461.906    20480459.043   -24488542.061 7 -19081972.232 8
        43.300          48.500
 09  1 16  0 17  0.0000000  0 10G 6G 9G15G 3G21G18G14G28G19G22
  23295882.374    23295882.005    23295882.344    -7300713.207 4  -5688864.842 4
        24.600          26.200
  21759460.269    21759459.596    21759459.147   -17058821.716 5 -13292580.904 5
        34.500          34.500
  24013752.760    24013752.984    24013751.659    -4346748.148 3  -3387067.673 4
        19.300          25.600
  23240735.186    23240734.549    23240734.593    -6815943.936 4  -5311122.761 4
        24.900          25.900
  22378822.636    22378821.927    22378820.601   -16712973.864 4 -13023090.023 4
        29.200          26.800
  20642890.947    20642890.180    20642888.678   -24891175.583 6 -19395710.060 7
        41.500          46.900
  22941474.950    22941474.256    22941473.576   -12074155.287 4  -9408428.093 4
        26.200          25.900
  25474522.715    25474521.942    25474521.879     -851095.793 1   -663184.866
         6.500           3.000
  22930471.113    22930469.333    22930467.515   -10971054.435 5  -8548869.214 5
        32.000          30.600
  20474757.825    20474757.280    20474754.314   -24518520.201 7 -19105331.813 8
        43.300          48.500
 09  1 16  0 17 30.0000000  0 10G 6G 9G15G 3G21G18G14G28G19G22
  23309504.676    23309504.154    23309504.490    -7229128.083 4  -5633084.234 4
        24.900          26.200
  21749993.009    21749992.374    21749991.746   -17108571.947 5 -13331347.294 5
        34.700          34.300
  24033316.283    24033315.925    24033315.072    -4243942.245 3  -3306959.190 4
        19.300          25.300
  23253796.037    23253795.286    23253795.964    -6747306.780 4  -5257639.244 4
        24.900          25.900
  22397237.154    22397236.436    22397234.903   -16616205.298 4 -12947685.950 4
        29.000          26.200
  20648790.834    20648790.093    20648788.531   -24860171.654 6 -19371551.145 7
        41.400          46.800
  22922536.698    22922535.859    22922535.325   -12173677.059 4  -9485977.480 4
        26.800          26.200
  25472107.878    25472106.262    25472105.470     -863786.936     -673074.124
         3.000           3.000
  22928734.653    22928732.753    22928731.026   -10980179.129 5  -8555979.354 5
        31.600          30.400
  20469126.510    20469126.037    20469123.044   -24548112.491 7 -19128390.732 8
        43.400          48.600
 09  1 16  0 18  0.0000000  0 10G 6G 9G15G 3G21G18G14G28G19G22
  23323195.483    23323194.752    23323195.356    -7157184.168 4  -5577024.054 4
        24.200          26.800
  21740649.503    21740648.957    21740647.885   -17157672.401 5 -13369607.382 5
        34.800          33.900
  24052909.184    24052908.774    24052907.857    -4140982.754 3  -3226731.035 4
        19.300          24.900
  23266936.065    23266935.105    23266935.611    -6678257.392 4  -5203834.531 4
        24.600          25.600
  22415710.846    22415710.041    22415708.748   -16519124.985 4 -12872038.964 4
        28.800          25.900
  20654761.972    20654761.196    20654759.613   -24828793.204 6 -19347100.402 7
        41.400          46.700
  22903646.208    22903645.477    22903644.958   -12272945.981 4  -9563329.845 4
        26.800          26.200
  25469790.811    25469789.673    25469787.894     -875973.284 1   -682570.053 1
         6.500           6.500
  22927110.773    22927108.914    22927107.648   -10988712.236 5  -8562628.531 5
        31.500          30.800
  20463566.788    20463566.325    20463563.347   -24577328.791 7 -19151156.670 8
        43.500          48.700
 09  1 16  0 18 30.0000000  0 10G 9G 6G15G 3G21G18G14G28G19G22
  21731430.053    21731429.380    21731429.004   -17206120.252 5 -13407358.936 5
        34.500          34.400
  23336952.822    23336952.649    23336953.578    -7084883.782 3  -5520686.100 4
        23.800          26.500
  24072530.812    24072530.425    24072529.521    -4037871.505 3  -3146384.622 4
        18.600          24.900
  23280153.347    23280152.589    23280153.106    -6608798.268 4  -5149710.543 4
        24.200          25.300
  22434243.643    22434242.843    22434241.396   -16421734.670 4 -12796150.423 4
        29.200          25.900
  20660804.504    20660803.640    20660802.049   -24797039.944 6 -19322357.596 7
        41.500          46.500
  22884804.361    22884803.644    22884803.252   -12371960.147 4  -9640483.694 4
        26.200          26.800
  25467566.890    25467565.878    25467565.642     -887653.376 1   -691671.399 1
         6.500           9.000
  22925599.361    22925597.732    22925596.458   -10996653.396 5  -8568816.443 5
        31.100          31.000
  20458078.847    20458078.403    20458075.413   -24606168.119 7 -19173628.865 8
        43.600          48.800
 09  1 16  0 19  0.0000000  0 10G 9G 6G15G 3G21G18G14G28G19G22
  21722334.320    21722333.823    21722333.271   -17253918.168 5 -13444604.057 5
        34.800          34.400
  23350778.311    23350777.712    23350778.224    -7012234.263 3  -5464076.103 4
        23.800          26.200
  24092179.650    24092179.554    24092178.314    -3934615.483 3  -3065925.419 4
        18.600          24.200
  23293447.512    23293446.976    23293447.065    -6538936.938 4  -5095273.140 4
        24.200          24.200
  22452833.970    22452833.411    22452831.949   -16324041.114 4 -12720025.579 4
        29.000          25.900
  20666917.126    20666916.314    20666914.761   -24764917.318 6 -19297326.970 7
        41.500          46.400
  22866009.873    22866009.713    22866009.150   -12470722.690 4  -9717441.463 4
        26.500          26.800
  25465438.470    25465439.289    25465439.252     -898831.430 1   -700381.433 1
         6.500           9.000
  22924200.251    22924198.308    22924196.839   -11004006.981 5  -8574546.496 5
        31.100          30.600
  20452661.944    20452661.424    20452658.422   -24634634.710 7 -19195810.613 8
        43.600          48.900
 09  1 16  0 19 30.0000000  0 10G 9G 6G15G 3G21G18G14G28G19G22
  21713364.620    21713363.862    21713363.310   -17301055.812 5 -13481334.679 5
        34.900          34.500
  23364670.714    23364670.086    23364670.776    -6939229.580 3  -5407189.344 4
        23.000          26.800
  24111857.353    24111857.293    24111855.676    -3831208.179 2  -2985348.349 3
        17.800          23.400
  23306818.985    23306818.566    23306818.791    -6468667.340 3  -5040517.609 4
        23.400          24.200
  22471483.525    22471482.757    22471481.658   -16226037.389 4 -12643659.052 4
        28.600          26.200
  20673101.668    20673100.811    20673099.283   -24732417.287 6 -19272002.264 7
        41.400          46.400
  22847266.315    22847265.589    22847264.853   -12569223.064 4  -9794194.954 4
        26.500          26.800
  25463409.476    25463408.683    25463410.512     -909498.353 1   -708693.287 1
         9.000           6.500
  22922913.992    22922912.587    22922911.079   -11010764.370 5  -8579811.989 5
        31.500          30.600
  20447317.581    20447317.071    20447314.080   -24662719.304 7 -19217694.702 8
        43.600          49.000
 09  1 16  0 20  0.0000000  0 10G 9G 6G15G 3G21G18G14G28G19G22
  21704520.533    21704519.969    21704519.497   -17347530.793 5 -13517548.927 5
        34.900          34.800
  23378629.800    23378629.142    23378630.122    -6865872.731 3  -5350028.188 4
        22.600          26.500
  24131563.499    24131563.530    24131561.366    -3727651.778 3  -2904655.083 3
        18.600          23.800
  23320268.578    23320267.708    23320268.230    -6397992.177 3  -4985446.045 4
        23.400          24.900
  22490191.325    22490190.497    22490189.576   -16127726.413 4 -12567053.120 4
        27.900          26.200
  20679357.988    20679357.217    20679355.565   -24699540.178 6 -19246383.733 7
        41.500          46.200
  22828572.520    22828571.656    22828571.043   -12667459.788 4  -9870743.002 4
        27.100          27.100
  25461477.287    25461476.043    25461476.333     -919654.176 1   -716606.906
         6.500
  22921741.612    22921740.109    22921738.430   -11016925.819 5  -8584613.104 5
        31.500          30.400
  20442045.860    20442045.418    20442042.517   -24690421.545 7 -19239280.853 8
        43.700          49.100
 09  1 16  0 20 30.0000000  0  9G 9G 6G15G 3G21G18G14G19G22
  21695802.375    21695801.747    21695801.155   -17393344.607 5 -13553247.997 5
        35.100          34.600
  23392654.904    23392654.473    23392655.012    -6792169.910 3  -5292597.436 4
        22.600          25.300
  24151296.708    24151296.544    24151294.562    -3623951.969 3  -2823850.073 3
        19.300          23.800
  23333793.683    23333792.885    23333793.183    -6326918.324 3  -4930063.831 4
        23.000          25.300
  22508957.050    22508956.188    22508954.764   -16029113.487 4 -12490211.900 4
        28.400          25.300
  20685685.299    20685684.460    20685682.825   -24666290.243 6 -19220474.686 7
        41.500          46.100
  22809928.439    22809928.015    22809927.054   -12765434.586 4  -9947086.955 4
        27.400          27.600
  22920682.383    22920680.624    22920678.626   -11022494.829 5  -8588952.596 5
        31.800          30.400
  20436846.783    20436846.216    20436843.153   -24717744.403 7 -19260571.383 8
        43.800          49.200
 09  1 16  0 21  0.0000000  0 10G 9G 6G28G15G 3G21G18G14G19G22
  21687211.567    21687210.875    21687210.644   -17438489.592 5 -13588425.895 5
        35.100          35.200
  23406746.592    23406746.222    23406746.550    -6718117.687 3  -5234894.422 4
        23.000          24.600
  25457903.764    25457902.713    25457903.884           -.56311          .45211
        11.000           9.000
  24171057.498    24171057.503    24171055.926    -3520104.991 3  -2742930.370 3
        18.600          23.400
  23347395.141    23347393.993    23347394.378    -6255442.332 3  -4874368.274 4
        22.100          24.600
  22527780.612    22527779.825    22527778.457   -15930194.818 4 -12413132.424 4
        28.600          25.300
  20692084.476    20692083.723    20692082.039   -24632661.797 6 -19194270.697 7
        41.500          45.900
  22791335.800    22791335.229    22791334.366   -12863139.867 4 -10023220.889 4
        27.400          27.600
  22919736.567    22919734.768    22919732.834   -11027465.263 5  -8592825.663 5
        32.100          30.600
  20431720.637    20431720.131    20431717.103   -24744681.679 7 -19281561.456 8
        43.900          49.200
 09  1 16  0 21 30.0000000  0 10G 9G 6G28G15G 3G21G18G14G19G22
  21678747.536    21678746.827    21678746.183   -17482969.697 5 -13623085.703 5
        35.200          35.100
  23420903.025    23420902.575    23420902.951    -6643725.176 3  -5176926.228 4
        23.400          24.200
  25456261.530    25456260.846    25456260.071       -8626.068 1     -6720.795 1
         9.000           6.500
  24190845.485    24190845.161    24190843.802    -3416119.241 3  -2661902.543 3
        19.300          23.000
  23361071.027    23361069.935    23361070.371    -6183573.356 3  -4818366.477 4
        22.600          24.200
  22546660.752    22546659.778    22546658.601   -15830978.709 4 -12335821.181 4
        27.900          25.300
  20698554.507    20698553.713    20698552.023   -24598661.927 6 -19167777.286 7
        41.600          45.800
  22772793.606    22772792.787    22772791.775   -12960580.382 4 -10099148.520 4
        27.900          27.400
  22918903.340    22918901.660    22918900.111   -11031843.664 5  -8596237.407 5
        32.300          31.300
  20426666.952    20426666.422    20426663.430   -24771238.982 7 -19302255.449 8
        43.900          49.400
 09  1 16  0 22  0.0000000  0 10G 9G 6G28G15G 3G21G18G14G19G22
  21670409.336    21670408.805    21670408.210   -17526785.691 5 -13657228.028 5
        35.200          34.900
  23435123.472    23435122.941    23435122.992    -6568997.849 3  -5118697.154 3
        23.400          23.800
  25454716.182    25454715.727    25454714.548      -16745.728 1    -13047.822 1
         6.500           6.500
  24210658.472    24210658.539    24210657.029    -3311999.765 2  -2580770.526 3
        17.800          23.000
  23374821.372    23374820.606    23374820.731    -6111316.817 3  -4762062.700 4
        23.400          25.300
  22565596.468    22565595.990    22565594.689   -15731469.777 4 -12258281.776 4
        27.900          25.600
  20705094.512    20705093.732    20705092.056   -24564293.589 6 -19140996.761 7
        41.600          45.700
  22754301.132    22754300.550    22754299.989   -13057756.936 4 -10174870.472 4
        27.600          27.900
  22918182.271    22918180.541    22918178.863   -11035632.676 5  -8599189.880 5
        32.100          31.000
  20421685.290    20421684.736    20421681.618   -24797418.329 7 -19322654.929 8
        44.000          49.400
 09  1 16  0 22 30.0000000  0 10G 9G 6G28G15G 3G21G18G14G19G22
  21662199.611    21662198.839    21662198.307   -17569929.985 5 -13690846.947 5
        35.300          35.400
  23449407.900    23449406.955    23449407.540    -6493933.010 3  -5060205.077 4
        22.600          24.200
  25453266.719    25453267.920    25453265.089      -24354.103      -18976.456 1
                         6.500
  24230497.637    24230498.072    24230496.377    -3207743.083 2  -2499531.597 3
        17.800          22.600
  23388645.438    23388644.480    23388645.014    -6038670.305 3  -4705455.042 4
        22.100          24.900
  22584588.483    22584587.927    22584586.615   -15631664.912 4 -12180511.761 4
        27.600          24.900
  20711705.743    20711704.920    20711703.165   -24529552.181 6 -19113925.528 7
        41.700          45.600
  22735860.664    22735860.026    22735859.285   -13154662.633 4 -10250381.357 4
        27.900          28.100
  22917574.398    22917572.701    22917570.838   -11038827.033 5  -8601678.990 5
        32.000          30.600
  20416776.383    20416775.875    20416772.860   -24823214.135 7 -19342755.547 8
        44.100          49.500
 09  1 16  0 23  0.0000000  0 10G 9G 6G28G15G 3G21G18G14G19G22
  21654117.972    21654117.261    21654116.692   -17612398.171 5 -13723939.029 5
        35.100          35.200
  23463756.348    23463755.707    23463756.257    -6418530.645 3  -5001449.992 3
        22.600          23.400
  25451917.624    25451918.102    25451917.262      -31447.619 1    -24503.937 1
         6.500           6.500
  24250363.013    24250363.363    24250362.082    -3103348.508 2  -2418185.204 3
        17.000          21.600
  23402543.395    23402542.871    23402543.096    -5965633.795 3  -4648543.498 4
        22.600          24.600
  22603637.237    22603636.549    22603635.453   -15531563.741 4 -12102510.871 4
        27.600          24.900
  20718388.354    20718387.509    20718385.742   -24494435.063 6 -19086561.534 7
        41.600          45.600
  22717472.696    22717472.038    22717471.283   -13251292.860 4 -10325677.600 4
        28.100          28.400
  22917080.036    22917078.234    22917076.670   -11041424.206 5  -8603702.756 5
        32.000          30.800
  20411941.157    20411940.678    20411937.696   -24848623.116 7 -19362554.744 8
        44.100          49.600
 09  1 16  0 23 30.0000000  0 10G 9G 6G28G15G 3G21G18G14G19G22
  21646164.857    21646164.222    21646163.651   -17654192.299 5 -13756505.868 5
        35.400          35.600
  23478167.411    23478167.154    23478167.622    -6342797.253 3  -4942436.946 3
        22.100          23.000
  25450664.281    25450664.453    25450662.465      -38029.652 1    -29632.764 1
         9.000           9.000
  24270254.177    24270254.005    24270252.957    -2998822.128 2  -2336736.121 3
        17.800          22.600
  23416514.746    23416514.299    23416514.826    -5892213.828 3  -4591333.145 4
        22.600          24.900
  22622741.225    22622740.568    22622739.319   -15431171.639 4 -12024283.278 4
        27.600          24.200
  20725141.300    20725140.529    20725138.951   -24458946.590 6 -19058908.170 7
        41.600          45.500
  22699136.531    22699135.614    22699135.158   -13347649.863 4 -10400760.932 4
        28.100          28.600
  22916698.571    22916697.109    22916695.467   -11043427.941 5  -8605264.088 5
        32.100          31.100
  20407179.025    20407178.490    20407175.412   -24873648.770 7 -19382055.240 8
        44.100          49.700
 09  1 16  0 24  0.0000000  0 10G 9G 6G28G15G 3G21G18G14G19G22
  21638340.041    21638339.324    21638339.052   -17695311.521 5 -13788546.810 5
        35.400          35.700
  23492642.212    23492641.594    23492641.495    -6266736.764 3  -4883169.037 3
        22.600          23.400
  25449511.123    25449510.490    25449510.159      -44101.602 2    -34364.159 2
        13.900          15.100
  24290169.494    24290169.102    24290167.781    -2894167.025 2  -2255186.723 3
        17.000          22.100
