     2.11           OBSERVATION DATA    G (GPS)             RINEX VERSION / TYPE
teqc  2008Oct2      WCDA Operator       20090201 00:18:37UTCPGM / RUN BY / DATE
Solaris x86 5.10|AMD64|cc SC5.8 -xarch=amd64|=+|=+          COMMENT
teqc  2008Oct2      WCDA Operator       20090131 01:18:19UTCCOMMENT
flin  WCDA-ACP   965000   CFS Flin Flon SASK Canada         MARKER NAME
40135M001                                                   MARKER NUMBER
PGC-WCDA            GEOL. SURV. CANADA                      OBSERVER / AGENCY
1115                AOA BENCHMARK ACT   3.3.32.4            REC # / TYPE / VERS
231                 AOAD/M_T        SCIS                    ANT # / TYPE
  -766174.4630 -3611375.3160  5184056.2210                  APPROX POSITION XYZ
        0.1500        0.0000        0.0000                  ANTENNA: DELTA H/E/N
     1     1                                                WAVELENGTH FACT L1/2
     7    C1    P1    P2    L1    L2    S1    S2            # / TYPES OF OBSERV
STATION INFORMATION EFFECTIVE FROM: 2001/01/13 18:20:00     COMMENT
                                TO: CURRENT DATE (above)    COMMENT
BIT 2 OF LLI FLAGS (+4) DATA COLLECTED UNDER 'AS' CONDITION COMMENT
L1 PHASE CENTRE 0.110m ABOVE ARP                            COMMENT
L2 PHASE CENTRE 0.128m ABOVE ARP                            COMMENT
where ARP is the Antenna Reference Point for HI measurement COMMENT
CONTACT gps@pgc.nrcan.gc.ca FOR ADDITIONAL INFORMATION      COMMENT
    P1 =    P1  TurboRogue; =    Y1  Benchmark              COMMENT
    L1 = L1(CA)                                             COMMENT
    P2 =    P2  TurboRogue; =    Y2  Benchmark              COMMENT
    L2 = L2(P2) TurboRogue; = L2(Y2) Benchmark              COMMENT
 SNR is mapped to RINEX snr flag value [0-9]                COMMENT
  L1 & L2: min(max(int(snr_dBHz/6), 0), 9)                  COMMENT
  2009     1    31     0     0    0.0000000     GPS         TIME OF FIRST OBS
                                                            END OF HEADER
 09  1 31  0  0  0.0000000  0  9G 9G11G 6G21G 3G18G14G22G19
  21438078.029    21438077.636    21438076.887   -17929932.874 6 -13971367.942 5
        38.100          35.400
  24663592.780    24663592.144    24663589.932    -1066221.591 1   -830821.482 1
        11.000          11.000
  24711005.366    24711005.205    24711005.560    -2515712.784 1  -1960295.153 2
         6.500          12.600
  24221100.403    24221099.466    24221098.755    -6940858.181 3  -5408459.881 1
        19.900           9.000
  24630520.217    24630519.498    24630519.225      922639.243 2    718941.696 2
        15.100          16.100
  21400249.941    21400249.314    21400247.611   -20870186.319 6 -16262474.221 6
        40.300          36.700
  21441509.551    21441509.080    21441507.996   -19881315.665 6 -15491925.233 6
        39.500          37.600
  20264455.207    20264454.935    20264451.833   -25735510.980 7 -20053636.657 8
        44.800          49.800
  23206068.367    23206067.341    23206065.906    -9075990.036 5  -7072195.929 4
        30.600          29.900
 09  1 31  0  0 30.0000000  0  9G 9G18G11G 6G21G 3G14G22G19
  21440682.400    21440682.058    21440681.562   -17916245.633 6 -13960702.551 5
        38.100          35.400
  21411946.232    21411945.649    21411944.188   -20808721.169 6 -16214579.296 6
        40.200          36.700
  24645436.009    24645435.666    24645432.929    -1161641.130 2   -905174.345 2
        13.900          12.600
  24728640.113    24728639.435    24728639.104    -2423051.842 1  -1888091.841 2
        11.000          13.900
  24243222.063    24243221.712    24243221.547    -6824603.323 3  -5317871.691 1
        18.600           9.000
  24648391.782    24648390.716    24648389.651     1016553.104 2    792121.339 2
        17.000          15.100
  21428251.134    21428250.675    21428249.670   -19950988.940 6 -15546216.087 6
        39.400          37.700
  20265552.970    20265552.655    20265549.552   -25729742.452 7 -20049141.693 8
        44.800          49.700
  23213735.671    23213734.319    23213732.720    -9035699.911 5  -7040801.025 4
        30.400          29.700
 09  1 31  0  1  0.0000000  0  9G 9G18G11G 6G21G 3G14G22G19
  21443426.066    21443425.645    21443425.160   -17901827.636 6 -13949467.744 5
        38.100          35.400
  21423704.871    21423704.235    21423702.683   -20746929.953 6 -16166430.297 6
        40.200          36.500
  24627328.347    24627327.922    24627325.236    -1256799.295 2   -979323.528 2
        16.100          12.600
  24746293.777    24746294.268    24746295.577    -2330278.967 2  -1815801.321 2
        12.600          16.100
  24265367.051    24265366.787    24265366.617    -6708233.180 3  -5227193.677 1
        18.600           9.000
  24666291.425    24666290.680    24666290.276     1110621.755 2    865421.513 2
        13.900          15.100
  21415067.161    21415066.618    21415065.575   -20020271.802 6 -15600202.719 6
        39.500          37.900
  20266728.806    20266728.485    20266725.483   -25723563.148 7 -20044326.644 8
        44.800          49.800
  23221501.537    23221500.106    23221498.661    -8994890.160 5  -7009001.231 4
        30.600          29.500
 09  1 31  0  1 30.0000000  0  9G 9G18G11G 6G21G 3G14G22G19
  21446308.368    21446307.946    21446307.713   -17886680.293 6 -13937664.609 5
        37.900          35.500
  21435524.967    21435524.411    21435522.865   -20684814.144 6 -16118028.362 6
        40.000          36.500
  24609269.423    24609269.243    24609266.541    -1351694.312 2  -1053267.675 2
        16.100          12.600
  24763968.935    24763968.151    24763969.951    -2237397.686 2  -1743426.308 2
        12.600          16.100
  24287533.004    24287532.707    24287532.304    -6591750.464 3  -5136427.897 2
        19.300          12.600
  24684219.116    24684219.210    24684220.178     1204841.628 2    938839.564 2
        12.600          15.100
  21401957.314    21401956.813    21401956.126   -20089163.599 6 -15653884.623 6
        39.300          38.300
  20267982.657    20267982.354    20267979.360   -25716973.938 7 -20039192.186 8
        44.800          49.800
  23229365.846    23229364.693    23229363.012    -8953563.023 5  -6976798.264 4
        30.600          29.000
 09  1 31  0  2  0.0000000  0  9G 9G18G11G 6G21G 3G14G22G19
  21449329.365    21449328.976    21449328.592   -17870805.621 6 -13925294.725 5
        37.900          35.400
  21447406.613    21447405.952    21447404.489   -20622376.467 6 -16069375.629 6
        40.000          36.500
  24591261.445    24591260.947    24591258.807    -1446325.658 2  -1127006.340 1
        15.100          11.000
  24781663.368    24781662.579    24781662.343    -2144412.478 1  -1670970.353 2
         9.000          13.900
  24309719.957    24309719.171    24309718.789    -6475159.486 3  -5045577.811 2
        19.900          12.600
  24702177.837    24702177.621    24702177.820     1299207.623 2   1012371.506 2
        15.100          16.100
  21388921.795    21388921.417    21388920.628   -20157665.041 6 -15707262.356 6
        39.400          38.300
  20269314.268    20269313.946    20269310.989   -25709976.433 7 -20033739.577 8
        44.700          49.800
  23237328.097    23237326.641    23237324.906    -8911722.030 5  -6944194.885 4
        30.800          28.800
 09  1 31  0  2 30.0000000  0  9G 9G18G14G11G 6G21G 3G22G19
  21452488.447    21452488.101    21452487.848   -17854203.328 6 -13912357.857 5
        37.700          35.300
  21459349.411    21459348.830    21459347.286   -20559616.252 6 -16020471.564 6
        39.800          36.300
  21375961.174    21375960.801    21375959.809   -20225773.982 6 -15760334.243 6
        39.600          38.400
  24573305.309    24573304.806    24573303.351    -1540689.459 2  -1200536.550 1
        13.900           9.000
  24799376.192    24799375.244    24799376.477    -2051325.107    -1598434.789 2
                        12.600
  24331927.110    24331926.553    24331925.774    -6358461.357 3  -4954644.235 2
        19.300          15.100
  24720162.400    24720161.907    24720162.736     1393718.570 1   1086016.371 2
        11.000          17.800
  20270723.794    20270723.526    20270720.430   -25702569.167 7 -20027967.676 8
        44.800          49.700
  23245387.411    23245386.314    23245384.757    -8869368.182 5  -6911191.890 4
        30.400          28.600
 09  1 31  0  3  0.0000000  0  9G 9G18G14G11G 6G21G 3G22G19
  21455786.786    21455786.307    21455785.833   -17836871.335 6 -13898852.403 5
        37.700          35.100
  21471354.050    21471353.460    21471351.818   -20496531.321 6 -15971314.473 6
        39.700          36.000
  21363075.899    21363075.465    21363074.583   -20293486.695 6 -15813097.379 6
        39.600          38.600
  24555399.934    24555399.823    24555397.094    -1634780.431 2  -1273854.150 1
        12.600           9.000
  24817110.812    24817110.398    24817110.883    -1958135.654    -1525819.710 1
                        11.000
  24354154.908    24354153.806    24354153.421    -6241655.684 2  -4863626.849 2
        17.800          16.100
  24738173.763    24738174.208    24738175.293     1488373.830 1   1159773.684 2
         9.000          17.000
  20272211.916    20272211.564    20272208.400   -25694749.463 7 -20021874.393 8
        44.800          49.600
  23253544.996    23253543.938    23253542.469    -8826500.396 5  -6877788.419 4
        31.000          29.000
 09  1 31  0  3 30.0000000  0  9G 9G18G14G11G 6G21G 3G22G19
  21459223.843    21459223.428    21459223.037   -17818808.787 6 -13884777.686 5
        37.700          34.900
  21483420.456    21483419.901    21483418.389   -20433121.431 6 -15921904.167 6
        39.600          36.000
  21350266.526    21350266.012    21350265.028   -20360800.938 6 -15865550.017 6
        39.700          38.600
  24537546.555    24537546.986    24537545.198    -1728595.062 1  -1346956.409 1
        11.000           6.500
  24834863.441    24834863.373    24834863.206    -1864845.564    -1453126.163 1
         3.000          11.000
  24376402.400    24376401.725    24376400.904    -6124743.152 2  -4772526.212 2
        17.000          15.100
  24756214.252    24756213.621    24756213.036     1583171.724 1   1233642.180 2
        11.000          15.100
  20273778.666    20273778.363    20273775.314   -25686515.757 7 -20015458.511 8
        44.800          49.700
  23261800.466    23261799.028    23261797.175    -8783119.078 5  -6843984.786 4
        31.000          28.600
 09  1 31  0  4  0.0000000  0  9G 9G18G14G11G 6G21G 3G22G19
  21462798.450    21462798.062    21462797.647   -17800023.835 6 -13870140.057 5
        37.700          34.800
  21495547.417    21495546.904    21495545.071   -20369394.545 6 -15872246.850 5
        39.700          35.700
  21337531.844    21337531.393    21337530.366   -20427722.293 6 -15917696.512 6
        39.700          38.600
  24519745.004    24519745.623    24519745.432    -1822138.098 1  -1419847.026 1
         6.500           9.000
  24852633.573    24852633.100    24852632.507    -1771465.153 1  -1380362.197 1
         6.500           9.000
  24398668.760    24398668.305    24398667.350    -6007733.686 2  -4681350.031 2
        17.000          13.900
  24774279.157    24774278.964    24774278.323     1678101.631 2   1307613.487 2
        13.900          16.100
  20275422.925    20275422.592    20275419.521   -25677875.279 7 -20008725.663 8
        44.700          49.700
  23270151.545    23270150.121    23270148.357    -8739233.584 5  -6809788.300 4
        30.400          28.600
 09  1 31  0  4 30.0000000  0  9G 9G18G14G19G11G 6G21G 3G22
  21466511.756    21466511.311    21466510.587   -17780511.796 6 -13854935.861 5
        38.100          34.700
  21507735.293    21507734.790    21507733.284   -20305345.675 6 -15822338.638 5
        39.400          35.600
  21324873.036    21324872.577    21324871.683   -20494244.281 6 -15969531.812 6
        39.700          38.900
  23278599.245    23278597.720    23278596.333    -8694840.196 5  -6775196.043 4
        30.400          28.800
  24501997.344    24501997.100    24501996.987    -1915401.378    -1492519.680 1
         3.000           9.000
  24870421.627    24870420.085    24870422.069    -1677991.610    -1307525.714 1
         3.000          11.000
  24420953.506    24420953.128    24420952.602    -5890623.806 2  -4590095.623 2
        16.100          12.600
  24792369.391    24792368.542    24792369.536     1773166.466 2   1381689.955 2
        12.600          16.100
  20277145.547    20277145.258    20277142.347   -25668822.182 7 -20001671.292 8
        44.600          49.700
 09  1 31  0  5  0.0000000  0  9G 9G18G14G19G11G 6G21G 3G22
  21470364.061    21470363.611    21470362.989   -17760268.290 6 -13839161.705 5
        38.100          34.900
  21519985.701    21519985.020    21519983.537   -20240970.825 6 -15772176.423 5
        39.500          35.700
  21312291.401    21312290.996    21312290.069   -20560360.684 6 -16021051.074 6
        39.900          38.900
  23287144.140    23287142.884    23287141.473    -8649935.657 5  -6740205.492 4
        30.200          28.800
  24484305.895    24484306.484    24484304.757    -2008377.223    -1564968.382 1
                        11.000
  24888226.241    24888225.228    24888226.123    -1584422.550    -1234614.745 1
                         9.000
  24443258.681    24443257.912    24443258.084    -5773410.459 2  -4498760.553 1
        15.100          11.000
  24810484.672    24810483.908    24810485.323     1868368.211 1   1455873.131 2
        11.000          15.100
  20278947.876    20278947.586    20278944.568   -25659351.268 7 -19994291.352 8
        44.600          49.700
 09  1 31  0  5 30.0000000  0  9G 9G18G14G19G11G 6G21G 3G22
  21474353.640    21474353.047    21474352.617   -17739302.869 6 -13822825.006 5
        37.800          34.700
  21532295.979    21532295.415    21532293.951   -20176279.414 6 -15721767.531 5
        39.300          35.500
  21299785.464    21299785.078    21299784.103   -20626079.499 6 -16072260.531 6
        39.900          39.000
  23295784.808    23295783.422    23295781.614    -8604530.790 5  -6704825.067 4
        30.800          28.400
  24466668.095    24466667.645    24466665.584    -2101072.200    -1637198.248 1
                        11.000
  24906046.158    24906046.551    24906048.780    -1490769.602    -1161638.366 1
         3.000          11.000
  24465581.715    24465580.210    24465580.062    -5656105.178 2  -4407353.875 2
        15.100          12.600
  24828625.072    24828624.888    24828625.367     1963695.184 1   1530153.876 2
        11.000          13.900
  20280827.890    20280827.607    20280824.611   -25649471.630 7 -19986592.928 8
        44.600          49.600
 09  1 31  0  6  0.0000000  0  9G 9G18G14G19G11G 6G21G 3G22
  21478480.378    21478479.987    21478479.428   -17717615.106 6 -13805925.443 5
        37.700          34.600
  21544666.611    21544666.061    21544664.420   -20111271.030 6 -15671111.647 5
        39.100          35.300
  21287355.877    21287355.389    21287354.293   -20691398.432 6 -16123158.384 6
        40.000          39.200
  23304520.165    23304518.623    23304516.895    -8558626.278 5  -6669055.323 4
        30.600          28.400
  24449084.503    24449083.095    24449079.762    -2193482.393    -1709206.148 2
                        12.600
  24923884.731    24923884.567    24923886.281    -1397034.448 1  -1088598.001 2
         6.500          12.600
  24487922.174    24487920.753    24487919.373    -5538708.574 2  -4315875.999 1
        15.100          11.000
  24846788.274    24846788.281    24846789.747     2059145.914 1   1604531.011 2
         9.000          16.100
  20282786.011    20282785.700    20282782.700   -25639181.796 7 -19978574.867 8
        44.700          49.600
 09  1 31  0  6 30.0000000  0  9G 9G18G14G19G11G 6G21G 3G22
  21482745.065    21482744.571    21482744.169   -17695204.974 6 -13788462.991 5
        37.500          34.900
  21557097.609    21557097.069    21557095.498   -20045945.555 6 -15620208.679 5
        39.300          35.200
  21275002.625    21275002.096    21275000.918   -20756315.426 6 -16173743.033 6
        40.200          39.100
  23313350.083    23313348.821    23313347.111    -8512222.957 5  -6632896.880 4
        30.600          28.400
  24431554.148    24431553.877    24431549.950    -2285604.901    -1780989.888 2
                        12.600
  24941736.402    24941735.616    24941736.945    -1303218.939 1  -1015495.024 1
         9.000           9.000
  24510278.503    24510277.529    24510276.473    -5421222.350 2  -4224328.335 1
        12.600           9.000
  24864976.258    24864976.380    24864976.542     2154717.993 2   1679002.725 2
        12.600          16.100
  20284822.358    20284822.044    20284818.957   -25628480.712 7 -19970236.353 8
        44.600          49.500
 09  1 31  0  7  0.0000000  0  9G 9G18G14G19G11G 6G21G 3G22
  21487147.732    21487147.368    21487146.824   -17672068.037 6 -13770434.193 5
        37.600          34.600
  21569589.800    21569589.252    21569587.702   -19980298.373 6 -15569055.025 5
        39.100          34.800
  21262726.901    21262726.493    21262725.400   -20820824.017 6 -16224009.451 6
        40.200          39.300
  23322276.063    23322274.551    23322272.970    -8465317.616 5  -6596347.266 4
        30.400          28.100
  24414079.261    24414078.178    24414075.163    -2377431.189    -1852542.787 1
                        11.000
  24959605.571    24959605.359    24959605.031    -1209320.535 2   -942327.466 1
        12.600           6.500
  24532652.445    24532651.509    24532650.841    -5303643.316 2  -4132708.330 1
        12.600           6.500
  24883187.372    24883186.578    24883184.987     2250414.040 2   1753571.039 2
        13.900          13.900
  20286937.834    20286937.563    20286934.663   -25617363.011 7 -19961573.204 8
        44.500          49.500
 09  1 31  0  7 30.0000000  0  9G 9G18G14G11G 6G21G 3G22G19
  21491686.901    21491686.447    21491685.680   -17648215.019 6 -13751847.411 5
        37.600          34.400
  21582141.612    21582140.944    21582138.994   -19914339.832 6 -15517658.755 5
        39.200          34.600
  21250527.287    21250526.849    21250525.762   -20884933.094 6 -16273964.553 6
        40.200          39.300
  24396657.194    24396656.207    24396656.408    -2468968.658    -1923870.594 1
                         9.000
  24977486.358    24977486.150    24977486.734    -1115351.800 2   -869105.091
        12.600           3.000
  24555042.119    24555041.525    24555040.728    -5185983.581 2  -4041025.450
        12.600
  24901417.842    24901416.955    24901417.968     2346221.218 2   1828225.998 1
        16.100          11.000
  20289130.983    20289130.671    20289127.730   -25605838.097 7 -19952592.740 8
        44.400          49.500
  23331294.801    23331293.485    23331291.718    -8417921.776 4  -6559415.434 4
        29.900          27.900
 09  1 31  0  8  0.0000000  0  8G 9G18G14G11G 6G 3G22G19
  21496362.047    21496361.739    21496361.107   -17623646.762 6 -13732703.305 5
        37.800          34.400
  21594752.015    21594751.529    21594749.689   -19848070.742 6 -15466020.495 5
        39.100          34.700
  21238404.166    21238403.665    21238402.419   -20948641.326 6 -16323607.309 6
        40.300          39.500
  24379294.660    24379294.563    24379291.927    -2560214.736    -1994971.330 1
                         9.000
  24995380.794    24995380.657    24995380.784    -1021315.356 2   -795829.912 1
        12.600           6.500
  24919670.294    24919669.681    24919670.376     2442136.788 2   1902965.387 1
        16.100          11.000
  20291401.652    20291401.367    20291398.290   -25593905.987 7 -19943294.984 8
        44.500          49.400
  23340407.169    23340405.524    23340404.363    -8370037.357 4  -6522102.904 4
        29.500          28.800
 09  1 31  0  8 30.0000000  0  8G 9G18G14G11G 6G 3G22G19
  21501176.168    21501175.685    21501174.927   -17598348.931 6 -13712990.691 5
        37.700          34.100
  21607424.470    21607423.836    21607422.212   -19781476.669 6 -15414129.004 5
        38.900          34.700
  21226360.169    21226359.665    21226358.479   -21011932.640 6 -16372925.201 6
        40.400          39.500
  24361991.065    24361990.004    24361988.416    -2651151.941 1  -2065831.455 1
         6.500           9.000
  25013290.959    25013290.814    25013291.880     -927198.790 2   -722492.325 1
        12.600           6.500
  24937944.856    24937944.757    24937944.011     2538172.714 2   1977798.607 1
        16.100          11.000
  20293752.753    20293752.467    20293749.349   -25581551.191 7 -19933667.862 8
        44.600          49.400
  23349614.695    23349613.115    23349611.669    -8321651.228 4  -6484399.422 4
        29.500          28.800
 09  1 31  0  9  0.0000000  0  9G 9G18G14G21G11G 6G 3G22G19
  21506127.284    21506126.755    21506126.045   -17572330.402 6 -13692716.493 5
        37.500          34.100
  21620157.032    21620156.513    21620154.908   -19714566.113 6 -15361990.902 5
        38.800          34.700
  21214394.253    21214393.789    21214392.616   -21074813.637 6 -16421923.365 6
        40.500          39.700
  24622308.471    24622308.253    24622307.097           -.58512          .4291
        15.100           3.000
  24344743.937    24344743.955    24344741.430    -2741785.367 1  -2136454.933 1
        11.000          11.000
  25031213.063    25031213.731    25031214.777     -833012.573 1   -649100.452
         9.000           3.000
  24956239.473    24956239.011    24956241.386     2634318.694 2   2052717.561 1
        13.900          11.000
  20296182.606    20296182.317    20296179.354   -25568781.312 7 -19923717.299 8
        44.400          49.300
  23358915.890    23358914.652    23358912.874    -8272773.359 5  -6446312.760 4
        30.200          28.400
 09  1 31  0  9 30.0000000  0  9G 9G18G14G21G11G 6G 3G22G19
  21511212.740    21511212.224    21511211.700   -17545605.601 6 -13671891.957 5
        37.100          34.100
  21632947.405    21632946.700    21632945.131   -19647353.285 6 -15309617.262 5
        38.900          34.700
  21202504.117    21202503.612    21202502.602   -21137296.700 6 -16470611.443 6
        40.500          40.000
  24644758.092    24644757.819    24644756.420      117977.337 2     91931.276 1
        12.600           6.500
  24327553.835    24327552.866    24327550.684    -2832125.846 2  -2206850.134 2
        12.600          12.600
  25049148.826    25049148.570    25049147.309     -738772.983 1   -575667.085
         9.000           3.000
  24974553.240    24974552.863    24974555.722     2730558.425 1   2127709.564 2
        11.000          12.600
  20298689.104    20298688.825    20298685.794   -25555609.970 7 -19913453.904 8
        44.400          49.200
  23368307.587    23368306.287    23368304.811    -8223418.989 5  -6407854.797 4
        30.200          28.400
 09  1 31  0 10  0.0000000  0  9G 9G18G14G21G11G 6G 3G22G19
  21516434.125    21516433.735    21516433.315   -17518165.721 6 -13650510.218 5
        37.000          34.100
  21645796.682    21645796.042    21645794.440   -19579829.157 6 -15257001.048 5
        38.600          34.400
  21190691.721    21190691.230    21190690.180   -21199370.788 6 -16518980.833 6
        40.500          40.000
  24667224.064    24667223.815    24667221.001      236029.109      183919.692 1
         3.000           9.000
  24310419.439    24310419.327    24310417.706    -2922161.179 1  -2277007.514 2
        11.000          12.600
  25067093.120    25067091.727    25067094.807     -644472.780 1   -502186.488 1
         6.500           9.000
  24992888.000    24992887.432    24992887.828     2826898.877 2   2202780.010 2
        15.100          13.900
  20301273.917    20301273.582    20301270.479   -25542026.916 7 -19902869.698 8
        44.500          49.100
  23377791.270    23377790.074    23377788.640    -8173580.260 5  -6369019.421 4
        30.200          28.100
 09  1 31  0 10 30.0000000  0  9G 9G18G14G21G11G 6G 3G22G19
  21521792.598    21521792.121    21521791.221   -17490008.694 6 -13628569.666 5
        37.300          33.600
  21658705.764    21658705.167    21658703.497   -19511991.502 6 -15204140.538 5
        38.400          34.100
  21178958.135    21178957.602    21178956.461   -21261032.287 6 -16567028.739 6
        40.700          40.100
  24689701.564    24689701.981    24689699.396      354155.445      275966.150 1
                        11.000
  24293342.994    24293343.912    24293341.302    -3011885.779 1  -2346922.746 1
         6.500           9.000
  25085046.819    25085047.632    25085049.464     -550111.811     -428658.517 1
                         9.000
  25011241.205    25011240.558    25011240.266     2923339.838 2   2277928.779 2
        16.100          13.900
  20303937.560    20303937.252    20303934.066   -25528029.382 7 -19891962.517 8
        44.400          49.000
  23387368.619    23387366.962    23387365.052    -8123256.438 5  -6329806.045 4
        31.100          28.100
 09  1 31  0 11  0.0000000  0  9G 9G18G14G21G11G 6G 3G22G19
  21527287.052    21527286.355    21527285.453   -17461135.631 6 -13606071.165 5
        37.000          33.500
  21671674.436    21671673.804    21671672.175   -19443840.567 6 -15151035.904 5
        38.400          34.100
  21167303.076    21167302.539    21167301.466   -21322279.631 6 -16614753.926 6
        40.700          40.300
  24712196.039    24712194.315    24712191.095      472354.250      368069.034 2
                        12.600
  24276327.783    24276328.395    24276325.943    -3101296.792 1  -2416593.640 1
         6.500           9.000
  25103016.313    25103014.004    25103015.337     -455692.661     -355085.215 1
                         9.000
  25029610.844    25029610.018    25029611.520     3019878.798 1   2353153.942 2
         9.000          13.900
  20306680.035    20306679.747    20306676.775   -25513616.873 7 -19880731.978 8
        44.300          49.100
  23397036.895    23397035.349    23397033.391    -8072448.811 5  -6290215.686 4
        30.800          28.100
 09  1 31  0 11 30.0000000  0  9G 9G18G21G11G 6G 3G14G22G19
  21532916.527    21532916.333    21532915.624   -17431549.891 6 -13583017.334 5
        37.200          33.900
  21684702.124    21684701.554    21684699.904   -19375379.470 6 -15097689.589 5
        38.400          34.100
  24734703.635    24734701.566    24734696.773      590621.057      460224.928 2
         3.000          13.900
  24259375.065    24259374.154    24259372.249    -3190393.725 1  -2486019.841 1
         9.000          11.000
  25120998.089    25120997.483    25120992.706     -361219.904     -281470.146 1
                        11.000
  25047996.252    25047996.630    25047998.021     3116510.831     2428451.586 1
         3.000          11.000
  21155726.618    21155726.159    21155724.930   -21383114.128 6 -16662157.410 6
        40.700          40.200
  20309501.219    20309500.947    20309497.890   -25498791.551 7 -19869179.772 8
        44.400          49.000
  23406795.715    23406794.547    23406792.652    -8021161.806 5  -6250251.778 4
        30.100          27.600
 09  1 31  0 12  0.0000000  0  8G 9G18G14G21G11G 3G22G19
  21538682.725    21538682.292    21538681.471   -17401250.377 6 -13559407.320 5
        37.300          34.100
  21697788.926    21697788.456    21697786.911   -19306607.094 6 -15044100.723 5
        38.100          34.100
  21144229.355    21144228.770    21144227.561   -21443532.850 6 -16709236.919 6
        40.600          40.300
  24757218.502    24757217.680    24757215.710      708955.643 1    552433.661 2
         6.500          15.100
  24242481.209    24242480.683    24242479.085    -3279172.371 1  -2555197.974 2
         9.000          13.900
  25066406.480    25066405.943    25066406.102     3213235.107 1   2503821.133 2
         9.000          13.900
  20312401.461    20312401.183    20312398.070   -25483551.075 7 -19857304.066 8
        44.400          49.000
  23416646.618    23416645.699    23416643.336    -7969395.952 4  -6209914.748 4
        29.700          27.900
 09  1 31  0 12 30.0000000  0  8G 9G18G14G21G11G 3G22G19
  21544580.767    21544580.206    21544579.706   -17370255.394 6 -13535255.375 5
        37.100          34.000
  21710931.906    21710931.312    21710929.533   -19237540.864 6 -14990282.886 5
        38.100          33.600
  21132808.163    21132807.656    21132806.423   -21503551.531 6 -16756004.698 6
        40.700          40.400
  24779744.685    24779745.784    24779743.229      827339.016 1    644680.431 2
         9.000          13.900
  24225644.668    24225644.819    24225643.648    -3367647.210 1  -2624139.365 2
        11.000          16.100
  25084825.851    25084824.966    25084827.131     3310031.765 1   2579247.084 2
        11.000          13.900
  20315377.397    20315377.032    20315374.001   -25467912.577 7 -19845118.218 8
        44.300          48.900
  23426584.971    23426583.602    23426582.012    -7917170.026 4  -6169219.225 4
        29.200          28.400
 09  1 31  0 13  0.0000000  0  8G 9G18G21G11G 3G14G22G19
  21550614.455    21550614.048    21550613.357   -17338546.801 6 -13510547.382 5
        37.000          33.600
  21724134.077    21724133.490    21724131.896   -19168162.646 6 -14936221.936 5
        37.900          33.600
  24802285.169    24802285.690    24802283.575      945788.252 1    736978.550 2
        11.000          13.900
  24208869.665    24208869.843    24208868.878    -3455796.278 2  -2692826.925 2
        12.600          15.100
  25103259.701    25103259.706    25103262.278     3406917.248     2654742.320 1
         3.000          11.000
  21121466.863    21121466.333    21121465.085   -21563150.310 6 -16802445.291 6
        40.600          40.400
  20318432.677    20318432.352    20318429.175   -25451856.972 7 -19832607.353 8
        44.300          48.800
  23436613.762    23436612.389    23436610.942    -7864466.556 4  -6128151.587 4
        29.000          28.400
 09  1 31  0 13 30.0000000  0  8G 9G18G21G11G 3G14G22G19
  21556785.139    21556784.738    21556783.930   -17306120.484 6 -13485280.108 5
        37.200          33.500
  21737396.611    21737396.089    21737394.576   -19098467.588 6 -14881914.100 5
        37.800          33.600
  24824838.619    24824838.332    24824836.941     1064306.415 2    829330.352 2
        12.600          12.600
  24192160.312    24192159.838    24192158.487    -3543611.475 2  -2761254.342 2
        13.900          16.100
  25121714.553    25121715.986    25121714.429     3503893.860     2730308.493 1
                         9.000
  21110206.597    21110206.142    21110204.891   -21622322.624 6 -16848553.573 6
        40.500          40.500
  20321568.368    20321568.041    20321564.974   -25435378.524 7 -19819766.992 8
        44.200          48.800
  23446734.780    23446733.147    23446732.101    -7811282.610 4  -6086709.551 4
        29.500          29.000
 09  1 31  0 14  0.0000000  0  8G 9G18G14G21G11G 3G22G19
  21563090.432    21563089.989    21563089.382   -17272985.851 6 -13459460.904 5
        37.000          33.800
  21750717.798    21750717.238    21750715.530   -19028464.497 6 -14827366.236 5
        37.700          33.400
  21099026.273    21099025.771    21099024.645   -21681075.499 6 -16894335.022 6
        40.400          40.600
  24847404.306    24847403.391    24847401.208     1182883.371 2    921727.982 1
        12.600           9.000
  24175512.887    24175512.253    24175511.334    -3631098.798 2  -2829426.264 2
        17.800          17.800
  25140186.057    25140185.670    25140185.118     3600950.261     2805936.783 1
         3.000          11.000
  20324783.112    20324782.730    20324779.639   -25418485.357 7 -19806603.479 8
        44.200          48.700
  23456944.924    23456943.464    23456941.620    -7757628.385 4  -6044901.061 4
        29.900          28.600
 09  1 31  0 14 30.0000000  0  9G 9G18G14G11G21G 6G 3G22G19
  21569529.647    21569529.071    21569528.400   -17239148.584 6 -13433094.191 5
        36.800          33.800
  21764096.658    21764095.965    21764094.232   -18958159.146 6 -14772582.843 5
        37.800          33.400
  21087925.074    21087924.568    21087923.431   -21739412.712 6 -16939792.577 6
        40.500          40.700
  24158926.283    24158926.111    24158925.571    -3718260.012 3  -2897344.061 3
        18.600          19.300
  24869978.301    24869977.444    24869977.515     1301511.851 2   1014165.762 1
        12.600           6.500
  25229041.319    25229038.052    25229040.244           -.0101           .39411
                         6.500
  25158668.646    25158668.004    25158668.779     3698079.808 1   2881622.114 1
         6.500          11.000
  20328075.693    20328075.427    20328072.321   -25401181.999 7 -19793120.337 8
        44.100          48.600
  23467243.179    23467241.554    23467240.016    -7703510.664 4  -6002731.410 4
        29.700          28.600
 09  1 31  0 15  0.0000000  0  7G 9G18G14G11G19G 3G22
  21576097.534    21576097.270    21576096.607   -17204632.024 6 -13406198.169 5
        36.800          33.600
  21777528.554    21777527.896    21777526.272   -18887573.700 6 -14717581.196 5
        37.700          33.400
  21076899.021    21076898.593    21076897.388   -21797354.677 6 -16984942.145 6
        40.400          40.700
  24142398.030    24142397.927    24142397.488    -3805114.440 3  -2965022.793 3
        20.500          19.300
  23477625.217    23477623.526    23477621.845    -7648953.147 4  -5960219.059 4
        29.200          28.400
  25177162.499    25177161.212    25177162.426     3795257.898 1   2957345.350 1
         6.500          11.000
  20331442.408    20331442.077    20331438.976   -25383490.100 7 -19779334.434 8
        44.100          48.600
 09  1 31  0 15 30.0000000  0  7G 9G18G14G11G19G 3G22
  21582798.252    21582797.790    21582797.119   -17169421.220 6 -13378761.157 5
        36.900          33.600
  21791016.588    21791015.987    21791014.618   -18816692.743 6 -14662349.282 5
        37.300          33.500
  21065951.597    21065951.038    21065949.705   -21854884.648 6 -17029770.679 6
        40.400          40.700
  24125932.108    24125931.782    24125930.390    -3891643.421 3  -3032447.934 3
        19.900          19.300
  23488092.927    23488091.756    23488089.919    -7593942.088 4  -5917353.289 4
        28.600          28.100
  25195665.059    25195663.918    25195665.222     3892497.778     3033116.718 1
                         9.000
  20334886.095    20334885.769    20334882.597   -25365393.442 7 -19765233.133 8
        44.100          48.500
 09  1 31  0 16  0.0000000  0  7G 9G18G14G11G19G 3G22
  21589636.677    21589636.384    21589635.766   -17133483.605 6 -13350757.814 5
        36.700          33.800
  21804567.335    21804566.815    21804565.308   -18745482.956 6 -14606861.139 5
        37.400          33.200
  21055088.776    21055088.380    21055087.238   -21911967.772 6 -17074251.022 6
        40.300          41.000
  24109535.266    24109534.993    24109532.881    -3977810.450 3  -3099591.025 3
        19.300          18.600
  23498653.931    23498652.654    23498650.773    -7538445.280 4  -5874109.016 4
        29.000          27.900
  25214186.395    25214184.603    25214182.518     3989830.661     3108960.785 1
                         6.500
  20338413.240    20338412.962    20338409.833   -25346858.010 7 -19750789.932 8
        44.100          48.500
 09  1 31  0 16 30.0000000  0  7G 9G18G14G11G19G 3G22
  21596609.843    21596609.502    21596608.894   -17096839.677 6 -13322204.093 5
        36.600          33.800
  21818176.993    21818176.427    21818174.908   -18673964.117 6 -14551132.165 5
        37.400          33.400
  21044307.941    21044307.452    21044306.342   -21968621.869 6 -17118397.054 6
        40.300          41.200
  24093203.405    24093203.332    24093201.803    -4063631.686 3  -3166464.697 3
        19.900          19.300
  23509303.388    23509301.704    23509299.855    -7482483.883 4  -5830502.735 4
        29.000          27.900
  25232726.155    25232724.812    25232723.827     4087235.042     3184859.979 1
                        11.000
  20342020.288    20342020.004    20342016.911   -25327902.880 7 -19736019.695 8
        44.100          48.500
 09  1 31  0 17  0.0000000  0  7G 9G18G14G11G19G 3G22
  21603713.988    21603713.618    21603712.733   -17059507.807 6 -13293114.310 5
        36.900          33.600
  21831842.029    21831841.446    21831839.799   -18602154.362 6 -14495176.511 5
        37.200          33.100
  21033605.685    21033605.104    21033603.970   -22024863.473 6 -17162221.666 6
        40.300          41.300
  24076935.434    24076934.976    24076933.266    -4149122.016 3  -3233080.526 3
        19.300          19.300
  23520036.846    23520035.383    23520033.658    -7426077.716 4  -5786549.878 4
        28.400          27.900
  25251267.264    25251266.214    25251268.211     4184690.488     3260799.127 2
                        12.600
  20345703.839    20345703.616    20345700.522   -25308544.990 7 -19720935.617 8
        44.000          48.300
 09  1 31  0 17 30.0000000  0  7G 9G18G14G11G19G 3G22
  21610952.579    21610952.238    21610951.488   -17021468.479 6 -13263473.269 5
        36.800          33.500
  21845566.338    21845565.706    21845563.952   -18530033.228 6 -14438978.225 5
        37.100          32.800
  21022985.929    21022985.423    21022984.267   -22080670.214 6 -17205707.429 6
        40.400          41.400
  24060735.610    24060734.704    24060732.795    -4234257.772 3  -3299420.051 3
        19.900          19.300
  23530859.068    23530857.494    23530855.705    -7369207.665 4  -5742235.549 4
        28.400          27.600
  25269823.904    25269825.087    25269823.095     4282215.272     3336792.495 2
                        12.600
  20349468.257    20349467.971    20349464.843   -25288763.183 7 -19705521.219 8
        43.900          48.200
 09  1 31  0 18  0.0000000  0  7G 9G18G14G11G 3G19G22
  21618321.625    21618321.146    21618320.979   -16982742.423 6 -13233297.114 5
        36.200          33.500
  21859345.965    21859345.300    21859343.487   -18457620.984 6 -14382553.099 5
        37.200          32.700
  21012445.511    21012445.003    21012443.772   -22136060.691 6 -17248868.825 6
        40.400          41.500
  24044597.431    24044597.135    24044596.015    -4319055.807 3  -3365496.414 3
        19.900          19.300
  25288396.427    25288395.062    25288394.168     4379787.354     3412822.702 2
         3.000          16.100
  23541764.806    23541763.135    23541761.741    -7311894.993 4  -5697576.320 4
        27.400          27.100
  20353309.526    20353309.297    20353306.183   -25268576.696 7 -19689791.479 8
        44.000          48.200
 09  1 31  0 18 30.0000000  0  7G 9G18G14G11G19G 3G22
  21625822.284    21625821.857    21625821.220   -16943327.505 6 -13202584.181 5
        36.600          33.500
  21873181.239    21873180.742    21873178.980   -18384914.736 6 -14325898.879 5
        37.100          32.600
  21001985.042    21001984.537    21001983.382   -22191030.364 6 -17291702.321 6
        40.500          41.600
  24028526.385    24028525.900    24028524.967    -4403510.021 3  -3431304.863 3
        19.900          19.900
  23552755.958    23552754.317    23552752.373    -7254138.565 4  -5652571.305 4
        27.900          27.400
  25306968.744    25306968.694    25306969.460     4477407.391     3488890.258 2
         3.000          12.600
  20357228.660    20357228.345    20357225.236   -25247982.128 7 -19673743.760 8
        43.900          48.200
 09  1 31  0 19  0.0000000  0  7G 9G18G14G11G19G 3G22
  21633453.288    21633452.849    21633452.083   -16903227.461 6 -13171337.387 5
        36.600          33.500
  21887072.365    21887071.791    21887069.876   -18311917.302 6 -14269017.754 5
        37.100          32.600
  20991604.357    20991603.909    20991602.804   -22245580.506 6 -17334208.912 6
        40.300          41.600
  24012521.373    24012521.027    24012519.435    -4487620.126 3  -3496845.169 3
        21.100          21.100
  23563830.210    23563828.528    23563826.910    -7195943.002 4  -5607224.114 4
        27.600          27.600
  25325554.029    25325552.928    25325553.209     4575070.759     3564991.604 1
                        11.000
  20361224.897    20361224.622    20361221.493   -25226981.602 7 -19657379.707 8
        43.800          48.100
 09  1 31  0 19 30.0000000  0  6G 9G18G11G19G14G22
  21641213.192    21641212.769    21641212.522   -16862447.032 6 -13139560.425 5
        36.300          33.600
  21901017.937    21901017.336    21901015.633   -18238632.853 6 -14211912.989 5
        36.600          32.600
  23996580.953    23996580.468    23996579.054    -4571387.165 3  -3562118.157 3
        21.100          21.100
  23574986.612    23574985.477    23574983.392    -7137313.628 4  -5561538.886 4
        27.400          27.400
  20981303.306    20981302.801    20981301.533   -22299713.490 6 -17376390.441 6
        40.500          41.500
  20365297.827    20365297.493    20365294.394   -25205578.395 7 -19640701.879 8
        43.800          48.000
 09  1 31  0 20  0.0000000  0  6G 9G18G11G19G14G22
  21649102.951    21649102.509    21649101.994   -16820986.558 6 -13107253.545 5
        36.200          33.400
  21915018.252    21915017.560    21915015.886   -18165060.793 6 -14154584.114 5
        36.400          32.400
  23980707.194    23980706.624    23980704.822    -4654806.542 3  -3627120.213 3
        20.500          20.500
  23586225.195    23586224.195    23586222.993    -7078251.365 4  -5515516.357 4
        27.100          27.400
  20971082.001    20971081.434    20971080.204   -22353426.980 6 -17418245.097 6
        40.500          41.700
  20369447.590    20369447.310    20369444.231   -25183770.868 7 -19623708.997 8
        43.800          48.000
 09  1 31  0 20 30.0000000  0  6G 9G18G11G19G14G22
  21657126.714    21657126.218    21657125.849   -16778821.626 6 -13074397.754 5
        36.200          33.400
  21929077.916    21929077.322    21929075.813   -18091175.675 6 -14097011.296 5
        36.500          32.300
  23964904.184    23964904.154    23964901.873    -4737849.686 3  -3691829.117 3
        21.100          20.500
  23597552.182    23597550.697    23597548.998    -7018732.441 4  -5469137.964 4
        27.900          27.400
  20960945.549    20960944.995    20960943.783   -22406694.175 6 -17459751.988 6
        40.600          41.900
  20373679.363    20373679.069    20373675.958   -25161533.058 7 -19606380.827 7
        43.700          47.900
 09  1 31  0 21  0.0000000  0  6G 9G18G11G19G14G22
  21665281.788    21665281.412    21665280.860   -16735965.708 6 -13041003.521 5
        36.300          33.200
  21943195.089    21943194.394    21943192.564   -18016990.635 6 -14039204.773 5
        36.600          32.000
  23949170.502    23949170.651    23949169.113    -4820526.490 3  -3756252.570 3
        21.100          20.500
  23608962.094    23608960.595    23608959.003    -6958771.306 4  -5422415.004 4
        28.600          27.100
  20950891.937    20950891.398    20950890.242   -22459526.399 6 -17500919.940 7
        40.600          42.000
  20377990.652    20377990.282    20377987.180   -25138877.094 7 -19588726.822 7
        43.600          47.800
 09  1 31  0 21 30.0000000  0  6G 9G18G11G19G14G22
  21673566.139    21673565.771    21673565.043   -16692431.431 6 -13007080.700 5
        36.200          33.200
  21957366.855    21957366.114    21957364.543   -17942517.300 6 -13981173.593 5
        36.300          31.800
  23933505.879    23933505.687    23933504.478    -4902845.542 3  -3820397.244 3
        20.500          22.100
  23620453.962    23620452.651    23620450.974    -6898381.011 4  -5375357.628 4
        28.100          26.500
  20940919.189    20940918.668    20940917.390   -22511933.600 6 -17541756.714 7
        40.700          42.000
  20382379.250    20382378.963    20382375.918   -25115814.154 7 -19570755.698 7
        43.500          47.800
 09  1 31  0 22  0.0000000  0  6G 9G18G11G19G14G22
  21681979.860    21681979.365    21681978.833   -16648217.916 6 -12972628.601 5
        36.200          33.400
  21971593.420    21971592.993    21971591.667   -17867753.452 5 -13922916.052 5
        35.800          31.600
  23917909.448    23917909.903    23917909.049    -4984801.591 3  -3884259.059 3
        19.900          23.000
  23632027.716    23632026.228    23632024.682    -6837561.238 4  -5327965.609 4
        27.600          26.800
  20931028.015    20931027.448    20931026.207   -22563912.315 6 -17582259.598 7
        40.700          42.200
  20386846.182    20386845.861    20386842.677   -25092341.153 7 -19552465.043 7
        43.600          47.700
 09  1 31  0 22 30.0000000  0  6G 9G18G11G19G14G22
  21690521.466    21690520.996    21690520.889   -16603329.779 5 -12937650.828 5
        35.800          33.600
  21985875.325    21985874.726    21985873.124   -17792703.232 5 -13864435.359 5
        35.900          31.500
  23902383.191    23902383.027    23902382.279    -5066395.124 3  -3947838.408 3
        19.300          23.000
  23643682.083    23643680.446    23643678.664    -6776317.319 4  -5280243.080 4
        28.100          26.500
  20921217.817    20921217.271    20921216.106   -22615464.644 6 -17622430.232 7
        40.700          42.300
  20391390.285    20391390.000    20391386.879   -25068461.224 7 -19533857.298 7
        43.500          47.700
 09  1 31  0 23  0.0000000  0  6G 9G18G11G19G14G22
  21699192.828    21699192.440    21699191.875   -16557762.904 6 -12902144.161 5
        36.000          33.400
  22000212.446    22000211.856    22000210.018   -17717361.566 6 -13805727.561 5
        36.000          31.100
  23886926.626    23886926.714    23886925.890    -5147617.276 2  -4011128.380 3
        17.800          23.000
  23655417.585    23655416.261    23655415.115    -6714645.492 4  -5232187.112 4
        28.100          27.100
  20911490.248    20911489.763    20911488.485   -22666583.569 6 -17662263.148 7
        40.700          42.400
  20396013.136    20396012.789    20396009.642   -25044168.494 7 -19514927.893 7
        43.400          47.600
 09  1 31  0 23 30.0000000  0  6G 9G18G11G19G14G22
  21707992.322    21707991.888    21707991.369   -16511520.151 5 -12866110.849 5
        35.700          33.000
  22014604.871    22014604.107    22014602.345   -17641730.204 5 -13746794.029 5
        35.800          31.300
  23871541.525    23871541.458    23871540.687    -5228467.207 2  -4074128.304 3
        16.100          23.000
  23667234.410    23667232.979    23667231.325    -6652549.462 4  -5183800.581 4
        27.900          26.800
  20901844.819    20901844.354    20901843.217   -22717269.979 6 -17701759.039 7
        40.700          42.600
  20400714.136    20400713.818    20400710.865   -25019463.745 7 -19495677.434 7
        43.300          47.600
 09  1 31  0 24  0.0000000  0  6G 9G18G11G19G14G22
  21716919.277    21716918.796    21716918.326   -16464609.311 5 -12829556.942 5
        35.700          33.100
  22029050.711    22029050.054    22029048.238   -17565815.720 5 -13687639.890 5
        35.500          31.100
  23856227.395    23856226.987    23856225.330    -5308948.315 2  -4136840.816 3
        17.000          21.600
  23679130.159    23679128.591    23679126.902    -6590037.655 4  -5135090.093 4
        27.100          26.500
  20892280.963    20892280.472    20892279.222   -22767528.702 6 -17740921.667 7
        40.700          42.600
  20405492.535    20405492.185    20405489.118   -24994353.658 7 -19476111.126 7
        43.300          47.600
 09  1 31  0 24 30.0000000  0  6G 9G18G11G19G14G22
  21725972.818    21725972.376    21725972.042   -16417031.913 5 -12792483.639 5
        35.600          33.000
  22043550.333    22043549.766    22043548.080   -17489618.845 5 -13628265.703 5
        35.400          31.100
  23840983.362    23840982.634    23840980.657    -5389057.896 2  -4199263.817 3
        17.800          20.500
  23691104.211    23691103.096    23691101.392    -6527112.051 4  -5086057.162 4
        27.400          26.800
  20882798.497    20882798.101    20882796.898   -22817358.910 6 -17779750.394 7
        40.700          42.800
  20410347.943    20410347.653    20410344.569   -24968837.720 7 -19456228.576 7
        43.300          47.500
 09  1 31  0 25  0.0000000  0  6G 9G18G11G19G14G22
  21735154.050    21735153.512    21735152.962   -16368785.806 5 -12754889.264 5
        35.500          33.000
  22058104.615    22058104.053    22058102.206   -17413136.397 5 -13568668.992 5
        35.500          30.800
  23825810.864    23825811.016    23825808.336    -5468789.209 3  -4261392.085 3
        19.900          20.500
  23703157.671    23703156.178    23703154.744    -6463770.997 4  -5036700.494 4
        27.100          26.200
  20873398.666    20873398.272    20873397.163   -22866755.422 6 -17818241.170 7
        40.700          43.000
  20415281.533    20415281.209    20415278.130   -24942911.868 7 -19436026.605 7
        43.200          47.400
 09  1 31  0 25 30.0000000  0  6G 9G18G11G19G14G22
  21744462.114    21744461.762    21744461.059   -16319869.773 5 -12716772.870 5
        35.500          32.700
  22072713.710    22072712.932    22072711.138   -17336366.344 5 -13508848.166 5
        35.200          30.800
  23810711.381    23810711.525    23810709.193    -5548137.048 3  -4323221.542 3
        19.900          20.500
  23715290.528    23715288.639    23715286.514    -6400014.052 4  -4987019.757 4
        26.800          24.900
  20864082.032    20864081.520    20864080.382   -22915714.912 6 -17856391.413 7
        40.700          43.000
  20420293.567    20420293.273    20420290.156   -24916573.259 7 -19415503.010 7
        43.200          47.300
 09  1 31  0 26  0.0000000  0  6G 9G18G11G19G14G22
  21753898.216    21753897.635    21753896.805   -16270285.188 5 -12678135.526 5
        35.800          32.300
  22087376.724    22087376.272    22087374.772   -17259308.894 5 -13448803.405 5
        35.100          31.000
  23795684.349    23795685.024    23795683.313    -5627098.169 3  -4384749.648 3
        18.600          19.900
  23727501.502    23727500.096    23727498.373    -6335842.622 4  -4937016.050 4
        26.500          25.300
  20854848.839    20854848.360    20854847.142   -22964235.685 6 -17894199.800 7
        40.700          43.100
  20425384.307    20425384.008    20425380.940   -24889821.352 7 -19394657.360 7
        43.200          47.400
 09  1 31  0 26 30.0000000  0  6G 9G18G11G19G14G22
  21763459.447    21763458.936    21763458.035   -16220039.831 5 -12638983.293 5
        35.500          32.100
  22102093.984    22102093.324    22102091.683   -17181970.565 5 -13388539.773 5
        34.900          30.600
  23780732.030    23780732.147    23780730.243    -5705676.164 3  -4445979.212 3
        20.500          18.600
  23739790.459    23739788.709    23739787.205    -6271265.222 4  -4886695.993 4
        26.200          25.900
  20845698.009    20845697.580    20845696.388   -23012323.010 6 -17931670.437 7
        40.700          43.100
  20430552.541    20430552.264    20430549.157   -24862662.036 7 -19373494.253 7
        43.200          47.400
 09  1 31  0 27  0.0000000  0  6G 9G18G11G19G14G22
  21773145.414    21773144.941    21773144.094   -16169139.682 5 -12599320.834 5
        35.200          32.100
  22116863.489    22116862.953    22116861.239   -17104356.256 5 -13328061.092 5
        34.900          30.600
  23765852.263    23765851.974    23765849.852    -5783872.561 3  -4506911.453 3
        22.100          18.600
  23752154.854    23752153.627    23752151.739    -6206288.414 4  -4836064.731 4
        26.800          25.600
  20836629.141    20836628.680    20836627.534   -23059980.422 6 -17968806.073 7
        40.600          43.300
  20435797.429    20435797.191    20435794.135   -24835099.473 7 -19352016.926 7
        43.100          47.300
 09  1 31  0 27 30.0000000  0  6G 9G18G11G19G14G22
  21782956.603    21782956.260    21782955.861   -16117579.721 5 -12559144.235 5
        34.900          32.300
  22131686.762    22131686.192    22131684.559   -17026459.619 5 -13267362.412 5
        34.900          30.800
  23751046.475    23751046.168    23751044.227    -5861678.123 3  -4567539.161 3
        21.600          18.600
  23764596.759    23764594.995    23764593.103    -6140907.901 4  -4785118.867 4
        26.500          25.300
  20827643.426    20827643.017    20827641.919   -23107199.920 6 -18005600.469 7
        40.500          43.400
  20441120.455    20441120.187    20441117.139   -24807127.020 7 -19330220.206 7
        43.200          47.300
 09  1 31  0 28  0.0000000  0  6G 9G18G11G19G14G22
  21792893.965    21792893.548    21792893.056   -16065359.574 5 -12518453.206 5
        35.300          32.700
  22146564.008    22146563.317    22146561.635   -16948279.621 5 -13206442.941 5
        34.600          30.400
  23736315.869    23736315.165    23736313.838    -5939088.010 3  -4627858.534 3
        20.500          19.900
  23777114.554    23777113.138    23777111.754    -6075123.485 4  -4733858.282 4
        26.200          25.600
  20818741.768    20818741.303    20818740.088   -23153978.832 6 -18042051.563 7
        40.500          43.500
  20446521.954    20446521.614    20446518.510   -24778742.542 7 -19308102.429 7
        43.200          47.200
 09  1 31  0 28 30.0000000  0  6G 9G18G11G19G14G22
  21802955.556    21802955.091    21802954.313   -16012486.585 5 -12477253.482 5
        35.400          32.100
  22161493.675    22161493.061    22161491.527   -16869822.546 5 -13145307.559 5
        34.400          30.200
  23721659.040    23721658.892    23721657.968    -6016105.048 3  -4687871.798 3
        21.100          20.500
  23789707.969    23789707.146    23789705.515    -6008943.109 4  -4682289.162 4
        26.200          25.900
  20809923.053    20809922.569    20809921.345   -23200321.816 6 -18078162.971 7
        40.400          43.600
  20452000.635    20452000.337    20451997.221   -24749951.469 7 -19285667.819 7
        43.100          47.100
 09  1 31  0 29  0.0000000  0  6G 9G18G11G19G14G22
  21813141.295    21813140.924    21813140.325   -15958958.643 5 -12435543.391 5
        35.100          32.000
  22176476.752    22176476.251    22176474.833   -16791085.101 5 -13083953.710 5
        34.000          30.100
  23707080.003    23707079.096    23707078.076    -6092723.324 3  -4747574.343 3
        21.100          20.500
  23802378.029    23802376.675    23802374.560    -5942365.766 4  -4630410.720 4
        25.900          25.300
  20801188.189    20801187.685    20801186.401   -23246224.165 6 -18113931.023 7
        40.400          43.800
  20457557.654    20457557.300    20457554.191   -24720749.780 7 -19262913.253 7
        43.200          47.100
 09  1 31  0 29 30.0000000  0  6G 9G18G11G19G14G22
  21823450.623    21823450.269    21823449.664   -15904781.596 5 -12393327.509 5
        34.600          31.600
  22191512.225    22191511.871    22191510.411   -16712071.899 5 -13022384.981 5
        33.900          30.100
  23692575.532    23692575.436    23692573.499    -6168943.747 3  -4806966.849 3
        22.100          20.500
  23815121.540    23815119.899    23815118.184    -5875397.149 4  -4578227.380 4
        24.200          24.900
  20792536.599    20792536.076    20792534.863   -23291688.444 6 -18149357.724 7
        40.300          43.900
  20463191.890    20463191.582    20463188.526   -24691141.271 7 -19239841.682 7
        43.200          47.100
 09  1 31  0 30  0.0000000  0  6G 9G18G11G19G14G22
  21833882.424    21833881.936    21833881.175   -15849964.395 5 -12350612.795 5
        34.900          31.600
  22206599.379    22206598.858    22206597.225   -16632790.154 5 -12960607.003 5
        33.800          30.100
  23678145.594    23678145.443    23678144.126    -6244770.646 3  -4866052.721 3
        22.600          21.100
  23827938.686    23827936.875    23827935.296    -5808046.278 4  -4525746.186 4
        26.200          25.600
  20783967.045    20783966.574    20783965.501   -23336720.963 6 -18184447.985 7
        40.200          44.000
  20468902.299    20468902.008    20468898.955   -24661132.704 7 -19216458.379 7
        43.200          47.000
 09  1 31  0 30 30.0000000  0  6G 9G18G11G19G14G22
  21844437.485    21844436.895    21844436.102   -15794498.907 5 -12307392.925 5
        34.800          32.000
  22221739.402    22221738.849    22221737.080   -16553230.389 5 -12898612.389 5
        34.000          30.100
  23663793.686    23663793.589    23663791.643    -6320191.302 3  -4924822.050 3
        23.000          21.600
  23840828.557    23840827.159    23840825.543    -5740305.196 4  -4472960.920 4
        25.900          24.900
  20775482.009    20775481.464    20775480.279   -23381310.919 6 -18219193.391 7
        40.100          44.100
  20474690.832    20474690.504    20474687.458   -24630713.893 7 -19192755.405 7
        43.100          47.000
 09  1 31  0 31  0.0000000  0  6G 9G18G11G19G14G22
  21855113.874    21855113.497    21855113.133   -15738389.486 5 -12263671.298 5
        34.000          31.600
  22236930.988    22236930.438    22236928.945   -16473396.072 5 -12836403.832 4
        33.200          29.700
  23649519.329    23649518.759    23649516.915    -6395205.099 3  -4983274.325 3
        23.000          21.600
  23853792.962    23853791.279    23853789.534    -5672179.330 4  -4419875.847 3
        26.800          23.800
  20767080.581    20767080.210    20767079.063   -23425459.751 6 -18253595.066 7
        40.100          44.200
  20480556.807    20480556.543    20480553.468   -24599887.506 7 -19168734.840 7
        43.100          46.800
 09  1 31  0 31 30.0000000  0  6G 9G18G11G19G14G22
  21865913.581    21865913.281    21865912.504   -15681637.684 5 -12219449.106 5
        34.000          31.300
  22252175.257    22252174.641    22252173.048   -16393287.720 5 -12773981.754 4
        33.500          29.700
  23635321.943    23635321.696    23635320.821    -6469809.929 3  -5041407.941 3
        22.600          23.000
  23866829.996    23866828.159    23866826.350    -5603670.546 4  -4366492.374 3
        26.500          23.800
  20758763.586    20758763.107    20758761.906   -23469166.462 6 -18287652.229 7
        40.100          44.200
  20486500.527    20486500.308    20486497.190   -24568653.005 7 -19144396.261 7
        43.100          46.800
 09  1 31  0 32  0.0000000  0  6G 9G18G11G19G14G22
  21876835.008    21876834.608    21876834.144   -15624244.981 5 -12174727.509 5
        34.100          31.500
  22267471.495    22267470.922    22267469.352   -16312905.128 5 -12711345.968 4
        33.400          29.200
  23621203.615    23621203.557    23621202.175    -6544002.390 3  -5099220.205 3
        22.600          22.600
  23879938.453    23879936.755    23879936.046    -5534780.142 4  -4312811.539 4
        24.600          24.200
  20750530.769    20750530.343    20750529.233   -23512429.266 6 -18321363.494 7
        40.000          44.300
  20492522.139    20492521.835    20492518.794   -24537009.516 7 -19119738.995 7
        43.100          46.700
 09  1 31  0 32 30.0000000  0  6G 9G18G11G19G14G22
  21887878.132    21887877.889    21887877.233   -15566213.813 5 -12129508.407 5
        34.100          31.600
  22282819.521    22282819.023    22282817.588   -16232249.583 5 -12648497.500 4
        33.000          29.000
  23607164.308    23607164.226    23607162.453    -6617780.555 3  -5156709.656 3
        22.100          22.100
