     2.11           OBSERVATION DATA    G (GPS)             RINEX VERSION / TYPE
teqc  2008Oct2      WCDA Operator       20090120 01:51:00UTCPGM / RUN BY / DATE
Solaris x86 5.10|AMD64|cc SC5.8 -xarch=amd64|=+|=+          COMMENT
teqc  2008Oct2      WCDA Operator       20090120 01:51:00UTCCOMMENT
teqc  2008Oct2      WCDA Operator       20090119 01:22:54UTCCOMMENT
flin  WCDA-ACP   965000   CFS Flin Flon SASK Canada         MARKER NAME
40135M001                                                   MARKER NUMBER
PGC-WCDA            GEOL. SURV. CANADA                      OBSERVER / AGENCY
1115                AOA BENCHMARK ACT   3.3.32.4            REC # / TYPE / VERS
231                 AOAD/M_T        SCIS                    ANT # / TYPE
  -766174.4630 -3611375.3160  5184056.2210                  APPROX POSITION XYZ
        0.1500        0.0000        0.0000                  ANTENNA: DELTA H/E/N
     1     1                                                WAVELENGTH FACT L1/2
     7    C1    P1    P2    L1    L2    S1    S2            # / TYPES OF OBSERV
STATION INFORMATION EFFECTIVE FROM: 2001/01/13 18:20:00     COMMENT
                                TO: CURRENT DATE (above)    COMMENT
BIT 2 OF LLI FLAGS (+4) DATA COLLECTED UNDER 'AS' CONDITION COMMENT
L1 PHASE CENTRE 0.110m ABOVE ARP                            COMMENT
L2 PHASE CENTRE 0.128m ABOVE ARP                            COMMENT
where ARP is the Antenna Reference Point for HI measurement COMMENT
CONTACT gps@pgc.nrcan.gc.ca FOR ADDITIONAL INFORMATION      COMMENT
    P1 =    P1  TurboRogue; =    Y1  Benchmark              COMMENT
    L1 = L1(CA)                                             COMMENT
    P2 =    P2  TurboRogue; =    Y2  Benchmark              COMMENT
    L2 = L2(P2) TurboRogue; = L2(Y2) Benchmark              COMMENT
 SNR is mapped to RINEX snr flag value [0-9]                COMMENT
  L1 & L2: min(max(int(snr_dBHz/6), 0), 9)                  COMMENT
  2009     1    19     0     0    0.0000000     GPS         TIME OF FIRST OBS
                                                            END OF HEADER
 09  1 19  0  0  0.0000000  0 10G28G19G 6G14G 3G 9G15G21G18G22
  25502246.889    25502246.170    25502244.839     -718437.935 1   -559821.827 2
         6.500          12.600
  22957047.722    22957046.314    22957044.683   -10646765.505 5  -8296178.077 5
        34.900          32.600
  23171081.038    23171080.639    23171080.707    -8025615.384 4  -6253723.491 4
        28.400          28.400
  23111054.020    23111053.449    23111052.940   -10935808.174 4  -8521405.854 4
        28.600          26.800
  23119767.649    23119767.120    23119767.378    -6927894.484 4  -5398357.407 4
        29.500          27.400
  21854307.127    21854306.583    21854306.359   -15332663.086 6 -11947523.360 5
        36.900          35.100
  23843865.433    23843865.214    23843863.793    -5573392.709 4  -4342893.486 4
        27.100          27.600
  22210454.196    22210453.313    22210451.521   -17624608.204 5 -13733452.878 4
        35.100          29.000
  20587638.028    20587637.396    20587635.803   -24846303.090 7 -19360746.234 7
        42.700          47.100
  20530916.107    20530915.737    20530912.822   -24263843.574 7 -18906881.652 7
        44.800          47.400
 09  1 19  0  0 30.0000000  0 10G28G19G 6G14G 3G 9G15G21G18G22
  25498936.170    25498934.872    25498935.274     -735828.623 1   -573372.684 2
         9.000          12.600
  22954195.387    22954193.607    22954192.182   -10661755.363 5  -8307858.477 5
        35.400          32.300
  23184017.120    23184016.789    23184017.436    -7957634.285 4  -6200751.217 4
        28.600          28.400
  23091694.823    23091694.165    23091693.539   -11037542.629 4  -8600679.435 4
        28.600          26.800
  23132040.891    23132040.265    23132040.538    -6863399.327 4  -5348101.457 4
        29.000          27.900
  21843696.084    21843695.672    21843695.082   -15388424.196 6 -11990973.564 5
        37.100          34.600
  23863152.785    23863151.912    23863150.128    -5472040.932 4  -4263918.077 4
        26.200          27.400
  22228290.794    22228290.368    22228288.847   -17530873.564 5 -13660412.898 4
        35.100          29.200
  20592818.669    20592818.012    20592816.502   -24819078.238 7 -19339532.063 7
        42.700          47.100
  20524614.370    20524613.978    20524611.015   -24296959.746 7 -18932686.460 7
        44.800          47.400
 09  1 19  0  1  0.0000000  0 10G28G19G 6G14G 3G 9G15G21G18G22
  25495723.907    25495722.854    25495721.247     -752715.292 1   -586531.136 2
         9.000          12.600
  22951456.298    22951454.575    22951452.333   -10676151.229 5  -8319076.040 5
        35.700          31.600
  23197027.988    23197027.573    23197027.766    -7889264.722 4  -6147476.240 4
        28.800          28.800
  23072381.463    23072381.026    23072380.027   -11139034.967 4  -8679764.350 4
        29.000          26.800
  23144398.032    23144397.480    23144398.063    -6798460.987 4  -5297500.166 4
        28.600          28.400
  21833205.284    21833204.917    21833204.505   -15443552.231 6 -12033930.467 5
        37.000          34.500
  23882473.175    23882472.558    23882470.571    -5370510.989 4  -4184803.854 4
        25.600          27.400
  22246191.476    22246191.085    22246189.601   -17436803.743 5 -13587111.741 4
        34.600          29.200
  20598072.341    20598071.749    20598070.202   -24791469.257 7 -19318018.569 7
        42.700          46.800
  20518383.990    20518383.578    20518380.647   -24329700.288 7 -18958198.566 7
        44.800          47.500
 09  1 19  0  1 30.0000000  0 10G28G19G 6G14G 3G 9G15G21G18G22
  25492607.126    25492606.395    25492602.599     -769099.144 1   -599297.787 1
         9.000           9.000
  22948829.129    22948827.594    22948825.733   -10689955.277 5  -8329832.446 5
        35.500          32.000
  23210111.062    23210110.738    23210111.044    -7820511.659 4  -6093902.440 4
        28.800          28.800
  23053114.103    23053113.643    23053112.598   -11240285.769 4  -8758661.063 4
        29.500          26.500
  23156839.575    23156838.621    23156839.010    -6733084.756 4  -5246557.658 4
        28.800          28.400
  21822835.373    21822834.897    21822834.520   -15498047.488 6 -12076394.283 5
        37.200          34.900
  23901825.616    23901825.807    23901823.942    -5268807.605 4  -4105554.465 4
        25.900          27.100
  22264155.679    22264154.928    22264153.418   -17342402.795 5 -13513552.569 4
        34.100          28.600
  20603398.700    20603398.070    20603396.361   -24763479.547 7 -19296208.402 7
        42.800          46.700
  20512224.839    20512224.446    20512221.521   -24362067.099 7 -18983419.454 7
        44.900          47.700
 09  1 19  0  2  0.0000000  0 10G28G19G 6G14G 3G 9G15G21G18G22
  25489582.457    25489582.623    25489580.851     -784983.953 1   -611675.564 1
         9.000           9.000
  22946313.687    22946312.511    22946310.924   -10703171.555 5  -8340130.842 5
        35.100          32.400
  23223265.989    23223265.548    23223265.636    -7751382.186 4  -6040035.321 4
        28.600          28.100
  23033892.448    23033891.718    23033890.299   -11341298.053 4  -8837371.922 4
        29.500          26.200
  23169361.329    23169360.732    23169361.279    -6667278.072 4  -5195279.728 4
        28.100          27.900
  21812585.423    21812584.963    21812584.626   -15551911.918 6 -12118366.550 5
        37.700          35.300
  23921210.756    23921211.074    23921209.165    -5166937.688 4  -4026175.294 4
        26.200          26.200
  22282181.645    22282180.898    22282178.992   -17247677.474 5 -13439740.629 4
        34.100          28.400
  20608796.549    20608795.876    20608794.323   -24735114.151 7 -19274105.492 7
        42.800          46.800
  20506135.915    20506135.577    20506132.571   -24394064.008 7 -19008352.106 7
        44.900          47.600
 09  1 19  0  2 30.0000000  0 10G28G19G 6G14G 3G 9G15G21G18G22
  25486656.289    25486654.636    25486654.594     -800366.643 1   -623662.143 1
         9.000          11.000
  22943910.920    22943909.666    22943907.770   -10715797.794 5  -8349969.466 5
        34.900          31.800
  23236491.782    23236491.407    23236492.115    -7681876.582 4  -5985875.125 4
        27.400          28.100
  23014716.552    23014715.750    23014714.601   -11442067.631 4  -8915893.648 4
        29.000          26.800
  23181965.886    23181965.110    23181965.545    -6601040.784 4  -5143666.261 4
        28.100          27.600
  21802456.372    21802455.816    21802455.160   -15605140.607 6 -12159843.437 5
        37.600          34.700
  23940627.708    23940628.054    23940626.470    -5064900.902 4  -3946666.085 4
        25.900          26.200
  22300269.032    22300268.425    22300266.827   -17152627.175 5 -13365675.467 4
        34.100          28.600
  20614266.114    20614265.469    20614264.009   -24706370.672 7 -19251707.972 7
        42.800          46.700
  20500118.167    20500117.820    20500114.871   -24425687.687 7 -19032993.928 7
        45.000          47.800
 09  1 19  0  3  0.0000000  0 10G28G19G 6G14G 3G 9G15G21G18G22
  25483826.786    25483826.126    25483825.191     -815235.664 1   -635248.347 2
         9.000          15.100
  22941623.232    22941621.948    22941619.676   -10727822.125 5  -8359339.082 5
        35.500          31.500
  23249792.112    23249791.705    23249791.824    -7611986.186 4  -5931415.091 4
        27.900          27.600
  22995589.330    22995588.594    22995587.894   -11542581.723 4  -8994216.304 4
        29.500          27.100
  23194653.429    23194653.310    23194653.536    -6534364.760 4  -5091710.936 4
        28.600          27.400
  21792450.638    21792450.171    21792449.678   -15657720.119 6 -12200814.478 5
        37.400          34.900
  23960079.415    23960079.139    23960076.846    -4962688.485 4  -3867020.040 4
        26.200          26.500
  22318420.179    22318419.379    22318417.830   -17057243.175 5 -13291350.285 4
        34.000          28.600
  20619809.905    20619809.246    20619807.612   -24677238.550 7 -19229007.615 7
        42.900          46.600
  20494173.545    20494173.178    20494170.203   -24456926.950 7 -19057336.205 7
        45.000          47.900
 09  1 19  0  3 30.0000000  0 10G28G19G 6G14G 3G 9G15G21G18G22
  25481091.323    25481090.573    25481092.123     -829602.029 1   -646442.825 2
         6.500          15.100
  22939447.629    22939446.166    22939444.061   -10739256.285 5  -8368248.804 5
        35.800          32.000
  23263162.462    23263161.904    23263162.398    -7541725.317 4  -5876666.369 4
        27.900          27.600
  22976509.079    22976508.436    22976507.295   -11642849.976 4  -9072347.390 4
        29.900          26.800
  23207422.559    23207422.131    23207422.548    -6467264.155 4  -5039424.757 4
        28.400          27.100
  21782566.974    21782566.405    21782566.001   -15709659.843 6 -12241286.974 5
        37.500          35.400
  23979561.259    23979560.572    23979558.062    -4860314.195 4  -3787247.850 4
        25.900          26.500
  22336632.107    22336631.227    22336629.672   -16961538.996 5 -13216775.616 4
        33.900          28.100
  20625425.163    20625424.537    20625422.887   -24647730.036 7 -19206013.960 7
        43.000          46.400
  20488299.864    20488299.559    20488296.579   -24487792.801 7 -19081387.510 7
        45.000          47.900
 09  1 19  0  4  0.0000000  0 10G28G19G 6G14G 3G 9G15G21G18G22
  25478454.785    25478453.288    25478451.906     -843472.801 1   -657251.191 1
         9.000          11.000
  22937382.889    22937381.454    22937379.184   -10750107.378 5  -8376704.199 5
        35.800          31.800
  23276601.455    23276600.903    23276601.066    -7471104.108 4  -5821636.873 4
        28.100          27.400
  22957473.944    22957473.518    22957472.410   -11742878.026 5  -9150291.320 4
        30.200          26.500
  23220270.406    23220269.872    23220270.237    -6399749.390 4  -4986815.856 4
        28.600          26.800
  21772803.730    21772803.436    21772802.860   -15760964.917 6 -12281264.937 5
        37.700          35.100
  23999071.404    23999070.715    23999068.763    -4757787.733 4  -3707357.100 4
        25.900          27.600
  22354902.743    22354902.313    22354900.649   -16865523.933 5 -13141958.691 4
        34.300          27.900
  20631110.722    20631110.019    20631108.299   -24617852.754 7 -19182732.960 7
        43.100          46.300
  20482496.051    20482495.664    20482492.841   -24518292.236 7 -19105153.301 8
        45.000          48.100
 09  1 19  0  4 30.0000000  0 10G28G19G 6G14G 3G 9G15G21G18G22
  25475910.590    25475908.645    25475905.433     -856838.420 1   -667665.921 1
        11.000           9.000
  22935430.761    22935429.202    22935426.867   -10760366.209 5  -8384698.092 5
        35.200          31.600
  23290109.621    23290109.247    23290109.351    -7400116.338 4  -5766321.739 4
        28.100          26.800
  22938487.231    22938486.600    22938485.433   -11842655.752 5  -9228040.196 4
        30.400          27.100
  23233198.534    23233197.785    23233198.080    -6331813.775 4  -4933879.024 4
        28.100          26.800
  21763163.744    21763163.342    21763162.825   -15811624.224 6 -12320739.714 5
        37.600          35.400
  24018610.962    24018610.527    24018608.945    -4655102.365 4  -3627342.529 4
        25.300          27.600
  22373234.540    22373233.883    22373232.199   -16769191.292 5 -13066894.299 4
        33.900          27.900
  20636867.969    20636867.234    20636865.554   -24587598.462 7 -19159158.185 7
        43.100          46.300
  20476763.770    20476763.400    20476760.532   -24548415.598 7 -19128626.044 8
        45.100          48.100
 09  1 19  0  5  0.0000000  0 10G28G19G 6G14G 3G 9G15G21G18G22
  25473460.600    25473460.334    25473460.712     -869695.331 1   -677684.209 1
         6.500           9.000
  22933591.172    22933589.599    22933587.965   -10770029.592 5  -8392227.997 5
        34.400          31.500
  23303687.564    23303687.207    23303688.045    -7328761.534 4  -5710720.608 4
        28.400          26.800
  22919548.508    22919547.981    22919547.075   -11942177.973 5  -9305589.967 4
        30.600          27.400
  23246206.880    23246205.950    23246205.830    -6263457.291 4  -4880614.243 4
        28.600          26.500
  21753647.631    21753647.054    21753646.427   -15861632.484 6 -12359707.170 5
        38.000          35.300
  24038181.062    24038181.246    24038179.729    -4552257.095 4  -3547203.368 4
        25.300          27.400
  22391626.556    22391626.025    22391624.300   -16672540.205 5 -12991581.776 4
        33.400          27.600
  20642697.194    20642696.577    20642695.014   -24556964.623 7 -19135287.658 7
        43.100          46.300
  20471103.797    20471103.450    20471100.398   -24578159.448 7 -19151803.064 8
        45.200          48.200
 09  1 19  0  5 30.0000000  0 10G28G19G 6G14G 3G 9G15G21G18G22
  25471113.199    25471113.087    25471111.752     -882044.973 1   -687307.260 2
         9.000          12.600
  22931864.810    22931863.591    22931862.262   -10779099.732 5  -8399295.637 5
        34.100          31.500
  23317335.331    23317335.022    23317335.398    -7257044.358 4  -5654837.101 4
        28.600          27.100
  22900658.423    22900657.778    22900657.259   -12041445.251 5  -9382941.091 4
        30.200          27.900
  23259293.580    23259292.828    23259293.131    -6194684.823 4  -4827025.295 4
        28.800          27.100
  21744255.070    21744254.681    21744253.920   -15910989.712 6 -12398167.345 5
        37.900          35.100
  24057781.929    24057781.544    24057779.862    -4449256.516 4  -3466943.168 4
        25.300          27.100
  22410078.592    22410077.895    22410076.434   -16575574.664 5 -12916024.224 4
        33.200          27.600
  20648598.621    20648597.950    20648596.261   -24525953.538 7 -19111123.173 7
        43.300          46.200
  20465515.650    20465515.305    20465512.296   -24607525.308 7 -19174685.547 8
        45.300          48.300
 09  1 19  0  6  0.0000000  0 10G28G19G 6G14G 3G 9G15G21G18G22
  25468858.963    25468858.486    25468859.081     -893888.165 2   -696535.699 2
        13.900          12.600
  22930251.982    22930250.437    22930248.999   -10787577.157 5  -8405901.436 5
        34.400          32.000
  23331050.550    23331050.436    23331051.289    -7184968.431 4  -5598674.049 4
        27.900          27.400
  22881817.505    22881816.637    22881815.896   -12140456.607 4  -9460092.787 4
        29.900          27.600
  23272459.060    23272458.189    23272458.043    -6125500.241 4  -4773115.251 4
        28.600          26.500
  21734987.023    21734986.357    21734986.000   -15959694.305 6 -12436118.963 5
        37.600          35.400
  24077411.015    24077410.561    24077409.306    -4346103.510 4  -3386564.202 4
        24.200          27.100
  22428589.795    22428589.067    22428587.700   -16478297.588 5 -12840223.912 4
        33.400          27.600
  20654571.118    20654570.545    20654569.008   -24494566.381 7 -19086665.650 7
        43.200          46.100
  20459999.346    20459999.009    20459995.957   -24636513.632 7 -19197273.844 8
        45.400          48.400
 09  1 19  0  6 30.0000000  0 10G 9G28G19G 6G14G 3G15G21G18G22
  21725843.812    21725843.247    21725842.673   -16007742.878 6 -12473559.399 5
        38.200          35.500
  25466702.029    25466700.836    25466701.287     -905222.755 1   -705367.793 1
        11.000          11.000
  22928751.887    22928750.521    22928748.992   -10795460.240 5  -8412044.093 5
        34.600          32.100
  23344834.297    23344833.937    23344834.654    -7112534.772 4  -5542232.245 4
        27.600          27.100
  22863025.335    22863024.847    22863023.970   -12239208.967 5  -9537042.665 4
        30.400          27.600
  23285702.408    23285701.436    23285702.020    -6055904.046 4  -4718884.459 4
        27.400          26.200
  24097068.206    24097068.823    24097067.319    -4242798.791 3  -3306067.024 4
        23.400          26.800
  22447160.176    22447159.495    22447157.919   -16380709.498 5 -12764181.248 4
        33.200          27.600
  20660615.727    20660615.029    20660613.423   -24462802.436 7 -19061914.521 7
        43.300          46.000
  20454555.250    20454554.956    20454551.855   -24665122.310 7 -19219566.317 8
        45.400          48.400
 09  1 19  0  7  0.0000000  0 10G 9G28G19G 6G14G 3G15G21G18G22
  21716825.846    21716825.316    21716825.142   -16055131.219 6 -12510485.379 5
        38.100          35.800
  25464641.047    25464641.490    25464640.433     -916046.091 1   -713801.573 1
         6.500          11.000
  22927365.209    22927363.859    22927362.264   -10802746.765 5  -8417721.899 5
        34.300          31.800
  23358685.994    23358685.685    23358686.336    -7039743.849 4  -5485512.061 4
        27.600          27.400
  22844283.175    22844282.778    22844282.025   -12337698.124 5  -9613787.459 4
        30.800          27.900
  23299024.527    23299023.613    23299023.898    -5985897.297 4  -4664333.757 4
        27.400          25.900
  24116754.711    24116755.335    24116754.083    -4139342.268 3  -3225451.546 4
        22.600          26.200
  22465789.495    22465788.821    22465787.699   -16282810.357 5 -12687896.214 4
        32.800          27.600
  20666732.216    20666731.585    20666730.039   -24430659.813 7 -19036868.317 7
        43.300          46.000
  20449184.047    20449183.658    20449180.628   -24693348.418 7 -19241560.684 8
        45.400          48.400
 09  1 19  0  7 30.0000000  0 10G 9G28G19G 6G14G 3G15G21G18G22
  21707933.007    21707932.625    21707932.262   -16101863.498 6 -12546900.134 5
        38.200          35.800
  25462678.235    25462678.549    25462677.091     -926364.043 1   -721841.549 1
        11.000           9.000
  22926091.159    22926089.706    22926087.939   -10809443.162 5  -8422939.876 5
        34.300          31.600
  23372604.103    23372603.723    23372604.612    -6966604.945 4  -5428520.712 4
        27.400          28.100
  22825590.534    22825590.229    22825589.211   -12435929.041 5  -9690331.022 4
        31.100          28.100
  23312421.872    23312421.839    23312422.180    -5915489.280 4  -4609470.365 4
        27.100          25.900
  24136468.946    24136469.409    24136468.310    -4035742.548 3  -3144724.499 4
        22.100          26.200
  22484476.827    22484476.107    22484474.896   -16184608.471 5 -12611375.275 4
        32.600          27.900
  20672919.439    20672918.825    20672917.329   -24398145.405 7 -19011532.413 7
        43.300          45.900
  20443884.377    20443884.057    20443881.038   -24721198.076 7 -19263261.711 8
        45.500          48.600
 09  1 19  0  8  0.0000000  0 10G 9G28G19G 6G14G 3G15G21G18G22
  21699166.021    21699165.635    21699165.309   -16147933.373 6 -12582798.733 5
        38.100          35.800
  25460809.932    25460809.803    25460811.952     -936172.417 1   -729484.567 1
         9.000          11.000
  22924930.156    22924928.770    22924926.669   -10815544.929 5  -8427694.498 5
        34.400          31.600
  23386588.250    23386587.817    23386589.121    -6893116.517 4  -5371257.021 4
        26.800          27.900
  22806948.168    22806947.810    22806947.041   -12533895.895 5  -9766668.810 4
        31.300          28.600
  23325896.940    23325896.441    23325897.017    -5844678.882 4  -4554293.430 4
        27.100          26.200
  24156211.406    24156211.553    24156210.277    -3931997.859 3  -3063884.498 4
        23.000          26.200
  22503222.218    22503221.412    22503219.970   -16086101.901 5 -12534616.925 4
        32.600          27.100
  20679178.262    20679177.596    20679176.006   -24365255.492 7 -18985903.912 7
        43.400          45.800
  20438657.391    20438657.032    20438653.915   -24748666.756 7 -19284665.872 8
        45.600          48.700
 09  1 19  0  8 30.0000000  0 10G 9G28G19G 6G14G 3G15G21G18G22
  21690524.821    21690524.443    21690524.280   -16193342.857 6 -12618182.744 6
        38.100          36.200
  25459041.425    25459041.681    25459039.844     -945474.882 2   -736733.149 2
        13.900          12.600
  22923880.820    22923879.396    22923877.743   -10821056.767 5  -8431989.444 5
        33.800          31.300
  23400637.875    23400637.491    23400638.365    -6819285.531 4  -5313726.401 4
        26.800          26.500
  22788355.526    22788355.135    22788354.247   -12631601.283 5  -9842802.856 4
        31.600          28.800
  23339447.325    23339446.817    23339447.261    -5773472.493 4  -4498807.938 4
        27.400          26.500
  24175980.548    24175980.207    24175978.530    -3828114.194 4  -2982936.191 4
        24.200          25.900
  22522024.348    22522023.517    22522021.959   -15987297.008 5 -12457626.107 4
        32.800          26.800
  20685507.647    20685506.946    20685505.367   -24331994.790 7 -18959986.479 7
        43.400          45.700
  20433502.121    20433501.701    20433498.653   -24775757.940 7 -19305775.882 8
        45.600          48.800
 09  1 19  0  9  0.0000000  0 10G 9G28G19G 6G14G 3G15G21G18G22
  21682011.554    21682010.888    21682010.349   -16238084.036 6 -12653045.990 6
        38.600          36.300
  25457370.180    25457369.464    25457368.694     -954264.820 2   -743582.477 2
        12.600          13.900
  22922945.660    22922944.323    22922942.603   -10825972.229 5  -8435819.678 5
        34.400          31.500
  23414753.773    23414753.292    23414753.175    -6745108.429 4  -5255926.065 4
        27.100          25.600
  22769814.082    22769813.652    22769812.628   -12729037.059 5  -9918726.819 4
        31.600          28.800
  23353073.016    23353072.240    23353072.833    -5701867.276 4  -4443011.682 4
        26.200          25.900
  24195775.955    24195775.957    24195773.996    -3724087.720 4  -2901876.594 4
        24.600          24.900
  22540883.455    22540883.000    22540881.373   -15888189.806 5 -12380399.719 4
        32.300          26.800
  20691908.587    20691907.862    20691906.176   -24298357.641 7 -18933775.713 7
        43.400          45.500
  20428419.877    20428419.486    20428416.421   -24802465.101 7 -19326586.651 8
        45.600          48.900
 09  1 19  0  9 30.0000000  0 10G 9G28G19G 6G14G 3G15G21G18G22
  21673624.804    21673624.268    21673623.767   -16282153.974 6 -12687386.200 5
        38.200          35.600
  25455792.111    25455792.242    25455792.473     -962541.267 1   -750031.619 2
         9.000          12.600
  22922123.991    22922122.668    22922121.094   -10830290.408 5  -8439184.496 5
        34.900          32.300
  23428934.942    23428934.338    23428934.382    -6670587.216 4  -5197857.591 4
        27.100          25.600
  22751324.162    22751323.730    22751323.044   -12826200.747 5  -9994438.759 4
        31.500          28.800
  23366774.421    23366774.232    23366774.253    -5629864.891 4  -4386905.929 4
        26.800          25.300
  24215599.136    24215598.624    24215596.202    -3619919.661 3  -2820706.671 3
        23.800          23.800
  22559800.102    22559799.597    22559798.098   -15788781.289 5 -12302938.547 4
        31.800          26.800
  20698381.308    20698380.609    20698378.825   -24264343.750 7 -18907271.380 7
        43.500          45.400
  20423411.004    20423410.639    20423407.557   -24828786.868 7 -19347097.111 8
        45.700          48.900
 09  1 19  0 10  0.0000000  0 10G 9G28G19G 6G14G 3G15G21G18G22
  21665366.084    21665365.532    21665365.142   -16325554.926 6 -12721205.120 6
        38.400          36.000
  25454316.235    25454316.780    25454313.945     -970308.296 1   -756083.867 1
        11.000          11.000
  22921414.924    22921413.724    22921412.004   -10834016.056 5  -8442087.598 5
        35.100          32.000
  23443179.243    23443179.029    23443179.578    -6595729.010 4  -5139526.532 4
        26.500          25.600
  22732885.394    22732885.179    22732884.536   -12923095.375 5 -10069941.044 4
        31.600          29.200
  23380550.620    23380550.034    23380550.528    -5557472.552 4  -4330496.311 4
        27.100          26.200
  24235447.451    24235447.152    24235444.602    -3515616.720 4  -2739431.647 3
        24.600          23.400
  22578773.462    22578772.707    22578770.858   -15689078.262 5 -12225247.879 4
        32.300          26.500
  20704924.522    20704923.842    20704922.274   -24229958.207 7 -18880477.449 7
        43.400          45.400
  20418474.737    20418474.327    20418471.214   -24854727.133 7 -19367310.299 8
        45.700          48.900
 09  1 19  0 10 30.0000000  0 10G 9G28G19G 6G14G 3G15G21G18G22
  21657234.638    21657234.307    21657233.605   -16368285.135 6 -12754501.372 6
        38.300          36.000
  25452935.147    25452934.203    25452933.761     -977565.362 2   -761738.749 2
        12.600          13.900
  22920818.835    22920817.506    22920815.771   -10837148.610 5  -8444528.549 5
        34.800          31.600
  23457488.241    23457487.829    23457488.240    -6520536.261 4  -5080934.792 4
        26.200          25.600
  22714498.886    22714498.369    22714497.661   -13019718.892 5 -10145232.064 4
        32.100          29.500
  23394400.313    23394399.580    23394400.008    -5484692.976 4  -4273784.962 4
        26.500          25.900
  24255320.334    24255320.639    24255318.357    -3411180.477 3  -2658052.741 3
        23.800          22.600
  22597802.023    22597801.326    22597799.427   -15589082.337 5 -12147328.982 4
        32.300          26.500
  20711538.616    20711537.978    20711536.328   -24195200.984 7 -18853393.895 7
        43.600          45.200
  20413611.141    20413610.791    20413607.743   -24880285.009 7 -19387225.521 8
        45.800          49.000
 09  1 19  0 11  0.0000000  0 10G 9G28G19G 6G14G 3G15G21G18G22
  21649231.326    21649230.712    21649230.421   -16410342.984 6 -12787273.716 6
        38.100          36.200
  25451650.079    25451649.814    25451649.920     -984312.681 2   -766996.430 2
        13.900          15.100
  22920335.358    22920334.118    22920332.288   -10839689.075 5  -8446508.125 5
        34.800          31.600
  23471859.429    23471859.545    23471859.999    -6445012.287 4  -5022084.942 4
        26.500          24.900
  22696163.982    22696163.432    22696162.512   -13116070.255 5 -10220311.020 4
        32.400          29.200
  23408323.218    23408322.555    23408322.371    -5411529.531 4  -4216774.499 4
        27.100          25.900
  24275218.560    24275218.841    24275216.881    -3306613.942 3  -2576572.319 3
        23.000          23.000
  22616885.538    22616884.992    22616883.405   -15488796.379 5 -12069184.095 4
        32.300          26.200
  20718223.217    20718222.557    20718220.844   -24160073.135 7 -18826021.544 7
        43.500          45.100
  20408820.402    20408820.038    20408816.936   -24905460.683 7 -19406842.926 8
        45.700          49.000
 09  1 19  0 11 30.0000000  0 10G 9G28G19G 6G14G 3G15G21G18G22
  21641356.883    21641356.374    21641356.132   -16451722.852 6 -12819517.754 6
        38.400          36.400
  25450465.460    25450464.401    25450464.449     -990546.242 2   -771853.808 2
        16.100          17.800
  22919965.154    22919963.871    22919962.511   -10841633.888 5  -8448023.557 5
        34.700          32.300
  23486295.403    23486294.783    23486294.715    -6369155.890 4  -4962976.066 4
        26.800          24.600
  22677881.888    22677881.304    22677880.085   -13212143.697 5 -10295173.427 4
        32.300          29.000
  23422317.971    23422317.634    23422318.792    -5337981.411 4  -4159464.302 4
        25.900          26.500
  24295142.058    24295142.344    24295140.634    -3201915.413 3  -2494989.055 3
        23.400          23.400
  22636024.771    22636024.234    22636022.763   -15388219.070 5 -11990812.179 4
        32.100          26.200
  20724978.877    20724978.258    20724976.560   -24124571.588 7 -18798357.995 7
        43.500          45.000
  20404103.186    20404102.797    20404099.745   -24930249.953 7 -19426159.235 8
        45.700          49.200
 09  1 19  0 12  0.0000000  0 10G 9G28G19G 6G14G 3G15G21G18G22
  21633611.341    21633610.904    21633610.382   -16492426.049 6 -12851234.519 6
        38.600          36.200
  25449375.449    25449375.425    25449375.781     -996269.236 2   -776313.229 2
        15.100          17.800
  22919708.281    22919706.790    22919705.291   -10842986.363 5  -8449077.433 5
        34.800          32.600
  23500792.607    23500792.129    23500791.893    -6292973.311 4  -4903613.026 4
        26.500          24.600
  22659652.198    22659651.707    22659650.426   -13307941.295 5 -10369820.875 4
        32.600          29.200
  23436386.038    23436385.315    23436386.189    -5264054.960 4  -4101859.282 4
        25.600          26.200
  24315089.355    24315089.654    24315087.988    -3097090.148 3  -2413307.042 3
        23.000          23.400
  22655219.114    22655218.326    22655216.628   -15287355.136 5 -11912216.919 4
        32.000          25.900
  20731805.159    20731804.438    20731802.759   -24088699.771 7 -18770405.926 7
        43.300          44.900
  20399458.731    20399458.417    20399455.504   -24954655.761 7 -19445176.741 8
        45.700          49.300
 09  1 19  0 12 30.0000000  0 10G 9G28G19G 6G14G 3G15G21G18G22
  21625994.567    21625994.030    21625993.651   -16532453.067 6 -12882424.391 6
        38.700          36.400
  25448383.753    25448382.505    25448381.204    -1001483.490 2   -780376.232 1
        12.600          11.000
  22919563.129    22919561.634    22919560.152   -10843748.772 5  -8449671.518 5
        34.800          32.600
  23515350.100    23515349.846    23515349.704    -6216469.408 4  -4843999.595 4
        25.900          24.600
  22641474.911    22641474.451    22641473.391   -13403463.427 5 -10444253.682 4
        32.800          29.500
  23450525.193    23450524.486    23450524.918    -5189754.654 4  -4043962.971 4
        25.600          26.200
  24335060.880    24335060.635    24335059.060    -2992142.298 3  -2331529.492 3
        23.800          23.400
  22674465.957    22674465.415    22674464.088   -15186209.278 5 -11833401.975 4
        31.300          26.200
  20738701.047    20738700.438    20738698.858   -24052460.472 7 -18742167.509 7
        43.300          44.800
  20394887.266    20394886.922    20394883.961   -24978679.513 7 -19463896.541 8
        45.700          49.400
 09  1 19  0 13  0.0000000  0 10G 9G28G19G 6G14G 3G15G21G18G22
  21618507.369    21618506.845    21618506.390   -16571797.431 6 -12913082.323 6
        38.400          36.100
  25447490.507    25447489.989    25447485.727    -1006184.237 2   -784039.168 1
        12.600           9.000
  22919531.296    22919529.744    22919528.076   -10843916.782 5  -8449802.434 5
        34.500          32.300
  23529970.143    23529969.522    23529969.776    -6139642.357 4  -4784134.375 4
        25.600          25.300
  22623351.165    22623350.680    22623349.706   -13498703.918 5 -10518467.027 4
        33.000          29.500
  23464735.364    23464734.731    23464734.764    -5115078.899 4  -3985774.072 4
        25.900          24.900
  24355055.302    24355055.338    24355053.465    -2887069.431 3  -2249654.520 3
        23.400          22.600
  22693767.092    22693766.706    22693765.312   -15084779.117 5 -11754365.498 4
        30.400          26.200
  20745667.933    20745667.230    20745665.608   -24015850.075 7 -18713639.926 7
        43.300          44.700
  20390389.347    20390389.024    20390386.034   -25002316.360 7 -19482314.858 8
        45.800          49.500
 09  1 19  0 13 30.0000000  0 10G 9G28G19G 6G14G 3G15G21G18G22
  21611151.629    21611151.157    21611150.445   -16610454.007 6 -12943204.327 6
        38.800          36.300
  25446693.038    25446692.454    25446691.827    -1010367.870 1   -787299.176 1
         6.500           9.000
  22919612.816    22919611.263    22919609.664   -10843487.458 5  -8449467.905 5
        34.500          32.100
  23544651.526    23544651.070    23544651.392    -6062491.633 4  -4724016.949 4
        25.300          25.900
  22605282.249    22605281.691    22605280.567   -13593657.413 5 -10592456.732 4
        33.000          29.500
  23479016.902    23479016.341    23479016.800    -5040027.414 4  -3927292.409 4
        25.300          24.600
  24375074.382    24375073.950    24375072.032    -2781870.553 3  -2167681.367 3
        21.600          22.600
  22713123.030    22713122.538    22713121.378   -14983063.096 5 -11675106.271 4
        30.400          26.200
  20752705.843    20752705.193    20752703.524   -23978865.317 7 -18684820.629 7
        43.300          44.600
  20385965.849    20385965.462    20385962.372   -25025562.470 7 -19500428.707 8
        45.700          49.500
 09  1 19  0 14  0.0000000  0 10G 9G28G19G 6G14G 3G15G21G18G22
  21603925.431    21603924.755    21603924.547   -16648426.937 6 -12972793.613 6
        38.100          36.400
  25445994.877    25445994.057    25445993.260    -1014040.524 1   -790161.007 1
        11.000           9.000
  22919807.088    22919805.638    22919804.046   -10842466.367 5  -8448672.246 5
        34.600          32.100
  23559393.150    23559392.679    23559392.861    -5985025.570 4  -4663653.804 4
        25.600          26.800
  22587267.205    22587266.484    22587265.274   -13688328.217 5 -10666226.164 4
        33.000          29.700
  23493369.379    23493368.614    23493368.396    -4964608.698 4  -3868524.590 3
        25.900          23.800
  24395116.081    24395115.568    24395113.528    -2676553.357 3  -2085616.030 3
        23.000          23.000
  22732532.482    22732531.538    22732530.355   -14881069.395 5 -11595630.681 4
        30.400          26.500
  20759813.701    20759813.110    20759811.442   -23941512.676 7 -18655714.673 7
        43.100          44.400
  20381615.626    20381615.243    20381612.222   -25048422.986 7 -19518242.091 8
        45.700          49.500
 09  1 19  0 14 30.0000000  0 10G 9G28G19G 6G14G 3G15G21G18G22
  21596829.540    21596829.101    21596828.759   -16685715.051 6 -13001849.269 6
        38.400          36.500
  25445392.165    25445391.872    25445390.199    -1017202.012 1   -792624.409 1
        11.000          11.000
  22920114.074    22920112.600    22920110.527   -10840854.697 5  -8447416.396 5
        35.200          31.800
  23574193.263    23574192.743    23574193.546    -5907247.701 4  -4603047.688 4
        25.600          26.800
  22569305.833    22569305.114    22569304.117   -13782715.122 5 -10739774.372 4
        33.200          29.900
  23507788.958    23507788.727    23507789.408    -4888826.544 4  -3809473.566 3
        24.200          23.800
  24415179.022    24415178.727    24415176.708    -2571120.357 3  -2003460.460 3
        23.400          22.100
  22751993.288    22751992.597    22751991.159   -14778800.648 5 -11515940.770 4
        30.200          25.600
  20766991.723    20766991.034    20766989.320   -23903792.988 7 -18626322.708 7
        43.300          44.400
  20377338.704    20377338.374    20377335.409   -25070897.901 7 -19535755.006 8
        45.600          49.600
 09  1 19  0 15  0.0000000  0 10G 9G28G19G 6G14G 3G15G21G18G22
  21589864.977    21589864.592    21589863.806   -16722315.528 6 -13030369.116 6
        38.700          36.500
  25444889.306    25444888.479    25444886.354    -1019851.989 2   -794689.335 2
        12.600          12.600
  22920532.827    22920531.435    22920529.791   -10838652.109 5  -8445700.098 5
        34.700          31.600
  23589052.891    23589052.384    23589053.096    -5829160.038 4  -4542200.174 4
        24.900          25.900
  22551398.489    22551397.997    22551397.241   -13876816.235 5 -10813099.888 5
        33.500          30.100
  23522279.485    23522278.964    23522279.431    -4812682.936 4  -3750140.908 4
        25.300          24.200
  24435263.812    24435263.974    24435261.543    -2465572.969 3  -1921215.746 3
        23.400          21.600
  22771506.287    22771505.732    22771504.519   -14676258.466 4 -11436037.781 4
        29.700          25.600
  20774239.365    20774238.719    20774237.096   -23865706.203 7 -18596644.686 7
        43.400          44.400
  20373135.330    20373134.988    20373132.078   -25092986.567 7 -19552966.949 8
        45.600          49.700
 09  1 19  0 15 30.0000000  0 10G 9G28G19G 6G14G 3G15G21G18G22
  21583032.706    21583032.181    21583031.681   -16758218.822 6 -13058345.695 6
        38.300          36.500
  25444483.710    25444483.002    25444481.590    -1021981.902 2   -796349.002 2
        12.600          13.900
  22921066.032    22921064.671    22921062.818   -10835850.560 5  -8443517.076 5
        34.700          31.800
  23603972.775    23603972.344    23603972.630    -5750757.201 4  -4481107.063 4
        24.900          25.900
  22533547.807    22533547.447    22533546.658   -13970621.454 5 -10886194.845 4
        33.200          29.900
  23536839.081    23536838.143    23536838.295    -4736172.516 4  -3690522.412 3
        24.900          23.000
  24455371.714    24455372.024    24455369.346    -2359905.263 3  -1838877.259 3
        23.800          21.600
  22791072.965    22791072.192    22791070.327   -14573436.681 4 -11355916.931 4
        29.200          24.200
  20781558.364    20781557.697    20781556.114   -23827244.637 7 -18566674.634 7
        43.200          44.200
  20369007.184    20369006.858    20369003.907   -25114680.128 7 -19569871.020 8
        45.500          49.700
 09  1 19  0 16  0.0000000  0 10G 9G28G19G 6G14G 3G15G21G18G22
  21576332.012    21576331.440    21576330.792   -16793431.577 6 -13085784.197 6
        38.400          36.500
  25444174.896    25444174.501    25444174.703    -1023599.890 2   -797609.803 2
        13.900          15.100
  22921711.137    22921709.988    22921708.316   -10832458.641 5  -8440874.022 5
        34.500          32.100
  23618949.426    23618949.592    23618950.223    -5672050.104 4  -4419776.879 4
        24.200          25.600
  22515752.373    22515751.868    22515751.024   -14064137.206 5 -10959064.239 4
        33.100          29.700
  23551466.397    23551465.460    23551465.804    -4659306.665 4  -3630626.949 3
        24.900          23.400
  24475500.594    24475500.565    24475498.403    -2254126.862 3  -1756452.525 3
        22.600          21.600
  22810690.905    22810690.158    22810687.952   -14470345.731 5 -11275586.326 3
        30.100          23.800
  20788947.011    20788946.339    20788944.664   -23788417.101 7 -18536419.410 7
        43.100          44.100
  20364952.782    20364952.471    20364949.553   -25135986.045 7 -19586473.027 8
        45.500          49.800
 09  1 19  0 16 30.0000000  0 10G 9G28G19G 6G14G 3G15G21G18G22
  21569762.817    21569762.506    21569762.268   -16827951.546 6 -13112682.867 6
        38.400          36.800
  25443964.941    25443965.381    25443962.348    -1024705.007 2   -798470.787 1
        13.900          11.000
  22922469.045    22922467.742    22922466.127   -10828476.354 5  -8437770.942 5
        34.000          32.400
  23633985.243    23633984.587    23633984.984    -5593041.186 4  -4358211.498 3
        24.200          23.800
  22498012.459    22498011.975    22498011.044   -14157361.956 5 -11031706.884 5
        33.400          30.100
  23566160.423    23566159.625    23566160.371    -4582087.526 4  -3570456.211 4
        25.300          24.200
  24495649.883    24495649.504    24495647.857    -2148240.046 3  -1673943.334 3
        21.100          21.600
  22830359.299    22830358.613    22830356.249   -14366987.175 4 -11195047.178 3
        29.900          23.800
  20796405.235    20796404.593    20796403.025   -23749223.503 7 -18505878.941 7
        43.000          44.100
  20360972.363    20360971.973    20360969.027   -25156903.560 7 -19602772.384 8
        45.400          49.800
 09  1 19  0 17  0.0000000  0 10G 9G28G19G 6G14G 3G15G21G18G22
  21563323.544    21563323.155    21563322.614   -16861790.111 6 -13139050.566 6
        38.300          36.400
  25443850.304    25443849.818    25443847.240    -1025310.488 2   -798942.383 1
        13.900          11.000
  22923337.074    22923335.618    22923333.758   -10823916.701 5  -8434217.966 5
        34.000          32.000
  23649074.160    23649073.976    23649074.210    -5513746.229 3  -4296423.214 3
        23.800          22.600
  22480325.950    22480325.382    22480324.426   -14250306.544 5 -11104131.213 5
        33.500          30.400
  23580919.302    23580918.396    23580918.880    -4504531.359 4  -3510022.843 4
        25.300          24.200
  24515817.158    24515816.955    24515814.959    -2042259.557 3  -1591361.139 3
        20.500          21.600
  22850075.839    22850075.080    22850072.741   -14263376.302 4 -11114311.441 4
        28.800          24.200
  20803930.468    20803929.829    20803928.319   -23709677.701 7 -18475064.032 7
        43.000          43.900
  20357063.414    20357063.117    20357060.105   -25177445.167 7 -19618778.828 8
        45.300          49.800
 09  1 19  0 17 30.0000000  0 10G 9G28G19G 6G14G 3G15G21G18G22
  21557020.282    21557019.656    21557019.290   -16894914.924 6 -13164862.101 6
        38.300          36.400
  25443833.842    25443833.223    25443831.981    -1025386.063     -799001.133 1
         3.000           9.000
  22924320.267    22924318.648    22924317.019   -10818749.395 5  -8430191.491 5
        33.500          31.600
  23664223.281    23664222.638    23664223.331    -5434136.973 3  -4234390.021 3
        23.400          22.600
  22462698.634    22462698.079    22462697.061   -14342938.529 5 -11176311.961 5
        33.400          30.400
  23595747.068    23595746.446    23595746.451    -4426609.724 4  -3449304.712 4
        25.600          24.200
  24536007.030    24536007.414    24536005.652    -1936156.075 3  -1508683.097 3
        20.500          22.100
  22869845.894    22869845.352    22869842.875   -14159484.106 4 -11033356.500 4
        28.600          24.200
  20811528.806    20811528.173    20811526.452   -23669748.772 7 -18443950.577 7
        43.000          43.700
  20353231.954    20353231.586    20353228.693   -25197579.383 7 -19634467.824 8
        45.200          49.900
 09  1 19  0 18  0.0000000  0 10G 9G28G19G 6G14G 3G15G21G18G22
  21550849.554    21550849.063    21550848.543   -16927342.729 6 -13190130.512 6
        38.500          36.600
  25443915.667    25443915.694    25443916.274    -1024949.855     -798661.310 1
         3.000           9.000
  22925415.347    22925414.122    22925412.220   -10812993.301 5  -8425706.230 5
        33.400          31.100
  23679428.304    23679427.851    23679428.082    -5354234.619 3  -4172128.480 3
        23.000          22.600
  22445127.714    22445127.021    22445126.143   -14435274.852 5 -11248262.323 5
        33.600          30.800
  23610639.516    23610639.160    23610639.835    -4348344.366 4  -3388318.750 4
        24.900          24.200
  24556217.366    24556217.486    24556216.109    -1829950.310 3  -1425925.365 3
        19.300          22.600
  22889665.712    22889664.828    22889662.448   -14055331.376 4 -10952198.543 3
        28.100          23.800
  20819196.274    20819195.614    20819193.904   -23629456.114 7 -18412553.700 7
        42.800          43.600
  20349474.720    20349474.362    20349471.305   -25217324.240 7 -19649853.420 8
        45.100          49.800
 09  1 19  0 18 30.0000000  0 10G 9G28G19G 6G14G 3G15G21G18G22
  21544811.441    21544810.910    21544810.531   -16959072.938 6 -13214855.342 6
        38.200          36.600
  25444099.683    25444097.683    25444096.193    -1024002.330 1   -797923.048 1
        11.000           6.500
  22926622.797    22926621.395    22926619.551   -10806649.528 5  -8420763.030 5
        33.500          31.100
  23694688.594    23694688.375    23694688.114    -5274042.904 4  -4109641.444 3
        24.200          23.000
  22427612.901    22427612.309    22427611.656   -14527314.460 5 -11319981.473 5
        33.600          31.000
  23625597.864    23625597.541    23625598.353    -4269738.373 4  -3327067.321 3
        24.200          23.800
  24576447.630    24576446.998    24576445.538    -1723645.127 3  -1343090.180 3
        19.900          22.600
  22909533.920    22909533.206    22909531.286   -13950921.131 4 -10870839.920 4
        27.900          24.200
  20826932.578    20826932.028    20826930.436   -23588800.653 7 -18380874.116 7
        42.700          43.500
  20345791.289    20345790.919    20345788.088   -25236680.249 7 -19664936.022 8
        45.000          49.900
 09  1 19  0 19  0.0000000  0 10G 9G28G19G 6G14G 3G15G21G18G22
  21538906.019    21538905.506    21538905.061   -16990104.630 6 -13239035.870 6
        37.800          36.300
  25444376.333    25444375.351    25444376.150    -1022544.197 2   -796786.871 1
        12.600          11.000
  22927941.529    22927940.160    22927938.265   -10799719.209 5  -8415362.775 5
        33.400          30.800
  23710003.200    23710002.464    23710002.868    -5193564.896 4  -4046931.319 3
        24.200          23.400
  22410154.887    22410154.389    22410153.655   -14619056.255 5 -11391468.559 5
        33.500          30.600
  23640620.935    23640620.445    23640620.803    -4190795.617 4  -3265553.505 3
        24.600          23.800
  24596695.954    24596695.432    24596693.168    -1617243.221 3  -1260179.601 3
        21.100          23.400
  22929450.306    22929450.002    22929448.962   -13846255.916 4 -10789282.621 4
        27.400          24.200
  20834737.978    20834737.369    20834735.759   -23547783.617 7 -18348912.788 7
        42.700          43.400
  20342181.886    20342181.595    20342178.764   -25255647.363 7 -19679715.586 8
        44.900          50.000
 09  1 19  0 19 30.0000000  0 10G 9G28G19G 6G14G 3G15G21G18G22
  21533135.435    21533135.081    21533134.154   -17020430.512 6 -13262666.414 6
        38.100          36.100
  25444752.136    25444752.280    25444751.367    -1020569.923 1   -795248.486 2
         9.000          12.600
  22929373.306    22929371.684    22929369.910   -10792197.054 5  -8409501.348 5
        33.100          31.300
  23725371.871    23725371.857    23725372.090    -5112798.201 3  -3983996.244 3
        23.800          23.400
  22392755.031    22392754.410    22392753.666   -14710493.388 5 -11462718.252 5
        33.400          30.800
  23655707.449    23655707.217    23655707.370    -4111513.691 4  -3203775.393 3
        24.600          23.800
  24616962.057    24616961.951    24616960.026    -1510740.674 3  -1177190.601 4
        21.100          24.600
  22949417.191    22949416.575    22949415.289   -13741332.522 4 -10707524.157 3
        27.400          23.800
  20842612.938    20842612.329    20842610.750   -23506399.986 7 -18316665.795 7
        42.500          43.200
  20338647.969    20338647.605    20338644.502   -25274219.487 7 -19694187.366 8
        44.800          49.900
 09  1 19  0 20  0.0000000  0 10G 9G28G19G 6G14G 3G15G21G18G22
  21527497.817    21527497.398    21527497.109   -17050054.980 6 -13285750.400 6
        37.600          36.500
  25445223.478    25445224.160    25445225.064    -1018085.263 1   -793312.403 2
         6.500          13.900
  22930915.469    22930914.186    22930913.020   -10784089.433 5  -8403183.713 5
        33.000          31.800
  23740795.229    23740795.040    23740794.945    -5031751.054 4  -3920842.642 3
        24.600          23.400
  22375412.182    22375411.806    22375410.960   -14801629.948 5 -11533733.731 5
        33.400          31.300
  23670857.759    23670856.997    23670857.256    -4031900.851 3  -3141739.440 4
        23.000          24.200
  24637246.024    24637246.666    24637244.814    -1404144.989 3  -1094129.041 4
        20.500          25.600
  22969430.888    22969430.485    22969428.913   -13636158.658 4 -10625570.498 3
        27.400          23.000
  20850556.371    20850555.845    20850554.270   -23464656.125 7 -18284138.107 7
        42.400          43.000
  20335187.732    20335187.455    20335184.564   -25292401.694 7 -19708355.313 8
        44.700          49.800
 09  1 19  0 20 30.0000000  0 10G 9G28G19G 6G14G 3G15G21G18G22
  21521995.166    21521994.733    21521994.246   -17078972.929 6 -13308283.851 6
        37.700          36.500
  25445795.380    25445795.137    25445793.316    -1015086.238 2   -790975.537 2
        12.600          12.600
  22932570.578    22932569.310    22932567.644   -10775393.074 5  -8396407.326 5
        32.800          31.600
  23756270.919    23756270.589    23756271.240    -4950422.361 3  -3857469.648 3
        23.000          23.800
  22358127.761    22358127.449    22358126.476   -14892460.245 5 -11604510.554 5
        33.600          31.300
  23686070.762    23686069.815    23686070.741    -3951956.111 3  -3079444.857 3
        23.400          23.800
  24657548.249    24657549.087    24657547.400    -1297454.268 3  -1010993.423 4
        19.900          26.200
  22989492.360    22989492.130    22989490.890   -13530732.772 4 -10543420.452 3
        27.400          23.400
  20858569.414    20858568.815    20858567.118   -23422548.575 7 -18251327.022 7
        42.300          42.900
  20331802.764    20331802.392    20331799.509   -25310190.450 7 -19722216.676 8
        44.400          49.800
 09  1 19  0 21  0.0000000  0 10G 9G28G19G 6G14G 3G15G21G18G22
  21516627.686    21516627.365    21516626.791   -17107178.185 6 -13330261.962 6
        37.700          36.300
  25446465.304    25446464.935    25446462.780    -1011568.540 1   -788234.526 2
        11.000          12.600
  22934337.962    22934336.982    22934335.331   -10766103.650 5  -8389168.802 5
        32.800          31.800
  23771801.515    23771801.282    23771801.245    -4868810.554 3  -3793876.031 3
        22.100          23.800
  22340902.601    22340902.330    22340901.324   -14982977.971 5 -11675043.836 5
        33.600          31.000
  23701347.888    23701347.049    23701346.957    -3871678.170 3  -3016890.624 3
        23.800          23.000
  24677869.104    24677870.297    24677868.693    -1190666.052 3   -927781.831 4
        20.500          26.500
  23009602.864    23009602.257    23009600.917   -13425052.364 4 -10461072.099 3
        26.500          23.000
  20866652.227    20866651.585    20866649.942   -23380073.232 7 -18218229.349 7
        42.100          42.700
  20328493.654    20328493.336    20328490.316   -25327579.967 7 -19735766.941 8
        44.300          49.700
 09  1 19  0 21 30.0000000  0 10G 9G28G19G 6G14G 3G15G21G18G22
  21511394.393    21511393.908    21511393.501   -17134679.579 6 -13351691.605 6
        37.300          36.300
  25447230.884    25447229.333    25447230.579    -1007542.413 1   -785097.329 2
         9.000          12.600
  22936216.826    22936215.545    22936213.911   -10756232.027 5  -8381476.626 5
        32.700          32.000
  23787383.165    23787382.710    23787383.249    -4786928.485 3  -3730071.839 3
        23.000          23.400
  22323735.412    22323735.178    22323734.240   -15073192.073 5 -11745340.525 5
        33.600          31.100
  23716684.280    23716683.897    23716683.983    -3791080.098 3  -2954086.980 3
        23.400          23.400
  24698207.112    24698207.458    24698205.863    -1083792.478 3   -844503.717 4
        20.500          26.500
  23029759.101    23029758.592    23029757.050   -13319129.759 4 -10378535.017 3
        25.600          22.100
  20874802.870    20874802.299    20874800.733   -23337240.712 6 -18184853.353 7
        41.900          42.600
  20325258.573    20325258.280    20325255.341   -25344580.070 7 -19749013.768 8
        44.200          49.700
 09  1 19  0 22  0.0000000  0 10G 9G28G19G 6G14G 3G15G21G18G22
  21506296.116    21506295.649    21506294.972   -17161472.300 6 -13372569.036 6
        37.300          36.200
  25448095.272    25448093.655    25448090.901    -1003004.309 1   -781561.262 1
         9.000           9.000
  22938206.947    22938205.550    22938203.541   -10745775.205 5  -8373328.449 5
        33.100          31.500
  23803016.256    23803016.092    23803016.139    -4704775.326 3  -3666056.403 3
        22.100          23.800
  22306627.375    22306626.973    22306626.048   -15163096.852 5 -11815396.183 5
        33.500          31.600
  23732082.608    23732082.161    23732082.699    -3710161.009 3  -2891033.173 3
        22.600          23.400
  24718561.823    24718561.436    24718559.846     -976831.795 3   -761157.736 4
        19.900          25.900
  23049962.161    23049961.646    23049959.956   -13212963.590 4 -10295808.146 3
        25.300          21.600
  20883022.218    20883021.524    20883019.965   -23294048.190 6 -18151196.840 7
        41.500          42.400
  20322098.501    20322098.121    20322095.150   -25361186.908 7 -19761954.156 8
        44.000          49.700
 09  1 19  0 22 30.0000000  0 10G 9G28G19G 6G14G 3G15G21G18G22
  21501332.934    21501332.601    21501332.258   -17187551.114 6 -13392890.180 6
        36.600          36.000
  25449056.205    25449055.228    25449053.629     -997950.805 1   -777623.383 1
         6.500           6.500
  22940308.798    22940307.370    22940305.839   -10734730.133 5  -8364721.907 5
        33.000          32.100
  23818701.434    23818700.955    23818701.452    -4622350.349 3  -3601829.185 3
        20.500          23.800
  22289579.101    22289578.510    22289577.428   -15252687.574 5 -11885207.115 5
        33.400          31.500
  23747542.913    23747542.025    23747542.116    -3628920.093 3  -2827728.584 3
        23.000          23.400
  24738932.328    24738932.739    24738930.495     -869782.135 3   -677742.428 4
        18.600          25.300
  23070212.066    23070211.194    23070209.483   -13106552.228 4 -10212890.207 3
        25.300          20.500
  20891310.550    20891309.939    20891308.350   -23250492.526 6 -18117257.356 7
        41.500          42.200
  20319013.850    20319013.581    20319010.549   -25377396.448 7 -19774584.960 8
        43.800          49.600
 09  1 19  0 23  0.0000000  0 10G 9G28G19G 6G14G 3G15G21G18G22
  21496505.744    21496505.160    21496504.479   -17212921.007 6 -13412658.921 5
        36.600          35.900
  25450115.488    25450115.766    25450114.817     -992388.622 1   -773289.230 2
         6.500          13.900
  22942521.745    22942520.175    22942518.331   -10723103.709 5  -8355662.361 5
        33.100          32.300
  23834436.501    23834435.931    23834437.247    -4539662.337 3  -3537396.983 4
        19.900          24.600
  22272589.239    22272588.711    22272587.823   -15341968.637 5 -11954776.755 5
        32.800          31.300
  23763061.051    23763060.581    23763061.685    -3547366.843 3  -2764180.616 4
        23.000          24.200
  24759318.991    24759318.420    24759316.602     -762651.732 2   -594264.183 4
        17.800          24.900
  23090506.230    23090505.450    23090504.367   -12999904.176 4 -10129787.832 3
        25.300          21.600
  20899666.801    20899666.189    20899664.532   -23206580.396 6 -18083040.111 7
        41.200          42.000
  20316003.749    20316003.493    20316000.568   -25393214.152 7 -19786910.438 8
        43.400          49.500
 09  1 19  0 23 30.0000000  0 10G 9G28G19G 6G14G 3G15G21G18G22
  21491813.789    21491813.302    21491812.386   -17237577.500 6 -13431871.761 5
        36.300          35.600
  25451270.261    25451270.694    25451269.789     -986313.984     -768555.755 2
                        15.100
  22944845.055    22944843.660    22944841.803   -10710892.950 5  -8346147.486 5
        32.600          32.000
  23850220.877    23850221.163    23850222.101    -4456710.790 3  -3472759.421 4
        18.600          24.200
  22255659.692    22255659.032    22255657.959   -15430934.995 5 -12024101.170 5
        32.700          31.100
  23778640.340    23778639.598    23778640.105    -3465500.681 3  -2700388.800 3
        22.100          23.800
  24779721.133    24779720.669    24779718.186     -655438.954 2   -510721.758 4
        17.000          24.600
  23110845.842    23110845.241    23110843.914   -12893018.194 4 -10046500.062 3
        24.200          21.600
  20908091.415    20908090.787    20908089.130   -23162308.761 6 -18048542.729 6
        40.800          41.700
  20313069.119    20313068.778    20313065.803   -25408636.335 7 -19798927.718 8
        43.100          49.300
 09  1 19  0 24  0.0000000  0 10G 9G28G19G 6G14G 3G15G21G18G22
  21487258.606    21487258.133    21487257.517   -17261514.393 5 -13450523.879 5
        35.600          35.700
  25452525.864    25452525.258    25452522.955     -979722.254 1   -763419.390 2
         6.500          13.900
  22947280.453    22947279.108    22947277.288   -10698093.635 5  -8336174.003 5
        31.800          32.100
  23866056.733    23866056.162    23866057.363    -4373493.567 3  -3407914.847 3
        18.600          23.400
  22238791.043    22238790.542    22238789.358   -15519580.156 5 -12093175.298 5
        32.600          31.100
  23794279.058    23794278.199    23794278.447    -3383319.372 3  -2636351.426 3
        21.100          23.400
  24800139.724    24800139.512    24800136.234     -548140.689 2   -427112.721 3
        16.100          23.400
  23131231.143    23131230.375    23131229.862   -12785891.319 3  -9963024.592 3
        22.600          22.100
  20916585.290    20916584.682    20916582.955   -23117673.217 6 -18013761.785 6
        40.300          41.400
