     2.11           OBSERVATION DATA    G (GPS)             RINEX VERSION / TYPE
teqc  2008Oct2      WCDA Operator       20090105 00:18:56UTCPGM / RUN BY / DATE
Solaris x86 5.10|AMD64|cc SC5.8 -xarch=amd64|=+|=+          COMMENT
teqc  2008Oct2      WCDA Operator       20090104 01:18:40UTCCOMMENT
flin  WCDA-ACP   965000   CFS Flin Flon SASK Canada         MARKER NAME
40135M001                                                   MARKER NUMBER
PGC-WCDA            GEOL. SURV. CANADA                      OBSERVER / AGENCY
1115                AOA BENCHMARK ACT   3.3.32.4            REC # / TYPE / VERS
231                 AOAD/M_T        SCIS                    ANT # / TYPE
  -766174.4630 -3611375.3160  5184056.2210                  APPROX POSITION XYZ
        0.1500        0.0000        0.0000                  ANTENNA: DELTA H/E/N
     1     1                                                WAVELENGTH FACT L1/2
     7    C1    P1    P2    L1    L2    S1    S2            # / TYPES OF OBSERV
STATION INFORMATION EFFECTIVE FROM: 2001/01/13 18:20:00     COMMENT
                                TO: CURRENT DATE (above)    COMMENT
BIT 2 OF LLI FLAGS (+4) DATA COLLECTED UNDER 'AS' CONDITION COMMENT
L1 PHASE CENTRE 0.110m ABOVE ARP                            COMMENT
L2 PHASE CENTRE 0.128m ABOVE ARP                            COMMENT
where ARP is the Antenna Reference Point for HI measurement COMMENT
CONTACT gps@pgc.nrcan.gc.ca FOR ADDITIONAL INFORMATION      COMMENT
    P1 =    P1  TurboRogue; =    Y1  Benchmark              COMMENT
    L1 = L1(CA)                                             COMMENT
    P2 =    P2  TurboRogue; =    Y2  Benchmark              COMMENT
    L2 = L2(P2) TurboRogue; = L2(Y2) Benchmark              COMMENT
 SNR is mapped to RINEX snr flag value [0-9]                COMMENT
  L1 & L2: min(max(int(snr_dBHz/6), 0), 9)                  COMMENT
  2009     1     4     0     0    0.0000000     GPS         TIME OF FIRST OBS
                                                            END OF HEADER
 09  1  4  0  0  0.0000000  0 10G21G26G19G15G 6G 3G18G22G 9G24
  20589677.249    20589676.418    20589674.672   -26123214.544 6 -20355740.586 7
        40.700          43.000
  22802002.384    22802002.061    22802001.197    -7978376.131 3  -6216905.235 4
        23.800          25.600
  24051631.419    24051629.911    24051627.722    -5270894.377 3  -4107188.831 3
        21.100          23.400
  21849723.783    21849723.624    21849722.332   -15790883.699 6 -12304572.363 6
        37.000          39.100
  22255511.989    22255511.396    22255511.229   -13494047.801 5 -10514843.566 5
        33.600          33.000
  22369876.527    22369875.534    22369875.176   -10631238.081 5  -8284079.132 5
        31.800          31.000
  20505457.309    20505456.530    20505455.476   -25326468.028 6 -19734900.724 7
        38.200          46.900
  21802502.446    21802501.810    21802498.873   -17572525.675 6 -13692869.106 6
        37.000          36.800
  23890729.424    23890729.599    23890729.323    -5788493.301 2  -4510510.792 3
        13.900          22.600
  23825516.176    23825514.820    23825515.426    -4959730.299 2  -3864720.059 3
        16.100          20.500
 09  1  4  0  0 30.0000000  0 10G21G26G19G15G 6G 3G18G22G 9G24
  20597486.606    20597485.815    20597484.142   -26082176.155 6 -20323762.619 7
        40.700          42.900
  22821803.117    22821802.747    22821802.076    -7874321.193 3  -6135823.455 4
        22.600          25.600
  24036945.026    24036943.114    24036941.890    -5348069.530 3  -4167325.280 3
        18.600          23.000
  21861469.648    21861469.498    21861468.092   -15729159.480 6 -12256475.567 6
        37.200          38.900
  22256742.987    22256742.352    22256742.098   -13487578.317 5 -10509802.416 5
        33.200          33.000
  22369245.644    22369244.801    22369244.898   -10634551.475 5  -8286660.983 5
        31.300          31.300
  20501715.461    20501714.707    20501712.588   -25346131.074 6 -19750222.567 7
        38.200          46.700
  21788578.808    21788578.170    21788575.344   -17645694.974 6 -13749884.115 6
        37.000          37.200
  23869924.468    23869923.318    23869922.460    -5897833.494 2  -4595710.868 3
        16.100          23.000
  23844846.298    23844845.611    23844845.653    -4858150.403 2  -3785566.948 3
        16.100          21.100
 09  1  4  0  1  0.0000000  0 10G21G26G19G15G 6G 3G18G22G 9G24
  20605389.514    20605388.667    20605386.863   -26040647.146 6 -20291402.352 7
        40.900          42.800
  22841672.529    22841672.192    22841671.213    -7769907.407 3  -6054462.054 4
        22.600          25.600
  24022336.542    24022335.152    24022332.427    -5424842.571 3  -4227148.388 3
        19.300          23.000
  21873303.403    21873303.406    21873302.025   -15666972.070 6 -12208017.838 6
        37.200          38.900
  22258083.806    22258083.173    22258082.995   -13480532.349 5 -10504312.050 5
        33.400          33.000
  22368733.583    22368732.750    22368732.439   -10637243.874 5  -8288758.957 5
        31.600          31.300
  20498048.113    20498047.364    20498046.208   -25365403.450 6 -19765239.989 7
        38.200          46.700
  21774707.051    21774706.585    21774704.028   -17718589.389 6 -13806684.929 6
        37.000          37.200
  23849159.155    23849158.680    23849158.863    -6006950.520 2  -4680737.051 3
        17.000          23.400
  23864203.718    23864203.803    23864204.381    -4756420.957 2  -3706297.302 3
        17.000          21.100
 09  1  4  0  1 30.0000000  0 10G21G26G19G15G 6G 3G18G22G 9G24
  20613385.423    20613384.575    20613382.772   -25998628.306 6 -20258660.396 7
        40.900          42.700
  22861609.785    22861609.422    22861608.441    -7665138.245 3  -5972823.751 4
        23.000          26.200
  24007803.652    24007802.078    24007800.632    -5501211.460 3  -4286656.595 3
        21.100          23.800
  21885225.154    21885224.977    21885223.413   -15604323.998 6 -12159201.159 6
        37.100          38.900
  22259534.246    22259533.723    22259533.390   -13472910.434 5 -10498372.907 5
        33.200          33.100
  22368339.092    22368338.259    22368338.145   -10639315.324 5  -8290373.070 5
        31.300          30.800
  20494454.722    20494454.020    20494451.862   -25384285.704 6 -19779953.426 7
        38.100          46.400
  21760888.159    21760887.697    21760884.940   -17791208.455 6 -13863271.189 6
        37.400          37.300
  23828438.606    23828437.526    23828437.678    -6115840.762 2  -4765586.517 3
        16.100          22.600
  23883590.883    23883590.126    23883591.147    -4654543.563 2  -3626912.355 3
        17.000          21.100
 09  1  4  0  2  0.0000000  0 10G21G26G19G15G 6G 3G18G22G 9G24
  20621474.384    20621473.490    20621471.818   -25956120.607 6 -20225537.511 7
        40.700          42.700
  22881613.726    22881613.215    22881612.542    -7560017.460 3  -5890911.451 4
        23.400          25.900
  23993348.890    23993347.299    23993345.391    -5577174.317 3  -4345848.408 4
        22.100          24.200
  21897233.845    21897233.646    21897232.205   -15541217.761 6 -12110027.464 6
        36.900          38.900
  22261094.070    22261093.545    22261093.291   -13464713.556 5 -10491985.727 5
        33.200          33.000
  22368062.903    22368062.149    22368062.043   -10640766.766 5  -8291504.054 5
        31.300          31.000
  20490936.027    20490935.217    20490934.122   -25402777.704 6 -19794362.770 7
        38.100          46.600
  21747121.919    21747121.369    21747118.482   -17863551.041 6 -13919642.016 6
        37.400          37.200
  23807759.553    23807759.345    23807759.685    -6224501.294 2  -4850256.982 3
        13.900          21.100
  23903006.505    23903005.209    23903005.542    -4552520.284 2  -3547413.740 3
        16.100          21.100
 09  1  4  0  2 30.0000000  0 10G21G26G19G15G 6G 3G18G22G 9G24
  20629656.625    20629655.794    20629654.051   -25913122.384 6 -20192032.406 7
        40.900          42.600
  22901684.196    22901683.639    22901682.993    -7454546.324 3  -5808726.156 4
        23.000          26.200
  23978971.055    23978969.560    23978968.007    -5652726.915 3  -4404720.547 4
        22.100          24.200
  21909329.605    21909329.531    21909328.094   -15477653.787 6 -12060497.095 6
        37.000          38.900
  22262763.522    22262762.942    22262762.707   -13455939.867 5 -10485149.084 5
        33.000          32.800
  22367905.296    22367904.444    22367904.214   -10641596.046 5  -8292150.247 5
        31.500          31.100
  20487491.700    20487490.950    20487488.677   -25420877.356 6 -19808466.394 7
        38.100          46.700
  21733408.470    21733407.987    21733405.195   -17935614.872 6 -13975795.630 6
        37.400          37.500
  23787127.622    23787126.730    23787126.787    -6332926.330 2  -4934743.935 3
        12.600          20.500
  23922447.466    23922446.697    23922447.970    -4450350.307 2  -3467800.826 3
        13.900          21.100
 09  1  4  0  3  0.0000000  0 10G21G26G19G15G 6G 3G18G22G 9G24
  20637931.608    20637930.750    20637929.024   -25869636.773 6 -20158147.515 7
        40.800          42.400
  22921819.820    22921819.646    22921818.851    -7348730.532 3  -5726272.300 4
        22.600          26.200
  23964672.791    23964670.845    23964668.763    -5727869.283 3  -4463273.032 4
        22.600          24.200
  21921511.664    21921511.568    21921509.978   -15413636.749 6 -12010613.686 6
        37.100          38.600
  22264542.333    22264541.734    22264541.496   -13446592.371 5 -10477865.324 5
        33.000          32.800
  22367865.339    22367864.564    22367864.275   -10641806.383 5  -8292314.140 5
        31.100          31.100
  20484121.692    20484120.943    20484119.886   -25438587.084 6 -19822266.187 7
        38.100          46.600
  21719747.973    21719747.451    21719744.643   -18007401.451 6 -14031733.206 6
        37.400          37.700
  23766540.119    23766539.392    23766539.913    -6441114.930 2  -5019046.657 3
        16.100          22.100
  23941917.421    23941916.574    23941917.055    -4348037.628 2  -3388076.709 3
        15.100          19.300
 09  1  4  0  3 30.0000000  0 10G21G26G19G15G 6G 3G18G22G 9G24
  20646298.647    20646297.806    20646296.092   -25825667.436 6 -20123885.694 7
        40.800          42.300
  22942020.175    22942019.667    22942019.360    -7242576.528 3  -5643554.904 4
        21.600          25.900
  23950451.059    23950449.614    23950447.702    -5802602.080 3  -4521506.369 4
        22.100          24.200
  21933778.761    21933778.693    21933777.027   -15349171.926 6 -11960381.353 6
        36.800          38.300
  22266429.736    22266429.180    22266428.736   -13436674.751 5 -10470137.309 5
        33.400          32.800
  22367941.856    22367941.329    22367941.661   -10641400.369 5  -8291997.760 5
        30.600          31.300
  20480825.384    20480824.550    20480822.318   -25455909.689 6 -19835764.331 7
        38.100          46.700
  21706139.820    21706139.251    21706136.510   -18078912.950 6 -14087456.429 6
        37.400          37.800
  23745997.062    23745996.590    23745997.241    -6549066.713 2  -5103164.826 3
        17.800          22.600
  23961413.250    23961412.566    23961412.514    -4245586.807 2  -3308244.922 3
        17.800          18.600
 09  1  4  0  4  0.0000000  0 10G21G26G19G15G 6G 3G18G22G 9G24
  20654758.386    20654757.522    20654755.793   -25781211.502 6 -20089244.710 7
        40.700          42.300
  22962284.953    22962284.639    22962284.202    -7136084.210 3  -5560573.894 4
        21.100          25.600
  23936307.644    23936306.863    23936305.692    -5876919.785 3  -4579416.246 3
        21.600          23.800
  21946131.641    21946131.445    21946129.823   -15284257.944 6 -11909799.021 6
        36.700          38.200
  22268426.124    22268425.465    22268424.974   -13426184.049 5 -10461962.749 5
        33.400          32.700
  22368137.618    22368136.742    22368136.465   -10640374.926 5  -8291198.706 5
        31.000          31.100
  20477603.394    20477602.529    20477601.473   -25472841.504 6 -19848957.954 7
        38.100          46.600
  21692585.073    21692584.476    21692581.575   -18150144.727 6 -14142961.686 6
        37.900          37.900
  23725501.531    23725500.583    23725500.413    -6656774.797 3  -5187093.137 3
        19.900          21.100
  23980935.680    23980934.946    23980935.103    -4142995.606 3  -3228303.776 3
        18.600          18.600
 09  1  4  0  4 30.0000000  0 10G21G26G19G15G 6G 3G18G22G 9G24
  20663309.944    20663309.121    20663307.525   -25736272.103 6 -20054227.000 7
        40.700          42.100
  22982613.012    22982612.804    22982612.238    -7029259.243 3  -5477333.665 4
        22.100          24.900
  23922245.931    23922244.172    23922241.947    -5950822.527 3  -4637002.782 3
        23.000          23.000
  21958568.689    21958568.619    21958567.195   -15218900.097 6 -11858870.828 6
        36.900          38.300
  22270530.827    22270530.168    22270529.937   -13415123.340 5 -10453344.013 5
        33.100          33.000
  22368449.526    22368448.833    22368448.911   -10638733.513 5  -8289919.680 5
        30.600          31.100
  20474455.187    20474454.388    20474452.075   -25489385.155 6 -19861849.115 7
        38.100          46.600
  21679082.770    21679082.252    21679079.379   -18221098.909 6 -14198250.643 6
        38.100          37.900
  23705051.276    23705050.914    23705050.252    -6764238.289 3  -5270830.874 3
        19.900          18.600
  24000484.863    24000483.797    24000484.011    -4040268.331 2  -3148256.607 3
        17.800          19.300
 09  1  4  0  5  0.0000000  0 10G21G26G19G15G 6G 3G18G22G 9G24
  20671953.935    20671953.106    20671951.318   -25690848.329 6 -20018831.851 6
        40.900          41.900
  23003004.443    23003004.098    23003002.909    -6922103.755 3  -5393835.883 4
        21.600          24.600
  23908261.745    23908260.460    23908258.156    -6024306.658 3  -4694263.154 3
        22.100          22.600
  21971090.153    21971090.146    21971088.495   -15153099.091 6 -11807597.305 6
        36.700          38.100
  22272744.086    22272743.488    22272743.499   -13403491.897 5 -10444280.550 5
        32.800          33.100
  22368879.680    22368878.744    22368878.939   -10636474.451 5  -8288159.369 5
        30.600          31.500
  20471381.130    20471380.295    20471379.338   -25505538.882 6 -19874436.427 7
        38.100          46.300
  21665634.127    21665633.597    21665630.594   -18291772.535 6 -14253320.989 6
        38.200          38.100
  23684650.262    23684648.846    23684648.124    -6871451.906 2  -5354373.884 3
        17.800          18.600
  24020058.921    24020057.700    24020058.560    -3937404.973 2  -3068103.375 3
        17.000          21.100
 09  1  4  0  5 30.0000000  0 10G21G26G19G15G 6G 3G18G22G 9G24
  20680690.949    20680690.098    20680688.295   -25644935.501 6 -19983055.619 6
        40.900          41.900
  23023458.706    23023458.423    23023457.371    -6814615.398 3  -5310078.728 3
        21.600          23.800
  23894358.782    23894357.245    23894356.212    -6097364.442 3  -4751191.286 3
        20.500          22.100
  21983696.710    21983696.682    21983695.101   -15086851.443 6 -11755975.761 6
        36.500          38.200
  22275067.088    22275066.389    22275066.162   -13391284.529 5 -10434768.318 5
        33.000          32.800
  22369427.706    22369427.066    22369427.023   -10633593.042 5  -8285914.114 5
        31.000          31.300
  20468382.510    20468381.682    20468379.367   -25521297.250 6 -19886715.669 7
        38.000          46.500
  21652239.735    21652239.254    21652236.365   -18362159.762 6 -14308168.169 6
        38.200          38.400
  23664296.283    23664295.367    23664295.660    -6978406.325 2  -5437714.933 3
        17.000          18.600
  24039659.782    24039658.605    24039659.971    -3834401.302 2  -2987840.824 3
        16.100          21.100
 09  1  4  0  6  0.0000000  0 10G21G26G19G15G 6G 3G18G22G 9G24
  20689519.452    20689518.705    20689516.908   -25598540.747 6 -19946903.863 6
        40.900          41.700
  23043974.639    23043974.157    23043973.179    -6706803.921 3  -5226069.779 3
        22.100          23.400
  23880537.406    23880535.550    23880533.774    -6169999.958 3  -4807790.363 3
        20.500          22.600
  21996386.510    21996386.372    21996384.927   -15020165.892 6 -11704012.993 6
        36.300          38.100
  22277498.461    22277497.823    22277497.586   -13378508.485 5 -10424812.959 5
        33.000          33.000
  22370093.655    22370092.904    22370092.618   -10630096.030 5  -8283189.168 5
        31.500          31.500
  20465457.816    20465456.992    20465455.930   -25536666.494 6 -19898691.693 7
        38.000          46.300
  21638898.897    21638898.408    21638895.610   -18432266.218 6 -14362796.563 6
        38.100          38.400
  23643992.544    23643991.922    23643991.264    -7085104.758 2  -5520856.523 3
        17.800          19.900
  24059285.015    24059283.948    24059285.527    -3731265.337 2  -2907475.168 3
        15.100          21.600
 09  1  4  0  6 30.0000000  0 10G21G26G19G15G 6G 3G18G22G 9G24
  20698440.750    20698439.903    20698438.115   -25551659.495 6 -19910373.016 6
        40.900          41.600
  23064552.556    23064552.279    23064550.913    -6598667.389 3  -5141807.536 3
        22.600          23.400
  23866797.020    23866795.513    23866793.607    -6242205.636 3  -4864054.519 3
        22.100          23.000
  22009160.248    22009160.183    22009158.661   -14953039.772 6 -11651706.922 6
        36.200          38.000
  22280038.814    22280038.099    22280037.879   -13365159.147 5 -10414410.877 5
        33.000          32.800
  22370876.837    22370876.038    22370876.048   -10625978.764 5  -8279980.904 5
        30.600          31.100
  20462608.091    20462607.302    20462604.884   -25551641.513 6 -19910360.523 7
        38.000          46.400
  21625612.680    21625612.223    21625609.405   -18502085.537 6 -14417201.208 6
        38.100          38.500
  23623738.740    23623738.321    23623737.876    -7191538.410 2  -5603791.790 3
        17.000          21.600
  24078937.771    24078936.730    24078937.709    -3627993.199 2  -2827003.420 3
        12.600          21.100
 09  1  4  0  7  0.0000000  0 10G21G26G19G15G 6G 3G18G22G 9G24
  20707455.330    20707454.412    20707452.643   -25504288.313 6 -19873460.407 6
        40.900          41.600
  23085191.924    23085191.694    23085190.522    -6490205.189 3  -5057291.534 3
        22.100          23.800
  23853139.795    23853138.352    23853136.297    -6313975.296 3  -4919978.928 3
        22.600          23.800
  22022018.267    22022018.084    22022016.476   -14885471.268 6 -11599056.134 6
        36.100          37.900
  22282688.433    22282687.869    22282687.933   -13351233.070 5 -10403559.386 5
        32.700          32.800
  22371779.237    22371778.485    22371778.362   -10621237.053 5  -8276286.064 5
        30.800          31.000
  20459834.317    20459833.484    20459832.419   -25566217.922 6 -19921718.751 7
        37.800          46.400
  21612382.050    21612381.480    21612378.843   -18571613.006 6 -14471378.428 6
        37.900          38.500
  23603536.426    23603536.172    23603536.329    -7297700.002 2  -5686515.032 3
        13.900          23.000
  24098615.532    24098614.817    24098616.009    -3524582.357 2  -2746423.599 3
        12.600          21.600
 09  1  4  0  7 30.0000000  0 10G21G26G19G15G 6G 3G18G22G 9G24
  20716560.761    20716559.825    20716558.010   -25456438.662 6 -19836174.963 6
        40.900          41.400
  23105890.606    23105890.729    23105889.628    -6381431.101 3  -4972532.507 3
        21.600          23.800
  23839564.401    23839562.658    23839560.665    -6385317.389 3  -4975570.143 4
        23.000          24.600
  22034957.619    22034957.530    22034956.079   -14817473.286 6 -11546070.689 6
        36.000          37.900
  22285446.121    22285445.557    22285445.555   -13336741.571 5 -10392267.307 5
        32.700          33.000
  22372798.188    22372797.336    22372797.517   -10615882.220 5  -8272113.466 5
        30.800          31.300
  20457134.403    20457133.595    20457131.279   -25580406.102 6 -19932774.461 7
        37.900          46.500
  21599205.188    21599204.623    21599201.732   -18640858.341 6 -14525335.808 6
        38.200          38.600
  23583384.971    23583384.936    23583384.737    -7403596.171 2  -5769031.428 3
        16.100          23.400
  24118317.998    24118317.492    24118318.369    -3421044.828 2  -2665745.058 3
        12.600          22.100
 09  1  4  0  8  0.0000000  0 10G21G26G19G15G 6G 3G18G22G 9G24
  20725757.016    20725756.202    20725754.500   -25408111.253 6 -19798517.244 6
        40.900          41.400
  23126648.358    23126648.131    23126647.342    -6272348.587 3  -4887533.157 3
        21.100          23.800
  23826069.805    23826068.126    23826066.414    -6456230.023 3  -5030826.733 4
        23.400          24.600
  22047978.359    22047978.424    22047976.919   -14749048.236 5 -11492752.470 6
        35.800          37.700
  22288311.336    22288310.661    22288310.553   -13321685.540 5 -10380535.338 5
        32.800          32.800
  22373933.471    22373932.762    22373933.114   -10609915.077 5  -8267463.743 5
        30.400          31.300
  20454508.185    20454507.485    20454506.278   -25594206.500 6 -19943528.008 7
        37.900          46.200
  21586081.956    21586081.509    21586078.511   -18709820.778 6 -14579072.754 6
        38.400          38.600
  23563285.251    23563284.602    23563284.099    -7509223.789 3  -5851338.614 3
        18.600          22.600
  24138045.199    24138044.052    24138045.150    -3317382.060 1  -2584968.943 3
        11.000          21.100
 09  1  4  0  8 30.0000000  0 10G21G26G19G15G 6G 3G18G22G 9G24
  20735044.233    20735043.427    20735041.696   -25359306.569 6 -19760487.622 6
        40.900          41.200
  23147464.832    23147464.309    23147462.779    -6162960.322 3  -4802295.554 3
        21.100          23.400
  23812656.702    23812655.503    23812654.190    -6526710.346 3  -5085746.455 4
        21.600          24.900
  22061080.243    22061080.075    22061078.648   -14680198.080 5 -11439102.991 6
        35.700          37.700
  22291284.044    22291283.490    22291283.089   -13306065.062 5 -10368363.540 5
        33.100          33.000
  22375185.577    22375184.907    22375184.900   -10603335.325 5  -8262336.661 5
        30.600          31.000
  20451956.079    20451955.297    20451952.775   -25607618.362 6 -19953978.809 7
        37.900          46.400
  21573012.875    21573012.374    21573009.484   -18778499.001 6 -14632588.228 6
        38.300          38.700
  23543236.518    23543235.841    23543235.744    -7614578.469 3  -5933433.120 3
        19.300          23.000
  24157794.620    24157793.854    24157795.111    -3213595.236 2  -2504096.125 3
        12.600          20.500
 09  1  4  0  9  0.0000000  0 10G21G26G19G15G 6G 3G18G22G 9G24
  20744423.328    20744422.435    20744420.554   -25310020.193 6 -19722082.650 6
        41.000          41.100
  23168339.391    23168338.659    23168337.051    -6053264.963 3  -4716818.630 3
        21.100          23.000
  23799328.949    23799327.748    23799326.112    -6596751.299 3  -5140323.817 4
        22.100          25.600
  22074263.274    22074263.162    22074261.806   -14610920.391 5 -11385120.376 6
        35.600          37.700
  22294364.551    22294363.943    22294363.757   -13289876.298 5 -10355748.922 5
        32.700          33.100
  22376555.056    22376554.304    22376554.303   -10596139.267 5  -8256729.333 5
        31.000          31.000
  20449478.721    20449477.889    20449476.833   -25620637.066 6 -19964123.251 7
        37.900          46.200
  21559999.086    21559998.562    21559995.503   -18846887.470 6 -14685877.923 6
        38.500          38.700
  23523241.719    23523241.009    23523240.654    -7719652.089 3  -6015308.614 3
        19.300          23.000
  24177569.606    24177568.455    24177569.312    -3109681.143 2  -2423124.144 3
        13.900          19.900
 09  1  4  0  9 30.0000000  0 10G21G26G19G15G 6G 3G18G22G 9G24
  20753894.235    20753893.380    20753891.659   -25260249.331 6 -19683300.161 6
        41.000          41.100
  23189271.854    23189271.248    23189270.162    -5943261.684 3  -4631101.778 3
        20.500          23.000
  23786085.496    23786083.694    23786082.696    -6666346.666 3  -5194553.970 4
        22.100          24.900
  22087528.241    22087528.066    22087526.654   -14541213.543 5 -11330803.351 6
        35.600          37.700
  22297553.706    22297553.185    22297553.100   -13273115.816 5 -10342688.811 5
        32.400          32.800
  22378042.454    22378041.650    22378041.601   -10588323.433 5  -8250639.076 5
        31.500          31.000
  20447076.930    20447076.081    20447073.649   -25633258.271 6 -19973957.954 7
        37.800          46.100
  21547041.069    21547040.591    21547037.632   -18914981.365 6 -14738938.084 6
        38.800          38.600
  23503301.632    23503301.467    23503300.955    -7824436.940 3  -6096959.085 3
        19.900          23.400
  24197369.721    24197368.245    24197368.112    -3005637.200 2  -2342051.047 3
        13.900          19.300
 09  1  4  0 10  0.0000000  0 10G21G26G19G15G 6G 3G18G22G 9G24
  20763456.383    20763455.574    20763453.825   -25209999.529 6 -19644144.470 6
        40.800          40.800
  23210261.553    23210261.110    23210260.215    -5832958.854 3  -4545151.532 3
        19.900          23.400
  23772925.943    23772924.585    23772922.574    -6735499.438 3  -5248439.227 4
        21.600          24.600
  22100873.293    22100873.125    22100871.541   -14471084.796 5 -11276157.569 6
        35.600          37.300
  22300850.962    22300850.316    22300850.165   -13255789.591 5 -10329187.851 5
        32.400          32.800
  22379646.768    22379645.937    22379645.795   -10579893.107 5  -8244069.984 5
        31.500          30.800
  20444749.916    20444749.057    20444747.968   -25645486.906 6 -19983486.752 7
        37.800          46.200
  21534138.592    21534138.075    21534135.128   -18982784.744 6 -14791771.868 6
        38.800          38.900
  23483417.064    23483416.315    23483415.907    -7928934.460 3  -6178385.664 3
        19.300          23.800
  24217190.868    24217189.816    24217190.465    -2901469.738 2  -2260881.682 3
        16.100          18.600
 09  1  4  0 10 30.0000000  0 10G21G26G19G15G 6G 3G18G22G 9G24
  20773109.704    20773108.913    20773107.112   -25159271.027 6 -19604615.763 6
        40.900          40.700
  23231307.795    23231307.732    23231306.989    -5722359.145 3  -4458969.938 3
        19.900          23.000
  23759852.100    23759850.114    23759847.911    -6804206.853 3  -5301977.439 4
        22.100          24.900
  22114297.959    22114297.876    22114296.444   -14400535.939 5 -11221184.427 6
        35.300          37.200
  22304255.533    22304255.037    22304254.739   -13237897.891 5 -10315246.261 5
        32.400          32.700
  22381367.902    22381366.989    22381366.902   -10570848.150 5  -8237021.957 5
        31.100          30.400
  20442497.614    20442496.807    20442494.345   -25657322.445 6 -19992709.238 7
        37.800          46.200
  21521291.826    21521291.188    21521288.050   -19050296.349 6 -14844378.299 6
        38.900          38.900
  23463586.939    23463586.269    23463586.299    -8033140.669 3  -6259585.256 4
        20.500          24.200
  24237036.087    24237035.058    24237036.154    -2797179.867 2  -2179616.906 2
        15.100          17.000
 09  1  4  0 11  0.0000000  0 10G21G26G19G15G 6G 3G18G22G 9G24
  20782853.775    20782852.929    20782851.290   -25108065.586 6 -19564715.416 6
        40.700          40.700
  23252410.158    23252410.473    23252409.277    -5611466.970 3  -4372560.439 3
        20.500          23.800
  23746862.033    23746860.245    23746858.195    -6872467.940 3  -5355167.876 4
        21.600          24.600
  22127802.523    22127802.445    22127800.969   -14329570.462 5 -11165886.652 6
        35.600          37.300
  22307767.732    22307767.018    22307766.713   -13219442.664 5 -10300865.562 5
        32.300          32.800
  22383205.528    22383204.841    22383204.682   -10561190.990 5  -8229496.894 5
        31.600          30.200
  20440320.018    20440319.204    20440318.057   -25668765.895 6 -20001626.203 7
        37.800          46.100
  21508499.923    21508499.426    21508496.588   -19117516.635 6 -14896757.717 6
        38.700          39.300
  23443813.268    23443812.392    23443812.060    -8137052.966 3  -6340555.842 3
        21.100          23.000
  24256904.947    24256904.056    24256904.409    -2692770.194 2  -2098258.767 2
        15.100          16.100
 09  1  4  0 11 30.0000000  0 10G21G26G19G15G 6G 3G18G22G 9G24
  20792690.373    20792689.428    20792687.642   -25056375.012 6 -19524437.046 6
        40.700          40.700
  23273569.736    23273569.329    23273567.992    -5500275.974 3  -4285918.115 3
        19.900          23.000
  23733959.200    23733957.928    23733956.501    -6940270.773 3  -5408001.241 4
        22.100          25.600
  22141387.358    22141387.363    22141385.882   -14258181.161 5 -11110258.627 6
        35.500          37.200
  22311388.274    22311387.704    22311387.673   -13200415.056 5 -10286038.860 5
        32.300          33.000
  22385161.488    22385160.752    22385160.337   -10550912.492 5  -8221487.669 5
        31.600          30.200
  20438218.875    20438218.017    20438215.483   -25679807.698 6 -20010230.205 7
        37.800          46.100
  21495765.620    21495765.163    21495762.472   -19184434.921 6 -14948901.815 6
        38.700          39.300
  23424096.977    23424096.451    23424096.265    -8240658.615 3  -6421287.483 3
        19.900          21.600
  24276797.622    24276796.598    24276797.690    -2588232.428 2  -2016800.808 2
        13.900          15.100
 09  1  4  0 12  0.0000000  0 10G21G26G19G15G 6G 3G18G22G 9G24
  20802617.138    20802616.292    20802614.575   -25004208.704 6 -19483787.977 6
        40.600          40.500
  23294783.408    23294782.744    23294781.393    -5388798.280 3  -4199052.388 3
        19.900          22.100
  23721142.963    23721141.456    23721139.588    -7007622.216 3  -5460482.881 4
        23.400          25.300
  22155050.931    22155050.882    22155049.222   -14186379.412 5 -11054309.206 6
        35.600          37.000
  22315116.277    22315115.560    22315115.396   -13180825.101 5 -10270773.950 5
        32.300          32.800
  22387234.065    22387233.244    22387232.854   -10540022.183 5  -8213001.714 5
        31.600          30.400
  20436192.371    20436191.569    20436190.407   -25690457.016 6 -20018528.368 7
        37.800          46.100
  21483087.631    21483087.072    21483084.215   -19251059.154 6 -15000816.785 6
        38.900          39.300
  23404439.019    23404438.055    23404438.108    -8343963.102 3  -6501784.455 3
        19.300          21.600
  24296712.626    24296711.720    24296712.528    -2483576.888 2  -1935251.087 2
        12.600          13.900
 09  1  4  0 12 30.0000000  0 10G22G21G26G19G15G 6G 3G18G 9G24
  21470462.921    21470462.405    21470459.516   -19317402.174 6 -15052512.629 6
        39.100          39.500
  20812631.768    20812630.980    20812629.225   -24951580.935 6 -19442779.321 6
        40.600          40.300
  23316047.669    23316047.376    23316046.192    -5277050.835 3  -4111976.458 3
        18.600          22.100
  23708410.610    23708408.495    23708406.955    -7074533.718 3  -5512621.709 4
        23.400          25.600
  22168789.555    22168789.629    22168788.092   -14114181.234 5 -10998050.885 6
        35.300          36.800
  22318948.243    22318947.647    22318947.618   -13160687.001 5 -10255081.923 5
        32.100          32.700
  22389419.778    22389419.086    22389419.030   -10528533.932 5  -8204049.826 5
        31.300          30.400
  20434238.072    20434237.280    20434234.589   -25700726.876 6 -20026530.853 7
        37.800          46.100
  23384835.959    23384835.779    23384835.176    -8446975.981 3  -6582054.207 3
        19.300          22.100
  24316647.247    24316646.399    24316647.789    -2378818.454 1  -1853621.204 2
        11.000          13.900
 09  1  4  0 13  0.0000000  0 11G22G21G26G19G15G 6G 3G14G18G 9G24
  21457895.341    21457894.920    21457891.923   -19383445.263 6 -15103974.758 6
        39.300          39.500
  20822737.650    20822736.763    20822735.107   -24898474.512 6 -19401397.692 6
        40.300          40.300
  23337366.529    23337366.168    23337365.473    -5165018.602 3  -4024678.623 3
        19.300          22.100
  23695765.203    23695763.472    23695761.393    -7140985.296 4  -5564402.152 4
        24.200          25.600
  22182606.912    22182606.790    22182605.284   -14041570.908 5 -10941471.407 6
        34.900          36.700
  22322888.279    22322887.606    22322887.176   -13139983.796 5 -10238949.561 5
        32.400          32.700
  22391723.237    22391722.477    22391722.318   -10516430.729 5  -8194618.754 5
        31.100          30.800
  25209368.418    25209367.907    25209368.650           -.37611         -.90712
         9.000          16.100
  20432359.400    20432358.647    20432357.512   -25710598.923 6 -20034223.344 7
        37.700          46.100
  23365292.990    23365292.236    23365292.817    -8549675.584 3  -6662079.827 3
        19.300          23.800
  24336605.449    24336604.087    24336605.397    -2273941.136 1  -1771898.699 2
        11.000          13.900
 09  1  4  0 13 30.0000000  0 11G22G21G26G19G15G 6G 3G14G18G 9G24
  21445384.333    21445383.882    21445380.955   -19449190.462 6 -15155204.763 6
        39.300          39.600
  20832933.758    20832932.924    20832931.294   -24844893.299 6 -19359646.089 6
        40.500          40.300
  23358738.380    23358737.957    23358737.199    -5052707.887 3  -3937163.752 3
        18.600          21.600
  23683207.698    23683205.505    23683203.160    -7206977.383 4  -5615824.537 4
        24.200          25.300
  22196501.680    22196501.651    22196500.031   -13968553.465 5 -10884574.698 6
        35.100          36.500
  22326934.634    22326934.069    22326933.716   -13118719.333 5 -10222379.847 5
        32.600          32.400
  22394142.791    22394141.922    22394141.693   -10503716.191 5  -8184711.313 5
        31.100          30.600
  25187330.113    25187330.827    25187332.897     -115795.988 1    -90231.152 2
         6.500          13.900
  20430555.933    20430555.085    20430552.390   -25720076.809 6 -20041608.700 7
        37.800          46.200
  23345810.264    23345809.363    23345809.434    -8652061.771 3  -6741861.224 4
        21.600          24.600
  24356585.892    24356584.758    24356583.715    -2168949.133 1  -1690086.808 2
        11.000          12.600
 09  1  4  0 14  0.0000000  0 11G22G21G26G19G15G 6G 3G14G18G 9G24
  21432929.311    21432928.732    21432925.600   -19514643.407 6 -15206207.036 6
        39.600          39.600
  20843218.826    20843218.041    20843216.390   -24790844.693 6 -19317530.287 6
        40.400          40.200
  23380161.528    23380161.203    23380160.369    -4940128.084 2  -3849439.226 3
        17.000          21.600
  23670735.809    23670734.213    23670731.922    -7272514.563 3  -5666892.460 4
        23.400          24.900
  22210472.185    22210472.084    22210470.528   -13895137.896 5 -10827367.758 6
        34.900          36.400
  22331086.443    22331085.873    22331085.744   -13096900.915 5 -10205378.484 5
        32.400          32.600
  22396677.360    22396676.463    22396676.239   -10490397.533 5  -8174333.134 5
        31.000          30.800
  25165301.834    25165300.735    25165305.632     -231551.840 1   -180430.428 2
         6.500          12.600
  20428826.191    20428825.325    20428823.954   -25729166.569 6 -20048691.620 7
        37.800          46.100
  23326385.357    23326384.877    23326384.511    -8754136.936 3  -6821400.275 3
        20.500          23.800
  24376585.324    24376584.577    24376584.231    -2063849.881 2  -1608191.318 2
        12.600          12.600
 09  1  4  0 14 30.0000000  0 11G22G21G26G19G15G 6G 3G14G18G 9G24
  21420531.190    21420530.697    21420527.736   -19579795.105 6 -15256974.581 6
        39.600          39.800
  20853594.340    20853593.429    20853591.819   -24736321.591 6 -19275044.757 6
        40.300          40.000
  23401637.270    23401636.958    23401635.735    -4827274.734 2  -3761501.558 3
        17.800          22.100
  23658352.621    23658350.803    23658349.520    -7337586.699 3  -5717598.013 4
        23.400          25.600
  22224519.657    22224519.400    22224517.703   -13821319.072 5 -10769846.590 6
        35.100          36.400
  22335344.962    22335344.577    22335344.365   -13074521.423 5 -10187939.926 5
        32.300          32.700
  22399327.870    22399326.985    22399327.021   -10476468.090 5  -8163479.014 5
        31.000          31.100
  25143286.072    25143284.623    25143286.406     -347257.987     -270591.010 1
         3.000          11.000
  20427171.725    20427170.875    20427168.197   -25737860.523 6 -20055466.131 7
        37.700          46.100
  23307022.635    23307021.831    23307021.798    -8855889.455 3  -6900687.919 3
        20.500          23.400
  24396606.393    24396605.891    24396605.676    -1958637.381 1  -1526207.589 2
         9.000          13.900
 09  1  4  0 15  0.0000000  0 11G22G21G26G19G15G 6G 3G14G18G 9G24
  21408189.261    21408188.765    21408185.768   -19644651.989 6 -15307512.388 6
        39.500          39.800
  20864058.469    20864057.617    20864055.715   -24681332.475 6 -19232196.093 6
        40.400          39.700
  23423162.984    23423162.287    23423161.127    -4714158.258 2  -3673358.867 3
        17.000          21.600
  23646057.375    23646055.776    23646054.201    -7402199.177 4  -5767945.384 4
        24.200          26.500
  22238642.054    22238641.849    22238640.228   -13747105.907 5 -10712018.144 6
        35.100          36.500
  22339709.069    22339708.430    22339708.112   -13051589.527 5 -10170070.920 5
        32.400          32.600
  22402093.006    22402092.359    22402092.466   -10461935.546 5  -8152154.947 5
        31.000          31.100
  25121275.626    25121273.956    25121275.921     -462920.058 1   -360717.261 1
         6.500           9.000
  20425591.286    20425590.463    20425589.237   -25746165.733 6 -20061937.720 7
        37.700          46.100
  23287720.320    23287719.468    23287719.495    -8957323.543 3  -6979727.446 4
        21.100          24.600
  24416647.346    24416646.794    24416646.273    -1853320.251 1  -1444142.360 2
         9.000          13.900
 09  1  4  0 15 30.0000000  0 11G22G21G26G19G15G 6G 3G14G18G 9G24
  21395905.044    21395904.490    21395901.517   -19709206.438 6 -15357814.542 6
        39.700          39.900
  20874612.353    20874611.589    20874609.735   -24625871.087 6 -19188979.426 6
        40.400          39.600
  23444738.552    23444738.273    23444737.018    -4600774.956 3  -3585008.229 3
        18.600          21.100
  23633851.628    23633850.062    23633847.704    -7466343.154 4  -5817927.693 4
        24.900          26.200
  22252840.150    22252840.007    22252838.201   -13672494.420 5 -10653879.320 6
        34.900          36.200
  22344178.894    22344178.291    22344178.103   -13028099.425 5 -10151766.944 5
        32.300          32.400
  22404974.929    22404974.055    22404973.697   -10446793.994 5  -8140356.327 5
        31.300          31.000
  25099277.141    25099275.660    25099275.244     -578529.152 1   -450802.173 1
         9.000          11.000
  20424086.063    20424085.316    20424082.549   -25754074.996 6 -20068100.783 7
        37.800          45.900
  23268480.408    23268480.006    23268479.832    -9058428.455 3  -7058510.451 4
        21.100          25.600
  24436708.899    24436707.955    24436708.739    -1747893.138 1  -1361991.437 2
         6.500          15.100
 09  1  4  0 16  0.0000000  0 11G22G21G26G19G15G 6G 3G14G18G 9G24
  21383679.533    21383678.973    21383675.852   -19773452.410 6 -15407876.319 6
        39.800          39.800
  20885256.829    20885255.979    20885254.289   -24569933.760 6 -19145391.900 6
        40.300          39.400
  23466365.519    23466365.226    23466364.323    -4487122.980 2  -3496448.242 3
        17.800          22.100
  23621735.418    23621734.317    23621732.182    -7530011.085 4  -5867539.053 4
        24.900          26.200
  22267114.595    22267114.395    22267112.650   -13597481.708 5 -10595427.849 6
        34.800          36.300
  22348756.264    22348755.640    22348755.151   -13004046.582 5 -10133024.476 5
        32.600          32.600
  22407972.793    22407971.942    22407971.620   -10431039.158 5  -8128079.827 5
        31.000          30.800
  25077289.469    25077288.015    25077287.623     -694078.089 1   -540840.262 1
         9.000           9.000
  20422657.398    20422656.566    20422655.408   -25761583.548 6 -20073951.594 7
        37.800          46.100
  23249305.764    23249305.105    23249304.432    -9159195.462 3  -7137030.142 4
        21.600          25.900
  24456792.489    24456792.162    24456792.460    -1642352.537    -1279752.097 2
         3.000          16.100
 09  1  4  0 16 30.0000000  0 11G22G21G26G19G15G 6G 3G14G18G 9G24
  21371511.466    21371510.967    21371507.952   -19837394.938 6 -15457701.650 6
        39.700          39.900
  20895990.739    20895989.968    20895988.181   -24513526.679 6 -19101438.331 6
        40.300          39.300
  23488042.140    23488041.961    23488041.083    -4373211.232 3  -3407685.824 3
        18.600          22.600
  23609709.751    23609708.102    23609706.117    -7593206.842 4  -5916782.486 4
        24.600          25.900
  22281463.665    22281463.624    22281462.011   -13522075.830 5 -10536670.024 6
        34.600          36.400
  22353438.680    22353438.385    22353438.053   -12979438.236 5 -10113849.148 5
        32.600          32.700
  22411086.041    22411085.329    22411085.224   -10414677.429 5  -8115330.425 5
        30.600          30.800
  25055311.080    25055311.852    25055311.897     -809570.732 1   -630834.499 1
         6.500           9.000
  20421303.731    20421302.863    20421300.320   -25768697.046 6 -20079494.574 7
        37.800          46.300
  23230193.133    23230192.869    23230192.745    -9259626.885 3  -7215288.356 4
        21.600          25.300
  24476897.170    24476896.921    24476897.239    -1536705.573    -1197429.853 2
                        16.100
 09  1  4  0 17  0.0000000  0 11G22G21G26G19G15G 6G 3G14G18G 9G24
  21359398.955    21359398.400    21359395.525   -19901046.865 6 -15507300.538 6
        39.800          40.300
  20906811.244    20906810.453    20906808.678   -24456664.307 6 -19057129.990 6
        40.300          39.100
  23509765.686    23509765.136    23509764.249    -4259056.355 2  -3318733.991 3
        17.000          23.000
  23597771.359    23597769.865    23597767.865    -7655941.810 3  -5965666.860 4
        23.800          26.200
  22295884.483    22295884.443    22295882.771   -13446293.013 5 -10477618.476 5
        34.300          35.800
  22358224.609    22358224.157    22358224.062   -12954288.790 5 -10094252.184 5
        32.300          33.100
  22414312.288    22414311.493    22414311.505   -10397723.761 5  -8102119.781 5
        30.600          31.000
  25033342.108    25033342.571    25033341.981     -925018.841     -720794.017 1
                        11.000
  20420022.677    20420021.846    20420020.593   -25775429.222 6 -20084740.419 7
        37.800          46.100
  23211144.068    23211143.714    23211143.374    -9359732.837 3  -7293292.968 4
        21.600          24.900
  24497017.327    24497016.749    24497017.855    -1430967.148    -1115036.325 2
                        15.100
 09  1  4  0 17 30.0000000  0 11G22G21G26G19G15G 6G 3G14G18G 9G24
  21347346.042    21347345.459    21347342.453   -19964385.713 6 -15556655.468 6
        40.000          40.300
  20917722.415    20917721.601    20917719.779   -24399326.275 6 -19012451.004 6
        40.300          38.900
  23531538.640    23531538.189    23531536.572    -4144639.983 2  -3229578.390 3
        17.800          22.100
  23585925.962    23585924.172    23585921.815    -7718192.913 3  -6014174.202 4
        23.800          26.200
  22310380.545    22310380.678    22310379.086   -13370113.993 5 -10418258.197 5
        34.100          35.700
  22363117.245    22363116.672    22363116.591   -12928577.863 5 -10074217.702 5
        31.800          33.000
  22417655.217    22417654.489    22417654.327   -10380157.481 5  -8088431.762 5
        31.300          31.100
  25011385.835    25011386.001    25011385.981    -1040398.850     -810700.460 1
         3.000          11.000
  20418818.186    20418817.356    20418814.793   -25781758.282 6 -20089672.153 7
        37.900          46.200
  23192161.747    23192160.830    23192160.800    -9459488.293 3  -7371024.466 4
        21.600          25.300
  24517157.753    24517157.129    24517162.726    -1325117.407    -1032556.096 2
                        13.900
 09  1  4  0 18  0.0000000  0 11G22G21G26G19G15G 6G 3G14G18G 9G24
  21335352.127    21335351.606    21335348.597   -20027413.626 6 -15605768.115 6
        40.000          40.300
  20928723.235    20928722.418    20928720.677   -24341516.510 6 -18967404.438 6
        40.400          38.900
  23553360.494    23553359.948    23553357.867    -4029968.340 2  -3140223.865 3
        17.800          21.600
  23574171.815    23574170.019    23574168.266    -7779960.875 4  -6062305.077 4
        24.600          26.500
  22324951.671    22324951.712    22324949.999   -13293544.289 5 -10358593.492 5
        34.500          35.900
  22368116.127    22368115.453    22368115.404   -12902309.543 5 -10053748.886 5
        32.000          33.000
  22421113.691    22421112.813    22421112.906   -10361982.565 5  -8074269.485 5
        30.800          31.000
  24989442.871    24989442.166    24989441.146    -1155711.689     -900554.549 1
         3.000           9.000
  20417689.972    20417689.186    20417687.817   -25787686.965 6 -20094291.907 7
        37.900          46.000
  23173245.610    23173244.647    23173244.478    -9558892.464 3  -7448482.228 4
        22.600          25.600
  24537323.729    24537323.188    24537323.880    -1219160.758     -949993.564 2
                        13.900
 09  1  4  0 18 30.0000000  0 11G22G21G26G19G15G 6G 3G14G18G 9G24
  21323415.644    21323415.134    21323412.357   -20090139.858 6 -15654645.681 6
        39.900          40.700
  20939811.776    20939810.896    20939809.095   -24283246.106 6 -18921998.927 6
        40.300          38.600
  23575227.157    23575227.133    23575225.547    -3915054.677 2  -3050680.760 3
        17.000          21.100
  23562508.153    23562506.645    23562504.899    -7841253.445 4  -6110065.507 4
        24.900          27.100
  22339594.600    22339594.375    22339592.770   -13216596.328 5 -10298634.041 5
        34.400          35.800
  22373218.693    22373218.076    22373217.914   -12875495.150 5 -10032854.559 5
        32.000          32.800
  22424685.602    22424684.975    22424684.941   -10343210.048 5  -8059641.553 5
        30.400          30.800
  24967510.690    24967509.355    24967508.825    -1270965.491     -990362.623 1
                         9.000
  20416636.168    20416635.307    20416632.692   -25793225.802 6 -20098607.884 7
        38.000          46.400
  23154394.573    23154394.006    23154394.035    -9657951.669 3  -7525671.177 4
        22.600          26.200
  24557505.061    24557503.558    24557505.042    -1113108.699     -867355.674 2
                        16.100
 09  1  4  0 19  0.0000000  0 11G22G21G26G19G15G 6G 3G14G18G 9G24
  21311535.675    21311535.248    21311532.307   -20152569.072 6 -15703291.803 6
        40.000          40.600
  20950986.669    20950985.837    20950983.983   -24224521.254 6 -18876239.307 6
        40.200          38.400
  23597138.690    23597137.819    23597137.144    -3799907.136 2  -2960955.405 3
        16.100          21.100
  23550935.158    23550933.114    23550931.214    -7902073.693 4  -6157457.897 4
        24.600          27.400
  22354307.742    22354307.697    22354306.104   -13139277.526 5 -10238385.622 5
        34.100          35.800
  22378424.283    22378423.522    22378423.421   -12848140.839 5 -10011539.525 5
        32.000          32.800
  22428370.687    22428369.867    22428369.823   -10323845.666 5  -8044552.418 5
        30.400          30.600
  24945589.942    24945589.171    24945585.642    -1386163.599    -1080127.340 1
         3.000          11.000
  20415655.304    20415654.491    20415653.364   -25798379.912 6 -20102624.060 7
        38.100          46.400
  23135609.853    23135609.181    23135609.425    -9756667.700 3  -7602592.706 4
        21.600          26.500
  24577703.121    24577702.044    24577703.968    -1006967.913 1   -784648.612 2
         6.500          17.000
 09  1  4  0 19 30.0000000  0 11G22G21G26G19G15G 6G 3G14G18G 9G24
  21299715.454    21299714.837    21299711.737   -20214686.043 6 -15751694.627 6
        40.100          40.500
  20962250.670    20962249.806    20962248.135   -24165328.742 6 -18830115.277 6
        40.200          38.600
  23619096.625    23619096.576    23619095.563    -3684514.793 2  -2871039.293 3
        16.100          22.100
  23539453.283    23539451.550    23539450.195    -7962406.158 3  -6204470.181 4
        23.400          27.100
  22369094.072    22369093.819    22369092.273   -13061576.217 5 -10177839.147 6
        34.000          36.100
  22383734.656    22383734.023    22383733.821   -12820233.806 5  -9989793.790 5
        32.300          32.800
  22432171.039    22432170.302    22432169.859   -10303876.604 5  -8028992.111 5
        31.000          30.600
  24923681.213    24923680.093    24923679.828    -1501289.848    -1169836.046 2
                        12.600
  20414750.332    20414749.564    20414746.952   -25803134.925 6 -20106329.260 7
        38.000          46.100
  23116893.867    23116893.288    23116892.883    -9855022.795 3  -7679232.984 4
        23.400          26.200
  24597921.397    24597920.370    24597920.785     -900725.702 1   -701862.529 2
         9.000          16.100
 09  1  4  0 20  0.0000000  0 11G22G21G26G19G15G 6G 3G14G18G 9G24
  21287953.590    21287953.103    21287950.155   -20276493.802 6 -15799856.501 6
        40.000          40.700
  20973602.787    20973601.922    20973600.120   -24105673.511 6 -18783630.691 6
        40.100          38.400
  23641101.160    23641100.503    23641098.957    -3568884.488 2  -2780937.768 3
        16.100          21.600
  23528064.600    23528063.186    23528062.085    -8022252.519 3  -6251103.689 4
        23.800          27.100
  22383951.706    22383951.390    22383949.875   -12983498.801 5 -10116999.605 6
        33.600          36.000
  22389149.288    22389148.696    22389148.646   -12791778.876 5  -9967621.120 5
        32.000          32.700
  22436085.003    22436084.213    22436083.999   -10283308.000 5  -8012964.631 5
        31.000          30.400
  24901785.928    24901785.237    24901784.590    -1616346.192    -1259490.257 2
                        12.600
  20413920.782    20413919.986    20413918.646   -25807494.848 6 -20109726.585 7
        38.100          46.400
  23098245.787    23098245.279    23098244.978    -9953017.476 3  -7755592.461 4
        23.400          25.900
  24618155.727    24618155.492    24618156.313     -794387.471 1   -619001.639 2
         9.000          15.100
 09  1  4  0 20 30.0000000  0 11G21G26G19G15G 6G 3G14G18G22G 9G24
  20985042.737    20985041.883    20985040.037   -24045555.791 6 -18736785.713 6
        40.100          38.000
  23663149.498    23663149.189    23663147.792    -3453018.468 2  -2690652.572 3
        16.100          21.100
  23516769.809    23516768.232    23516766.375    -8081609.502 4  -6297355.861 4
        24.600          26.500
  22398880.521    22398880.331    22398878.851   -12905046.448 5 -10055867.902 5
        33.500          35.500
  22394668.073    22394667.436    22394667.654   -12762776.295 5  -9945021.706 5
        31.500          32.600
  22440113.302    22440112.385    22440112.240   -10262139.764 5  -7996469.903 5
        30.600          30.400
  24879907.284    24879905.762    24879906.162    -1731329.580    -1349087.668 2
         3.000          15.100
  20413166.462    20413165.671    20413162.966   -25811458.593 6 -20112815.209 7
        38.100          46.500
  21276251.187    21276250.704    21276247.772   -20337990.464 6 -15847775.970 6
        40.000          40.900
  23079667.532    23079666.952    23079666.450   -10050647.244 3  -7831667.579 4
        23.400          25.900
  24638409.480    24638408.484    24638410.332     -687953.416 1   -536066.045 2
         6.500          13.900
 09  1  4  0 21  0.0000000  0 11G21G26G19G15G 6G 3G14G18G22G 9G24
  20996569.646    20996568.820    20996566.973   -23984981.910 6 -18689585.284 6
        40.200          38.000
  23685241.694    23685241.341    23685239.871    -3336925.112 2  -2600190.225 3
        17.000          21.100
  23505567.031    23505565.310    23505563.118    -8140480.924 4  -6343229.692 4
        25.300          26.200
  22413879.381    22413879.186    22413877.734   -12826227.008 5  -9994450.156 5
        33.400          35.300
  22400290.422    22400289.730    22400289.500   -12733232.930 5  -9922000.908 5
        32.000          32.700
  22444254.038    22444253.331    22444253.025   -10240378.480 5  -7979513.067 5
        30.800          30.200
  24858039.552    24858037.964    24858038.236    -1846243.457    -1438630.909 2
         3.000          16.100
  20412486.449    20412485.695    20412484.348   -25815031.885 6 -20115599.580 7
        38.100          46.400
  21264607.134    21264606.637    21264603.729   -20399180.150 6 -15895456.232 6
        40.000          41.000
  23061158.232    23061157.647    23061157.387   -10147913.742 3  -7907459.631 4
        23.400          26.200
  24658679.990    24658678.627    24658680.099     -581430.619     -453061.270 2
         3.000          12.600
 09  1  4  0 21 30.0000000  0 11G21G26G19G15G 6G 3G14G18G22G 9G24
  21008184.610    21008183.732    21008181.735   -23923945.419 6 -18642024.386 6
        40.200          38.000
  23707377.722    23707376.850    23707376.157    -3220600.259 2  -2509547.493 3
        17.000          20.500
  23494458.364    23494456.573    23494455.021    -8198857.160 4  -6388717.656 4
        25.900          27.400
  22428948.950    22428948.702    22428947.330   -12747035.359 5  -9932742.374 5
        33.100          34.800
  22406016.515    22406015.818    22406015.900   -12703142.539 5  -9898553.855 5
        32.000          32.800
  22448509.335    22448508.435    22448508.283   -10218017.739 5  -7962089.123 5
        30.600          30.200
  24836187.764    24836186.821    24836185.868    -1961078.448 1  -1528112.667 2
         6.500          17.000
  20411882.352    20411881.502    20411878.861   -25818206.838 6 -20118073.563 7
        38.100          46.500
  21253023.000    21253022.494    21253019.537   -20460054.911 6 -15942891.104 6
        40.000          41.000
  23042720.472    23042719.581    23042719.088   -10244806.305 3  -7982960.284 4
        22.600          25.900
  24678968.660    24678966.381    24678969.388     -474813.039     -369982.659 2
                        13.900
 09  1  4  0 22  0.0000000  0 11G21G26G19G15G 6G 3G14G18G22G 9G24
  21019885.286    21019884.435    21019882.459   -23862457.774 6 -18594111.948 6
        40.200          37.800
  23729554.032    23729553.706    23729553.551    -3104057.324 2  -2418734.836 3
        15.100          20.500
  23483442.568    23483440.864    23483439.350    -8256746.748 4  -6433826.395 4
        25.900          27.400
  22444086.851    22444086.698    22444085.365   -12667484.576 5  -9870754.750 5
        33.200          34.800
  22411844.300    22411843.619    22411843.441   -12672516.635 5  -9874689.515 5
        31.800          32.300
  22452876.061    22452875.414    22452875.385   -10195069.394 5  -7944207.296 5
        30.600          31.000
  24814347.146    24814348.252    24814346.704    -2075842.949 1  -1617539.561 2
         6.500          17.000
  20411351.816    20411351.060    20411349.767   -25820994.231 6 -20120245.545 7
        38.100          46.400
  21241497.053    21241496.533    21241493.620   -20520624.665 6 -15990088.303 6
        40.100          41.200
  23024352.020    23024351.568    23024351.013   -10341331.190 3  -8058174.459 4
        23.400          25.300
  24699273.572    24699272.307    24699274.633     -368112.528     -286839.436 2
                        13.900
 09  1  4  0 22 30.0000000  0 11G21G26G19G15G 6G 3G14G18G22G 9G24
  21031671.630    21031670.746    21031668.902   -23800519.961 6 -18545848.729 6
        40.000          37.600
  23751771.681    23751771.203    23751771.924    -2987299.268 2  -2327754.546 3
        15.100          20.500
  23472519.909    23472518.303    23472515.719    -8314147.667 4  -6478554.376 4
        26.800          26.200
  22459292.731    22459292.690    22459291.312   -12587576.864 5  -9808488.992 5
        33.400          35.100
  22417773.820    22417773.124    22417773.022   -12641356.509 5  -9850408.899 5
        31.800          32.300
  22457355.294    22457354.315    22457354.152   -10171533.732 5  -7925867.823 5
        30.800          31.100
  24792520.593    24792520.045    24792521.313    -2190534.953 1  -1706909.912 2
         6.500          15.100
  20410895.120    20410894.380    20410891.627   -25823393.897 6 -20122115.412 7
        38.100          46.400
  21230029.211    21230028.789    21230025.895   -20580887.932 6 -16037046.683 6
        40.200          41.300
  23006054.331    23006053.909    23006053.513   -10437484.922 3  -8133099.426 4
        22.600          24.600
  24719594.046    24719593.054    24719595.638     -261330.493     -203632.704 2
                        13.900
 09  1  4  0 23  0.0000000  0 11G21G26G19G15G 6G 3G14G18G22G 9G24
  21043545.942    21043545.010    21043543.007   -23738120.315 6 -18497225.627 6
        40.000          37.300
  23774032.505    23774033.198    23774033.111    -2870316.270 2  -2236598.945 3
        15.100          19.900
  23461692.321    23461690.984    23461688.540    -8371045.248 4  -6522890.147 4
        27.600          26.500
  22474568.465    22474568.494    22474567.172   -12507301.856 5  -9745937.032 5
        33.000          34.900
  22423807.342    22423806.696    22423806.527   -12609650.570 5  -9825702.979 5
        31.800          32.300
  22461947.488    22461946.509    22461946.493   -10147399.934 5  -7907062.266 5
        30.600          30.800
  24770713.415    24770712.713    24770712.357    -2305139.563 1  -1796212.191 2
        11.000          16.100
  20410514.823    20410513.993    20410512.861   -25825392.946 6 -20123673.101 7
        38.200          46.500
  21218622.359    21218621.915    21218618.943   -20640831.633 6 -16083756.048 6
        40.200          41.400
  22987831.446    22987830.475    22987829.667   -10533251.122 3  -8207722.426 4
        23.400          24.900
