     2.11           OBSERVATION DATA    G (GPS)             RINEX VERSION / TYPE
teqc  2008Oct2      WCDA Operator       20090127 00:18:42UTCPGM / RUN BY / DATE
Solaris x86 5.10|AMD64|cc SC5.8 -xarch=amd64|=+|=+          COMMENT
teqc  2008Oct2      WCDA Operator       20090126 01:28:45UTCCOMMENT
flin  WCDA-ACP   965000   CFS Flin Flon SASK Canada         MARKER NAME
40135M001                                                   MARKER NUMBER
PGC-WCDA            GEOL. SURV. CANADA                      OBSERVER / AGENCY
1115                AOA BENCHMARK ACT   3.3.32.4            REC # / TYPE / VERS
231                 AOAD/M_T        SCIS                    ANT # / TYPE
  -766174.4630 -3611375.3160  5184056.2210                  APPROX POSITION XYZ
        0.1500        0.0000        0.0000                  ANTENNA: DELTA H/E/N
     1     1                                                WAVELENGTH FACT L1/2
     7    C1    P1    P2    L1    L2    S1    S2            # / TYPES OF OBSERV
STATION INFORMATION EFFECTIVE FROM: 2001/01/13 18:20:00     COMMENT
                                TO: CURRENT DATE (above)    COMMENT
BIT 2 OF LLI FLAGS (+4) DATA COLLECTED UNDER 'AS' CONDITION COMMENT
L1 PHASE CENTRE 0.110m ABOVE ARP                            COMMENT
L2 PHASE CENTRE 0.128m ABOVE ARP                            COMMENT
where ARP is the Antenna Reference Point for HI measurement COMMENT
CONTACT gps@pgc.nrcan.gc.ca FOR ADDITIONAL INFORMATION      COMMENT
    P1 =    P1  TurboRogue; =    Y1  Benchmark              COMMENT
    L1 = L1(CA)                                             COMMENT
    P2 =    P2  TurboRogue; =    Y2  Benchmark              COMMENT
    L2 = L2(P2) TurboRogue; = L2(Y2) Benchmark              COMMENT
 SNR is mapped to RINEX snr flag value [0-9]                COMMENT
  L1 & L2: min(max(int(snr_dBHz/6), 0), 9)                  COMMENT
  2009     1    26     0     0    0.0000000     GPS         TIME OF FIRST OBS
                                                            END OF HEADER
 09  1 26  0  0  0.0000000  0 10G28G19G15G 6G21G 3G14G18G22G 9
  25470447.814    25470446.106    25470447.156     -385133.446     -300103.305 1
         3.000           6.500
  22978467.482    22978466.273    22978464.405   -10540032.952 5  -8213009.361 5
        32.300          30.600
  25023847.578    25023847.330    25023845.298     -880721.276 2   -686261.888 2
        13.900          17.000
  24015582.978    24015582.520    24015582.880    -6421257.376 3  -5003578.437 3
        20.500          21.600
  23332138.729    23332138.068    23332136.760   -11648786.359 3  -9076971.777 3
        23.000          20.500
  23936768.269    23936767.451    23936767.974    -3158367.922 3  -2461063.068 3
        21.100          19.900
  22060962.391    22060961.789    22060960.867   -15218978.631 5 -11858939.864 5
        35.100          32.600
  20985544.859    20985544.290    20985542.618   -23172142.685 6 -18056205.650 6
        41.900          41.000
  20287029.275    20287028.884    20287025.884   -25617394.650 7 -19961596.709 8
        44.500          49.900
  21451473.776    21451473.264    21451472.581   -17868644.722 6 -13923611.601 5
        37.400          35.400
 09  1 26  0  0 30.0000000  0 10G28G19G15G 6G21G 3G14G18G22G 9
  25472723.372    25472722.925    25472724.013     -373174.682     -290784.820 1
         3.000           9.000
  22981929.874    22981928.371    22981926.428   -10521840.670 5  -8198833.556 5
        32.300          30.600
  25044427.894    25044427.652    25044426.641     -772567.689 2   -601986.506 2
        12.600          17.000
  24031884.520    24031884.233    24031885.485    -6335585.289 2  -4936820.986 3
        17.800          20.500
  23352973.837    23352973.260    23352971.936   -11539297.757 3  -8991656.000 3
        23.000          21.100
  23952959.435    23952958.824    23952959.089    -3073284.346 3  -2394764.181 3
        20.500          19.300
  22044811.190    22044810.709    22044809.659   -15303853.410 5 -11925076.034 5
        35.300          32.600
  20994643.505    20994642.845    20994641.088   -23124329.709 6 -18018948.784 6
        41.900          40.900
  20284954.146    20284953.812    20284950.839   -25628299.207 7 -19970093.762 8
        44.500          49.900
  21448344.147    21448343.702    21448343.193   -17885090.154 6 -13936426.218 5
        37.200          35.400
 09  1 26  0  1  0.0000000  0 10G14G28G19G15G 6G21G 3G18G22G 9
  22028724.002    22028723.599    22028722.572   -15388391.539 5 -11990949.887 5
        35.400          32.700
  25475097.804    25475097.646    25475096.462     -360707.217 1   -281069.930 1
         9.000          11.000
  22985501.041    22985499.611    22985498.150   -10503072.617 5  -8184209.097 5
        32.400          30.800
  25065021.158    25065019.937    25065019.272     -664355.153 2   -517664.842 2
        13.900          17.800
  24048231.815    24048231.146    24048232.208    -6249683.021 3  -4869884.198 3
        18.600          19.300
  23373848.859    23373848.275    23373846.930   -11429598.543 3  -8906176.126 3
        22.100          20.500
  23969203.487    23969202.757    23969203.233    -2987922.219 3  -2328248.255 3
        19.300          19.300
  21003809.355    21003808.744    21003807.056   -23076162.669 6 -17981416.021 6
        41.900          40.900
  20282955.474    20282955.093    20282952.144   -25638802.623 7 -19978278.240 8
        44.600          50.000
  21445352.927    21445352.482    21445351.967   -17900808.768 6 -13948674.481 5
        37.300          35.500
 09  1 26  0  1 30.0000000  0 10G28G19G15G 6G21G 3G14G18G22G 9
  25477566.225    25477565.167    25477563.515     -347738.187 1   -270964.445 1
         9.000           9.000
  22989180.695    22989179.436    22989177.435   -10483736.135 5  -8169141.721 5
        32.400          30.800
  25085622.440    25085621.879    25085620.591     -556092.556 2   -433304.170 2
        12.600          17.000
  24064621.411    24064620.639    24064620.874    -6163560.098 3  -4802775.438 3
        19.900          18.600
  23394761.582    23394761.284    23394760.472   -11319697.528 3  -8820539.006 3
        20.500          19.900
  23985498.212    23985497.308    23985498.199    -2902291.368 3  -2261522.947 3
        20.500          21.100
  22012700.108    22012699.572    22012698.440   -15472598.049 5 -12056565.334 5
        35.500          32.600
  21013041.244    21013040.612    21013039.056   -23027648.329 6 -17943612.634 6
        41.800          40.900
  20281031.848    20281031.526    20281028.607   -25648910.869 7 -19986154.790 8
        44.600          50.000
  21442499.162    21442498.646    21442498.293   -17915806.121 6 -13960360.722 5
        37.400          35.800
 09  1 26  0  2  0.0000000  0 10G28G19G15G 6G21G 3G14G18G22G 9
  25480130.001    25480129.314    25480129.618     -334263.902     -260465.143 2
         3.000          12.600
  22992968.826    22992967.522    22992966.115   -10463828.248 5  -8153629.087 5
        32.000          31.300
  25106233.824    25106233.755    25106231.628     -447778.249 2   -348903.309 2
        12.600          16.100
  24081050.966    24081051.215    24081051.582    -6077215.652 3  -4735494.070 3
        19.300          19.300
  23415714.081    23415713.680    23415712.734   -11209593.301 3  -8734743.541 3
        20.500          19.300
  24001844.553    24001843.881    24001844.893    -2816390.416 3  -2194587.150 3
        20.500          21.600
  21996740.095    21996739.604    21996738.710   -15556467.899 5 -12121918.448 5
        35.600          32.800
  21022339.770    21022339.200    21022337.608   -22978783.929 6 -17905536.477 6
        41.800          40.700
  20279184.316    20279184.001    20279181.019   -25658619.896 7 -19993720.263 8
        44.600          50.000
  21439782.982    21439782.632    21439782.403   -17930077.951 6 -13971481.625 5
        37.400          35.600
 09  1 26  0  2 30.0000000  0 10G28G19G15G 6G21G 3G14G18G22G 9
  25482792.148    25482791.463    25482790.675     -320282.247 1   -249570.343 1
         6.500          11.000
  22996866.488    22996865.048    22996863.385   -10443347.221 5  -8137669.855 5
        31.800          31.000
  25126856.055    25126855.215    25126853.362     -339411.524 1   -264461.865 2
        11.000          16.100
  24097523.086    24097523.767    24097524.809    -5990649.580 3  -4668040.018 3
        19.300          19.300
  23436705.486    23436704.770    23436703.738   -11099285.221 3  -8648789.220 3
        21.600          19.300
  24018241.552    24018241.472    24018241.962    -2730219.897 3  -2127441.300 3
        19.900          21.100
  21980845.192    21980844.761    21980843.758   -15639996.590 6 -12187005.723 5
        36.100          33.200
  21031705.499    21031704.861    21031703.244   -22929567.331 6 -17867185.880 6
        41.800          40.700
  20277413.412    20277413.034    20277409.982   -25667926.453 7 -20000972.118 8
        44.600          50.000
  21437206.253    21437205.736    21437205.224   -17943620.380 6 -13982034.157 5
        37.400          35.400
 09  1 26  0  3  0.0000000  0 10G28G19G15G 6G21G 3G14G18G22G 9
  25485547.866    25485546.612    25485545.441     -305794.648     -238281.560 1
         3.000           6.500
  23000872.710    23000871.164    23000869.430   -10422295.129 5  -8121265.635 5
        32.000          30.600
  25147486.373    25147486.317    25147485.004     -230994.180 1   -179980.906 2
         6.500          16.100
  24114038.799    24114038.304    24114039.213    -5903865.719 3  -4600416.248 3
        19.300          19.900
  23457734.506    23457733.966    23457732.724   -10988776.295 3  -8562678.394 3
        21.100          18.600
  24034690.788    24034689.997    24034690.312    -2643783.542 3  -2060088.310 3
        19.300          21.100
  21965015.370    21965014.838    21965013.779   -15723183.675 6 -12251826.818 5
        36.300          33.200
  21041137.932    21041137.265    21041135.782   -22879999.690 6 -17828561.743 6
        41.800          40.700
  20275718.798    20275718.434    20275715.418   -25676831.442 7 -20007911.062 8
        44.600          50.000
  21434767.788    21434767.323    21434766.844   -17956433.695 6 -13992018.545 5
        37.300          35.400
 09  1 26  0  3 30.0000000  0 10G28G19G15G 6G21G 3G14G18G22G 9
  25488401.861    25488399.964    25488399.638     -290800.591     -226597.922
                         3.000
  23004987.026    23004985.676    23004984.526   -10400672.118 5  -8104416.538 5
        32.100          31.000
  25168127.449    25168127.611    25168125.736     -122527.636      -95461.729 2
         3.000          16.100
  24130594.541    24130594.045    24130594.577    -5816866.093 2  -4532624.351 3
        17.800          19.300
  23478801.242    23478800.655    23478799.799   -10878068.098 3  -8476412.288 2
        21.100          17.800
  24051189.018    24051188.600    24051188.920    -2557084.057 3  -1992530.290 3
        19.900          20.500
  21949250.679    21949250.128    21949249.344   -15806026.866 6 -12316379.937 5
        36.200          33.500
  21050637.252    21050636.602    21050634.963   -22830080.889 6 -17789663.971 6
        41.800          40.500
  20274100.808    20274100.472    20274097.537   -25685333.298 7 -20014535.877 8
        44.600          50.000
  21432468.544    21432468.110    21432467.517   -17968516.584 6 -14001433.770 5
        37.300          35.200
 09  1 26  0  4  0.0000000  0 10G28G19G15G 6G21G 3G14G18G22G 9
  25491350.228    25491349.427    25491349.726     -275301.746 1   -214520.727 1
         9.000           6.500
  23009210.546    23009209.168    23009207.485   -10378479.860 5  -8087123.872 5
        33.000          30.400
  25188776.075    25188775.704    25188775.612      -14014.145      -10905.997 2
                        13.900
  24147190.316    24147189.945    24147190.561    -5729654.350 3  -4464667.165 3
        19.300          19.300
  23499905.732    23499905.466    23499904.077   -10767163.667 3  -8389993.271 2
        21.100          17.800
  24067736.821    24067736.039    24067736.542    -2470124.950 3  -1924769.978 3
        19.900          19.900
  21933551.521    21933551.113    21933550.256   -15888525.821 6 -12380664.822 5
        36.200          33.500
  21060202.861    21060202.184    21060200.761   -22779812.283 6 -17750493.623 6
        41.500          40.300
  20272559.704    20272559.344    20272556.323   -25693432.574 7 -20020846.996 8
        44.600          50.000
  21430308.159    21430307.759    21430307.168   -17979869.176 6 -14010279.932 5
        37.400          35.300
 09  1 26  0  4 30.0000000  0 10G28G19G15G 6G21G 3G14G18G22G 9
  25494397.814    25494397.071    25494396.066     -259294.166 2   -202047.399 1
        12.600          11.000
  23013542.609    23013541.218    23013539.177   -10355715.182 5  -8069385.168 5
        33.400          30.400
  25209435.382    25209434.258    25209434.362       94548.965       73688.459 2
                        13.900
  24163827.064    24163826.735    24163826.880    -5642228.972 3  -4396543.503 3
        19.900          19.900
  23521047.909    23521047.206    23521046.785   -10656060.737 3  -8303419.575 2
        19.300          17.800
  24084334.166    24084333.423    24084334.124    -2382904.944 3  -1856806.351 3
        20.500          20.500
  21917919.273    21917918.778    21917917.951   -15970673.954 6 -12444676.338 5
        36.200          33.800
  21069835.940    21069835.347    21069833.743   -22729190.059 6 -17711047.732 6
        41.500          40.100
  20271095.869    20271095.581    20271092.723   -25701124.247 7 -20026840.500 8
        44.500          50.100
  21428288.064    21428287.522    21428286.959   -17990486.463 6 -14018553.140 5
        37.500          35.400
 09  1 26  0  5  0.0000000  0 10G28G19G15G 6G21G 3G14G18G22G 9
  25497536.307    25497535.742    25497536.261     -242787.462 1   -189185.117 1
         6.500          11.000
  23017981.653    23017980.020    23017978.399   -10332388.119 5  -8051208.247 5
        33.000          30.800
  25230102.050    25230102.416    25230100.079      203150.732      158313.011 2
         3.000          13.900
  24180501.867    24180501.583    24180501.850    -5554601.704 3  -4328262.545 3
        18.600          19.900
  23542225.630    23542225.247    23542224.454   -10544770.642 3  -8216700.066 2
        19.300          17.800
  24100978.742    24100978.428    24100978.971    -2295435.464 3  -1788648.353 3
        20.500          21.100
  21902352.388    21902351.783    21902350.892   -16052479.415 6 -12508420.835 5
        36.300          33.900
  21079534.589    21079533.932    21079532.170   -22678223.904 6 -17671333.834 6
        41.500          39.900
  20269708.266    20269707.879    20269704.854   -25708417.220 7 -20032523.332 8
        44.600          50.100
  21426405.827    21426405.351    21426404.828   -18000376.650 6 -14026259.770 5
        37.400          35.500
 09  1 26  0  5 30.0000000  0 10G28G19G15G 6G21G 3G14G18G22G 9
  25500773.310    25500772.179    25500772.281     -225778.419 1   -175931.337 1
         6.500          11.000
  23022528.067    23022526.435    23022525.160   -10308495.915 5  -8032590.945 5
        32.400          31.000
  25250774.206    25250777.044    25250774.627      311793.361      242969.441 1
         3.000          11.000
  24197215.125    24197215.235    24197214.953    -5466771.694 3  -4259823.609 3
        18.600          19.300
  23563439.956    23563438.978    23563438.134   -10433291.443 3  -8129833.191 2
        19.900          17.800
  24117671.785    24117671.375    24117671.534    -2207716.131 3  -1720295.654 3
        20.500          19.900
  21886851.214    21886850.841    21886850.098   -16133936.552 6 -12571893.913 5
        36.400          34.000
  21089299.179    21089298.487    21089296.844   -22626910.738 6 -17631349.541 6
        41.400          39.900
  20268397.003    20268396.680    20268393.610   -25715307.551 7 -20037892.420 8
        44.700          50.100
  21424662.947    21424662.511    21424661.897   -18009535.584 6 -14033396.585 5
        37.700          35.400
 09  1 26  0  6  0.0000000  0 10G28G19G15G 6G21G 3G14G18G22G 9
  25504104.409    25504104.964    25504106.781     -208265.121     -162284.409 2
         3.000          12.600
  23027182.606    23027181.120    23027179.088   -10284037.497 5  -8013532.452 5
        32.700          30.600
  25271456.712    25271458.267    25271456.944      420477.310 1    327658.050 1
         6.500          11.000
  24213967.788    24213966.810    24213966.910    -5378739.610 2  -4191227.185 3
        17.800          18.600
  23584690.193    23584689.166    23584687.698   -10321623.715 3  -8042819.410 2
        20.500          17.800
  24134412.221    24134411.225    24134411.041    -2119747.533 3  -1651748.692 3
        20.500          18.600
  21871417.628    21871417.145    21871416.289   -16215042.210 6 -12635093.108 5
        36.700          34.300
  21099129.993    21099129.369    21099127.756   -22575248.848 6 -17591093.518 6
        41.400          39.800
  20267162.998    20267162.701    20267159.631   -25721792.397 7 -20042945.544 8
        44.700          50.100
  21423059.955    21423059.279    21423058.601   -18017960.534 6 -14039961.472 5
        37.600          35.400
 09  1 26  0  6 30.0000000  0 10G28G19G15G 6G21G 3G14G18G22G 9
  25507533.458    25507534.800    25507532.664     -190254.239     -148249.836 1
                         9.000
  23031942.772    23031941.303    23031939.967   -10259019.737 5  -7994038.101 5
        31.600          30.400
  25292145.267    25292146.288    25292147.431      529195.715 1    412373.479 1
         6.500          11.000
  24230755.569    24230755.357    24230755.235    -5290513.924 2  -4122479.885 2
        17.000          17.800
  23605973.995    23605973.344    23605971.785   -10209775.153 3  -7955664.717 3
        21.600          18.600
  24151198.125    24151196.944    24151196.352    -2031538.735 3  -1583014.584 3
        19.300          19.900
  21856049.897    21856049.415    21856048.462   -16295800.259 6 -12698021.439 5
        37.000          34.400
  21109026.072    21109025.465    21109023.748   -22523244.804 6 -17550570.880 6
        41.300          39.600
  20266005.118    20266004.739    20266001.667   -25727877.269 7 -20047686.997 8
        44.700          50.100
  21421595.128    21421594.759    21421594.086   -18025656.464 6 -14045958.289 5
        37.700          35.300
 09  1 26  0  7  0.0000000  0 10G28G19G15G 6G21G 3G14G18G22G 9
  25511054.886    25511056.164    25511055.295     -171743.432     -133825.839 1
         3.000           6.500
  23036810.603    23036808.900    23036807.703   -10233440.484 5  -7974106.232 5
        31.100          30.800
  25312843.106    25312842.378    25312844.030      637950.074 1    497116.942 1
         9.000           9.000
  24247582.570    24247582.002    24247581.167    -5202094.038 2  -4053581.301 2
        17.800          17.800
  23627292.812    23627291.956    23627290.155   -10097744.742 3  -7868368.318 3
        21.100          18.600
  24168027.253    24168027.828    24168028.417    -1943089.254 3  -1514092.924 3
        19.300          19.300
  21840749.082    21840748.594    21840747.586   -16376206.128 6 -12760675.347 5
        37.000          34.400
  21118987.793    21118987.173    21118985.551   -22470895.465 6 -17509779.184 6
        41.200          39.600
  20264924.030    20264923.671    20264920.587   -25733558.475 7 -20052113.907 8
        44.700          50.100
  21420270.248    21420269.725    21420269.199   -18032619.525 6 -14051384.046 5
        37.500          35.500
 09  1 26  0  7 30.0000000  0 10G28G19G15G 6G21G 3G14G18G22G 9
  25514675.240    25514674.417    25514673.849     -152728.141 1   -119008.761 1
         9.000           9.000
  23041785.708    23041784.339    23041782.852   -10207296.122 5  -7953734.006 5
        31.800          30.600
  25333547.754    25333547.053    25333545.322      746743.245 2    581890.589 1
        12.600           9.000
  24264444.383    24264444.363    24264444.938    -5113478.352 2  -3984530.149 3
        17.800          18.600
  23648646.802    23648645.495    23648644.379    -9985530.016 3  -7780928.293 2
        19.900          17.000
  24184905.298    24184905.391    24184905.880    -1854397.230 3  -1444982.266 3
        19.300          18.600
  21825516.371    21825515.858    21825515.126   -16456253.872 6 -12823050.194 5
        36.900          34.700
  21129015.903    21129015.331    21129013.755   -22418196.831 6 -17468715.308 6
        41.100          39.500
  20263920.627    20263920.311    20263917.305   -25738830.852 7 -20056222.249 8
        44.700          50.100
  21419085.794    21419085.258    21419084.581   -18038844.799 6 -14056234.892 5
        37.700          35.600
 09  1 26  0  8  0.0000000  0 10G28G19G15G 6G21G 3G14G18G22G 9
  25518386.573    25518385.977    25518387.187     -133212.724 1   -103801.853 1
         6.500           9.000
  23046867.103    23046865.802    23046864.085   -10180591.406 5  -7932925.139 4
        31.800          29.900
  25354254.314    25354254.456    25354252.931      855570.376 2    666690.821 1
        12.600           9.000
  24281344.065    24281343.234    24281344.469    -5024673.087 2  -3915331.281 3
        17.000          19.300
  23670034.171    23670033.028    23670032.296    -9873136.435 3  -7693348.908 2
        19.300          16.100
  24201828.050    24201827.149    24201828.458    -1765469.364 2  -1375687.849 2
        17.800          17.800
  21810351.776    21810351.191    21810350.250   -16535945.243 6 -12885147.344 5
        37.200          34.700
  21139109.817    21139109.213    21139107.588   -22365153.101 6 -17427382.527 6
        41.200          39.300
  20262994.533    20262994.213    20262991.137   -25743697.793 7 -20060014.665 8
        44.700          50.200
  21418040.552    21418040.142    21418039.527   -18044335.326 6 -14060513.214 5
        37.500          35.300
 09  1 26  0  8 30.0000000  0 10G28G19G15G 6G21G 3G14G18G22G 9
  25522195.765    25522195.440    25522196.623     -113201.699 1    -88208.782 1
         9.000           6.500
  23052054.587    23052053.250    23052051.555   -10153331.623 5  -7911683.753 4
        32.100          29.700
  25374966.188    25374968.340    25374967.406      964425.461 1    751512.685 1
         9.000          11.000
  24298278.000    24298277.431    24298278.043    -4935685.005 2  -3845989.944 3
        16.100          18.600
  23691454.056    23691453.629    23691452.746    -9760570.317 2  -7605635.066 2
        17.800          16.100
  24218794.749    24218794.244    24218794.069    -1676312.558 2  -1306215.023 2
        17.800          17.000
  21795254.141    21795253.610    21795252.679   -16615283.117 6 -12946969.046 5
        37.200          34.700
  21149268.652    21149268.060    21149266.296   -22311768.704 6 -17385784.291 6
        41.200          39.100
  20262144.847    20262144.519    20262141.528   -25748162.844 7 -20063493.918 8
        44.700          50.200
  21417135.285    21417134.715    21417133.831   -18049094.826 6 -14064221.909 5
        37.800          35.400
 09  1 26  0  9  0.0000000  0  9G28G19G 6G21G 3G14G18G22G 9
  25526097.313    25526096.185    25526098.097      -92695.471      -72229.985 1
                         6.500
  23057347.861    23057346.228    23057344.669   -10125517.021 5  -7890010.038 4
        32.300          29.700
  24315246.166    24315245.705    24315246.103    -4846516.183 2  -3776507.753 2
        17.000          17.000
  23712906.657    23712905.903    23712906.011    -9647833.354 2  -7517788.119 2
        16.100          16.100
  24235803.680    24235803.230    24235802.698    -1586928.724 2  -1236565.312 2
        17.800          17.000
  21780224.462    21780223.912    21780223.031   -16694265.081 6 -13008513.412 5
        37.300          35.200
  21159491.883    21159491.416    21159489.825   -22258043.770 6 -17343920.704 6
        41.000          39.100
  20261371.774    20261371.479    20261368.555   -25752224.888 7 -20066659.144 8
        44.700          50.200
  21416368.565    21416368.076    21416367.435   -18053122.340 6 -14067360.227 5
        37.700          35.300
 09  1 26  0  9 30.0000000  0  9G28G19G 6G21G 3G14G18G22G 9
  25530095.598    25530093.772    25530092.379      -71694.164      -55865.180 1
                         6.500
  23062746.196    23062744.689    23062743.001   -10097148.962 5  -7867905.063 5
        32.100          30.100
  24332247.736    24332248.494    24332248.415    -4757169.468 3  -3706886.963 2
        18.600          16.100
  23734392.109    23734391.488    23734390.903    -9534927.510 2  -7429809.599 2
        16.100          15.100
  24252856.183    24252855.053    24252854.769    -1497320.991 2  -1166741.114 2
        16.100          17.000
  21765262.566    21765262.000    21765261.250   -16772889.704 6 -13069779.329 5
        37.300          35.200
  21169780.358    21169779.768    21169778.098   -22203978.542 6 -17301791.955 6
        41.000          38.900
  20260675.673    20260675.322    20260672.261   -25755883.549 7 -20069510.044 8
        44.800          50.200
  21415741.623    21415741.179    21415740.405   -18056417.242 6 -14069927.680 5
        37.700          35.300
 09  1 26  0 10  0.0000000  0  9G28G19G 6G21G 3G14G18G22G 9
  25534189.063    25534187.360    25534187.434      -50185.310      -39105.027 1
         3.000           9.000
  23068251.953    23068250.579    23068248.853   -10068215.132 5  -7845359.221 4
        31.600          29.900
  24349287.902    24349287.107    24349285.987    -4667634.067 2  -3637119.131 2
        17.800          16.100
  23755912.235    23755911.694    23755911.224    -9421841.420 2  -7341690.583 2
        17.000          15.100
  24269951.804    24269950.946    24269951.666    -1407478.962 2  -1096734.352 3
        15.100          18.600
  21750371.510    21750371.189    21750370.348   -16851142.059 6 -13130755.164 5
        37.600          35.300
  21180135.957    21180135.275    21180133.587   -22149560.068 6 -17259387.950 6
        41.000          38.800
  20260058.788    20260058.452    20260055.432   -25759124.896 7 -20072035.763 8
        44.700          50.200
  21415256.483    21415256.019    21415255.515   -18058965.746 6 -14071913.528 5
        37.600          35.500
 09  1 26  0 10 30.0000000  0  9G28G19G 6G21G 3G14G18G22G 9
  25538378.281    25538376.770    25538376.278      -28178.348 1    -21956.824 2
         9.000          12.600
  23073863.469    23073862.030    23073860.807   -10038725.252 5  -7822380.096 5
        31.500          30.200
  24366358.280    24366357.334    24366358.833    -4577921.205 2  -3567213.016 2
        15.100          16.100
  23777464.022    23777462.804    23777462.668    -9308585.800 2  -7253439.477 2
        17.000          15.100
  24287090.104    24287090.154    24287090.417    -1317413.454 2  -1026553.436 3
        15.100          19.300
  21735550.134    21735549.703    21735548.929   -16929029.340 6 -13191446.536 5
        37.700          35.500
  21190556.726    21190556.172    21190554.446   -22094797.747 6 -17216716.009 6
        41.100          38.600
  20259519.860    20259519.507    20259516.457   -25761957.150 7 -20074242.708 8
        44.800          50.100
  21414912.177    21414911.655    21414911.412   -18060775.834 6 -14073323.985 5
        37.500          35.900
 09  1 26  0 11  0.0000000  0  9G28G19G 6G21G 3G14G18G22G 9
  25542654.464    25542652.209    25542656.523       -5681.065       -4426.426 1
                         9.000
  23079579.546    23079577.880    23079576.607   -10008687.905 5  -7798974.375 5
        31.800          30.400
  24383460.337    24383460.918    24383461.531    -4488041.078 2  -3497176.578 2
        15.100          16.100
  23799046.388    23799045.876    23799045.213    -9195170.039 2  -7165063.607 2
        17.800          15.100
  24304270.014    24304269.750    24304270.184    -1227135.103 2   -956206.678 3
        17.800          19.300
  21720797.069    21720796.464    21720795.693   -17006557.373 6 -13251857.969 5
        37.600          35.600
  21201041.652    21201041.027    21201039.287   -22039699.430 6 -17173782.250 6
        41.000          38.600
  20259057.428    20259057.120    20259054.055   -25764387.094 7 -20076136.167 8
        44.800          50.100
  21414706.930    21414706.380    21414705.973   -18061854.488 6 -14074164.493 5
        37.700          35.700
 09  1 26  0 11 30.0000000  0  9G28G19G 6G21G 3G14G18G22G 9
  25547031.842    25547030.667    25547031.305       17316.095       13493.549 1
         3.000           9.000
  23085401.162    23085399.960    23085398.458    -9978094.051 5  -7775135.009 5
        32.000          30.400
  24400597.716    24400598.418    24400598.247    -4397986.196 2  -3427003.940 2
        17.000          16.100
  23820660.705    23820660.551    23820658.652    -9081586.586 3  -7076557.015 2
        18.600          13.900
  24321491.577    24321490.762    24321491.013    -1136636.849 2   -885688.567 3
        17.000          19.300
  21706114.733    21706114.111    21706113.319   -17083714.249 6 -13311980.184 5
        37.700          35.800
  21211592.156    21211591.523    21211590.063   -21984255.364 6 -17130579.080 6
        40.800          38.600
  20258673.586    20258673.233    20258670.142   -25766404.304 7 -20077708.012 8
        44.800          50.100
  21414642.904    21414642.291    21414641.705   -18062191.762 6 -14074427.300 5
        37.700          35.500
 09  1 26  0 12  0.0000000  0  9G28G19G 6G21G 3G14G18G22G 9
  25551500.592    25551501.279    25551501.175       40796.859       31790.277 2
         3.000          13.900
  23091325.896    23091324.183    23091322.751    -9946960.858 5  -7750875.390 5
        31.600          30.600
  24417765.853    24417765.385    24417765.013    -4307774.931 3  -3356709.435 2
        18.600          17.000
  23842303.809    23842303.208    23842301.296    -8967852.778 3  -6987933.273 2
        18.600          13.900
  24338750.260    24338750.030    24338751.147    -1045936.926 2   -815013.315 3
        17.800          19.300
  21691499.870    21691499.389    21691498.577   -17160514.575 6 -13371824.570 5
        37.700          35.900
  21222205.707    21222205.035    21222203.473   -21928481.656 6 -17087119.049 6
        41.000          38.500
  20258365.519    20258365.104    20258361.954   -25768024.035 7 -20078970.134 8
        44.800          50.100
  21414716.619    21414716.159    21414715.782   -18061802.781 6 -14074124.194 5
        37.500          35.600
 09  1 26  0 12 30.0000000  0  9G28G19G 6G21G 3G14G18G22G 9
  25556061.465    25556062.463    25556062.825       64767.376       50468.536 2
         3.000          13.900
  23097354.244    23097352.833    23097351.117    -9915281.935 5  -7726190.516 5
        32.000          30.600
  24434962.211    24434962.098    24434962.254    -4217402.804 2  -3286289.632 2
        17.000          16.100
  23863975.982    23863975.249    23863974.069    -8853963.599 3  -6899188.463 2
        18.600          16.100
  24356050.577    24356049.469    24356050.474     -955031.013 2   -744177.539 3
        17.800          19.900
  21676954.760    21676954.234    21676953.410   -17236949.429 6 -13431384.169 6
        37.700          36.000
  21232882.862    21232882.407    21232880.805   -21872371.613 6 -17043396.934 6
        40.900          38.300
  20258134.237    20258133.919    20258130.864   -25769238.407 7 -20079916.394 8
        44.800          50.100
  21414930.277    21414929.864    21414929.408   -18060680.045 6 -14073249.337 5
        37.700          35.600
 09  1 26  0 13  0.0000000  0  9G28G19G 6G21G 3G14G18G22G 9
  25560716.617    25560717.544    25560714.880       89230.369       69530.470 1
                         9.000
  23103486.613    23103485.163    23103483.469    -9883055.622 5  -7701079.100 5
        31.500          30.600
  24452190.018    24452189.517    24452190.814    -4126869.358 2  -3215744.110 2
        16.100          16.100
  23885678.093    23885677.955    23885676.772    -8739917.843 3  -6810321.667 2
        18.600          16.100
  24373387.680    24373386.925    24373388.042     -863919.182 2   -673181.319 3
        15.100          19.300
  21662480.271    21662479.745    21662478.713   -17313014.354 6 -13490655.517 6
        38.100          36.000
  21243625.030    21243624.366    21243622.597   -21815922.338 6 -16999410.477 6
        40.900          38.100
  20257980.948    20257980.600    20257977.545   -25770044.165 7 -20080544.249 8
        44.700          50.100
  21415284.375    21415283.824    21415283.203   -18058820.308 6 -14071800.188 5
        37.700          35.400
 09  1 26  0 13 30.0000000  0  9G28G19G 6G21G 3G14G18G22G 9
  25565466.369    25565465.010    25565466.256      114186.604       88976.979 1
                         9.000
  23109723.243    23109721.647    23109720.341    -9850281.330 5  -7675540.704 5
        30.800          30.600
  24469448.931    24469448.604    24469449.162    -4036175.459 2  -3145073.516 2
        17.000          15.100
  23907410.644    23907410.065    23907408.741    -8625715.902 3  -6721333.183 2
        18.600          15.100
  24390765.149    24390764.709    24390764.384     -772602.336 2   -602025.363 2
        17.000          17.800
  21648076.463    21648076.003    21648075.070   -17388705.850 6 -13549635.881 6
        38.100          36.200
  21254431.765    21254431.067    21254429.491   -21759132.978 6 -16955159.021 6
        40.900          38.200
  20257905.759    20257905.407    20257902.371   -25770439.037 7 -20080851.934 8
        44.800          50.100
  21415778.903    21415778.412    21415777.789   -18056221.780 6 -14069775.358 5
        37.800          35.500
 09  1 26  0 14  0.0000000  0  9G28G19G 6G21G 3G14G18G22G 9
  25570310.091    25570310.216    25570310.083      139640.721      108811.253 2
         3.000          12.600
  23116065.221    23116063.755    23116062.267    -9816955.080 5  -7649572.209 5
        31.500          30.400
  24486738.912    24486738.602    24486738.409    -3945318.346 2  -3074275.770 2
        17.000          16.100
  23929173.382    23929172.475    23929169.949    -8511354.822 2  -6632220.688 2
        17.000          15.100
  24408181.980    24408180.798    24408181.154     -681077.756 2   -530707.542 2
        17.000          17.000
  21633745.280    21633744.790    21633743.874   -17464017.249 6 -13608320.066 6
        38.100          36.400
  21265303.838    21265303.327    21265301.694   -21701998.661 6 -16910638.771 6
        40.900          38.100
  20257910.072    20257909.699    20257906.523   -25770417.118 7 -20080834.848 8
        44.800          50.000
  21416414.768    21416414.397    21416413.721   -18052878.745 6 -14067170.394 5
        37.700          35.200
 09  1 26  0 14 30.0000000  0 10G28G19G11G 6G21G 3G14G18G22G 9
  25575242.930    25575243.877    25575248.114      165580.321      129023.815 1
                        11.000
  23122509.243    23122508.036    23122506.223    -9783090.161 5  -7623183.960 4
        31.600          29.700
  24889241.069    24889240.597    24889235.933          -1.0641          -.41811
         3.000           6.500
  24504056.397    24504055.909    24504056.458    -3854312.731 2  -3003362.323 2
        17.000          17.800
  23950962.731    23950961.820    23950960.520    -8396848.224 2  -6542994.791 2
        16.100          13.900
  24425634.569    24425634.190    24425634.184     -589359.674 2   -459238.916 2
        17.800          17.000
  21619484.314    21619483.740    21619482.817   -17538958.980 6 -13666716.195 6
        38.200          36.500
  21276239.502    21276238.881    21276237.270   -21644531.615 6 -16865859.249 6
        40.600          37.900
  20257991.232    20257990.918    20257987.872   -25769989.761 7 -20080501.829 8
        44.800          50.100
  21417190.581    21417190.110    21417189.393   -18048802.677 6 -14063994.232 5
        37.700          35.100
 09  1 26  0 15  0.0000000  0  9G19G11G 6G21G 3G14G18G22G 9
  23129052.044    23129050.287    23129048.651    -9748709.197 5  -7596393.603 4
        31.500          29.700
  24870511.763    24870510.473    24870508.897      -98415.380      -76686.850 1
         3.000          11.000
  24521398.150    24521396.930    24521397.662    -3763182.703 2  -2932351.943 3
        15.100          19.300
  23972775.574    23972775.072    23972773.444    -8282219.543 2  -6453673.771 2
        16.100          13.900
  24443119.765    24443119.621    24443119.940     -497472.868 2   -387638.804 2
        17.800          17.800
  21605289.703    21605289.291    21605288.522   -17613550.874 6 -13724839.727 6
        38.200          36.800
  21287234.414    21287233.737    21287231.968   -21586753.679 6 -16820837.478 6
        40.600          37.700
  20258145.752    20258145.416    20258142.305   -25769178.114 7 -20079869.365 8
        44.800          50.000
  21418101.662    21418101.139    21418100.396   -18044015.156 6 -14060263.690 5
        37.700          34.900
 09  1 26  0 15 30.0000000  0  9G19G11G 6G21G 3G14G18G22G 9
  23135697.043    23135695.908    23135694.018    -9713789.426 5  -7569183.390 5
        32.300          30.100
  24851825.101    24851825.920    24851825.775     -196597.777 1   -153192.584 1
         6.500           9.000
  24538766.932    24538766.189    24538767.272    -3671906.699 2  -2861227.800 3
        13.900          18.600
  23994616.311    23994616.027    23994613.869    -8167446.833 2  -6364240.516 2
        17.000          13.900
  24460641.922    24460641.057    24460641.927     -405396.058 2   -315890.671 3
        17.800          18.600
  21591166.893    21591166.418    21591165.494   -17687767.573 6 -13782670.906 6
        38.400          36.700
  21298292.651    21298292.065    21298290.415   -21528641.420 6 -16775555.197 6
        40.500          37.700
  20258378.019    20258377.674    20258374.492   -25767957.657 7 -20078918.353 8
        44.800          50.000
  21419152.596    21419152.137    21419151.410   -18038491.913 6 -14055959.862 5
        37.700          34.900
 09  1 26  0 16  0.0000000  0  9G19G11G 6G21G 3G14G18G22G 9
  23142446.813    23142445.694    23142444.168    -9678317.256 5  -7541542.744 5
        32.000          30.200
  24833190.565    24833189.034    24833190.038     -294530.618 1   -229503.846 2
         6.500          12.600
  24556166.642    24556166.007    24556167.245    -3580472.280 2  -2789980.205 3
        12.600          18.600
  24016486.458    24016486.025    24016484.971    -8052517.308 2  -6274685.071 2
        15.100          13.900
  24478202.286    24478202.204    24478202.301     -313116.833 2   -243984.778 2
        17.800          17.000
  21577118.587    21577118.038    21577117.080   -17761592.309 6 -13840196.653 6
        38.500          36.700
  21309417.560    21309416.887    21309415.195   -21470180.025 6 -16730000.862 6
        40.500          37.500
  20258690.906    20258690.547    20258687.494   -25766312.890 7 -20077636.712 8
        44.700          50.000
  21420346.495    21420345.964    21420345.486   -18032217.920 6 -14051071.040 5
        37.700          35.300
 09  1 26  0 16 30.0000000  0  9G19G11G 6G21G 3G14G18G22G 9
  23149299.761    23149298.234    23149296.730    -9642305.021 5  -7513481.273 4
        31.500          29.900
  24814600.194    24814600.652    24814601.341     -392222.226 1   -305627.170 2
         9.000          12.600
  24573591.701    24573590.831    24573592.125    -3488893.393 1  -2718620.018 2
         6.500          15.100
  24038385.233    24038383.950    24038382.705    -7937444.140 2  -6185017.728 1
        15.100          11.000
  24495797.746    24495796.636    24495797.986     -220649.567 2   -171932.360 2
        15.100          15.100
  21563142.920    21563142.403    21563141.497   -17835034.990 6 -13897424.704 6
        38.600          37.000
  21320606.825    21320606.103    21320604.246   -21411381.356 6 -16684183.709 6
        40.700          37.400
  20259082.644    20259082.282    20259079.217   -25764254.537 7 -20076032.792 8
        44.700          50.000
  21421681.088    21421680.673    21421680.022   -18025204.410 6 -14045605.958 5
        37.700          35.300
 09  1 26  0 17  0.0000000  0  9G19G11G 6G21G 3G14G18G22G 9
  23156254.324    23156253.100    23156251.373    -9605759.353 5  -7485004.138 4
        31.800          29.700
  24796056.374    24796055.862    24796057.269     -489675.157 1   -381564.515 2
        11.000          12.600
  24591045.704    24591045.306    24591045.687    -3397177.817 1  -2647153.339 2
         9.000          15.100
  24060309.007    24060307.747    24060306.528    -7822234.275 2  -6095243.824 1
        16.100           9.000
  24513427.594    24513427.102    24513427.793     -128001.786 2    -99739.277 2
        16.100          15.100
  21549239.250    21549238.716    21549237.738   -17908099.274 6 -13954357.896 6
        38.800          37.100
  21331858.727    21331858.147    21331856.408   -21352251.058 6 -16638108.154 6
        40.500          37.500
  20259552.005    20259551.693    20259548.638   -25761787.635 7 -20074110.530 8
        44.700          50.000
  21423155.501    21423155.048    21423154.462   -18017456.478 6 -14039568.607 5
        37.800          35.100
 09  1 26  0 17 30.0000000  0  9G19G11G 6G21G 3G14G18G22G 9
  23163311.327    23163310.010    23163308.102    -9568675.572 5  -7456107.703 4
        32.100          29.200
  24777559.150    24777558.544    24777559.698     -586880.731 1   -457309.135 2
        11.000          12.600
  24608527.109    24608526.528    24608525.426    -3305322.206 2  -2575577.575 2
        12.600          16.100
  24082258.493    24082258.484    24082256.673    -7706884.049 2  -6005360.540 1
        15.100           9.000
  24531093.845    24531093.324    24531093.524      -35170.536 2    -27403.261 2
        17.000          15.100
  21535409.085    21535408.512    21535407.460   -17980777.924 6 -14010990.598 6
        39.000          37.200
  21343174.940    21343174.312    21343172.638   -21292783.495 6 -16591769.798 6
        40.200          37.300
  20260100.440    20260100.138    20260097.155   -25758905.339 7 -20071864.586 8
        44.600          50.000
  21424771.042    21424770.465    21424769.589   -18008968.333 6 -14032954.467 5
        37.900          34.800
 09  1 26  0 18  0.0000000  0  9G19G11G 6G21G 3G14G18G22G 9
  23170467.898    23170466.465    23170464.926    -9531066.491 5  -7426801.926 4
        31.600          29.200
  24759107.033    24759106.886    24759106.903     -683847.428 1   -532867.601 1
        11.000          11.000
  24626029.539    24626029.615    24626029.131    -3213340.238 1  -2503903.372 2
        11.000          17.800
  24104233.675    24104232.896    24104231.657    -7591406.568 2  -5915378.124 1
        17.800           9.000
  24548791.001    24548790.298    24548791.072       57830.606 2     45065.140 2
        17.000          15.100
  21521650.121    21521649.687    21521648.725   -18053080.328 6 -14067330.116 6
        38.900          37.300
  21354553.254    21354552.648    21354550.969   -21232990.252 6 -16545177.655 6
        40.300          37.200
  20260726.068    20260725.728    20260722.610   -25755618.290 7 -20069303.239 8
        44.700          50.000
  21426524.666    21426524.180    21426523.563   -17999750.962 6 -14025772.122 5
        37.400          34.800
 09  1 26  0 18 30.0000000  0  9G19G11G 6G21G 3G14G18G22G 9
  23177724.128    23177722.692    23177720.700    -9492935.354 5  -7397089.348 4
        31.300          28.600
  24740700.366    24740700.517    24740698.985     -780574.833 1   -608239.598 1
         6.500          11.000
  24643554.161    24643553.623    24643556.579    -3121236.869 1  -2432134.535 2
         6.500          17.800
  24126231.837    24126230.597    24126229.952    -7475806.314 3  -5825300.035 1
        18.600          11.000
  24566519.185    24566518.406    24566519.089      150996.639 2    117662.037 2
        15.100          15.100
  21507962.939    21507962.473    21507961.562   -18125007.073 6 -14123376.916 6
        39.000          37.400
  21365992.929    21365992.353    21365990.710   -21172874.284 6 -16498334.046 6
        40.200          37.200
  20261428.246    20261427.883    20261424.697   -25751928.620 7 -20066428.163 8
        44.700          49.900
  21428417.335    21428416.723    21428416.016   -17989806.609 6 -14018023.265 5
        37.700          34.900
 09  1 26  0 19  0.0000000  0  9G19G11G 6G21G 3G14G18G22G 9
  23185081.560    23185079.902    23185078.228    -9454272.896 5  -7366962.768 4
        31.000          29.200
  24722341.826    24722342.122    24722338.794     -877049.033 1   -683414.256 1
         9.000          11.000
  24661106.379    24661106.396    24661108.086    -3029003.829 1  -2360264.609 2
        11.000          17.000
  24148253.603    24148252.913    24148253.119    -7360074.086 2  -5735119.114 1
        17.000          11.000
  24584281.665    24584280.624    24584281.147      244334.933 2    190393.147 2
        13.900          15.100
  21494349.530    21494348.957    21494348.079   -18196546.158 6 -14179121.640 6
        38.900          37.500
  21377496.085    21377495.501    21377493.738   -21112425.217 6 -16451230.871 6
        40.300          36.900
  20262209.056    20262208.711    20262205.600   -25747825.027 7 -20063230.554 8
        44.600          49.900
  21430449.795    21430449.416    21430448.854   -17979124.613 6 -14009699.611 5
        37.900          35.100
 09  1 26  0 19 30.0000000  0  9G19G11G 6G21G 3G14G18G22G 9
  23192538.261    23192536.770    23192535.525    -9415086.584 5  -7336427.977 4
        30.800          29.700
  24704032.313    24704031.249    24704028.762     -973273.437 1   -758394.227 1
         9.000          11.000
  24678683.429    24678683.011    24678682.488    -2936649.447 2  -2288300.162 2
        13.900          16.100
  24170298.937    24170299.443    24170300.026    -7244217.855 2  -5644841.583 1
        17.800          11.000
  24602074.140    24602073.683    24602074.752      337837.347 2    263252.181 2
        15.100          16.100
  21480809.056    21480808.462    21480807.487   -18267702.011 6 -14234567.741 6
        39.100          37.500
  21389061.316    21389060.638    21389059.010   -21051649.206 6 -16403872.939 6
        40.000          36.800
  20263067.620    20263067.318    20263064.279   -25743312.724 7 -20059714.466 8
        44.600          50.000
  21432621.751    21432621.314    21432620.616   -17967710.975 6 -14000805.858 5
        37.600          35.100
 09  1 26  0 20  0.0000000  0  9G19G11G 6G21G 3G14G18G22G 9
  23200094.487    23200093.251    23200091.796    -9375375.908 5  -7305484.579 4
        30.400          29.500
  24685768.265    24685768.162    24685765.195    -1069243.473 1   -833176.031 1
         9.000          11.000
  24696278.771    24696279.603    24696278.493    -2844174.569 1  -2216241.891 2
        11.000          13.900
  24192370.494    24192370.286    24192369.245    -7128238.048 3  -5554467.728 1
        19.900           9.000
  24619899.403    24619898.467    24619898.890      431502.940 2    336238.370 2
        13.900          16.100
  21467342.099    21467341.421    21467340.444   -18338471.306 6 -14289712.633 6
        39.100          37.600
  21400689.090    21400688.504    21400686.715   -20990544.904 6 -16356259.193 6
        40.000          36.600
  20264004.554    20264004.192    20264001.156   -25738389.571 7 -20055878.237 8
        44.600          50.000
  21434933.127    21434932.768    21434932.236   -17955563.992 6 -13991340.677 5
        37.600          35.100
 09  1 26  0 20 30.0000000  0  9G19G11G 6G21G 3G14G18G22G 9
  23207752.252    23207750.651    23207748.975    -9335136.819 5  -7274129.464 4
        30.800          29.200
  24667556.199    24667556.008    24667553.749    -1164950.857 1   -907753.207 2
        11.000          12.600
  24713899.125    24713899.258    24713899.121    -2751576.472 1  -2144087.546 2
        11.000          13.900
  24214465.293    24214464.992    24214464.742    -7012131.135 3  -5463994.797 1
        19.900           9.000
  24637755.030    24637753.901    24637753.883      525334.749 2    409354.086 2
        15.100          16.100
  21453949.780    21453949.300    21453948.432   -18408847.240 6 -14344551.006 6
        39.100          37.900
  21412380.177    21412379.515    21412377.982   -20929107.529 6 -16308385.922 6
        39.800          36.700
  20265020.704    20265020.360    20265017.210   -25733049.785 7 -20051717.364 8
        44.600          49.900
  21437385.554    21437385.031    21437384.247   -17942678.634 6 -13981300.134 5
        37.900          35.100
 09  1 26  0 21  0.0000000  0  9G19G14G11G 6G21G 3G18G22G 9
  23215507.514    23215506.210    23215504.861    -9294380.910 5  -7242371.632 4
        30.200          29.200
  21440631.048    21440630.498    21440629.581   -18478838.364 6 -14399089.529 6
        39.200          37.900
  24649392.844    24649392.135    24649390.371    -1260402.924 2   -982131.384 2
        13.900          13.900
  24731542.991    24731542.419    24731542.909    -2658867.504 2  -2071846.820 2
        12.600          16.100
  24236581.842    24236581.157    24236581.040    -6895908.924 3  -5373432.081 1
        19.300           9.000
  24655638.713    24655638.329    24655638.582      619319.884 2    482589.205 2
        13.900          15.100
  21424132.952    21424132.275    21424130.615   -20867347.072 6 -16260260.886 6
        39.800          36.600
  20266114.351    20266114.038    20266110.889   -25727302.522 7 -20047238.972 8
        44.600          49.900
  21439975.874    21439975.484    21439974.869   -17929065.084 6 -13970692.183 5
        37.900          35.100
 09  1 26  0 21 30.0000000  0  9G19G14G11G 6G21G 3G18G22G 9
  23223361.330    23223359.847    23223358.306    -9253110.590 5  -7210212.941 4
        30.400          29.200
  21427385.639    21427385.093    21427383.982   -18548444.032 6 -14453327.698 6
        39.300          37.900
  24631278.571    24631278.053    24631275.592    -1355597.776 2  -1056309.120 2
        16.100          13.900
  24749204.089    24749203.556    24749206.153    -2566051.402 2  -1999522.590 2
        12.600          17.000
  24258719.620    24258718.833    24258718.923    -6779574.563 3  -5282781.982 1
        18.600           9.000
  24673551.806    24673551.551    24673552.337      713454.344 2    555940.694 2
        15.100          15.100
  21435946.506    21435945.949    21435944.258   -20805265.302 6 -16211885.475 6
        39.700          36.500
  20267285.425    20267285.047    20267282.027   -25721148.612 7 -20042443.713 8
        44.600          49.900
  21442704.847    21442704.422    21442703.788   -17914724.578 6 -13959517.786 5
        37.900          35.200
 09  1 26  0 22  0.0000000  0  9G19G14G11G 6G21G 3G18G22G 9
  23231312.257    23231310.823    23231309.149    -9211326.191 5  -7177653.673 4
        30.400          28.600
  21414213.748    21414213.272    21414212.289   -18617661.843 6 -14507263.643 6
        39.300          38.100
  24613213.056    24613212.424    24613210.325    -1450531.638 2  -1130283.506 2
        16.100          12.600
  24766888.859    24766887.640    24766887.432    -2473129.354 1  -1927115.839 2
        11.000          16.100
  24280878.578    24280878.328    24280877.485    -6663128.830 3  -5192045.056 1
        19.300          11.000
  24691493.660    24691493.011    24691493.219      807736.862 2    629407.585 2
        13.900          16.100
  21447821.718    21447821.043    21447819.413   -20742861.687 6 -16163259.293 6
        39.500          36.500
  20268534.035    20268533.729    20268530.662   -25714586.732 7 -20037330.556 8
        44.600          49.900
  21445572.117    21445571.687    21445571.333   -17899655.954 6 -13947775.993 5
        37.700          35.200
 09  1 26  0 22 30.0000000  0  9G19G14G11G 6G21G 3G18G22G 9
  23239362.200    23239360.976    23239359.672    -9169023.741 5  -7144690.747 4
        30.800          29.000
  21401117.016    21401116.598    21401115.745   -18686484.756 6 -14560891.867 6
        39.300          38.400
  24595198.392    24595197.985    24595195.547    -1545195.993 2  -1204047.900 2
        13.900          12.600
  24784590.491    24784588.569    24784589.664    -2380098.434 1  -1854624.262 2
         6.500          13.900
  24303058.851    24303058.668    24303057.853    -6546568.316 3  -5101218.714 2
        19.300          12.600
  24709464.062    24709463.453    24709463.646      902170.448 2    702992.188 2
        12.600          17.800
  21459758.887    21459758.299    21459756.633   -20680130.899 6 -16114378.163 6
        39.500          36.400
  20269861.575    20269861.202    20269858.200   -25707610.666 7 -20031894.662 8
        44.500          49.900
  21448579.372    21448578.873    21448578.397   -17883854.010 6 -13935462.789 5
        37.800          35.300
 09  1 26  0 23  0.0000000  0  9G19G14G11G 6G21G 3G18G22G 9
  23247510.678    23247509.388    23247507.644    -9126205.279 5  -7111325.709 4
        31.300          29.000
  21388095.869    21388095.349    21388094.455   -18754911.988 6 -14614211.770 6
        39.400          38.500
  24577236.217    24577235.745    24577233.761    -1639588.721 2  -1277600.635 1
        12.600           9.000
  24802313.457    24802312.998    24802314.820    -2286961.741    -1782050.290 2
                        12.600
  24325261.498    24325261.052    24325260.251    -6429895.411 3  -5010304.771 2
        19.300          15.100
  24727461.490    24727460.863    24727462.425      996751.603 1    776691.758 3
        11.000          18.600
  21471758.428    21471757.700    21471755.791   -20617074.011 6 -16065242.921 6
        39.400          36.000
  20271267.899    20271267.560    20271264.415   -25700220.538 7 -20026136.114 8
        44.600          49.800
  21451725.475    21451725.139    21451724.749   -17867319.713 6 -13922578.916 5
        37.700          35.100
 09  1 26  0 23 30.0000000  0  9G19G14G18G11G 6G21G 3G22G 9
  23255755.499    23255753.997    23255752.074    -9082878.654 5  -7077564.708 4
        31.000          28.600
  21375149.077    21375148.543    21375147.451   -18822948.612 6 -14667227.303 6
        39.500          38.600
  21483818.421    21483817.681    21483816.009   -20553697.885 6 -16015858.921 6
        39.300          36.100
  24559324.227    24559324.030    24559322.355    -1733713.570 2  -1350944.604 1
        12.600           9.000
  24820055.672    24820056.604    24820055.269    -2193728.261    -1709400.857 1
         3.000          11.000
  24347484.361    24347483.416    24347482.241    -6313118.665 3  -4919309.924 2
        19.300          15.100
  24745486.605    24745486.267    24745486.122     1091471.089 1    850499.167 2
        11.000          16.100
  20272751.901    20272751.578    20272748.306   -25692422.152 7 -20020059.442 8
        44.600          49.700
  21455009.996    21455009.563    21455009.024   -17850059.768 6 -13909129.608 5
        37.700          35.100
 09  1 26  0 24  0.0000000  0  9G19G14G18G11G 6G21G 3G22G 9
  23264097.182    23264095.801    23264094.221    -9039040.786 5  -7043405.343 4
        30.400          28.600
  21362277.601    21362277.048    21362275.996   -18890588.677 6 -14719933.830 6
        39.500          38.700
  21495939.967    21495939.321    21495937.608   -20489998.294 6 -15966222.875 5
        39.300          35.900
  24541463.427    24541464.172    24541462.881    -1827562.902 1  -1424073.884 1
        11.000           6.500
  24837815.907    24837815.291    24837815.752    -2100396.013    -1636674.420 1
         3.000           9.000
  24369727.037    24369725.861    24369723.967    -6196235.235 2  -4828231.981 2
        17.000          15.100
  24763538.439    24763537.355    24763537.014     1186331.115 2    924416.052 2
        12.600          15.100
  20274314.477    20274314.092    20274311.020   -25684210.688 7 -20013660.894 8
        44.600          49.800
  21458433.384    21458432.955    21458432.474   -17832069.862 6 -13895111.512 5
        37.800          34.900
 09  1 26  0 24 30.0000000  0  9G19G14G18G11G 6G21G 3G22G 9
  23272535.017    23272533.723    23272532.123    -8994699.977 5  -7008854.060 4
        30.100          28.800
  21349480.719    21349480.178    21349479.088   -18957836.422 6 -14772334.651 6
        39.500          38.800
  21508121.738    21508121.102    21508119.593   -20425981.761 6 -15916339.851 5
        39.000          35.700
  24523655.832    24523656.039    24523654.961    -1921140.183 1  -1496991.188 1
         6.500           9.000
  24855593.500    24855593.541    24855593.597    -2006973.422 1  -1563877.595 1
         6.500           9.000
  24391987.817    24391986.450    24391985.102    -6079253.229 2  -4737077.218 2
        16.100          12.600
  24781613.868    24781613.818    24781613.925     1281322.860 2    998435.542 2
        12.600          15.100
  20275954.590    20275954.279    20275951.115   -25675591.576 7 -20006944.695 8
        44.600          49.800
  21461994.476    21461993.995    21461993.340   -17813356.598 6 -13880529.736 5
        37.800          34.800
 09  1 26  0 25  0.0000000  0  9G19G14G18G 9G11G 6G21G 3G22
  23281070.722    23281069.161    23281067.764    -8949846.105 5  -6973902.996 4
        30.600          28.600
  21336760.938    21336760.308    21336759.290   -19024679.352 6 -14824420.037 6
        39.600          38.900
  21520366.121    21520365.442    21520363.924   -20361637.847 6 -15866201.743 5
        39.100          35.800
  21465695.217    21465694.724    21465694.024   -17793909.365 6 -13865376.034 5
        37.900          34.700
  24505902.744    24505903.711    24505904.166    -2014431.514    -1569685.684 1
                         9.000
  24873391.254    24873391.171    24873390.098    -1913451.949 1  -1491003.732 1
         6.500           9.000
  24414269.344    24414267.714    24414266.691    -5962163.465 2  -4645838.501 1
        16.100          11.000
  24799716.056    24799716.218    24799716.676     1376454.565 2   1072564.142 2
        12.600          15.100
  20277674.401    20277674.066    20277671.062   -25666553.560 7 -19999902.083 8
        44.400          49.800
 09  1 26  0 25 30.0000000  0  9G19G14G18G 9G11G 6G21G 3G22
  23289701.697    23289700.069    23289698.105    -8904491.174 5  -6938561.500 4
        30.400          28.400
  21324116.088    21324115.550    21324114.757   -19091126.970 6 -14876197.385 6
        39.500          39.100
  21532670.819    21532670.102    21532668.442   -20296977.244 6 -15815816.858 5
        39.100          35.700
  21469533.710    21469533.195    21469532.475   -17773739.105 6 -13849658.939 5
        38.100          34.900
  24488204.528    24488204.700    24488202.956    -2107444.508    -1642163.330 2
                        12.600
  24891200.456    24891200.512    24891204.656    -1819844.579    -1418062.887 1
                        11.000
  24436567.336    24436566.480    24436565.606    -5844978.559 2  -4554525.607 1
        15.100           9.000
  24817843.994    24817842.736    24817843.443     1471713.512 1   1146791.888 2
        11.000          13.900
  20279472.108    20279471.736    20279468.734   -25657106.899 7 -19992541.043 8
        44.400          49.800
 09  1 26  0 26  0.0000000  0  9G14G19G18G 9G11G 6G21G 3G22
  21311547.214    21311546.663    21311545.706   -19157177.494 6 -14927665.310 6
        39.700          39.100
