     2.11           OBSERVATION DATA    G (GPS)             RINEX VERSION / TYPE
teqc  2008Oct2      WCDA Operator       20090128 00:18:42UTCPGM / RUN BY / DATE
Solaris x86 5.10|AMD64|cc SC5.8 -xarch=amd64|=+|=+          COMMENT
teqc  2008Oct2      WCDA Operator       20090127 01:18:16UTCCOMMENT
flin  WCDA-ACP   965000   CFS Flin Flon SASK Canada         MARKER NAME
40135M001                                                   MARKER NUMBER
PGC-WCDA            GEOL. SURV. CANADA                      OBSERVER / AGENCY
1115                AOA BENCHMARK ACT   3.3.32.4            REC # / TYPE / VERS
231                 AOAD/M_T        SCIS                    ANT # / TYPE
  -766174.4630 -3611375.3160  5184056.2210                  APPROX POSITION XYZ
        0.1500        0.0000        0.0000                  ANTENNA: DELTA H/E/N
     1     1                                                WAVELENGTH FACT L1/2
     7    C1    P1    P2    L1    L2    S1    S2            # / TYPES OF OBSERV
STATION INFORMATION EFFECTIVE FROM: 2001/01/13 18:20:00     COMMENT
                                TO: CURRENT DATE (above)    COMMENT
BIT 2 OF LLI FLAGS (+4) DATA COLLECTED UNDER 'AS' CONDITION COMMENT
L1 PHASE CENTRE 0.110m ABOVE ARP                            COMMENT
L2 PHASE CENTRE 0.128m ABOVE ARP                            COMMENT
where ARP is the Antenna Reference Point for HI measurement COMMENT
CONTACT gps@pgc.nrcan.gc.ca FOR ADDITIONAL INFORMATION      COMMENT
    P1 =    P1  TurboRogue; =    Y1  Benchmark              COMMENT
    L1 = L1(CA)                                             COMMENT
    P2 =    P2  TurboRogue; =    Y2  Benchmark              COMMENT
    L2 = L2(P2) TurboRogue; = L2(Y2) Benchmark              COMMENT
 SNR is mapped to RINEX snr flag value [0-9]                COMMENT
  L1 & L2: min(max(int(snr_dBHz/6), 0), 9)                  COMMENT
  2009     1    27     0     0    0.0000000     GPS         TIME OF FIRST OBS
                                                            END OF HEADER
 09  1 27  0  0  0.0000000  0 10G28G19G15G21G 6G 3G 9G14G18G22
  25492266.161    25492264.861    25492263.607     -386849.815 2   -301441.669 1
        12.600           9.000
  23010331.303    23010330.032    23010328.099   -10279516.625 5  -8010009.939 5
        33.100          30.600
  25197156.251    25197157.451    25197156.987     -155075.990     -120826.052 2
                        12.600
  23505579.082    23505578.876    23505578.027   -10709778.639 3  -8345277.725 2
        21.100          17.000
  24150086.676    24150086.381    24150087.200    -2890544.321 3  -2252373.931 3
        19.900          19.300
  24069782.847    24069782.003    24069782.841    -2450803.279 3  -1909718.194 3
        20.500          20.500
  21430007.756    21430007.225    21430006.563   -18072426.183 6 -14082402.227 5
        37.400          35.300
  21927494.674    21927494.246    21927493.242   -15992756.564 6 -12461880.341 5
        36.400          33.500
  21060068.100    21060067.484    21060065.938   -22778122.823 6 -17749173.871 6
        41.700          40.300
  20272177.169    20272176.778    20272173.682   -25674746.852 7 -20006286.380 8
        44.600          49.900
 09  1 27  0  0 30.0000000  0 10G28G19G15G21G 6G 3G 9G14G18G22
  25495330.865    25495328.870    25495328.154     -370738.837 2   -288887.714 1
        12.600           9.000
  23014666.068    23014664.738    23014662.443   -10256737.797 5  -7992260.204 5
        33.400          30.400
  25217818.840    25217818.644    25217819.093      -46493.896      -36216.687 1
                        11.000
  23526730.366    23526729.792    23526729.334   -10598628.289 3  -8258667.091 2
        19.300          17.800
  24166728.216    24166727.780    24166728.799    -2803093.511 3  -2184230.472 3
        19.300          19.900
  24086385.676    24086384.959    24086385.370    -2363556.025 3  -1841733.336 3
        21.100          21.100
  21428017.079    21428016.585    21428015.908   -18082887.706 6 -14090554.062 5
        37.600          35.400
  21911885.765    21911885.353    21911884.143   -16074782.188 6 -12525796.399 5
        36.400          33.600
  21069701.063    21069700.462    21069698.785   -22727501.681 6 -17709728.826 6
        41.800          40.100
  20270728.400    20270728.112    20270725.180   -25682358.954 7 -20012217.881 8
        44.600          50.000
 09  1 27  0  1  0.0000000  0 10G28G19G15G21G 6G 3G 9G14G18G22
  25498488.965    25498488.417    25498487.552     -354131.707     -275947.057 1
         3.000          11.000
  23019107.177    23019105.634    23019103.885   -10233399.281 5  -7974074.349 5
        33.100          31.000
  25238489.361    25238490.169    25238487.521       62124.078       48420.648 1
                        11.000
  23547917.264    23547916.565    23547915.490   -10487293.805 3  -8171912.988 2
        19.900          17.800
  24183407.429    24183407.235    24183408.032    -2715443.771 3  -2115932.017 3
        18.600          20.500
  24103034.270    24103033.672    24103034.670    -2276062.629 3  -1773556.715 3
        20.500          20.500
  21426164.137    21426163.565    21426163.037   -18092624.660 6 -14098141.287 5
        37.500          35.400
  21896341.863    21896341.205    21896340.111   -16156466.949 6 -12589446.851 5
        36.500          33.900
  21079398.946    21079398.274    21079396.511   -22676539.298 6 -17670017.873 6
        41.700          39.900
  20269355.451    20269355.087    20269351.931   -25689574.868 7 -20017840.665 8
        44.700          50.000
 09  1 27  0  1 30.0000000  0 10G28G19G15G21G 6G 3G 9G14G18G22
  25501743.510    25501743.713    25501741.948     -337027.725 1   -262619.198 1
         6.500          11.000
  23023655.240    23023653.385    23023651.816   -10209500.791 5  -7955452.153 5
        33.000          31.000
  25259164.687    25259164.974    25259163.348      170777.108      133085.327 1
         3.000           9.000
  23569138.403    23569137.587    23569136.598   -10375776.415 3  -8085016.373 2
        19.900          17.800
  24200123.798    24200123.529    24200124.713    -2627596.910 2  -2047479.961 3
        17.800          19.900
  24119730.830    24119730.333    24119730.875    -2188324.815 3  -1705189.633 3
        20.500          19.900
  21424449.467    21424449.042    21424448.203   -18101635.284 6 -14105162.545 5
        37.700          35.400
  21880862.848    21880862.367    21880861.453   -16237808.174 6 -12652829.603 5
        36.600          34.000
  21089161.839    21089161.196    21089159.510   -22625234.764 6 -17630040.314 6
        41.600          39.900
  20268057.865    20268057.604    20268054.463   -25696393.099 7 -20023153.566 8
        44.700          50.000
 09  1 27  0  2  0.0000000  0 10G28G19G15G21G 6G 3G 9G14G18G22
  25505094.676    25505093.993    25505094.646     -319418.959     -248898.078 2
                        12.600
  23028310.811    23028309.144    23028307.107   -10185035.453 5  -7936388.265 5
        32.700          30.400
  25279849.411    25279850.059    25279848.561      279471.721      217782.413 1
         3.000           9.000
  23590395.365    23590394.879    23590393.419   -10264070.209 3  -7997972.630 2
        21.100          17.800
  24216880.145    24216879.333    24216879.549    -2539547.513 2  -1978870.069 3
        17.800          19.300
  24136474.664    24136474.042    24136473.702    -2100337.263 3  -1636627.927 3
        20.500          19.300
  21422874.666    21422874.133    21422873.367   -18109911.018 6 -14111611.160 5
        37.600          35.400
  21865451.616    21865451.102    21865449.898   -16318796.291 6 -12715937.215 5
        37.100          34.100
  21098991.277    21098990.636    21098988.896   -22573580.784 6 -17589790.460 6
        41.600          39.700
  20266837.820    20266837.495    20266834.347   -25702805.002 7 -20028149.849 8
        44.800          50.000
 09  1 27  0  2 30.0000000  0 10G28G19G15G21G 6G 3G 9G14G18G22
  25508539.802    25508541.505    25508539.720     -301306.475     -234784.474
                         3.000
  23033073.393    23033071.951    23033070.425   -10160004.399 5  -7916883.554 5
        31.800          30.400
  25300539.223    25300541.031    25300542.169      388206.141      302510.541 1
         3.000           9.000
  23611688.064    23611687.433    23611686.074   -10152177.260 3  -7910783.363 3
        22.100          18.600
  24233673.065    24233672.831    24233672.035    -2451298.499 3  -1910104.629 2
        18.600          17.800
  24153265.550    24153264.103    24153264.721    -2012103.391 3  -1567874.292 3
        19.300          19.900
  21421439.689    21421439.267    21421438.481   -18117451.357 6 -14117486.747 5
        37.700          35.300
  21850107.590    21850106.990    21850105.718   -16399429.916 6 -12778768.592 5
        37.100          34.300
  21108886.990    21108886.411    21108884.603   -22521578.179 6 -17549268.948 6
        41.500          39.600
  20265694.980    20265694.619    20265691.468   -25708810.647 7 -20032829.566 8
        44.700          50.000
 09  1 27  0  3  0.0000000  0 10G28G19G15G21G 6G 3G 9G14G18G22
  25512084.105    25512084.191    25512082.940     -282690.809 1   -220278.786 1
         6.500           6.500
  23037944.406    23037942.683    23037941.315   -10134408.757 5  -7896938.908 5
        31.500          30.600
  25321240.596    25321240.236    25321241.914      496979.116 1    387268.664 1
         6.500           9.000
  23633015.508    23633015.056    23633013.669   -10040099.743 3  -7823450.275 2
        21.100          17.800
  24250504.233    24250503.605    24250502.397    -2362852.604 3  -1841185.789 2
        18.600          17.800
  24170100.432    24170100.741    24170101.472    -1923625.926 3  -1498930.837 3
        19.900          18.600
  21420144.916    21420144.379    21420143.749   -18124256.029 6 -14122789.079 5
        37.600          35.500
  21834831.016    21834830.531    21834829.303   -16479707.635 6 -12841322.637 5
        37.100          34.400
  21118849.053    21118848.378    21118846.773   -22469227.167 6 -17508475.949 6
        41.400          39.600
  20264629.625    20264629.267    20264626.133   -25714409.154 7 -20037192.032 8
        44.700          50.000
 09  1 27  0  3 30.0000000  0 10G28G19G15G21G 6G 3G 9G14G18G22
  25515721.867    25515722.661    25515720.929     -263572.948 1   -205381.720 1
         6.500           9.000
  23042922.076    23042920.765    23042919.218   -10108250.008 5  -7876555.471 5
        32.000          30.600
  25341948.035    25341947.389    25341945.090      605788.353 1    472055.027 1
         9.000           9.000
  23654378.020    23654377.017    23654376.056    -9927840.596 3  -7735975.663 2
        20.500          17.000
  24267370.723    24267370.782    24267371.303    -2274213.179 2  -1772116.136 3
        17.800          19.300
  24186983.429    24186983.023    24186983.771    -1834908.464 3  -1429800.378 2
        19.900          17.800
  21418990.219    21418989.674    21418988.803   -18130324.821 6 -14127517.998 5
        37.700          35.400
  21819622.419    21819621.930    21819620.877   -16559628.608 6 -12903598.705 5
        37.100          34.600
  21128877.202    21128876.584    21128874.919   -22416528.828 6 -17467412.309 6
        41.300          39.400
  20263641.577    20263641.248    20263638.174   -25719600.974 7 -20041237.600 8
        44.700          50.000
 09  1 27  0  4  0.0000000  0 10G28G19G15G21G 6G 3G 9G14G18G22
  25519453.839    25519454.276    25519452.517     -243954.826 1   -190094.803 1
         6.500           6.500
  23048006.442    23048005.163    23048003.130   -10081531.023 5  -7855735.485 4
        32.000          29.900
  25362658.111    25362658.596    25362655.071      714630.972 1    556867.459 1
         9.000           9.000
  23675773.887    23675773.247    23675772.368    -9815403.019 3  -7648362.007 2
        19.300          15.100
  24284274.409    24284273.612    24284275.970    -2185384.258 2  -1702898.841 3
        17.000          19.300
  24203910.940    24203909.956    24203911.221    -1745954.969 3  -1360486.000 2
        18.600          17.800
  21417974.861    21417974.460    21417973.623   -18135658.605 6 -14131674.186 5
        37.600          35.300
  21804482.100    21804481.440    21804480.353   -16639192.463 6 -12965596.499 5
        37.200          34.600
  21138971.152    21138970.559    21138968.820   -22363484.647 6 -17426079.179 6
        41.400          39.200
  20262730.909    20262730.577    20262727.421   -25724386.886 7 -20044966.878 8
        44.800          50.100
 09  1 27  0  4 30.0000000  0  9G28G19G21G 6G 3G 9G14G18G22
  25523281.273    25523280.546    25523281.523     -223851.041 1   -174429.543 1
         6.500           9.000
  23053194.838    23053193.507    23053191.637   -10054266.372 5  -7834490.305 4
        32.100          29.900
  23697200.556    23697200.023    23697199.053    -9702803.082 2  -7560621.825 2
        17.800          16.100
  24301211.119    24301210.585    24301211.605    -2096382.424 2  -1633546.779 2
        17.000          17.800
  24220880.901    24220880.000    24220880.334    -1656782.161 2  -1291000.732 2
        17.800          17.000
  21417097.557    21417097.083    21417095.995   -18140270.809 6 -14135268.105 5
        38.000          35.200
  21789407.041    21789406.616    21789405.461   -16718411.704 6 -13027325.760 5
        37.400          34.800
  21149128.171    21149127.564    21149125.739   -22310109.640 6 -17384488.258 6
        41.400          39.100
  20261894.854    20261894.540    20261891.471   -25728780.169 7 -20048390.209 8
        44.800          50.100
 09  1 27  0  5  0.0000000  0  9G28G19G21G 6G 3G 9G14G18G22
  25527199.455    25527198.590    25527199.107     -203253.342     -158379.349 1
                         6.500
  23058488.462    23058487.151    23058485.253   -10026448.246 5  -7812813.847 4
        32.300          29.900
  23718659.170    23718658.884    23718658.451    -9590034.132 2  -7472750.000 2
        16.100          16.100
  24318181.761    24318181.249    24318182.420    -2007201.755 2  -1564055.372 2
        17.800          16.100
  24237891.950    24237891.525    24237891.529    -1567384.362 2  -1221340.139 2
        17.800          17.800
  21416358.717    21416358.191    21416357.462   -18144152.037 6 -14138292.435 5
        37.700          35.300
  21774399.738    21774399.184    21774398.140   -16797276.050 6 -13088778.481 5
        37.500          35.100
  21159349.507    21159348.862    21159347.165   -22256395.766 6 -17342633.289 6
        41.200          39.100
  20261135.180    20261134.922    20261131.862   -25732771.803 7 -20051500.571 8
        44.800          50.100
 09  1 27  0  5 30.0000000  0  9G28G19G21G 6G 3G 9G14G18G22
  25531220.364    25531219.187    25531215.776     -182136.364     -141924.453 1
         3.000           9.000
  23063892.283    23063890.822    23063889.015    -9998051.647 5  -7790686.643 4
        32.000          29.900
  23740155.587    23740154.850    23740154.052    -9477071.850 2  -7384727.505 2
        16.100          15.100
  24335190.125    24335190.399    24335190.926    -1917818.552 3  -1494406.167 2
        18.600          16.100
  24254951.332    24254950.379    24254951.232    -1477738.028 2  -1151485.881 2
        16.100          17.800
  21415764.363    21415763.852    21415762.972   -18147275.625 6 -14140726.399 5
        37.700          35.200
  21759465.143    21759464.608    21759463.631   -16875757.481 6 -13149932.823 5
        37.500          35.200
  21169640.490    21169639.903    21169638.099   -22202316.510 6 -17300493.606 6
        41.200          39.000
  20260457.183    20260456.853    20260453.718   -25736335.209 7 -20054277.245 8
        44.800          50.100
 09  1 27  0  6  0.0000000  0  9G28G19G21G 6G 3G 9G14G18G22
  25535335.253    25535333.778    25535331.982     -160515.011 1   -125076.712 1
         6.500           9.000
  23069402.931    23069401.615    23069399.725    -9969092.522 5  -7768121.092 4
        31.800          29.700
  23761685.398    23761685.213    23761684.425    -9363933.111 2  -7296567.478 2
        17.800          15.100
  24352236.356    24352235.735    24352235.687    -1828250.064 2  -1424612.581 2
        17.800          16.100
  24272053.823    24272053.618    24272054.826    -1387860.341 2  -1081451.325 3
        15.100          18.600
  21415311.129    21415310.839    21415310.201   -18149656.057 6 -14142581.280 5
        37.600          35.600
  21744601.106    21744600.594    21744599.512   -16953869.128 6 -13210799.029 5
        37.900          35.200
  21179998.047    21179997.447    21179995.661   -22147887.175 6 -17258081.138 6
        41.300          38.800
  20259857.883    20259857.597    20259854.471   -25739484.236 7 -20056731.029 8
        44.800          50.100
 09  1 27  0  6 30.0000000  0  9G28G19G21G 6G 3G 9G14G18G22
  25539542.149    25539540.056    25539539.069     -138411.371 1   -107853.171 1
         9.000          11.000
  23075016.538    23075014.955    23075013.702    -9939593.050 5  -7745134.490 5
        31.600          30.400
  23783243.305    23783242.895    23783242.942    -9250641.253 2  -7208288.157 2
        17.000          13.900
  24369310.135    24369309.779    24369310.942    -1738520.420 2  -1354693.392 2
        15.100          16.100
  24289196.267    24289196.128    24289196.876    -1297775.812 2  -1011255.617 3
        15.100          18.600
  21414995.715    21414995.282    21414994.896   -18151313.965 6 -14143873.151 5
        37.600          35.800
  21729803.398    21729802.850    21729801.939   -17031630.799 6 -13271392.528 5
        37.700          35.400
  21190417.927    21190417.390    21190415.571   -22093129.676 6 -17215412.952 6
        41.300          38.600
  20259333.503    20259333.232    20259330.133   -25742239.665 7 -20058878.112 8
        44.800          50.000
 09  1 27  0  7  0.0000000  0  9G28G19G21G 6G 3G 9G14G18G22
  25543836.828    25543837.100    25543837.826     -115811.982      -90243.127 1
                         6.500
  23080735.170    23080733.739    23080732.322    -9909540.604 5  -7721717.003 5
        32.100          30.400
  23804833.881    23804833.991    23804832.656    -9137184.822 2  -7119880.595 2
        17.800          13.900
  24386416.987    24386417.412    24386418.708    -1648618.341 2  -1284639.860 2
        15.100          17.000
  24306381.079    24306380.765    24306380.570    -1207473.292 2   -940890.049 3
        17.000          19.300
  21414820.616    21414820.060    21414819.504   -18152235.202 6 -14144590.991 5
        37.700          35.600
  21715075.356    21715074.814    21715073.847   -17109027.004 6 -13331701.245 5
        37.700          35.500
  21200903.070    21200902.451    21200900.600   -22038030.413 6 -17172478.456 6
        41.200          38.500
  20258886.839    20258886.515    20258883.319   -25744587.479 7 -20060707.575 8
        44.800          50.000
 09  1 27  0  7 30.0000000  0  9G28G19G21G 6G 3G 9G14G18G22
  25548233.406    25548233.467    25548232.890      -92716.150      -72246.398 1
         3.000           9.000
  23086559.414    23086558.122    23086556.199    -9878935.046 5  -7697868.521 5
        32.400          30.400
  23826455.465    23826455.078    23826453.929    -9023564.271 3  -7031345.116 2
        18.600          12.600
  24403557.416    24403558.085    24403558.468    -1558545.332 3  -1214453.115 2
        18.600          16.100
  24323606.153    24323605.365    24323605.705    -1116954.523 2   -870355.990 3
        17.800          18.600
  21414785.726    21414785.207    21414784.581   -18152418.171 6 -14144733.564 5
        37.700          35.600
  21700417.563    21700416.933    21700415.891   -17186055.021 6 -13391723.062 5
        37.800          35.600
  21211453.151    21211452.569    21211450.983   -21982588.447 6 -17129276.922 6
        41.100          38.500
  20258517.946    20258517.640    20258514.430   -25746525.729 7 -20062217.894 8
        44.900          50.000
 09  1 27  0  8  0.0000000  0  9G28G19G21G 6G 3G 9G14G18G22
  25552722.933    25552723.363    25552721.560      -69132.197      -53869.290 2
         3.000          15.100
  23092487.053    23092485.521    23092483.796    -9847785.152 5  -7673595.895 5
        31.800          30.400
  23848106.606    23848106.054    23848104.468    -8909788.938 3  -6942689.043 2
        18.600          13.900
  24420729.775    24420729.438    24420728.817    -1468311.212 3  -1144140.818 2
        19.300          16.100
  24340870.176    24340869.773    24340871.078    -1026229.720 2   -799661.361 3
        17.800          19.900
  21414889.936    21414889.450    21414888.999   -18151869.821 6 -14144306.272 5
        37.600          35.600
  21685828.270    21685827.817    21685826.711   -17262720.943 6 -13451462.730 5
        37.700          35.700
  21222067.233    21222066.589    21222064.893   -21926812.082 6 -17085814.817 6
        41.200          38.400
  20258225.932    20258225.545    20258222.316   -25748061.173 7 -20063414.340 8
        44.800          50.000
 09  1 27  0  8 30.0000000  0  9G28G19G21G 6G 3G 9G14G18G22
  25557303.763    25557304.313    25557302.482      -45057.738      -35110.005 2
         3.000          12.600
  23098518.872    23098517.532    23098515.406    -9816088.942 5  -7648897.545 5
        32.000          30.200
  23869786.910    23869786.279    23869785.167    -8795858.152 3  -6853911.851 2
        18.600          15.100
  24437930.556    24437929.994    24437930.859    -1377915.723 2  -1073702.807 2
        16.100          16.100
  24358174.734    24358174.262    24358174.932     -935298.320 2   -728805.737 3
        17.800          19.900
  21415134.089    21415133.625    21415133.103   -18150586.969 6 -14143306.646 5
        37.600          35.600
  21671309.067    21671308.600    21671307.423   -17339020.144 6 -13510916.640 5
        38.100          35.800
  21232745.169    21232744.600    21232742.847   -21870698.641 6 -17042090.052 6
        41.100          38.200
  20258010.791    20258010.464    20258007.363   -25749190.911 7 -20064294.651 8
        44.800          50.000
 09  1 27  0  9  0.0000000  0  9G28G19G21G 6G 3G 9G14G18G22
  25561978.577    25561976.380    25561974.841      -20491.793      -15967.788 1
                         6.500
  23104654.503    23104652.971    23104650.939    -9783845.907 5  -7623773.108 5
        31.600          30.200
  23891497.022    23891496.581    23891495.477    -8681771.749 3  -6765013.391 2
        18.600          16.100
  24455162.701    24455162.492    24455164.105    -1287359.704 2  -1003139.678 2
        16.100          15.100
  24375517.137    24375516.178    24375517.163     -844161.154 2   -657789.799 3
        15.100          18.600
  21415518.608    21415518.056    21415517.249   -18148567.409 6 -14141732.960 5
        37.700          35.400
  21656860.527    21656859.927    21656858.660   -17414949.108 6 -13570082.057 6
        38.100          36.000
  21243487.664    21243487.045    21243485.270   -21814246.656 6 -16998101.488 6
        41.000          38.100
  20257873.560    20257873.189    20257870.038   -25749912.360 7 -20064856.815 8
        44.800          50.000
 09  1 27  0  9 30.0000000  0  9G28G19G21G 6G 3G 9G14G18G22
  25566748.348    25566748.148    25566746.729        4569.793        3560.852 1
                         9.000
  23110894.593    23110893.057    23110891.521    -9751052.523 5  -7598219.841 5
        31.000          30.400
  23913237.546    23913236.752    23913234.555    -8567527.236 3  -6675991.778 2
        19.300          15.100
  24472427.022    24472426.238    24472426.761    -1196641.291 2   -932450.007 2
        16.100          15.100
  24392899.680    24392898.630    24392899.356     -752817.046 2   -586612.625 3
        17.000          18.600
  21416043.951    21416043.392    21416042.663   -18145806.541 6 -14139581.632 5
        37.800          35.500
  21642483.057    21642482.538    21642481.439   -17490501.864 6 -13628954.326 6
        38.100          36.100
  21254295.519    21254294.796    21254293.102   -21757452.010 6 -16953845.916 6
        41.100          38.300
  20257814.914    20257814.585    20257811.432   -25750220.214 7 -20065096.699 8
        44.800          49.900
 09  1 27  0 10  0.0000000  0 10G19G28G11G21G 6G 3G 9G14G18G22
  23117238.374    23117236.891    23117235.090    -9717717.374 5  -7572244.418 5
        31.500          30.200
  25571608.576    25571608.592    25571611.581       30118.997       23469.261 1
         3.000           9.000
  24903249.087    24903249.756    24903246.040           -.3541          -.66611
                         6.500
  23935005.192    23935005.308    23935003.016    -8453134.358 2  -6586854.530 2
        17.000          15.100
  24489718.550    24489718.152    24489718.556    -1105770.377 2   -861641.529 2
        17.800          16.100
  24410319.696    24410318.566    24410318.552     -661276.103 2   -515282.063 2
        17.000          17.800
  21416708.794    21416708.480    21416707.616   -18142311.345 6 -14136858.100 5
        37.600          35.300
  21628176.613    21628175.954    21628174.823   -17565684.138 6 -13687537.906 6
        38.200          36.400
  21265166.827    21265166.221    21265164.430   -21700322.290 6 -16909329.248 6
        41.100          38.100
  20257833.738    20257833.416    20257830.192   -25750121.472 7 -20065019.753 8
        44.900          49.900
 09  1 27  0 10 30.0000000  0  9G19G11G21G 6G 3G 9G14G18G22
  23123681.273    23123680.019    23123678.046    -9683857.886 5  -7545860.408 4
        31.500          29.700
  24884487.811    24884485.029    24884485.149      -98588.100      -76822.239 1
         3.000           9.000
  23956798.052    23956797.773    23956795.871    -8338611.056 2  -6497615.637 2
        17.000          12.600
  24507037.041    24507036.390    24507036.546    -1014765.678 2   -790728.810 2
        17.000          17.800
  24427772.656    24427772.459    24427772.166     -569556.597 3   -443812.346 2
        18.600          17.800
  21417510.761    21417510.273    21417509.532   -18138097.665 6 -14133574.709 5
        37.700          35.100
  21613937.319    21613936.766    21613935.701   -17640510.549 6 -13745844.194 6
        38.300          36.500
  21276098.632    21276098.079    21276096.431   -21642874.277 6 -16864564.558 6
        40.900          37.800
  20257926.956    20257926.649    20257923.528   -25749631.302 7 -20064637.799 8
        44.900          49.900
 09  1 27  0 11  0.0000000  0  9G19G11G21G 6G 3G 9G14G18G22
  23130226.864    23130225.401    23130223.343    -9649461.368 5  -7519057.940 4
        31.600          29.700
  24865768.835    24865769.756    24865768.531     -196948.705     -153466.822 1
         3.000           9.000
  23978618.904    23978618.139    23978617.066    -8223945.095 2  -6408265.591 2
        17.000          13.900
  24524381.381    24524381.230    24524382.001     -923615.583 2   -719702.789 3
        15.100          18.600
  24445262.386    24445261.929    24445262.125     -477647.257 3   -372194.694 3
        18.600          18.600
  21418452.075    21418451.564    21418450.713   -18133151.412 6 -14129720.486 5
        37.700          34.900
  21599768.882    21599768.468    21599767.513   -17714965.510 6 -13803861.037 6
        38.400          36.600
  21287093.955    21287093.265    21287091.502   -21585094.373 6 -16819541.254 6
        40.700          37.700
  20258097.516    20258097.163    20258093.924   -25748735.755 7 -20063939.968 8
        44.900          49.900
 09  1 27  0 11 30.0000000  0  9G19G11G21G 6G 3G 9G14G18G22
  23136878.829    23136877.529    23136875.519    -9614505.705 5  -7491819.764 5
        32.300          30.200
  24847099.431    24847099.851    24847097.204     -295056.757 1   -229914.618 1
         6.500          11.000
  24000470.591    24000469.797    24000469.058    -8109115.596 2  -6318788.114 2
        17.800          13.900
  24541758.449    24541758.248    24541759.402     -832299.971 2   -648547.787 3
        13.900          19.300
  24462791.928    24462791.309    24462792.390     -385527.786 2   -300413.321 2
        17.800          17.800
  21419536.930    21419536.490    21419535.759   -18127449.402 6 -14125277.358 5
        37.600          34.900
  21585676.189    21585675.612    21585674.572   -17789024.227 6 -13861569.121 6
        38.500          36.500
  21298156.507    21298155.916    21298154.204   -21526959.730 6 -16774241.529 6
        40.800          37.700
  20258349.523    20258349.155    20258345.939   -25747411.176 7 -20062907.824 8
        44.900          49.900
 09  1 27  0 12  0.0000000  0  9G19G11G21G 6G 3G 9G14G18G22
  23143632.818    23143631.586    23143629.826    -9579012.367 5  -7464162.624 5
        32.000          30.200
  24828477.015    24828475.713    24828475.878     -392929.281 1   -306178.863 2
         6.500          12.600
  24022348.285    24022347.696    24022347.218    -7994144.282 2  -6229200.136 2
        17.000          13.900
  24559162.424    24559161.884    24559163.497     -740840.889 2   -577280.995 2
        12.600          17.800
  24480356.852    24480356.786    24480357.745     -293220.701 2   -228485.741 2
        17.000          16.100
  21420762.166    21420761.663    21420760.968   -18121011.394 6 -14120260.724 5
        37.700          35.200
  21571655.182    21571654.664    21571653.576   -17862705.207 6 -13918982.863 6
        38.700          36.600
  21309282.848    21309282.212    21309280.464   -21468490.652 6 -16728681.206 6
        40.700          37.400
  20258679.440    20258679.119    20258675.979   -25745676.870 7 -20061556.413 8
        44.800          49.900
 09  1 27  0 12 30.0000000  0  9G19G11G21G 6G 3G 9G14G18G22
  23150489.295    23150487.847    23150486.112    -9542980.793 5  -7436086.086 4
        31.600          29.700
  24809897.255    24809896.728    24809897.694     -490561.737 1   -382256.086 2
        11.000          12.600
  24044254.032    24044253.231    24044252.479    -7879031.586 2  -6139502.009 1
        17.800          11.000
  24576591.809    24576591.840    24576593.501     -649239.233 1   -505903.068 2
         9.000          15.100
  24497958.540    24497957.953    24497958.690     -200727.569 2   -156413.204 2
        16.100          15.100
  21422127.532    21422127.215    21422126.533   -18113835.318 6 -14114668.972 5
        37.700          35.200
  21557706.630    21557706.085    21557705.040   -17936005.277 6 -13976099.793 6
        38.900          36.900
  21320473.178    21320472.530    21320470.661   -21409685.704 6 -16682859.162 6
        40.900          37.400
  20259087.872    20259087.597    20259084.381   -25743530.536 7 -20059883.939 8
        44.800          49.900
 09  1 27  0 13  0.0000000  0  9G19G11G21G 6G 3G 9G14G18G22
  23157448.016    23157446.704    23157444.787    -9506413.456 5  -7407592.063 4
        32.300          29.500
  24791364.594    24791363.580    24791363.895     -587952.599 1   -458145.085 1
        11.000          11.000
  24066185.161    24066184.440    24066183.743    -7763780.768 2  -6049696.180 1
        17.000           6.500
  24594050.313    24594051.321    24594050.600     -557499.009 1   -434417.240 2
        11.000          15.100
  24515593.882    24515593.240    24515594.481     -108051.889 2    -84198.421 2
        17.000          15.100
  21423633.366    21423632.976    21423632.215   -18105922.879 6 -14108503.432 5
        37.800          34.900
  21543830.719    21543830.298    21543829.010   -18008924.030 6 -14032919.589 6
        39.100          36.900
  21331726.853    21331726.294    21331724.475   -21350546.682 6 -16636776.803 6
        40.700          37.400
  20259574.587    20259574.220    20259571.114   -25740973.037 7 -20057891.080 8
        44.800          49.900
 09  1 27  0 13 30.0000000  0  9G19G11G21G 6G 3G 9G14G18G22
  23164505.743    23164504.377    23164502.378    -9469325.193 5  -7378692.128 4
        32.100          29.200
  24772875.325    24772874.607    24772874.976     -685112.650 1   -533854.210 1
        11.000           9.000
  24088139.990    24088139.085    24088139.011    -7648407.173 2  -5959794.719 1
        17.000           9.000
  24611533.447    24611532.242    24611531.820     -465636.331 1   -362835.960 2
        11.000          17.000
  24533261.663    24533261.408    24533261.923      -15210.438 2    -11854.456 2
        17.800          15.100
  21425276.932    21425276.432    21425275.423   -18097287.345 6 -14101774.437 5
        37.800          34.800
  21530025.012    21530024.530    21530023.303   -18081473.635 6 -14089451.741 6
        39.100          37.200
  21343041.431    21343040.864    21343039.062   -21291087.647 6 -16590445.084 6
        40.500          37.200
  20260136.943    20260136.653    20260133.563   -25738017.383 7 -20055587.967 8
        44.800          49.900
 09  1 27  0 14  0.0000000  0  9G19G11G21G 6G 3G 9G14G18G22
  23171664.076    23171662.513    23171660.883    -9431707.405 5  -7349379.564 4
        31.600          29.000
  24754433.786    24754433.195    24754430.863     -782029.073 1   -609373.483 1
         9.000           9.000
  24110120.185    24110119.149    24110118.453    -7532902.850 3  -5869791.398 1
        18.600           9.000
  24629037.311    24629037.715    24629038.070     -373643.513 1   -291153.272 3
         9.000          18.600
  24550960.977    24550960.811    24550961.737       77804.666 2     60624.804 2
        16.100          16.100
  21427059.294    21427058.791    21427058.224   -18087918.522 6 -14094474.051 5
        37.500          34.800
  21516291.787    21516291.284    21516290.005   -18153642.189 6 -14145686.967 6
        39.100          37.200
  21354418.895    21354418.240    21354416.555   -21231299.144 6 -16543856.636 6
        40.500          37.200
  20260777.246    20260776.947    20260773.742   -25734653.101 7 -20052966.446 8
        44.800          49.900
 09  1 27  0 14 30.0000000  0  9G19G11G21G 6G 3G 9G14G18G22
  23178924.361    23178923.135    23178920.757    -9393555.118 5  -7319650.511 4
        31.500          28.800
  24736039.644    24736038.649    24736036.082     -878692.755 1   -684695.836 1
         9.000           9.000
  24132125.294    24132124.039    24132123.925    -7417263.267 3  -5779682.669 1
        18.600          11.000
  24646566.869    24646567.523    24646569.703     -281516.846 1   -219366.238 2
         9.000          17.800
  24568695.515    24568694.934    24568694.592      170996.817 2    133242.040 2
        16.100          15.100
  21428983.284    21428982.763    21428981.878   -18077809.985 6 -14086597.266 5
        37.900          34.900
  21502632.393    21502631.871    21502630.738   -18225422.102 6 -14201619.358 6
        39.100          37.300
  21365860.098    21365859.515    21365857.899   -21171174.870 6 -16497006.553 6
        40.400          37.200
  20261496.639    20261496.268    20261492.987   -25730873.162 7 -20050021.032 8
        44.800          49.800
 09  1 27  0 15  0.0000000  0  9G19G11G21G 6G 3G 9G14G18G22
  23186285.235    23186283.689    23186281.902    -9354873.647 5  -7289509.125 4
        31.000          29.200
  24717692.784    24717691.781    24717689.125     -975104.930 1   -759822.126 1
         6.500           9.000
  24154153.912    24154154.205    24154154.806    -7301494.489 2  -5689473.261 1
        17.800          11.000
  24664124.601    24664124.590    24664124.845     -189263.023 2   -147480.136 2
        12.600          17.800
  24586461.655    24586460.790    24586461.450      264359.467 2    205992.108 2
        15.100          16.100
  21431046.623    21431046.266    21431045.501   -18066966.027 6 -14078147.420 5
        38.000          35.100
  21489046.566    21489046.010    21489044.943   -18296816.034 6 -14257250.981 6
        39.100          37.300
  21377364.409    21377363.847    21377362.018   -21110719.508 6 -16449898.470 6
        40.400          36.800
  20262294.139    20262293.820    20262290.658   -25726681.432 7 -20046754.746 8
        44.700          49.800
 09  1 27  0 15 30.0000000  0  9G19G11G21G 6G 3G 9G14G18G22
  23193745.093    23193743.779    23193742.131    -9315670.946 5  -7258961.563 4
        31.000          29.900
  24699393.569    24699392.771    24699390.087    -1071269.197 1   -834755.285 1
        11.000          11.000
  24176207.005    24176207.269    24176207.567    -7185605.230 3  -5599170.012 2
        19.300          12.600
  24681703.600    24681702.657    24681702.854      -96890.878 1    -75501.871 2
        11.000          15.100
  24604258.108    24604257.787    24604259.377      357883.524 2    278868.007 2
        15.100          17.000
  21433248.756    21433248.364    21433247.697   -18055393.129 6 -14069129.575 5
        37.600          34.900
  21475533.290    21475532.729    21475531.555   -18367828.768 6 -14312585.570 6
        39.200          37.400
  21388930.447    21388929.770    21388927.993   -21049939.507 6 -16402537.428 6
        40.200          36.700
  20263169.087    20263168.728    20263165.612   -25722083.751 7 -20043172.133 8
        44.700          49.800
 09  1 27  0 16  0.0000000  0  9G19G11G21G 6G 3G 9G14G18G22
  23201303.431    23201302.056    23201300.344    -9275949.957 5  -7228010.134 4
        30.400          29.200
  24681141.178    24681140.460    24681137.563    -1167184.666 2   -909494.579 1
        12.600          11.000
  24198283.956    24198283.064    24198282.559    -7069598.764 3  -5508775.409 1
        19.900           9.000
  24699300.496    24699300.594    24699301.463       -4404.742 1     -3434.815 2
         9.000          12.600
  24622085.966    24622085.348    24622085.436      451564.347 2    351866.057 2
        16.100          16.100
  21435589.272    21435589.003    21435588.364   -18043093.240 6 -14059545.239 5
        37.600          35.100
  21462092.582    21462092.026    21462090.767   -18438460.475 6 -14367623.253 6
        39.300          37.500
  21400557.788    21400557.203    21400555.328   -20988837.692 6 -16354925.616 6
        40.300          36.800
  20264121.017    20264120.688    20264117.579   -25717081.172 7 -20039274.014 8
        44.700          49.800
 09  1 27  0 16 30.0000000  0  9G11G19G21G 6G 3G 9G14G18G22
  24662939.351    24662938.925    24662935.219    -1262838.042 2   -984029.656 2
        12.600          12.600
  23208962.678    23208961.248    23208959.347    -9235701.891 5  -7196648.025 4
        30.600          29.200
  24220382.586    24220382.232    24220381.270    -6953467.048 3  -5418283.200 1
        19.900           9.000
  24716923.775    24716923.461    24716924.274       88203.088 1     68727.106 2
        11.000          13.900
  24639944.470    24639943.686    24639942.863      545409.940 2    424992.496 2
        16.100          13.900
  21438070.704    21438070.182    21438069.261   -18030055.850 6 -14049386.231 5
        38.000          34.900
  21448726.377    21448725.865    21448724.773   -18508699.672 6 -14422355.082 6
        39.300          37.700
  21412248.048    21412247.481    21412245.907   -20927403.932 6 -16307055.153 6
        40.000          36.700
  20265152.130    20265151.802    20265148.564   -25711662.965 7 -20035052.029 8
        44.700          49.800
 09  1 27  0 17  0.0000000  0  9G19G11G21G 6G 3G 9G14G18G22
  23216718.265    23216716.797    23216715.488    -9194945.231 5  -7164889.598 4
        30.400          29.500
  24644784.137    24644783.254    24644779.978    -1358243.845 2  -1058371.792 2
        13.900          12.600
  24242501.517    24242501.643    24242501.559    -6837229.217 3  -5327708.339 1
        18.600           9.000
  24734566.937    24734566.966    24734568.222      180913.049 2    140968.595 2
        13.900          17.000
  24657829.211    24657828.354    24657829.714      639399.964 2    498231.437 2
        12.600          13.900
  21440688.311    21440687.973    21440687.274   -18016298.691 6 -14038666.360 5
        38.100          35.200
  21435432.167    21435431.629    21435430.304   -18578561.804 6 -14476793.097 6
        39.400          37.700
  21423998.624    21423997.961    21423996.166   -20865655.464 6 -16258939.458 6
        40.000          36.500
  20266259.061    20266258.717    20266255.544   -25705845.868 7 -20030519.221 8
        44.700          49.800
 09  1 27  0 17 30.0000000  0  9G19G 9G11G21G 6G 3G14G18G22
  23224575.606    23224574.156    23224572.214    -9153656.715 5  -7132716.732 4
        31.000          29.000
  21443447.815    21443447.431    21443446.781   -18001796.953 6 -14027366.302 5
        37.900          35.200
  24626681.302    24626680.824    24626677.750    -1453374.397 2  -1132499.448 1
        16.100          11.000
  24264645.878    24264645.969    24264645.536    -6720862.134 3  -5237032.756 1
        18.600          11.000
  24752232.408    24752231.927    24752233.648      273747.419 2    213307.053 2
        12.600          17.000
  24675747.494    24675746.758    24675746.598      733556.398 2    571600.052 2
        15.100          15.100
  21422214.760    21422214.174    21422212.824   -18648020.261 6 -14530916.561 6
        39.500          37.700
  21435813.260    21435812.669    21435810.938   -20803568.109 6 -16210559.697 6
        39.800          36.500
  20267446.738    20267446.385    20267443.324   -25699604.486 7 -20025655.803 8
        44.700          49.800
 09  1 27  0 18  0.0000000  0  9G19G11G21G 6G 3G 9G14G18G22
  23232530.344    23232529.054    23232527.034    -9111851.843 5  -7100141.505 4
        30.400          28.600
  24608627.939    24608627.926    24608625.716    -1548240.811 2  -1206421.287 1
        15.100          11.000
  24286811.726    24286811.076    24286810.930    -6604381.887 3  -5146269.005 2
        18.600          12.600
  24769920.348    24769919.845    24769918.974      366689.778 1    285729.604 2
        11.000          15.100
  24693693.337    24693693.344    24693693.571      827863.117 2    645085.792 2
        16.100          16.100
  21446346.309    21446345.918    21446345.416   -17986565.070 6 -14015497.296 5
        37.700          35.200
  21409071.488    21409071.016    21409069.752   -18717088.021 6 -14584735.585 6
        39.500          38.100
  21447690.020    21447689.387    21447687.700   -20741156.236 6 -16161927.068 6
        39.800          36.500
  20268712.590    20268712.280    20268709.122   -25692952.388 7 -20020472.347 8
        44.700          49.800
 09  1 27  0 18 30.0000000  0  9G19G 9G11G21G 6G 3G14G18G22
  23240583.275    23240582.090    23240580.566    -9069533.905 5  -7067166.510 4
        30.800          29.000
  21449383.575    21449383.192    21449382.556   -17970604.910 6 -14003060.804 5
        37.900          35.100
  24590626.013    24590625.555    24590624.215    -1642842.032 2  -1280136.465 1
        13.900          11.000
  24308998.319    24308997.731    24308997.322    -6487792.344 3  -5055420.089 2
        18.600          13.900
  24787625.340    24787625.784    24787625.018      459735.758      358232.914 2
         3.000          13.900
  24711666.350    24711666.053    24711667.479      922315.663 2    718685.157 2
        12.600          17.800
  21396002.529    21396001.990    21396000.938   -18785765.249 6 -14638250.296 6
        39.500          38.300
  21459627.931    21459627.313    21459625.541   -20678421.991 6 -16113043.238 6
        39.700          36.300
  20270056.305    20270055.942    20270052.866   -25685891.101 7 -20014970.040 8
        44.600          49.800
 09  1 27  0 19  0.0000000  0  9G19G 9G14G11G21G 6G 3G18G22
  23248734.093    23248732.970    23248730.904    -9026702.344 5  -7033791.270 4
        31.300          28.800
  21452559.347    21452558.955    21452558.447   -17953915.180 6 -13990055.809 5
        37.800          35.100
  21383008.706    21383008.131    21383006.966   -18854048.720 6 -14691458.188 6
        39.600          38.400
  24572676.402    24572675.081    24572674.906    -1737173.555 2  -1353641.507 1
        12.600           6.500
  24331206.107    24331205.489    24331204.259    -6371093.402 3  -4964485.943 2
        18.600          16.100
  24805349.385    24805351.130    24805352.062      552884.655      430816.398 1
                        11.000
  24729667.260    24729666.343    24729668.391     1016912.890 1    792397.269 2
        11.000          17.800
  21471627.444    21471626.815    21471624.910   -20615364.087 6 -16063907.207 5
        39.600          35.900
  20271478.365    20271478.087    20271474.839   -25678418.044 7 -20009146.875 8
        44.700          49.600
 09  1 27  0 19 30.0000000  0  9G19G 9G14G11G21G 6G 3G18G22
  23256981.477    23256979.890    23256977.700    -8983363.230 5  -7000020.547 4
        31.000          28.400
  21455873.216    21455872.850    21455872.162   -17936500.698 6 -13976486.082 5
        37.700          34.700
  21370089.212    21370088.699    21370087.416   -18921941.521 6 -14744361.661 6
        39.700          38.600
  24554774.996    24554775.981    24554772.700    -1831236.940 1  -1426937.605 1
        11.000           9.000
  24353433.248    24353432.639    24353431.202    -6254291.699 2  -4873471.719 2
        17.800          16.100
  24823095.183    24823094.678    24823094.471      646129.395      503474.602 1
                        11.000
  24747695.328    24747694.840    24747695.128     1111648.126 2    866216.927 2
        12.600          16.100
  21483687.696    21483686.987    21483685.261   -20551987.274 6 -16014522.677 6
        39.500          36.000
  20272978.095    20272977.755    20272974.472   -25670537.180 7 -20003005.937 8
        44.700          49.600
 09  1 27  0 20  0.0000000  0  9G19G 9G14G11G21G 6G 3G18G22
  23265326.032    23265324.606    23265322.965    -8939509.825 5  -6965849.082 4
        30.200          28.600
  21459326.708    21459326.213    21459325.529   -17918353.344 6 -13962345.284 5
        37.800          34.800
  21357245.837    21357245.272    21357244.104   -18989433.633 6 -14796952.910 6
        39.600          38.600
  24536927.648    24536928.044    24536926.021    -1925020.945 1  -1500016.017 1
         6.500           6.500
  24375680.840    24375679.639    24375678.557    -6137380.471 2  -4782372.151 2
        16.100          15.100
  24840858.213    24840859.574    24840857.264      739476.072 1    576212.243 1
         6.500           9.000
  24765750.870    24765750.446    24765750.277     1206527.121 2    940148.599 2
        12.600          16.100
  21495810.059    21495809.452    21495807.577   -20488283.442 6 -15964883.326 5
        39.500          35.800
  20274556.976    20274556.649    20274553.490   -25662240.006 7 -19996540.604 8
        44.600          49.700
 09  1 27  0 20 30.0000000  0  9G19G 9G14G11G21G 6G 3G18G22
  23273767.387    23273765.964    23273764.156    -8895151.348 5  -6931284.031 4
        30.100          28.600
  21462917.854    21462917.411    21462916.703   -17899481.214 6 -13947639.725 5
        37.800          34.700
  21344477.533    21344476.970    21344475.687   -19056531.644 6 -14849237.068 6
        39.600          38.600
  24519132.494    24519134.173    24519133.309    -2018530.788    -1572880.829 1
                         9.000
  24397946.502    24397945.829    24397944.742    -6020369.906 2  -4691195.173 2
        16.100          12.600
  24858638.866    24858639.500    24858638.599      832914.046 1    649021.042 1
         6.500          11.000
  24783830.790    24783830.298    24783831.177     1301538.767 2   1014183.638 2
        12.600          16.100
  21507992.932    21507992.316    21507990.619   -20424261.366 6 -15914995.991 5
        39.300          35.700
  20276213.715    20276213.378    20276210.152   -25653533.790 7 -19989756.535 8
        44.600          49.600
 09  1 27  0 21  0.0000000  0  9G19G 9G14G18G11G21G 6G 3G22
  23282304.251    23282302.873    23282300.963    -8850290.673 5  -6896327.669 4
        30.800          28.400
  21466646.961    21466646.441    21466645.580   -17879885.722 6 -13932370.502 5
        38.100          34.600
  21331784.158    21331783.609    21331782.482   -19123234.960 6 -14901213.673 6
        39.700          38.800
  21520236.281    21520235.692    21520234.034   -20359922.418 6 -15864861.747 5
        39.300          35.800
  24501391.389    24501390.976    24501390.857    -2111764.618    -1645530.531 1
                        11.000
  24420230.932    24420230.321    24420229.393    -5903262.743 2  -4599942.920 1
        15.100          11.000
  24876435.407    24876436.313    24876436.608      926439.995      721898.365 1
                        11.000
  24801934.962    24801934.320    24801935.136     1396679.574 2   1088319.350 2
        12.600          13.900
  20277948.101    20277947.788    20277944.749   -25644418.859 7 -19982653.987 8
        44.500          49.700
 09  1 27  0 21 30.0000000  0  9G19G 9G14G18G11G21G 6G 3G22
  23290937.357    23290935.769    23290933.691    -8804923.902 5  -6860976.960 4
        30.400          28.400
  21470514.550    21470514.046    21470513.261   -17859562.019 6 -13916533.844 5
        38.100          34.900
  21319167.174    21319166.679    21319165.704   -19189537.061 6 -14952877.636 6
        39.600          38.900
  21532540.941    21532540.334    21532538.684   -20295261.470 6 -15814476.595 5
        39.200          35.600
  24483706.407    24483704.943    24483703.447    -2204714.199    -1717958.793 2
                        12.600
  24442533.531    24442533.483    24442533.613    -5786055.906 2  -4508612.971 1
        12.600           9.000
  24894249.157    24894249.849    24894251.463     1020056.690      794846.489 1
         3.000          11.000
  24820064.838    24820064.102    24820064.841     1491952.073 2   1162557.652 2
        12.600          15.100
  20279761.503    20279761.192    20279758.061   -25634889.870 7 -19975228.795 8
        44.600          49.700
 09  1 27  0 22  0.0000000  0  9G 9G19G14G18G11G21G 6G 3G22
  21474520.506    21474519.957    21474519.199   -17838510.216 6 -13900129.838 5
        37.800          34.700
  23299666.193    23299664.791    23299662.789    -8759052.304 5  -6825232.868 4
        30.400          28.100
  21306627.186    21306626.647    21306625.469   -19255436.015 6 -15004227.465 6
        39.800          39.000
  21544906.593    21544905.965    21544904.277   -20230279.087 6 -15763840.969 5
        39.100          35.300
  24466073.731    24466072.457    24466069.933    -2297376.303    -1790163.002 2
                        12.600
  24464856.066    24464856.320    24464855.729    -5668750.696 2  -4417206.420 1
        13.900          11.000
  24912082.098    24912082.702    24912083.809     1113762.185 1    867863.721 2
         6.500          12.600
  24838218.436    24838217.763    24838220.566     1587354.300 1   1236896.998 2
        11.000          16.100
  20281653.802    20281653.492    20281650.349   -25624945.645 7 -19967480.045 8
        44.500          49.600
 09  1 27  0 22 30.0000000  0  9G19G 9G14G18G11G21G 6G 3G22
  23308490.796    23308489.546    23308487.425    -8712679.304 5  -6789098.075 4
        30.600          28.100
  21478664.441    21478663.941    21478663.204   -17816732.496 6 -13883160.180 5
        37.700          34.600
  21294163.585    21294163.086    21294161.863   -19320932.184 6 -15055263.434 6
        39.800          39.100
  21557333.218    21557332.631    21557330.843   -20164976.819 6 -15712956.085 5
        39.100          35.200
  24448496.274    24448494.905    24448491.281    -2389749.589    -1862142.167 2
                        12.600
  24487197.864    24487197.049    24487196.862    -5551350.427 2  -4325725.788 1
        13.900          11.000
  24929930.304    24929929.577    24929930.608     1207552.358 2    940946.909 2
        12.600          12.600
  24856398.597    24856397.312    24856398.894     1682882.284 2   1311334.329 2
        12.600          16.100
  20283624.959    20283624.601    20283621.474   -25614587.530 7 -19959408.783 8
        44.600          49.600
 09  1 27  0 23  0.0000000  0  9G 9G19G14G18G11G21G 6G 3G22
  21482946.306    21482945.758    21482945.138   -17794231.536 6 -13865626.961 5
        37.600          34.700
  23317410.034    23317408.535    23317406.598    -8665808.174 5  -6752575.134 4
        30.100          28.100
  21281776.740    21281776.208    21281774.908   -19386026.268 6 -15105986.091 6
        40.000          39.200
  21569820.260    21569819.658    21569817.837   -20099357.227 6 -15661823.937 5
        39.100          35.100
  24430972.110    24430971.124    24430968.789    -2481833.660    -1933895.970 2
                        12.600
  24509555.541    24509555.962    24509554.018    -5433859.579 2  -4234174.567 1
        12.600           9.000
  24947793.630    24947792.881    24947792.452     1301422.411 2   1014092.401 1
        13.900           9.000
  24874600.334    24874599.174    24874598.589     1778530.851 2   1385865.634 2
        15.100          13.900
  20285674.423    20285674.091    20285670.912   -25603817.218 7 -19951016.327 8
        44.400          49.600
 09  1 27  0 23 30.0000000  0  9G 9G19G14G18G11G21G 6G 3G22
  21487364.485    21487364.026    21487363.351   -17771013.769 6 -13847535.186 5
        37.700          34.800
  23326422.386    23326420.969    23326419.365    -8618446.498 4  -6715669.958 4
        29.500          28.600
  21269465.430    21269464.858    21269463.560   -19450722.822 6 -15156398.988 6
        40.000          39.300
  21582366.587    21582365.903    21582363.807   -20033426.664 6 -15610449.472 5
        39.100          34.600
  24413503.045    24413504.584    24413499.446    -2573631.537    -2005426.744 1
                        11.000
  24531929.165    24531929.039    24531927.556    -5316285.642 2  -4142558.595 1
        12.600           6.500
  24965668.434    24965668.121    24965668.726     1395364.329 2   1087293.851 1
        12.600           6.500
  24892821.805    24892821.167    24892821.741     1874291.539 2   1460484.323 1
        16.100          11.000
  20287801.206    20287800.938    20287797.922   -25592640.159 7 -19942306.928 8
        44.400          49.500
 09  1 27  0 24  0.0000000  0  9G 9G19G14G18G11G21G 6G 3G22
  21491920.312    21491919.856    21491919.097   -17747072.415 6 -13828879.586 5
        37.500          34.400
  23335529.522    23335528.035    23335526.610    -8570588.818 4  -6678378.285 4
        29.200          29.000
  21257231.428    21257230.777    21257229.546   -19515013.064 6 -15206495.272 6
        40.100          39.500
  21594973.140    21594972.594    21594970.565   -19967178.282 6 -15558827.355 5
        39.100          34.800
  24396088.183    24396091.189    24396086.823    -2665132.934    -2076726.494 1
                        11.000
  24554319.928    24554319.388    24554318.599    -5198623.095 1  -4050873.557
        11.000
  24983560.751    24983560.621    24983561.218     1489382.594 2   1160554.833 1
        13.900           9.000
  24911067.063    24911066.615    24911067.619     1970169.445 2   1535194.373 1
        16.100           9.000
  20290007.044    20290006.713    20290003.646   -25581048.688 7 -19933274.608 8
        44.300          49.500
 09  1 27  0 24 30.0000000  0  8G 9G19G14G11G 6G 3G18G22
  21496612.242    21496611.957    21496611.099   -17722415.904 6 -13809666.714 5
        37.700          34.400
  23344729.187    23344727.757    23344726.397    -8522244.195 4  -6640707.178 4
        29.500          29.000
  21245073.287    21245072.818    21245071.650   -19578903.119 6 -15256279.724 6
        40.000          39.500
  24378735.007    24378734.607    24378732.162    -2756342.747 1  -2147799.011 1
         6.500          11.000
  25001462.085    25001463.382    25001464.673     1583467.498 2   1233867.715 1
        12.600           6.500
  24929332.334    24929331.757    24929332.423     2066153.747 2   1609987.373 1
        16.100           9.000
  21607638.632    21607638.093    21607636.357   -19900620.091 6 -15506963.836 5
        38.900          34.700
  20292290.535    20292290.168    20292286.891   -25569049.870 7 -19923924.876 8
        44.400          49.400
 09  1 27  0 25  0.0000000  0  9G 9G19G14G21G11G 6G 3G18G22
  21501440.861    21501440.402    21501439.534   -17697042.309 6 -13789895.078 5
        37.700          34.300
  23354021.750    23354020.327    23354018.554    -8473411.960 4  -6602656.099 4
        29.900          28.600
  21232992.353    21232991.878    21232990.623   -19642389.256 6 -15305749.436 6
        40.300          39.600
  24599146.393    24599145.551    24599145.482           -.64012         -.2321
        16.100           3.000
  24361434.358    24361433.777    24361431.905    -2847255.575 1  -2218640.157 1
         9.000          11.000
  25019380.246    25019380.572    25019381.227     1677618.743 1   1307232.328 1
        11.000           6.500
  24947617.654    24947616.728    24947617.856     2162244.825 2   1684863.578 1
        13.900          11.000
  21620363.573    21620362.926    21620361.175   -19833750.502 6 -15454857.662 5
        38.700          34.700
  20294651.694    20294651.400    20294648.243   -25556641.173 7 -19914255.755 8
        44.400          49.400
 09  1 27  0 25 30.0000000  0  9G 9G19G14G21G11G 6G 3G18G22
  21506406.226    21506405.799    21506405.000   -17670948.470 6 -13769562.213 5
        37.400          34.300
  23363407.363    23363406.056    23363404.413    -8424090.376 4  -6564223.720 4
        29.900          28.800
  21220989.150    21220988.707    21220987.411   -19705466.621 6 -15354900.623 6
        40.400          39.700
  24621582.141    24621581.126    24621581.360      117900.647 2     91870.870
        17.000           3.000
  24344192.042    24344191.878    24344189.873    -2937865.045 2  -2289244.960 1
        12.600          11.000
  25037311.523    25037311.657    25037310.085     1771837.734 2   1380649.646 1
        12.600           6.500
  24965921.871    24965921.722    24965924.222     2258443.464 2   1759823.526 1
        12.600          11.000
  21633148.480    21633147.884    21633146.172   -19766565.414 6 -15402505.644 5
        38.700          34.800
  20297091.770    20297091.485    20297088.382   -25543817.953 7 -19904263.633 8
        44.300          49.300
 09  1 27  0 26  0.0000000  0  9G 9G19G14G21G11G 6G 3G18G22
  21511508.801    21511508.389    21511507.670   -17644133.744 6 -13748667.617 5
        37.200          34.300
  23372886.175    23372884.823    23372882.531    -8374279.380 5  -6525409.985 4
        30.400          28.100
  21209064.281    21209063.745    21209062.516   -19768132.199 6 -15403730.938 6
        40.500          39.800
  24644033.158    24644032.683    24644031.961      235882.740 2    183804.924
        12.600           3.000
  24327007.958    24327007.689    24327005.110    -3028166.880 1  -2359610.011 2
        11.000          12.600
  25055252.983    25055251.968    25055253.859     1866123.436 1   1454118.946 1
         6.500           9.000
  24984249.135    24984248.989    24984249.956     2354748.620 2   1834866.483 2
        13.900          13.900
  21645993.364    21645992.717    21645991.020   -19699064.634 6 -15349907.637 5
        38.600          34.500
  20299611.168    20299610.879    20299607.739   -25530578.745 7 -19893947.364 8
        44.300          49.200
 09  1 27  0 26 30.0000000  0  9G 9G14G19G21G11G 6G 3G18G22
  21516747.812    21516747.457    21516746.850   -17616602.068 6 -13727214.363 5
        37.100          34.100
  21197217.392    21197216.929    21197215.718   -19830387.756 6 -15452241.755 6
        40.500          40.000
