     2.11           OBSERVATION DATA    G (GPS)             RINEX VERSION / TYPE
teqc  2008Oct2      WCDA Operator       20090124 00:18:44UTCPGM / RUN BY / DATE
Solaris x86 5.10|AMD64|cc SC5.8 -xarch=amd64|=+|=+          COMMENT
teqc  2008Oct2      WCDA Operator       20090123 01:18:22UTCCOMMENT
flin  WCDA-ACP   965000   CFS Flin Flon SASK Canada         MARKER NAME
40135M001                                                   MARKER NUMBER
PGC-WCDA            GEOL. SURV. CANADA                      OBSERVER / AGENCY
1115                AOA BENCHMARK ACT   3.3.32.4            REC # / TYPE / VERS
231                 AOAD/M_T        SCIS                    ANT # / TYPE
  -766174.4630 -3611375.3160  5184056.2210                  APPROX POSITION XYZ
        0.1500        0.0000        0.0000                  ANTENNA: DELTA H/E/N
     1     1                                                WAVELENGTH FACT L1/2
     7    C1    P1    P2    L1    L2    S1    S2            # / TYPES OF OBSERV
STATION INFORMATION EFFECTIVE FROM: 2001/01/13 18:20:00     COMMENT
                                TO: CURRENT DATE (above)    COMMENT
BIT 2 OF LLI FLAGS (+4) DATA COLLECTED UNDER 'AS' CONDITION COMMENT
L1 PHASE CENTRE 0.110m ABOVE ARP                            COMMENT
L2 PHASE CENTRE 0.128m ABOVE ARP                            COMMENT
where ARP is the Antenna Reference Point for HI measurement COMMENT
CONTACT gps@pgc.nrcan.gc.ca FOR ADDITIONAL INFORMATION      COMMENT
    P1 =    P1  TurboRogue; =    Y1  Benchmark              COMMENT
    L1 = L1(CA)                                             COMMENT
    P2 =    P2  TurboRogue; =    Y2  Benchmark              COMMENT
    L2 = L2(P2) TurboRogue; = L2(Y2) Benchmark              COMMENT
 SNR is mapped to RINEX snr flag value [0-9]                COMMENT
  L1 & L2: min(max(int(snr_dBHz/6), 0), 9)                  COMMENT
  2009     1    23     0     0    0.0000000     GPS         TIME OF FIRST OBS
                                                            END OF HEADER
 09  1 23  0  0  0.0000000  0 10G 9G 6G18G21G28G15G14G 3G19G22
  21571175.932    21571175.415    21571175.099   -17425643.314 6 -13578416.122 5
        36.600          35.800
  23630448.024    23630447.906    23630448.142    -5565167.459 3  -4336490.630 3
        23.000          23.000
  20788165.173    20788164.520    20788162.899   -24106991.022 6 -18784659.565 7
        41.500          43.400
  22829544.794    22829544.273    22829542.802   -14370773.861 4 -11198000.040 3
        27.100          22.600
  25444596.311    25444596.292    25444593.219    -1027984.379 1   -801024.839 1
        11.000           9.000
  24509243.120    24509242.867    24509240.910    -3580775.162 3  -2790194.108 3
        19.300          19.900
  22487727.682    22487727.148    22487726.207   -13685483.004 5 -10664007.651 4
        31.800          29.500
  23559674.536    23559674.064    23559674.188    -5169188.510 3  -4027935.605 3
        21.600          22.100
  22925631.068    22925629.849    22925628.018   -10718603.178 5  -8352155.433 5
        33.400          31.300
  20361844.057    20361843.709    20361840.751   -25178008.489 7 -19619217.900 8
        44.000          49.300
 09  1 23  0  0 30.0000000  0 10G 9G 6G18G21G28G15G14G 3G19G22
  21564708.381    21564707.907    21564707.331   -17459630.333 6 -13604899.503 5
        36.600          35.600
  23645516.068    23645515.801    23645516.107    -5485985.147 3  -4274790.139 3
        22.600          22.100
  20795618.974    20795618.340    20795616.706   -24067821.444 6 -18754137.815 7
        41.600          43.400
  22849256.392    22849255.854    22849254.133   -14267190.089 4 -11117285.436 3
        27.100          22.600
  25444472.095    25444471.448    25444469.946    -1028638.763 1   -801534.764 1
        11.000           6.500
  24529427.741    24529428.399    24529426.555    -3474698.987 3  -2707537.349 3
        19.300          19.300
  22470067.800    22470067.333    22470066.412   -13778285.726 5 -10736321.446 4
        31.800          29.500
  23574401.737    23574401.297    23574401.928    -5091795.554 3  -3967629.419 3
        21.100          22.600
  22926409.138    22926407.743    22926406.095   -10714515.382 5  -8348970.134 5
        33.100          31.800
  20357918.624    20357918.248    20357915.228   -25198637.062 7 -19635292.107 8
        44.000          49.300
 09  1 23  0  1  0.0000000  0 10G 9G 6G18G21G28G15G14G 3G19G22
  21558373.915    21558373.425    21558373.016   -17492917.926 6 -13630837.875 5
        36.600          35.700
  23660640.822    23660640.618    23660641.135    -5406501.622 3  -4212854.918 3
        22.100          22.100
  20803143.046    20803142.384    20803140.682   -24028282.685 6 -18723328.391 7
        41.700          43.400
  22869018.649    22869018.111    22869016.246   -14163339.165 4 -11036362.656 3
        26.800          22.600
  25444442.868    25444443.566    25444443.005    -1028776.928     -801642.380 1
                         6.500
  24549633.508    24549634.280    24549631.828    -3368515.286 3  -2624796.790 3
        19.300          18.600
  22452464.828    22452464.489    22452463.740   -13870788.877 5 -10808401.812 4
        32.300          29.900
  23589196.606    23589195.921    23589196.066    -5014049.672 3  -3907048.216 3
        21.100          22.100
  22927300.172    22927298.636    22927296.872   -10709833.663 5  -8345322.032 5
        32.800          31.500
  20354067.826    20354067.514    20354064.549   -25218872.598 7 -19651060.052 8
        44.000          49.300
 09  1 23  0  1 30.0000000  0 10G 9G 6G18G21G28G15G14G 3G19G22
  21552171.331    21552170.846    21552170.560   -17525512.083 6 -13656235.914 5
        36.600          35.600
  23675821.848    23675821.224    23675821.640    -5326727.169 3  -4150693.010 3
        21.600          21.600
  20810735.634    20810735.023    20810733.379   -23988382.470 6 -18692237.312 7
        41.600          43.100
  22888830.187    22888829.231    22888827.169   -14059230.939 4 -10955239.377 3
        26.800          22.600
  25444513.499    25444513.031    25444512.629    -1028406.325     -801353.638 1
                         6.500
  24569858.950    24569859.091    24569856.560    -3262233.300 3  -2541979.656 3
        19.900          19.300
  22434918.150    22434917.826    22434916.926   -13962998.407 5 -10880253.385 4
        32.400          29.900
  23604056.137    23604055.682    23604055.830    -4935961.401 3  -3846200.232 3
        21.600          22.600
  22928302.270    22928300.845    22928299.078   -10704566.036 5  -8341217.382 5
        32.400          30.800
  20350290.711    20350290.345    20350287.263   -25238722.149 7 -19666527.228 8
        44.000          49.300
 09  1 23  0  2  0.0000000  0 10G 9G 6G18G21G28G15G14G 3G19G22
  21546101.761    21546101.151    21546100.671   -17557409.613 6 -13681091.127 5
        36.800          35.800
  23691057.985    23691057.376    23691056.721    -5246663.110 3  -4088305.450 3
        21.600          20.500
  20818397.511    20818396.813    20818395.173   -23948119.669 6 -18660863.698 7
        41.500          43.100
  22908690.038    22908689.296    22908687.469   -13954865.770 4 -10873915.881 3
        26.800          22.100
  25444685.579    25444684.572    25444680.176    -1027525.400 1   -800667.168 1
         6.500           9.000
  24590103.224    24590102.893    24590099.920    -3155853.820 3  -2459086.546 3
        20.500          19.900
  22417427.865    22417427.526    22417426.460   -14054911.184 5 -10951873.727 4
        32.600          29.900
  23618980.292    23618980.065    23618980.227    -4857532.665 3  -3785086.947 3
        22.600          21.600
  22929416.283    22929414.903    22929412.975   -10698711.524 5  -8336655.431 5
        32.300          30.600
  20346587.181    20346586.856    20346583.852   -25258183.800 7 -19681692.149 8
        44.000          49.400
 09  1 23  0  2 30.0000000  0 10G 9G 6G18G21G28G15G14G 3G19G22
  21540165.750    21540165.302    21540164.937   -17588601.626 6 -13705396.583 5
        36.600          35.600
  23706349.261    23706349.023    23706349.140    -5166304.612 3  -4025688.441 3
        21.600          21.100
  20826129.411    20826128.772    20826127.217   -23907487.515 6 -18629202.281 7
        41.600          43.000
  22928599.586    22928599.092    22928597.861   -13850238.205 4 -10792387.925 3
        25.900          23.000
  25444949.634    25444948.582    25444947.268    -1026126.687 1   -799577.271 1
         9.000           9.000
  24610366.955    24610365.976    24610363.030    -3049370.991 3  -2376112.911 3
        21.100          21.600
  22399995.606    22399995.169    22399994.199   -14146518.213 5 -11023255.825 5
        32.600          30.100
  23633970.962    23633970.114    23633970.590    -4778758.314 3  -3723704.353 3
        23.000          22.100
  22930643.420    22930641.968    22930640.574   -10692262.691 5  -8331630.356 5
        32.400          31.000
  20342959.065    20342958.712    20342955.799   -25277249.555 7 -19696548.577 8
        44.000          49.500
 09  1 23  0  3  0.0000000  0 10G 9G 6G18G21G28G15G14G 3G19G22
  21534364.058    21534363.606    21534362.769   -17619090.993 6 -13729154.521 5
        36.900          35.300
  23721695.951    23721695.455    23721695.460    -5085658.874 3  -3962847.641 3
        20.500          21.600
  20833930.928    20833930.264    20833928.586   -23866490.814 6 -18597256.795 7
        41.600          42.800
  22948558.638    22948557.964    22948556.670   -13745354.716 4 -10710660.564 3
        26.200          22.600
  25445313.822    25445313.570    25445311.509    -1024214.631     -798087.357 1
                        11.000
  24630647.977    24630647.043    24630644.848    -2942791.052 3  -2293063.608 3
        20.500          22.100
  22382621.210    22382620.580    22382619.562   -14237821.987 5 -11094401.609 5
        32.700          30.200
  23649025.858    23649025.074    23649025.052    -4699645.834 3  -3662058.273 3
        23.800          21.600
  22931982.976    22931981.575    22931979.898   -10685224.487 5  -8326146.033 5
        32.600          31.000
  20339405.824    20339405.411    20339402.265   -25295923.090 7 -19711099.377 8
        44.100          49.400
 09  1 23  0  3 30.0000000  0 10G 9G 6G18G21G28G15G14G 3G19G22
  21528695.963    21528695.518    21528695.026   -17648876.447 6 -13752363.957 5
        37.000          35.500
  23737096.135    23737095.695    23737095.653    -5004728.930 3  -3899785.357 3
        20.500          21.100
  20841801.461    20841800.797    20841799.173   -23825130.453 6 -18565027.939 7
        41.500          42.700
  22968565.004    22968564.681    22968563.486   -13640218.154 4 -10628735.993 3
        26.500          22.100
  25445772.454    25445773.215    25445773.162    -1021789.560     -796197.679 1
         3.000          11.000
  24650946.648    24650946.973    24650944.893    -2836116.402 3  -2209940.513 3
        18.600          23.400
  22365304.718    22365304.141    22365302.946   -14328821.412 5 -11165310.238 5
        33.100          30.400
  23664144.392    23664143.768    23664143.480    -4620198.120 4  -3600150.977 3
        24.200          21.100
  22933434.666    22933433.156    22933431.293   -10677597.625 5  -8320203.022 5
        32.700          31.100
  20335926.776    20335926.481    20335923.503   -25314204.125 7 -19725344.334 8
        44.000          49.400
 09  1 23  0  4  0.0000000  0 10G 9G 6G18G21G28G15G14G 3G19G22
  21523162.400    21523161.970    21523161.581   -17677955.115 6 -13775022.654 5
        36.800          35.600
  23752550.199    23752549.737    23752549.774    -4923516.412 3  -3836502.899 3
        21.600          21.600
  20849741.313    20849740.670    20849739.128   -23783405.783 6 -18532515.209 7
        41.600          42.600
  22988619.825    22988619.723    22988618.111   -13534829.224 4 -10546614.776 3
        26.500          22.100
  25446334.840    25446334.393    25446331.640    -1018850.190 1   -793907.268 1
        11.000           9.000
  24671264.668    24671264.583    24671262.534    -2729347.694 3  -2126744.122 3
        19.300          23.400
  22348046.516    22348045.919    22348044.699   -14419513.470 5 -11235979.357 5
        33.100          30.400
  23679326.330    23679325.530    23679325.818    -4540417.030 3  -3537983.908 3
        23.400          21.600
  22934997.788    22934996.165    22934994.709   -10669381.363 5  -8313800.738 5
        32.400          31.100
  20332523.023    20332522.657    20332519.708   -25332091.270 7 -19739282.362 8
        44.100          49.500
 09  1 23  0  4 30.0000000  0 10G 9G 6G18G21G28G15G14G 3G19G22
  21517762.900    21517762.487    21517761.785   -17706330.142 6 -13797133.057 5
        37.000          35.500
  23768056.807    23768056.784    23768056.793    -4842028.492 3  -3773005.840 3
        20.500          21.600
  20857749.752    20857749.114    20857747.518   -23741321.653 6 -18499722.375 7
        41.600          42.500
  23008721.545    23008721.354    23008719.567   -13429194.609 4 -10464302.120 3
        26.200          21.600
  25446991.005    25446989.567    25446986.448    -1015401.169 1   -791219.734 1
         6.500           9.000
  24691599.436    24691599.248    24691596.957    -2622491.329 3  -2043479.413 4
        20.500          24.200
  22330846.501    22330845.878    22330844.628   -14509900.987 5 -11306411.173 5
        33.500          30.400
  23694569.787    23694569.125    23694569.666    -4460310.082 4  -3475562.925 3
        24.200          22.100
  22936672.522    22936670.919    22936669.393   -10660580.795 5  -8306943.165 5
        32.100          31.000
  20329193.497    20329193.111    20329190.047   -25349588.463 7 -19752916.535 8
        44.100          49.500
 09  1 23  0  5  0.0000000  0 10G 9G 6G18G21G28G15G14G 3G19G22
  21512499.282    21512498.637    21512498.176   -17733991.228 6 -13818687.143 5
        36.900          35.500
  23783617.444    23783616.988    23783617.121    -4760258.918 3  -3709289.299 3
        21.100          22.100
  20865828.239    20865827.530    20865825.927   -23698869.434 6 -18466642.722 7
        41.500          42.400
  23028871.557    23028870.990    23028869.135   -13323307.371 4 -10381792.608 3
        25.600          21.100
  25447743.360    25447743.595    25447744.979    -1011433.456     -788128.028 1
         3.000          11.000
  24711951.220    24711950.983    24711949.255    -2515540.029 3  -1960140.719 4
        19.300          24.200
  22313706.240    22313705.577    22313704.368   -14599973.358 5 -11376597.421 5
        33.600          30.800
  23709876.881    23709876.200    23709876.219    -4379871.049 3  -3412883.148 3
        23.000          21.100
  22938459.899    22938458.694    22938456.658   -10651187.228 5  -8299623.488 5
        32.400          30.800
  20325939.892    20325939.510    20325936.444   -25366686.192 7 -19766239.433 8
        44.200          49.500
 09  1 23  0  5 30.0000000  0 10G 9G 6G18G21G28G15G14G 3G19G22
  21507371.078    21507370.551    21507369.907   -17760940.211 6 -13839686.341 5
        36.900          35.400
  23799229.909    23799229.552    23799230.322    -4678213.718 3  -3645357.971 3
        21.600          22.100
  20873975.994    20873975.388    20873973.616   -23656052.641 6 -18433278.983 7
        41.700          42.200
  23049068.281    23049067.532    23049066.011   -13217172.882 4 -10299090.425 3
        25.300          20.500
  25448599.612    25448598.662    25448595.776    -1006950.513 1   -784634.782
         9.000           3.000
  24732320.612    24732319.865    24732318.904    -2408499.130 3  -1876732.229 4
        18.600          24.900
  22296625.423    22296624.741    22296623.956   -14689732.110 5 -11446539.286 5
        33.400          31.000
  23725246.192    23725245.722    23725245.168    -4299106.353 3  -3349949.649 3
        23.000          20.500
  22940359.410    22940358.429    22940356.710   -10641204.403 5  -8291844.665 5
        32.600          31.100
  20322761.692    20322761.380    20322758.367   -25383387.220 7 -19779253.217 8
        44.200          49.600
 09  1 23  0  6  0.0000000  0 10G 9G 6G18G21G28G15G14G 3G19G22
  21502377.043    21502376.538    21502376.230   -17787182.234 6 -13860134.666 5
        36.600          35.400
  23814893.088    23814892.669    23814893.317    -4595902.291 3  -3581219.200 3
        21.100          22.100
  20882191.763    20882191.130    20882189.390   -23612878.289 6 -18399636.631 7
        41.600          42.100
  23069310.238    23069309.601    23069308.123   -13110800.067 4 -10216202.529 3
        25.900          20.500
  25449549.445    25449549.318    25449546.462    -1001959.008     -780745.250
         3.000           3.000
  24752706.555    24752705.736    24752703.365    -2301376.852 3  -1793260.324 4
        18.600          25.300
  22279603.163    22279602.949    22279601.986   -14779182.526 5 -11516240.890 5
        33.500          31.100
  23740675.581    23740674.710    23740674.843    -4218025.196 3  -3286769.530 3
        21.600          21.600
  22942370.230    22942368.803    22942366.819   -10630639.664 5  -8283612.398 5
        33.000          30.600
  20319657.999    20319657.651    20319654.565   -25399697.778 7 -19791962.738 8
        44.300          49.600
 09  1 23  0  6 30.0000000  0 10G 9G 6G18G21G28G15G14G 3G19G22
  21497519.145    21497518.609    21497517.811   -17812712.563 6 -13880028.423 5
        37.100          35.300
  23830607.582    23830607.155    23830606.773    -4513323.706 3  -3516872.280 3
        22.100          22.100
  20890476.102    20890475.442    20890473.671   -23569343.992 6 -18365713.799 7
        41.600          42.000
  23089598.312    23089597.544    23089595.770   -13004187.326 4 -10133127.674 3
        25.900          19.900
  25450598.425    25450598.406    25450595.448     -996455.265 1   -776456.695 1
         6.500          11.000
  24773106.234    24773105.351    24773103.565    -2194171.507 2  -1709723.690 4
        17.800          25.600
  22262641.557    22262640.953    22262639.784   -14868319.225 5 -11585698.034 5
        33.900          31.100
  23756165.330    23756164.597    23756164.461    -4136626.435 3  -3223341.931 3
        21.600          22.100
  22944491.853    22944490.432    22944488.789   -10619489.754 5  -8274924.158 5
        32.800          31.000
  20316629.239    20316628.918    20316625.907   -25415613.500 7 -19804364.595 8
        44.300          49.600
 09  1 23  0  7  0.0000000  0 10G 9G 6G18G21G28G15G14G 3G19G22
  21492796.745    21492796.182    21492795.144   -17837529.595 6 -13899366.361 5
        37.200          35.300
  23846371.942    23846371.674    23846372.144    -4430480.487 3  -3452319.122 3
        21.100          22.600
  20898828.939    20898828.241    20898826.549   -23525449.753 6 -18331510.492 7
        41.700          42.000
  23109931.240    23109930.602    23109928.957   -12897336.407 4 -10049867.227 3
        25.300          20.500
  25451738.332    25451739.107    25451738.417     -990439.217     -771768.807 1
                         9.000
  24793521.516    24793520.900    24793519.269    -2086884.857 2  -1626123.705 4
        17.800          24.900
  22245739.357    22245738.807    22245737.768   -14957139.922 5 -11654908.951 5
        33.800          31.100
  23771713.895    23771713.181    23771714.358    -4054913.711 3  -3159669.700 3
        21.100          23.000
  22946725.211    22946723.741    22946721.832   -10607755.112 5  -8265780.273 5
        33.400          31.000
  20313675.974    20313675.642    20313672.627   -25431133.243 7 -19816457.894 8
        44.300          49.600
 09  1 23  0  7 30.0000000  0 10G 9G 6G18G21G28G15G14G 3G19G22
  21488210.435    21488209.970    21488209.249   -17861629.564 6 -13918145.554 5
        37.200          35.400
  23862186.113    23862186.330    23862187.264    -4347372.731 3  -3387559.843 3
        19.900          23.000
  20907250.589    20907249.960    20907248.290   -23481193.077 6 -18297024.768 6
        41.600          41.900
  23130309.585    23130308.829    23130307.489   -12790246.951 4  -9966420.910 3
        24.600          20.500
  25452983.868    25452984.084    25452979.840     -983908.396     -766679.885 1
         3.000           9.000
  24813952.389    24813952.749    24813950.496    -1979515.814 2  -1542459.501 4
        17.800          24.200
  22228898.214    22228897.756    22228896.619   -15045640.650 5 -11723870.536 5
        33.900          31.300
  23787323.517    23787322.799    23787323.327    -3972886.796 3  -3095752.624 3
        20.500          22.600
  22949069.993    22949068.517    22949066.400   -10595433.753 5  -8256179.203 5
        33.400          31.000
  20310798.546    20310798.204    20310795.084   -25446254.508 7 -19828240.693 8
        44.400          49.600
 09  1 23  0  8  0.0000000  0 10G 9G 6G18G21G28G15G14G 3G19G22
  21483760.269    21483759.767    21483759.071   -17885015.721 6 -13936368.518 5
        37.200          35.400
  23878050.371    23878050.136    23878050.574    -4264007.879 3  -3322600.226 3
        20.500          22.600
  20915740.410    20915739.720    20915738.019   -23436578.995 6 -18262260.546 6
        41.600          41.700
  23150732.037    23150731.243    23150730.454   -12682925.481 3  -9882793.822 3
        23.800          21.100
  25454323.070    25454322.889    25454319.870     -976867.750 1   -761193.706 1
         9.000           6.500
  24834398.869    24834399.410    24834396.909    -1872070.978 2  -1458736.229 3
        17.000          23.800
  22212117.406    22212116.924    22212115.876   -15133824.465 5 -11792585.179 5
        34.100          31.600
  23802991.277    23802990.988    23802990.390    -3890552.762 3  -3031596.273 3
        21.600          22.600
  22951525.209    22951523.703    22951521.731   -10582530.567 5  -8246124.767 5
        32.800          31.300
  20307996.140    20307995.811    20307992.590   -25460981.240 7 -19839716.064 8
        44.400          49.500
 09  1 23  0  8 30.0000000  0 10G 9G 6G18G21G28G15G14G 3G19G22
  21479446.572    21479446.039    21479445.022   -17907684.504 6 -13954032.497 5
        37.400          34.900
  23893963.571    23893963.139    23893963.429    -4180386.231 3  -3257440.511 3
        20.500          22.600
  20924298.486    20924297.805    20924296.106   -23391605.797 6 -18227216.493 6
        41.600          41.600
  23171198.995    23171198.340    23171197.156   -12575371.868 4  -9798985.819 3
        24.200          21.600
  25455758.580    25455757.970    25455758.607     -969314.869     -755308.372 1
                        11.000
  24854859.785    24854859.811    24854857.651    -1764549.496 2  -1374953.233 3
        16.100          22.600
  22195397.724    22195397.125    22195396.157   -15221687.216 5 -11861049.643 5
        34.400          31.800
  23818717.184    23818716.382    23818716.529    -3807912.272 3  -2967201.102 3
        21.100          22.600
  22954091.516    22954089.780    22954088.136   -10569044.193 5  -8235615.903 5
        33.000          31.500
  20305269.243    20305268.920    20305265.750   -25475310.699 7 -19850881.872 8
        44.400          49.500
 09  1 23  0  9  0.0000000  0 10G 9G 6G18G21G28G15G14G 3G19G22
  21475268.713    21475268.262    21475267.543   -17929638.680 6 -13971139.639 5
        37.500          35.300
  23909923.844    23909923.276    23909923.680    -4096514.742 3  -3192086.126 3
        21.100          23.000
  20932924.088    20932923.430    20932921.668   -23346278.210 6 -18191896.291 6
        41.800          41.500
  23191708.857    23191708.031    23191706.834   -12467592.450 4  -9715001.876 3
        24.600          20.500
  25457295.790    25457294.538    25457291.106     -961254.471 1   -749027.478 1
         6.500           9.000
  24875334.198    24875333.701    24875331.604    -1656957.446 2  -1291115.263 3
        15.100          21.600
  22178738.368    22178737.978    22178736.914   -15309231.714 5 -11929266.118 5
        34.500          31.800
  23834500.589    23834499.926    23834499.872    -3724972.417 3  -2902572.653 3
        21.600          23.400
  22956767.815    22956766.316    22956764.516   -10554979.494 5  -8224656.384 5
        33.200          31.100
  20302617.378    20302617.000    20302613.874   -25489246.675 7 -19861741.069 8
        44.400          49.600
 09  1 23  0  9 30.0000000  0 10G 9G 6G18G21G28G15G14G 3G19G22
  21471228.281    21471227.807    21471227.191   -17950871.689 6 -13987684.834 5
        37.400          35.600
  23925932.252    23925931.557    23925931.956    -4012390.877 3  -3126535.061 3
        21.100          23.400
  20941618.028    20941617.384    20941615.585   -23300591.393 6 -18156296.172 6
        41.700          41.500
  23212262.247    23212261.706    23212260.180   -12359584.030 4  -9630839.473 3
        24.600          20.500
  25458925.159    25458924.245    25458923.585     -952680.891     -742346.850 1
                         6.500
  24895821.158    24895821.268    24895819.372    -1549291.507 2  -1207219.708 3
        13.900          20.500
  22162141.399    22162140.794    22162139.795   -15396450.689 5 -11997228.946 5
        34.600          32.100
  23850340.554    23850339.796    23850340.274    -3641731.271 3  -2837709.443 3
        21.600          23.800
  22959555.417    22959553.874    22959551.986   -10540331.815 5  -8213242.601 5
        33.400          31.600
  20300041.411    20300041.051    20300037.984   -25502783.119 7 -19872288.943 8
        44.400          49.700
 09  1 23  0 10  0.0000000  0 10G 9G 6G18G21G28G15G14G 3G19G22
  21467325.538    21467325.093    21467324.539   -17971379.869 6 -14003665.226 5
        37.400          35.700
  23941988.299    23941987.806    23941988.200    -3928014.478 3  -3060787.228 3
        19.900          23.400
  20950380.636    20950379.994    20950378.305   -23254542.944 6 -18120414.261 6
        41.700          41.300
  23232859.032    23232858.743    23232857.425   -12251345.717 4  -9546497.944 3
        24.200          20.500
  25460655.108    25460652.264    25460653.755     -943591.971     -735264.509 1
                         6.500
  24916322.488    24916323.862    24916322.685    -1441549.885 2  -1123265.189 3
        12.600          19.300
  22145606.853    22145606.277    22145605.115   -15483339.820 5 -12064934.748 5
        34.600          32.100
  23866238.005    23866237.807    23866237.851    -3558188.467 3  -2772611.171 3
        21.600          23.400
  22962453.694    22962452.400    22962450.958   -10525098.508 5  -8201372.477 5
        33.100          32.000
  20297542.126    20297541.791    20297538.721   -25515916.884 7 -19882523.042 8
        44.500          49.700
 09  1 23  0 10 30.0000000  0 10G 9G 6G18G21G28G15G14G 3G19G22
  21463560.130    21463559.553    21463559.093   -17991167.408 6 -14019084.080 5
        37.200          35.700
  23958090.825    23958090.644    23958090.954    -3843393.604 3  -2994848.914 3
        19.900          23.400
  20959211.151    20959210.551    20959208.660   -23208138.706 6 -18084255.112 6
        41.800          41.100
  23253498.799    23253498.261    23253496.576   -12142885.323 3  -9461983.379 3
        23.800          20.500
  25462483.134    25462482.052    25462479.612     -933992.784     -727784.572 1
         3.000           9.000
  24936838.870    24936838.843    24936837.917    -1333740.101 2  -1039257.559 3
        12.600          19.900
  22129134.304    22129133.819    22129132.613   -15569903.078 5 -12132386.625 5
        34.900          32.300
  23882191.985    23882191.241    23882191.476    -3474352.272 3  -2707284.274 3
        21.100          23.000
  22965462.926    22965461.537    22965459.783   -10509285.992 5  -8189051.019 5
        33.400          31.800
  20295118.776    20295118.376    20295115.261   -25528652.342 7 -19892446.771 8
        44.500          49.700
 09  1 23  0 11  0.0000000  0 10G 9G 6G18G21G28G15G14G 3G19G22
  21459931.300    21459930.839    21459930.386   -18010236.396 6 -14033943.018 5
        37.300          35.600
  23974240.087    23974239.345    23974238.950    -3758534.390 3  -2928724.876 3
        19.900          22.600
  20968108.480    20968107.814    20968106.116   -23161382.443 6 -18047821.653 6
        41.600          41.000
  23274179.580    23274178.678    23274177.404   -12034207.871 3  -9377299.673 3
        23.800          19.900
  25464406.581    25464405.882    25464404.341     -923887.363 1   -719910.209 1
         6.500          11.000
  24957368.364    24957367.862    24957365.247    -1225867.234 1   -955200.797 3
        11.000          19.300
  22112723.658    22112723.087    22112721.919   -15656141.906 5 -12199585.702 5
        35.100          32.600
  23898199.425    23898198.775    23898199.511    -3390228.912 3  -2641733.623 3
        20.500          22.600
  22968581.511    22968580.010    22968578.201   -10492898.098 5  -8176281.227 5
        33.400          31.300
  20292770.380    20292770.103    20292766.929   -25540992.611 7 -19902062.560 8
        44.600          49.800
 09  1 23  0 11 30.0000000  0 10G 9G 6G18G21G28G15G14G 3G19G22
  21456440.368    21456439.965    21456439.467   -18028581.188 6 -14048237.651 5
        37.500          35.600
  23990432.736    23990432.808    23990433.346    -3673434.874 3  -2862413.589 3
        19.900          22.100
  20977073.696    20977073.034    20977071.313   -23114269.844 6 -18011110.537 6
        41.600          41.000
  23294901.638    23294901.118    23294899.678   -11925311.151 3  -9292445.112 3
        23.000          19.900
  25466425.188    25466425.872    25466424.431     -913270.882     -711637.693 1
                        11.000
  24977908.828    24977907.822    24977905.476    -1117928.576 1   -871092.754 3
        11.000          18.600
  22096375.810    22096375.280    22096374.197   -15742049.984 5 -12266527.049 5
        35.200          32.700
  23914262.837    23914262.092    23914262.455    -3305817.028 3  -2575958.153 3
        21.100          21.600
  22971809.931    22971808.359    22971806.931   -10475931.153 5  -8163060.213 5
        32.700          31.000
  20290498.211    20290497.897    20290494.901   -25552932.565 7 -19911366.415 8
        44.500          49.800
 09  1 23  0 12  0.0000000  0 10G 6G 9G18G21G28G15G14G 3G19G22
  24006670.936    24006671.035    24006671.800    -3588103.325 3  -2795921.476 3
        19.900          22.100
  21453086.759    21453086.215    21453085.281   -18046206.404 6 -14061971.579 5
        37.700          35.500
  20986105.641    20986105.034    20986103.216   -23066806.998 6 -17974126.499 6
        41.800          41.000
  23315664.392    23315663.675    23315662.509   -11816202.461 3  -9207425.383 3
        23.000          20.500
  25468540.096    25468539.455    25468539.898     -902149.467     -702972.483 1
                         6.500
  24998459.627    24998459.219    24998456.867    -1009931.134 2   -786938.901 3
        13.900          18.600
  22080090.066    22080089.720    22080088.476   -15827631.362 5 -12333213.828 5
        35.200          32.600
  23930379.199    23930378.513    23930378.857    -3221124.667 3  -2509964.126 3
        21.100          21.100
  22975147.764    22975146.205    22975144.297   -10458391.007 5  -8149392.563 5
        32.300          30.400
  20288301.493    20288301.101    20288297.997   -25564477.108 7 -19920362.158 8
        44.500          49.900
 09  1 23  0 12 30.0000000  0 10G 6G 9G18G21G28G15G14G 3G19G22
  24022953.929    24022953.515    24022954.159    -3502536.403 3  -2729245.964 3
        19.300          21.600
  21449870.756    21449870.327    21449869.771   -18063104.787 6 -14075139.146 5
        37.600          35.400
  20995205.208    20995204.600    20995202.809   -23018988.246 6 -17936865.130 6
        41.800          40.800
  23336467.714    23336467.534    23336466.273   -11706878.051 3  -9122237.537 3
        23.000          19.900
  25470753.588    25470753.276    25470751.740     -890517.510     -693908.761 1
                         6.500
  25019021.581    25019021.695    25019020.323     -901870.390 2   -702735.701 3
        13.900          18.600
  22063868.369    22063867.789    22063866.617   -15912878.126 5 -12399639.872 5
        35.200          32.700
  23946549.685    23946549.115    23946549.550    -3136148.298 3  -2443748.768 3
        20.500          20.500
  22978595.782    22978594.018    22978592.079   -10440272.883 5  -8135274.535 5
        32.100          30.400
  20286180.985    20286180.643    20286177.593   -25575619.841 7 -19929044.804 8
        44.500          49.900
 09  1 23  0 13  0.0000000  0 10G 6G 9G18G21G28G15G14G 3G19G22
  24039280.136    24039280.384    24039281.098    -3416736.618 2  -2662389.027 3
        17.800          19.900
  21446793.771    21446793.237    21446792.548   -18079275.104 6 -14087739.387 5
        37.400          35.400
  21004372.491    21004371.910    21004370.129   -22970813.836 6 -17899326.623 6
        41.800          40.800
  23357312.367    23357311.764    23357310.694   -11597339.974 3  -9036883.217 3
        22.100          19.900
  25473064.897    25473063.880    25473062.525     -878374.855     -684446.950 1
         3.000          11.000
  25039596.995    25039596.855    25039595.398     -793748.012 2   -618484.490 3
        13.900          18.600
  22047710.534    22047709.931    22047708.751   -15997788.513 5 -12465803.796 5
        35.400          32.800
  23962773.791    23962773.340    23962773.425    -3050891.027 3  -2377314.542 3
        19.900          19.900
  22982153.039    22982151.809    22982149.935   -10421577.263 5  -8120706.505 5
        32.300          30.400
  20284137.268    20284136.894    20284133.807   -25586360.130 7 -19937413.854 8
        44.600          49.900
 09  1 23  0 13 30.0000000  0 10G 6G 9G18G21G28G15G14G 3G19G22
  24055652.879    24055652.002    24055651.890    -3330707.784 3  -2595353.578 3
        19.900          19.300
  21443855.089    21443854.630    21443853.998   -18094717.614 6 -14099772.502 5
        37.600          35.600
  21013607.053    21013606.438    21013604.827   -22922285.393 6 -17861512.248 6
        41.600          40.800
  23378197.181    23378196.294    23378195.124   -11487591.116 3  -8951364.656 3
        21.600          19.900
  25475473.893    25475473.215    25475471.182     -865722.963 1   -674588.257 1
         9.000          11.000
  25060185.143    25060184.301    25060181.193     -685566.623 2   -534187.290 2
        12.600          17.800
  22031616.671    22031616.130    22031615.011   -16082361.934 5 -12531705.155 5
        35.700          33.100
  23979050.121    23979049.339    23979050.201    -2965356.554 3  -2310664.322 3
        19.900          20.500
  22985820.562    22985819.063    22985816.938   -10402305.881 5  -8105689.844 5
        32.400          30.600
  20282169.907    20282169.569    20282166.508   -25596698.277 7 -19945469.548 8
        44.500          49.900
 09  1 23  0 14  0.0000000  0 10G 6G 9G18G21G28G15G14G 3G19G22
  24072064.422    24072064.392    24072064.153    -3244460.068 3  -2528147.558 3
        19.900          19.300
  21441053.681    21441053.191    21441052.922   -18109438.772 6 -14111243.528 5
        37.600          35.800
  21022907.558    21022906.997    21022905.352   -22873410.789 6 -17823428.136 6
        41.600          40.700
  23399119.388    23399118.780    23399117.781   -11377641.299 3  -8865689.519 3
        21.100          19.300
  25477975.376    25477974.729    25477972.443     -852569.373     -664338.778 1
         3.000           9.000
  25080779.797    25080779.390    25080777.103     -577335.215 2   -449851.118 2
        12.600          17.000
  22015585.848    22015585.205    22015584.124   -16166604.465 5 -12597348.677 5
        35.800          33.000
  23995377.462    23995376.874    23995377.892    -2879555.194 3  -2243806.141 3
        20.500          21.600
  22989595.520    22989594.001    22989592.502   -10382466.887 5  -8090230.886 5
        32.000          31.000
  20280277.823    20280277.483    20280274.381   -25606641.404 7 -19953217.434 8
        44.600          49.900
 09  1 23  0 14 30.0000000  0 10G 6G 9G18G21G28G15G14G 3G19G22
  24088518.627    24088518.419    24088519.273    -3157989.213 3  -2460767.700 3
        18.600          19.300
  21438390.974    21438390.593    21438390.205   -18123430.852 6 -14122146.444 5
        37.700          35.700
  21032275.455    21032274.735    21032272.931   -22824183.651 6 -17785069.324 6
        41.600          40.600
  23420081.907    23420081.197    23420079.600   -11267485.416 3  -8779853.797 3
        21.100          18.600
  25480575.204    25480573.183    25480575.194     -838907.734     -653693.327 2
                        12.600
  25101386.358    25101385.965    25101382.868     -469048.537 1   -365471.891 2
        11.000          16.100
  21999619.640    21999619.022    21999617.959   -16250507.386 5 -12662727.569 5
        35.900          33.200
  24011756.222    24011756.248    24011756.428    -2793483.070 3  -2176736.967 3
        19.900          21.600
  22993480.240    22993478.674    22993476.822   -10362054.277 5  -8074324.956 5
        31.800          30.800
  20278462.204    20278461.895    20278458.815   -25616182.097 7 -19960651.737 8
        44.500          49.900
 09  1 23  0 15  0.0000000  0 10G 6G 9G18G21G28G15G14G 3G19G22
  24105015.862    24105015.560    24105016.183    -3071298.040 3  -2393216.150 3
        19.300          18.600
  21435867.522    21435867.074    21435866.549   -18136692.831 6 -14132480.446 5
        37.700          35.700
  21041709.972    21041709.408    21041707.718   -22774604.219 6 -17746435.997 6
        41.600          40.600
  23441082.450    23441081.866    23441080.700   -11157125.594 3  -8693859.157 3
        21.100          19.300
  25483273.083    25483272.531    25483270.706     -824738.547     -642652.333 1
         3.000           9.000
  25122002.275    25122002.618    25121999.932     -360708.146 1   -281050.807 2
         6.500          15.100
  21983718.382    21983717.860    21983716.581   -16334069.153 6 -12727840.623 5
        36.300          33.200
  24028186.616    24028186.020    24028186.341    -2707142.794 3  -2109458.839 3
        19.300          21.100
  22997473.570    22997471.960    22997470.202   -10341069.149 5  -8057972.914 5
        32.000          30.400
  20276723.554    20276723.178    20276719.977   -25625319.727 7 -19967771.963 8
        44.600          49.900
 09  1 23  0 15 30.0000000  0 10G 6G 9G18G21G28G15G14G 3G19G22
  24121553.851    24121553.320    24121553.921    -2984390.783 3  -2325496.212 3
        18.600          19.300
  21433482.599    21433482.078    21433481.490   -18149225.490 6 -14142246.148 5
        37.700          35.500
  21051211.428    21051210.765    21051209.007   -22724674.526 6 -17707529.741 6
        41.700          40.500
  23462121.829    23462121.177    23462119.307   -11046565.262 3  -8607708.284 3
        21.100          19.300
  25486064.702    25486064.004    25486061.045     -810063.595     -631217.396 1
         3.000           6.500
  25142628.846    25142628.824    25142626.905     -252317.244     -196590.372 2
         3.000          15.100
  21967881.914    21967881.456    21967880.201   -16417289.767 6 -12792687.844 5
        36.500          33.400
  24044667.279    24044666.852    24044667.001    -2620538.800 3  -2041975.230 3
        19.300          20.500
  23001575.230    23001573.851    23001572.222   -10319513.750 5  -8041176.494 5
        32.000          30.600
  20275061.105    20275060.763    20275057.650   -25634055.326 7 -19974578.920 8
        44.500          50.000
 09  1 23  0 16  0.0000000  0 10G 6G 9G18G21G28G15G14G 3G19G22
  24138132.452    24138132.568    24138132.579    -2897269.119 3  -2257609.215 3
        19.300          18.600
  21431236.577    21431236.277    21431235.565   -18161027.108 6 -14151442.208 5
        37.700          35.300
  21060779.167    21060778.534    21060776.937   -22674394.427 6 -17668350.436 6
        41.400          40.300
  23483198.004    23483197.716    23483196.381   -10935805.946 3  -8521402.326 3
        21.100          18.600
  25488952.520    25488952.410    25488952.191     -794882.060     -619387.705 1
                         6.500
  25163264.385    25163263.561    25163262.468     -143876.381     -112091.012 2
                        13.900
  21952111.008    21952110.525    21952109.408   -16500166.468 6 -12857267.077 5
        36.500          33.600
  24061197.825    24061196.564    24061196.593    -2533673.035 3  -1974287.645 3
        19.900          19.900
  23005785.807    23005784.401    23005782.339   -10297388.142 5  -8023935.758 4
        32.600          29.900
  20273475.392    20273475.098    20273472.026   -25642387.592 7 -19981071.590 8
        44.500          50.000
 09  1 23  0 16 30.0000000  0 10G 6G 9G18G21G28G15G14G 3G19G22
  24154752.036    24154751.184    24154751.234    -2809936.864 3  -2189558.113 3
        19.900          18.600
  21429130.297    21429129.721    21429129.107   -18172097.858 6 -14160068.764 5
        37.700          35.500
  21070413.563    21070412.986    21070411.306   -22623765.182 6 -17628899.075 6
        41.300          40.200
  23504312.690    23504312.009    23504310.496   -10824850.980 3  -8434943.937 2
        21.100          17.800
  25491939.612    25491939.734    25491938.561     -779195.862 1   -607164.515 1
         9.000           9.000
  25183908.312    25183907.961    25183906.265      -35388.619      -27555.073 2
                        12.600
  21936405.792    21936405.182    21936403.859   -16582699.080 6 -12921578.190 5
        36.500          33.600
  24077776.295    24077775.590    24077775.798    -2446549.837 3  -1906399.441 3
        19.900          19.900
  23010104.476    23010103.057    23010100.776   -10274694.131 5  -8006252.112 5
        33.200          30.100
  20271966.499    20271966.156    20271963.149   -25650317.176 7 -19987250.484 8
        44.500          50.100
 09  1 23  0 17  0.0000000  0 10G 6G 9G18G21G28G15G14G 3G19G22
  24171407.843    24171407.378    24171407.716    -2722407.544 2  -2121353.458 3
        17.800          19.300
  21427160.675    21427160.196    21427159.450   -18182447.983 6 -14168133.795 5
        37.700          35.600
  21080112.388    21080111.749    21080109.920   -22572798.049 6 -17589184.421 6
        41.400          39.900
  23525461.456    23525460.814    23525459.278   -10713713.033 3  -8348342.965 2
        19.300          17.800
  25495018.534    25495017.839    25495015.955     -763015.671 1   -594556.644 1
         6.500          11.000
  25204559.155    25204559.805    25204557.739       73134.204       57008.145 2
                        13.900
  21920763.974    21920763.366    21920762.172   -16664896.647 6 -12985628.229 5
        36.500          33.800
  24094401.124    24094400.268    24094400.970    -2359182.201 3  -1838320.798 3
        19.300          19.900
  23014529.040    23014527.537    23014525.430   -10251443.524 5  -7988134.755 5
        33.100          30.600
  20270532.242    20270531.906    20270528.906   -25657854.296 7 -19993123.558 8
        44.500          50.100
 09  1 23  0 17 30.0000000  0 10G 6G 9G18G21G28G15G14G 3G19G22
  24188105.520    24188105.219    24188105.020    -2634662.136 2  -2052980.452 3
        17.000          18.600
  21425332.387    21425331.906    21425331.405   -18192054.853 6 -14175619.658 5
        37.700          35.500
  21089879.504    21089878.870    21089877.108   -22521471.636 6 -17549189.809 6
        41.400          39.800
  23546648.845    23546648.169    23546646.731   -10602372.362 3  -8261584.036 2
        19.300          17.800
  25498194.352    25498194.230    25498192.619     -746321.102     -581547.877 2
         3.000          12.600
  25225219.570    25225221.498    25225219.383      181712.147      141614.358 2
         3.000          12.600
  21905190.263    21905189.835    21905188.737   -16746735.868 6 -13049399.034 5
        36.500          33.900
  24111076.957    24111076.528    24111076.990    -2271551.509 3  -1770037.175 3
        20.500          19.300
  23019062.995    23019061.637    23019059.788   -10227615.554 5  -7969567.495 5
        32.800          30.800
  20269177.107    20269176.692    20269173.493   -25664976.501 7 -19998673.325 8
        44.600          50.100
 09  1 23  0 18  0.0000000  0 10G 6G 9G18G21G28G15G14G 3G19G22
  24204842.365    24204841.601    24204841.411    -2546709.912 2  -1984446.269 2
        16.100          17.800
  21423644.821    21423644.309    21423643.491   -18200924.327 6 -14182530.929 5
        37.900          35.500
  21099713.487    21099712.892    21099711.181   -22469793.271 6 -17508920.952 6
        41.300          39.800
  23567873.871    23567872.962    23567871.144   -10490837.515 3  -8174673.800 2
        20.500          17.800
  25501466.971    25501466.075    25501465.858     -729118.650     -568143.274 1
         3.000          11.000
  25245891.750    25245892.925    25245889.692      290336.828 1    226256.983 1
         6.500          11.000
  21889684.032    21889683.562    21889682.579   -16828221.634 6 -13112894.422 5
        36.700          34.000
  24127801.814    24127800.872    24127800.333    -2183667.295 3  -1701555.981 3
        20.500          18.600
  23023706.151    23023704.651    23023702.311   -10203217.752 5  -7950556.227 5
        32.800          30.400
  20267899.479    20267899.144    20267895.970   -25671689.950 7 -20003904.578 8
        44.600          50.000
 09  1 23  0 18 30.0000000  0 10G 6G 9G18G21G28G15G14G 3G19G22
  24221615.881    24221615.198    24221614.610    -2458563.701 2  -1915760.920 2
        15.100          17.800
  21422095.469    21422094.873    21422094.143   -18209065.864 6 -14188874.979 5
        37.700          35.300
  21109612.666    21109611.988    21109610.106   -22417773.495 6 -17468386.058 6
        41.200          39.500
  23589132.943    23589132.161    23589129.927   -10379120.993 3  -8087621.997 2
        21.100          17.800
  25504835.919    25504835.756    25504833.673     -711418.663     -554351.071 1
                        11.000
  25266569.163    25266569.345    25266567.814      398996.911 1    310927.191 1
         6.500          11.000
  21874243.554    21874243.034    21874241.924   -16909362.519 6 -13176121.067 5
        36.900          34.300
  24144571.450    24144570.458    24144569.678    -2095542.310 3  -1632887.163 3
        19.300          18.600
  23028454.633    23028453.089    23028451.527   -10178261.131 5  -7931109.510 5
        31.800          30.400
  20266697.888    20266697.548    20266694.373   -25678004.464 7 -20008824.975 8
        44.700          50.100
 09  1 23  0 19  0.0000000  0 10G 6G 9G18G21G28G15G14G 3G19G22
  24238426.879    24238425.930    24238425.722    -2370221.783 2  -1846923.072 2
        16.100          17.800
  21420685.447    21420685.125    21420684.366   -18216474.823 6 -14194648.195 5
        38.000          35.400
  21119577.303    21119576.678    21119574.992   -22365408.268 6 -17427581.981 6
        41.100          39.500
  23610426.912    23610425.864    23610424.008   -10267220.324 3  -8000426.686 3
        22.100          18.600
  25508300.480    25508298.622    25508297.986     -693217.627     -540168.471 1
                         6.500
  25287253.978    25287253.399    25287254.159      507695.139 1    395627.140 1
         6.500          11.000
  21858869.525    21858869.146    21858868.001   -16990152.739 6 -13239074.471 5
        37.200          34.400
  24161385.908    24161385.719    24161386.075    -2007175.053 2  -1564029.589 3
        17.800          19.300
  23033310.847    23033309.164    23033307.632   -10152742.457 5  -7911224.833 5
        31.300          30.800
  20265573.092    20265572.745    20265569.595   -25683915.072 7 -20013430.639 8
        44.700          50.100
 09  1 23  0 19 30.0000000  0 10G 6G 9G18G21G28G15G14G 3G19G22
  24255274.848    24255275.186    24255273.822    -2281684.941 2  -1777933.359 2
        17.800          17.800
  21419415.592    21419415.135    21419414.483   -18223148.390 6 -14199848.369 5
        37.800          35.500
  21129608.161    21129607.545    21129605.805   -22312696.110 6 -17386507.571 6
        41.100          39.400
  23631755.571    23631754.718    23631752.991   -10155135.699 3  -7913088.039 2
        21.600          17.800
  25511859.300    25511858.839    25511856.698     -674514.010     -525594.274 1
         3.000           9.000
  25307948.275    25307947.463    25307944.724      616431.852 1    480357.015 1
         9.000          11.000
  21843563.193    21843562.690    21843561.529   -17070588.730 6 -13301751.851 5
        37.200          34.400
  24178246.751    24178247.137    24178247.694    -1918566.915 2  -1494984.285 3
        17.000          18.600
  23038274.130    23038272.434    23038270.915   -10126661.082 5  -7890901.682 5
        31.600          30.800
  20264525.667    20264525.319    20264522.111   -25689419.641 7 -20017719.908 8
        44.700          50.100
 09  1 23  0 20  0.0000000  0 10G 6G 9G18G21G28G15G14G 3G19G22
  24272158.440    24272158.227    24272158.826    -2192958.197 2  -1708795.664 3
        17.000          19.300
  21418285.341    21418284.920    21418283.953   -18229088.298 6 -14204476.858 5
        37.800          35.300
  21139704.426    21139703.780    21139702.017   -22259639.503 6 -17345164.760 6
        41.000          39.200
  23653119.088    23653118.171    23653116.106   -10042871.519 3  -7825609.475 2
        20.500          17.000
  25515512.951    25515512.960    25515510.612     -655310.624 1   -510630.585 1
         6.500           9.000
  25328646.258    25328646.478    25328642.757      725203.289 1    565113.986 1
        11.000           6.500
  21828324.035    21828323.584    21828322.415   -17150671.105 6 -13364153.685 5
        37.300          34.700
  24195154.556    24195153.877    24195154.456    -1829722.443 2  -1425754.857 2
        17.800          17.800
  23043343.287    23043341.959    23043340.365   -10100019.973 5  -7870142.374 5
        31.500          30.400
  20263555.140    20263554.810    20263551.667   -25694519.279 7 -20021693.649 8
        44.700          50.100
 09  1 23  0 20 30.0000000  0 10G 6G 9G18G21G28G15G14G 3G19G22
  24289077.375    24289076.756    24289077.148    -2104051.268 2  -1639517.569 3
        16.100          19.300
  21417293.258    21417292.821    21417291.927   -18234301.185 6 -14208538.847 5
        38.100          35.300
  21149864.749    21149864.185    21149862.312   -22206246.723 6 -17303559.991 6
        41.100          39.100
  23674513.891    23674513.274    23674511.944    -9930437.024 3  -7737998.191 2
        18.600          16.100
  25519258.836    25519259.770    25519259.150     -635615.276     -495283.505 1
         3.000           6.500
  25349347.485    25349347.411    25349346.011      834000.794 1    649891.250 1
         9.000          11.000
  21813151.153    21813150.617    21813149.383   -17230405.336 6 -13426284.236 5
        37.400          34.800
  24212104.080    24212103.783    24212103.997    -1740651.827 2  -1356349.178 2
        17.800          17.000
  23048518.018    23048516.745    23048514.740   -10072827.228 5  -7848953.221 4
        32.000          29.900
  20262660.453    20262660.094    20262656.931   -25699221.355 7 -20025357.600 8
        44.700          50.100
 09  1 23  0 21  0.0000000  0 10G 6G 9G18G21G28G15G14G 3G19G22
  24306030.458    24306030.421    24306030.648    -2014959.331 2  -1570095.287 3
        17.000          18.600
  21416441.403    21416440.875    21416439.818   -18238778.938 6 -14212027.999 5
        38.100          35.200
  21160090.393    21160089.725    21160088.071   -22152510.431 6 -17261687.552 6
        41.000          39.100
  23695942.416    23695941.960    23695941.002    -9817826.646 2  -7650249.855 2
        15.100          16.100
  25523103.849    25523104.788    25523103.789     -615420.572 1   -479547.421 1
         6.500           9.000
  25370055.144    25370053.778    25370056.753      942830.491      734693.618 2
         3.000          12.600
  21798046.251    21798045.776    21798044.347   -17309782.422 6 -13488136.496 5
        37.700          34.900
  24229098.019    24229098.051    24229096.728    -1651350.362 3  -1286763.665 2
        18.600          17.000
  23053799.103    23053797.568    23053795.744   -10045076.578 5  -7827329.341 5
        31.800          30.100
  20261842.772    20261842.489    20261839.470   -25703517.488 7 -20028705.231 8
        44.700          50.200
 09  1 23  0 21 30.0000000  0  9G 6G 9G18G21G28G14G 3G19G22
  24323018.961    24323019.384    24323018.414    -1925685.780 2  -1500531.506 2
        17.800          17.000
  21415728.955    21415728.460    21415727.599   -18242521.750 6 -14214944.472 5
        37.800          35.100
  21170381.503    21170380.745    21170378.878   -22098431.566 6 -17219548.178 6
        41.000          38.900
  23717404.296    23717403.458    23717403.098    -9705043.203 2  -7562366.699 2
        15.100          17.000
  25527036.787    25527034.239    25527043.439     -594728.037     -463423.416 1
                         6.500
  21783009.458    21783008.829    21783007.736   -17388801.478 6 -13549709.767 5
        37.700          35.300
  24246134.495    24246133.860    24246133.637    -1561821.669 2  -1217001.064 2
        17.000          17.000
  23059185.706    23059184.203    23059182.506   -10016769.780 5  -7805272.095 5
        31.800          30.200
  20261102.536    20261102.214    20261099.104   -25707407.901 7 -20031736.718 8
        44.700          50.100
 09  1 23  0 22  0.0000000  0  9G 6G 9G18G21G28G14G 3G19G22
  24340041.492    24340041.273    24340040.507    -1836236.402 3  -1430830.706 2
        19.300          17.000
  21415156.009    21415155.480    21415154.486   -18245532.788 6 -14217290.732 5
        37.900          35.100
  21180736.650    21180736.038    21180734.219   -22044013.756 6 -17177144.686 6
        41.000          38.700
  23738898.306    23738897.976    23738896.975    -9592091.868 2  -7474352.711 2
        15.100          15.100
  25531073.492    25531074.429    25531069.049     -573541.403     -446915.237 1
         3.000           6.500
  21768040.275    21768039.800    21768038.643   -17467463.917 6 -13611005.154 5
        37.700          35.400
  24263213.760    24263212.739    24263213.121    -1472071.483 2  -1147065.870 2
        16.100          17.800
  23064677.082    23064675.550    23064674.024    -9987911.136 5  -7782784.836 5
        31.500          30.100
  20260438.929    20260438.585    20260435.472   -25710895.147 7 -20034454.049 8
        44.700          50.100
 09  1 23  0 22 30.0000000  0  9G 6G 9G18G21G28G14G 3G19G22
  24357097.986    24357097.540    24357098.017    -1746600.418 2  -1360984.495 2
        17.000          17.000
  21414724.821    21414724.375    21414723.911   -18247797.583 6 -14219055.501 5
        37.700          35.600
  21191158.881    21191158.305    21191156.597   -21989243.905 6 -17134466.876 6
        40.900          38.600
  23760426.336    23760426.092    23760425.138    -9478961.117 2  -7386198.901 2
        17.000          15.100
  25535201.366    25535200.609    25535200.067     -551847.687     -430011.066 1
         3.000           9.000
  21753141.962    21753141.398    21753140.267   -17545755.195 6 -13672011.325 5
        37.800          35.400
  24280336.461    24280335.808    24280335.590    -1382089.264 2  -1076949.871 2
        15.100          17.800
  23070276.325    23070274.473    23070272.977    -9958488.385 5  -7759858.011 5
        31.500          30.100
  20259854.699    20259854.330    20259851.187   -25713965.488 7 -20036846.519 8
        44.700          50.100
 09  1 23  0 23  0.0000000  0  9G 6G 9G18G21G28G14G 3G19G22
  24374187.498    24374187.491    24374188.146    -1656788.497 2  -1291001.211 2
        15.100          17.000
  21414434.415    21414434.009    21414433.501   -18249323.598 6 -14220244.598 5
        37.900          35.500
  21201646.804    21201646.146    21201644.273   -21934130.552 6 -17091521.403 6
        40.900          38.500
  23781986.504    23781986.429    23781985.186    -9365661.234 2  -7297913.297 2
        17.000          15.100
  25539425.996    25539424.963    25539424.092     -529655.738 1   -412718.690 1
         6.500          11.000
  21738313.046    21738312.426    21738311.412   -17623681.350 6 -13732732.988 5
        37.800          35.500
  24297501.640    24297501.043    24297501.174    -1291885.845 2  -1006661.490 3
        17.000          18.600
  23075980.760    23075979.268    23075977.653    -9928510.233 5  -7736498.410 5
        31.800          30.200
  20259348.204    20259347.969    20259344.865   -25716626.336 7 -20038919.905 8
        44.700          50.100
 09  1 23  0 23 30.0000000  0  9G 6G 9G18G21G28G14G 3G19G22
  24391312.043    24391312.145    24391311.758    -1566803.700 2  -1220883.201 2
        16.100          17.000
  21414284.859    21414284.234    21414283.583   -18250111.031 6 -14220858.175 5
        37.900          35.400
  21212199.564    21212198.956    21212197.289   -21878674.304 6 -17048308.741 6
        40.800          38.500
  23803578.912    23803578.297    23803577.311    -9252194.460 2  -7209497.666 2
        17.800          13.900
  25543739.680    25543738.990    25543736.033     -506966.387     -395038.607 1
                         6.500
  21723553.657    21723553.207    21723552.150   -17701241.381 6 -13793169.356 5
        37.700          35.500
  24314708.152    24314707.982    24314707.661    -1201464.158 3   -936203.032 3
        18.600          18.600
  23081790.800    23081789.561    23081787.364    -9897978.310 5  -7712707.295 5
        32.000          30.100
  20258919.962    20258919.604    20258916.380   -25718877.656 7 -20040674.177 8
        44.700          50.100
 09  1 23  0 24  0.0000000  0  9G 6G 9G18G21G28G14G 3G19G22
  24408468.169    24408468.474    24408466.817    -1476651.102 3  -1150634.410 2
        18.600          17.000
  21414274.863    21414274.397    21414273.798   -18250161.967 6 -14220897.862 5
        37.700          35.400
  21222817.273    21222816.609    21222814.887   -21822878.887 6 -17004831.792 6
        41.000          38.400
  23825202.071    23825201.522    23825199.565    -9138565.514 3  -7120955.633 2
        18.600          13.900
  25548152.735    25548152.137    25548151.633     -483782.772     -376973.435 1
         3.000           9.000
  21708864.059    21708863.525    21708862.561   -17778436.110 6 -13853321.076 5
        37.900          35.800
  24331954.197    24331954.282    24331954.991    -1110829.781 2   -865578.885 3
        16.100          18.600
  23087705.623    23087703.937    23087702.042    -9866896.740 5  -7688487.898 5
        31.800          30.200
  20258569.132    20258568.753    20258565.529   -25720721.385 7 -20042110.844 8
        44.800          50.000
 09  1 23  0 24 30.0000000  0  9G 6G 9G18G21G28G14G 3G19G22
  24425651.446    24425651.416    24425651.213    -1386348.807 2  -1080269.009 2
        17.000          17.000
  21414402.362    21414401.996    21414401.432   -18249491.790 6 -14220375.635 5
        37.800          35.400
  21233496.351    21233495.748    21233493.974   -21766759.857 6 -16961102.674 6
        41.000          38.300
  23846852.500    23846852.342    23846850.283    -9024791.951 3  -7032300.921 2
        18.600          13.900
  25552656.491    25552654.578    25552654.918     -460120.996     -358535.714 2
                        13.900
