     2.11           OBSERVATION DATA    G (GPS)             RINEX VERSION / TYPE
teqc  2008Oct2      WCDA Operator       20090113 00:18:48UTCPGM / RUN BY / DATE
Solaris x86 5.10|AMD64|cc SC5.8 -xarch=amd64|=+|=+          COMMENT
teqc  2008Oct2      WCDA Operator       20090112 01:18:29UTCCOMMENT
flin  WCDA-ACP   965000   CFS Flin Flon SASK Canada         MARKER NAME
40135M001                                                   MARKER NUMBER
PGC-WCDA            GEOL. SURV. CANADA                      OBSERVER / AGENCY
1115                AOA BENCHMARK ACT   3.3.32.4            REC # / TYPE / VERS
231                 AOAD/M_T        SCIS                    ANT # / TYPE
  -766174.4630 -3611375.3160  5184056.2210                  APPROX POSITION XYZ
        0.1500        0.0000        0.0000                  ANTENNA: DELTA H/E/N
     1     1                                                WAVELENGTH FACT L1/2
     7    C1    P1    P2    L1    L2    S1    S2            # / TYPES OF OBSERV
STATION INFORMATION EFFECTIVE FROM: 2001/01/13 18:20:00     COMMENT
                                TO: CURRENT DATE (above)    COMMENT
BIT 2 OF LLI FLAGS (+4) DATA COLLECTED UNDER 'AS' CONDITION COMMENT
L1 PHASE CENTRE 0.110m ABOVE ARP                            COMMENT
L2 PHASE CENTRE 0.128m ABOVE ARP                            COMMENT
where ARP is the Antenna Reference Point for HI measurement COMMENT
CONTACT gps@pgc.nrcan.gc.ca FOR ADDITIONAL INFORMATION      COMMENT
    P1 =    P1  TurboRogue; =    Y1  Benchmark              COMMENT
    L1 = L1(CA)                                             COMMENT
    P2 =    P2  TurboRogue; =    Y2  Benchmark              COMMENT
    L2 = L2(P2) TurboRogue; = L2(Y2) Benchmark              COMMENT
 SNR is mapped to RINEX snr flag value [0-9]                COMMENT
  L1 & L2: min(max(int(snr_dBHz/6), 0), 9)                  COMMENT
  2009     1    12     0     0    0.0000000     GPS         TIME OF FIRST OBS
                                                            END OF HEADER
 09  1 12  0  0  0.0000000  0 10G21G22G26G19G15G 6G14G 3G18G 9
  21298439.457    21298438.596    21298436.870   -22400635.766 6 -17455033.216 5
        38.400          35.100
  21007800.702    21007800.215    21007797.198   -21803497.420 6 -16989729.699 7
        41.600          43.100
  24222509.361    24222508.832    24222508.680     -426606.379 1   -332410.251 2
        11.000          16.100
  23286615.913    23286614.481    23286613.428    -9091124.689 4  -7083991.490 4
        26.200          29.200
  22781537.804    22781537.612    22781536.183   -10851733.410 5  -8455884.913 5
        30.800          33.500
  22564622.341    22564621.698    22564621.569   -11277004.516 5  -8787271.790 5
        30.600          31.600
  24313354.174    24313353.498    24313352.235    -4806755.898 2  -3745522.037 3
        13.900          18.600
  22572477.415    22572476.466    22572476.535   -10062870.603 4  -7841193.594 5
        29.500          30.200
  20415272.178    20415271.338    20415270.181   -25996228.869 6 -20256791.309 7
        38.900          47.600
  22647107.699    22647107.000    22647106.952   -12375641.945 4  -9643348.442 4
        26.200          28.800
 09  1 12  0  0 30.0000000  0 10G21G22G26G19G15G 6G14G 3G18G 9
  21312064.388    21312063.678    21312062.070   -22329035.111 6 -17399240.498 5
        38.200          34.900
  20997649.004    20997648.431    20997645.255   -21856845.636 6 -17031299.730 7
        41.800          43.000
  24245510.951    24245510.699    24245510.115     -305733.239 1   -238223.373 2
        11.000          16.100
  23277699.512    23277697.946    23277696.615    -9137982.792 4  -7120504.288 4
        27.600          29.700
  22798108.403    22798108.415    22798107.029   -10764652.793 5  -8388029.886 5
        30.400          33.500
  22572673.863    22572673.243    22572672.936   -11234693.038 5  -8754301.807 5
        30.200          31.300
  24291973.932    24291972.793    24291971.059    -4919114.250 2  -3833073.946 3
        13.900          19.300
  22579277.889    22579277.198    22579277.129   -10027131.160 4  -7813344.685 4
        29.200          29.900
  20416311.449    20416310.589    20416308.399   -25990767.038 6 -20252535.335 7
        38.900          47.500
  22630523.448    22630522.670    22630522.171   -12462795.341 4  -9711260.162 4
        27.100          29.000
 09  1 12  0  1  0.0000000  0 10G21G26G19G15G 6G14G 3G18G22G 9
  21325771.765    21325770.953    21325769.285   -22257002.929 6 -17343111.534 5
        38.100          34.900
  24268542.835    24268542.177    24268541.791     -184701.875 1   -143913.203 2
        11.000          17.000
  23268884.858    23268883.541    23268881.914    -9184304.537 4  -7156599.144 5
        28.100          30.100
  22814739.325    22814739.049    22814737.594   -10677258.821 5  -8319930.689 5
        30.800          33.400
  22580822.737    22580822.066    22580821.837   -11191870.812 5  -8720933.834 5
        30.400          31.500
  24270617.036    24270616.419    24270614.607    -5031342.475 2  -3920524.459 3
        15.100          18.600
  22586186.289    22586185.664    22586185.627    -9990825.905 4  -7785054.876 4
        29.000          29.700
  20417426.260    20417425.423    20417424.320   -25984908.868 6 -20247970.520 7
        39.000          47.600
  20987560.576    20987560.065    20987557.152   -21909859.105 6 -17072608.918 7
        41.400          43.100
  22614025.733    22614025.306    22614024.988   -12549488.793 4  -9778813.465 4
        27.100          29.700
 09  1 12  0  1 30.0000000  0 10G21G26G19G15G 6G14G 3G18G22G 9
  21339561.504    21339560.567    21339558.983   -22184538.183 6 -17286645.505 5
        38.100          34.800
  24291604.664    24291603.479    24291602.643      -63513.114 1    -49480.397 2
         9.000          17.000
  23260173.237    23260171.506    23260169.781    -9230086.412 4  -7192273.321 5
        27.600          30.100
  22831429.462    22831429.236    22831428.053   -10589551.592 5  -8251587.395 5
        30.800          33.400
  22589069.121    22589068.570    22589067.999   -11148537.519 5  -8687167.633 5
        30.800          31.600
  24249286.227    24249285.689    24249283.757    -5143436.340 2  -4007870.276 2
        15.100          17.800
  22593202.929    22593202.111    22593202.280    -9953954.367 4  -7756323.798 4
        28.800          29.900
  20418616.873    20418616.041    20418613.710   -25978652.087 6 -20243095.104 7
        39.100          47.700
  20977536.628    20977536.140    20977533.180   -21962535.172 6 -17113655.190 7
        41.400          43.200
  22597617.356    22597616.876    22597616.389   -12635716.465 4  -9846003.823 4
        27.400          29.500
 09  1 12  0  2  0.0000000  0 10G21G26G19G15G 6G14G 3G18G22G 9
  21353432.117    21353431.262    21353429.530   -22111647.530 6 -17229847.603 5
        37.900          34.500
  24314693.866    24314692.684    24314691.900       57824.898 1     45068.709 2
         9.000          17.800
  23251563.474    23251561.903    23251559.623    -9275331.983 4  -7227529.589 4
        28.400          29.700
  22848177.714    22848177.617    22848175.818   -10501538.931 5  -8183006.096 5
        30.400          32.400
  22597410.833    22597410.220    22597409.940   -11104699.965 5  -8653008.497 5
        30.600          31.500
  24227979.153    24227978.778    24227978.077    -5255399.186 2  -4095114.006 2
        15.100          17.800
  22600325.749    22600324.959    22600325.065    -9916523.844 4  -7727157.159 5
        28.600          30.100
  20419882.355    20419881.545    20419880.404   -25972001.785 6 -20237913.047 7
        39.100          47.600
  20967576.248    20967575.764    20967572.721   -22014878.227 6 -17154441.975 7
        41.600          43.300
  22581297.310    22581296.427    22581296.011   -12721480.351 4  -9912832.797 4
        27.100          29.000
 09  1 12  0  2 30.0000000  0 10G21G26G19G15G 6G14G 3G18G22G 9
  21367385.205    21367384.376    21367382.461   -22038323.939 6 -17172712.342 5
        37.800          34.100
  24337812.756    24337812.308    24337811.262      179317.922 1    139738.583 3
         6.500          19.300
  23243057.340    23243055.601    23243053.565    -9320031.472 4  -7262360.349 4
        29.000          29.900
  22864985.129    22864984.930    22864983.388   -10413214.895 5  -8114182.171 5
        30.100          32.100
  22605850.047    22605849.329    22605849.272   -11060351.561 5  -8618451.290 5
        30.200          31.500
  24206700.635    24206699.842    24206698.853    -5367220.929 2  -4182247.769 2
        15.100          17.800
  22607556.491    22607555.497    22607555.701    -9878527.265 4  -7697549.442 5
        28.800          30.200
  20421224.237    20421223.442    20421221.244   -25964950.347 6 -20232418.418 7
        39.100          47.800
  20957680.863    20957680.267    20957677.321   -22066878.857 6 -17194961.936 7
        41.500          43.300
  22565067.370    22565066.759    22565065.681   -12806769.246 4  -9979291.652 4
        27.900          28.800
 09  1 12  0  3  0.0000000  0 11G21G26G19G15G24G 6G14G 3G18G22G 9
  21381419.673    21381418.897    21381416.921   -21964571.810 6 -17115243.155 5
        37.900          33.900
  24360960.285    24360959.435    24360959.565      300960.248 1    234524.790 3
         9.000          19.300
  23234654.848    23234653.152    23234651.510    -9364186.033 4  -7296766.495 5
        28.600          30.400
  22881850.981    22881850.737    22881849.152   -10324584.626 4  -8045119.621 5
        29.700          32.000
  25266158.321    25266157.370    25266157.248           -.1441           .2031
         3.000
  22614385.334    22614384.742    22614384.520   -11015496.941 4  -8583499.644 5
        29.900          31.100
  24185449.158    24185447.768    24185447.118    -5478902.229 2  -4269272.109 2
        16.100          17.800
  22614893.991    22614893.127    22614893.013    -9839969.276 4  -7667504.254 5
        28.800          30.100
  20422642.017    20422641.132    20422639.970   -25957500.469 6 -20226613.311 8
        39.100          48.000
  20947850.139    20947849.621    20947846.635   -22118539.271 6 -17235216.794 7
        41.500          43.400
  22548927.542    22548926.840    22548926.538   -12891582.295 4 -10045379.724 4
        27.600          29.000
 09  1 12  0  3 30.0000000  0 10G21G26G19G15G 6G14G 3G18G22G 9
  21395532.292    21395531.428    21395529.559   -21890409.558 6 -17057454.390 5
        37.600          33.800
  24384133.260    24384132.644    24384131.293      422731.993 1    329411.848 3
        11.000          19.300
  23226353.362    23226351.351    23226349.972    -9407811.446 4  -7330760.324 5
        28.400          30.600
  22898771.282    22898770.960    22898769.429   -10235667.670 4  -7975833.679 5
        29.500          32.100
  22623013.821    22623013.142    22623013.041   -10970154.956 4  -8548168.223 5
        29.700          31.000
  24164220.793    24164219.773    24164218.223    -5590457.937 2  -4356198.571 2
        16.100          16.100
  22622334.640    22622333.805    22622333.257    -9800868.669 4  -7637036.251 4
        29.500          29.500
  20424132.106    20424131.275    20424129.113   -25949669.134 6 -20220510.972 7
        39.100          47.800
  20938081.218    20938080.758    20938077.755   -22169875.070 6 -17275218.706 7
        41.500          43.500
  22532876.181    22532875.514    22532875.188   -12975933.011 4 -10111107.515 4
        27.100          29.700
 09  1 12  0  4  0.0000000  0 10G21G26G19G15G 6G14G 3G18G22G 9
  21409722.729    21409721.922    21409720.318   -21815836.755 6 -16999345.719 5
        37.300          33.800
  24407330.270    24407329.533    24407328.346      544632.003 2    424398.868 3
        15.100          19.300
  23218152.638    23218150.819    23218149.527    -9450904.137 4  -7364339.042 5
        27.900          30.400
  22915746.330    22915746.014    22915744.261   -10146464.678 4  -7906324.844 5
        29.200          32.300
  22631734.835    22631734.082    22631734.087   -10924325.636 4  -8512457.073 5
        29.500          31.100
  24143016.025    24143015.333    24143014.615    -5701884.848 2  -4443024.661 2
        16.100          16.100
  22629878.285    22629877.340    22629877.206    -9761225.645 4  -7606145.577 4
        29.000          29.200
  20425695.154    20425694.352    20425693.307   -25941454.956 6 -20214110.308 7
        39.200          47.700
  20928374.390    20928373.866    20928370.873   -22220884.765 6 -17314966.511 7
        41.400          43.600
  22516913.817    22516913.142    22516912.583   -13059816.412 4 -10176471.168 4
        27.900          29.700
 09  1 12  0  4 30.0000000  0 10G21G26G19G15G 6G14G 3G18G22G 9
  21423992.028    21423991.089    21423989.202   -21740853.352 6 -16940917.101 5
        37.500          33.500
  24430550.779    24430550.284    24430549.229      666659.189 2    519484.985 3
        12.600          18.600
  23210054.182    23210052.840    23210051.225    -9493461.021 4  -7397500.238 5
        28.100          30.200
  22932775.103    22932774.860    22932773.254   -10056976.401 4  -7836593.722 5
        28.600          32.400
  22640548.570    22640547.940    22640547.599   -10878009.331 4  -8476366.447 5
        29.500          31.000
  24121837.940    24121836.815    24121835.294    -5813179.131 2  -4529747.411 2
        16.100          15.100
  22637525.179    22637524.222    22637524.153    -9721040.359 4  -7574832.371 4
        28.600          29.200
  20427331.435    20427330.627    20427328.479   -25932856.529 6 -20207410.236 8
        39.300          48.000
  20918730.057    20918729.578    20918726.554   -22271565.664 6 -17354458.112 7
        41.500          43.600
  22501041.257    22501040.462    22501039.805   -13143227.660 4 -10241466.917 4
        28.100          29.900
 09  1 12  0  5  0.0000000  0 10G21G26G19G15G 6G14G 3G18G22G 9
  21438342.059    21438341.135    21438339.341   -21665443.176 6 -16882155.933 5
        37.500          33.500
  24453798.749    24453798.696    24453797.484      788828.492 2    614681.835 2
        12.600          17.800
  23202061.617    23202059.869    23202058.445    -9535463.183 4  -7430229.184 5
        27.900          30.400
  22949861.476    22949861.221    22949859.526    -9967187.347 4  -7766628.235 5
        28.800          32.100
  22649457.953    22649457.534    22649457.111   -10831190.020 4  -8439883.866 5
        29.500          31.000
  24100687.928    24100687.323    24100685.341    -5924321.376 2  -4616351.714 2
        17.000          15.100
  22645278.469    22645277.732    22645277.512    -9680296.465 4  -7543083.879 4
        28.600          29.200
  20429044.098    20429043.256    20429042.219   -25923856.167 6 -20200396.962 7
        39.300          47.800
  20909151.788    20909151.353    20909148.447   -22321899.406 6 -17393679.202 7
        41.400          43.800
  22485262.295    22485261.584    22485261.151   -13226145.520 4 -10306078.211 5
        28.100          30.200
 09  1 12  0  5 30.0000000  0 10G21G26G19G15G 6G14G 3G18G22G 9
  21452773.104    21452772.265    21452770.391   -21589607.314 6 -16823063.057 5
        37.300          33.200
  24477073.277    24477072.503    24477072.048      911137.215 1    709987.339 2
         9.000          16.100
  23194175.204    23194173.423    23194171.645    -9576909.215 4  -7462524.782 5
        28.100          30.400
  22967004.782    22967004.253    22967002.673    -9877100.085 4  -7696430.365 5
        28.800          31.600
  22658462.640    22658461.888    22658462.033   -10783869.578 4  -8403010.792 5
        29.000          31.300
  24079567.413    24079566.806    24079565.651    -6035309.329 2  -4702835.808 2
        17.000          15.100
  22653137.848    22653136.964    22653136.851    -9638996.073 4  -7510901.757 4
        28.600          29.200
  20430833.392    20430832.528    20430830.421   -25914453.949 6 -20193070.557 8
        39.300          48.100
  20899639.961    20899639.456    20899636.546   -22371884.939 6 -17432628.957 7
        41.400          44.000
  22469578.188    22469577.341    22469576.858   -13308566.707 4 -10370302.483 5
        28.600          30.100
 09  1 12  0  6  0.0000000  0 10G21G26G19G15G 6G14G 3G18G22G 9
  21467282.229    21467281.432    21467279.702   -21513360.823 6 -16763650.215 5
        37.000          33.400
  24500371.405    24500370.937    24500370.971     1033569.333 1    805388.981 2
         9.000          13.900
  23186391.338    23186389.832    23186388.145    -9617810.759 4  -7494396.112 5
        27.900          30.200
  22984201.495    22984201.143    22984199.419    -9786730.076 4  -7626012.178 5
        29.000          31.100
  22667559.751    22667559.237    22667559.248   -10736062.962 4  -8365758.883 5
        28.600          31.100
  24058474.230    24058473.699    24058472.498    -6146154.331 2  -4789208.514 2
        17.000          15.100
  22661100.048    22661099.240    22661098.917    -9597154.184 4  -7478297.679 4
        28.400          29.000
  20432696.476    20432695.652    20432694.568   -25904663.213 6 -20185441.406 8
        39.400          48.000
  20890191.894    20890191.385    20890188.584   -22421534.693 6 -17471317.065 7
        41.500          44.100
  22453986.436    22453985.609    22453985.338   -13390500.828 4 -10434147.233 4
        28.100          29.900
 09  1 12  0  6 30.0000000  0 10G21G26G19G15G 6G14G 3G18G22G 9
  21481869.149    21481868.453    21481866.755   -21436704.820 6 -16703918.273 5
        37.000          33.200
  24523692.613    24523691.020    24523691.634     1156122.706 1    900885.134 1
         6.500          11.000
  23178711.962    23178710.144    23178708.792    -9658165.950 4  -7525841.693 5
        27.600          30.200
  23001451.984    23001451.754    23001450.084    -9696079.348 4  -7555375.234 5
        29.900          31.500
  22676749.434    22676748.820    22676748.799   -10687771.816 4  -8328129.422 5
        28.600          30.600
  24037408.743    24037408.533    24037406.853    -6256853.768 2  -4875467.787 2
        17.000          16.100
  22669164.807    22669164.099    22669163.911    -9554772.151 4  -7445272.728 4
        28.400          29.000
  20434633.551    20434632.735    20434630.653   -25894483.706 6 -20177509.322 8
        39.400          48.200
  20880808.102    20880807.541    20880804.558   -22470847.623 6 -17509742.717 7
        41.600          44.100
  22438488.168    22438487.465    22438487.053   -13471944.482 4 -10497609.798 4
        27.600          29.700
 09  1 12  0  7  0.0000000  0 10G21G26G19G15G 6G14G 3G18G22G 9
  21496534.883    21496533.933    21496532.370   -21359636.672 6 -16643865.182 5
        36.500          32.800
  24547037.344    24547036.856    24547035.897     1278798.286 1    996476.489 1
         9.000           9.000
  23171137.825    23171136.033    23171134.403    -9697969.630 4  -7556857.535 5
        28.400          30.100
  23018756.097    23018755.653    23018753.895    -9605146.353 4  -7484518.343 5
        29.500          31.500
  22686031.468    22686030.869    22686030.758   -10638994.057 4  -8290120.781 5
        28.400          30.600
  24016371.611    24016370.581    24016370.898    -6367402.238 2  -4961609.416 2
        16.100          16.100
  22677333.135    22677332.193    22677332.180    -9511848.511 4  -7411825.737 4
        28.400          29.000
  20436645.308    20436644.467    20436643.338   -25883912.018 6 -20169271.639 8
        39.400          48.300
  20871489.103    20871488.537    20871485.453   -22519819.113 6 -17547902.311 7
        41.500          44.100
  22423084.999    22423084.242    22423083.555   -13552890.393 4 -10560684.511 5
        28.600          30.100
 09  1 12  0  7 30.0000000  0 10G21G26G19G15G 6G14G 3G18G22G 9
  21511278.566    21511277.667    21511275.715   -21282159.657 6 -16583493.493 5
        36.700          32.700
  24570404.539    24570403.848    24570401.400     1401591.800 1   1092159.775 1
         9.000           9.000
  23163668.507    23163666.876    23163664.871    -9737222.095 4  -7587443.854 4
        28.800          29.700
  23036112.790    23036112.643    23036110.722    -9513935.078 4  -7413444.629 5
        28.800          31.600
  22695405.750    22695404.897    22695405.011   -10589733.170 4  -8251735.676 5
        28.800          30.600
  23995363.742    23995362.565    23995363.446    -6477799.127 2  -5047632.937 3
        16.100          18.600
  22685603.899    22685602.949    22685602.834    -9468386.179 4  -7377958.985 4
        28.600          29.200
  20438731.447    20438730.582    20438728.526   -25872949.247 6 -20160729.217 8
        39.500          48.300
  20862234.768    20862234.290    20862231.379   -22568450.013 6 -17585796.509 7
        41.500          44.300
  22407776.142    22407775.476    22407775.232   -13633336.535 4 -10623369.800 5
        28.800          30.200
 09  1 12  0  8  0.0000000  0 10G21G26G19G15G 6G14G 3G18G22G 9
  21526100.140    21526099.190    21526097.321   -21204271.629 6 -16522801.522 5
        36.500          32.700
  24593795.073    24593793.963    24593793.141     1524504.102 1   1187935.634 1
         6.500           6.500
  23156304.120    23156302.751    23156301.210    -9775918.527 4  -7617596.905 4
        29.000          29.000
  23053523.165    23053522.612    23053521.000    -9422444.557 4  -7342153.313 5
        28.100          31.600
  22704872.050    22704871.435    22704871.051   -10539987.703 4  -8212972.976 5
        28.600          30.400
  23974385.757    23974385.061    23974384.786    -6588038.923 2  -5133534.037 3
        17.000          19.300
  22693976.782    22693976.014    22693976.223    -9424383.838 4  -7343671.448 4
        28.100          29.500
  20440892.535    20440891.745    20440890.613   -25861592.274 6 -20151879.624 8
        39.500          48.100
  20853046.394    20853045.824    20853042.791   -22616736.351 6 -17623422.223 7
        41.600          44.400
  22392564.062    22392563.426    22392563.124   -13713276.933 4 -10685660.997 5
        28.800          30.400
 09  1 12  0  8 30.0000000  0 10G21G26G19G15G 6G14G 3G18G22G 9
  21540997.844    21540996.879    21540995.090   -21125983.157 6 -16461797.529 5
        36.300          32.700
  24617204.792    24617202.988    24617204.077     1647523.638 1   1283795.010 1
         6.500           9.000
  23149044.730    23149043.522    23149041.637    -9814066.509 4  -7647322.592 4
        28.800          28.600
  23070983.557    23070983.119    23070982.030    -9330686.069 4  -7270653.200 5
        27.900          31.500
  22714427.984    22714427.458    22714427.493   -10489768.646 4  -8173841.244 5
        28.100          30.600
  23953436.414    23953435.698    23953435.467    -6698128.590 2  -5219318.162 3
        17.000          19.900
  22702451.278    22702450.509    22702450.142    -9379852.204 4  -7308971.470 4
        28.100          29.200
  20443126.903    20443126.105    20443124.085   -25849850.643 6 -20142730.300 8
        39.500          48.300
  20843921.761    20843921.240    20843918.266   -22664685.754 6 -17660785.387 7
        41.600          44.500
  22377447.174    22377446.448    22377445.993   -13792716.802 4 -10747562.183 5
        28.600          30.400
 09  1 12  0  9  0.0000000  0 10G21G26G19G15G 6G14G 3G18G22G 9
  21555972.461    21555971.535    21555969.689   -21047291.319 6 -16400479.221 5
        36.300          32.600
  24640635.514    24640634.549    24640633.475     1770651.953 1   1379739.147 1
         9.000           9.000
  23141891.211    23141889.730    23141887.882    -9851660.246 4  -7676616.390 4
        28.600          28.800
  23088495.917    23088495.637    23088494.430    -9238657.297 4  -7198942.470 5
        27.600          31.000
  22724075.201    22724074.546    22724074.570   -10439073.271 4  -8134338.354 5
        28.600          30.600
  23932517.356    23932516.431    23932515.909    -6808061.720 2  -5304980.312 3
        17.800          20.500
  22711026.251    22711025.487    22711025.625    -9334789.116 4  -7273857.381 4
        27.900          29.500
  20445435.371    20445434.587    20445433.336   -25837719.809 6 -20133277.696 8
        39.700          48.400
  20834862.489    20834861.940    20834858.900   -22712293.286 6 -17697882.158 7
        41.800          44.600
  22362427.038    22362426.347    22362425.786   -13871648.589 4 -10809067.451 5
        28.600          30.200
 09  1 12  0  9 30.0000000  0 10G21G26G19G15G 6G14G 3G18G22G 9
  21571024.246    21571023.415    21571021.687   -20968192.577 6 -16338843.842 5
        36.200          32.300
  24664087.315    24664086.171    24664085.920     1893891.621 1   1475770.067 1
        11.000           9.000
  23134844.286    23134842.672    23134840.283    -9888693.404 4  -7705473.376 4
        28.800          28.600
  23106060.385    23106060.227    23106058.560    -9146355.281 4  -7127018.833 5
        27.900          30.600
  22733813.542    22733812.875    22733812.533   -10387898.626 4  -8094462.013 5
        28.600          30.400
  23911628.242    23911628.205    23911627.541    -6917831.536 2  -5390515.211 3
        17.000          20.500
  22719703.303    22719702.466    22719702.724    -9289191.003 4  -7238326.385 4
        27.900          29.700
  20447818.854    20447817.990    20447815.989   -25825194.844 6 -20123517.980 8
        39.600          48.700
  20825869.204    20825868.698    20825865.779   -22759552.919 6 -17734707.837 7
        41.800          44.800
  22347504.675    22347504.000    22347503.993   -13950063.896 4 -10870170.271 5
        28.400          30.400
 09  1 12  0 10  0.0000000  0 10G21G26G19G15G 6G14G 3G18G22G 9
  21586153.221    21586152.213    21586150.546   -20888690.076 6 -16276893.853 5
        36.000          32.300
  24687558.400    24687557.318    24687557.773     2017238.046 1   1571884.214 1
         9.000           9.000
  23127903.362    23127901.889    23127900.013    -9925166.704 4  -7733894.112 4
        29.200          29.000
  23123676.570    23123676.188    23123673.987    -9053784.845 4  -7054886.017 5
        28.400          30.200
  22743642.138    22743641.528    22743641.568   -10336248.614 4  -8054215.256 5
        28.600          30.600
  23890771.287    23890770.523    23890769.695    -7027437.932 2  -5475922.763 3
        17.800          20.500
  22728481.271    22728480.354    22728480.882    -9243062.111 4  -7202381.794 4
        27.400          29.500
  20450276.796    20450275.957    20450274.745   -25812277.802 6 -20113452.747 8
        39.700          48.600
  20816942.016    20816941.447    20816938.559   -22806465.773 6 -17771263.300 7
        41.800          44.900
  22332681.464    22332680.910    22332680.509   -14027961.420 4 -10930869.624 5
        29.000          30.600
 09  1 12  0 10 30.0000000  0 10G26G19G15G 6G21G14G 3G18G22G 9
  24711048.456    24711047.600    24711048.526     2140682.143 1   1668074.434 1
         6.500          11.000
  23121068.185    23121066.552    23121064.775    -9961085.083 4  -7761882.450 4
        28.600          28.800
  23141341.405    23141340.808    23141338.873    -8960954.714 4  -6982550.848 5
        27.900          30.200
  22753559.921    22753559.330    22753558.962   -10284131.557 4  -8013604.561 5
        28.400          30.800
  21601357.159    21601356.326    21601354.533   -20808792.213 5 -16214635.789 5
        35.900          32.100
  23869943.938    23869942.809    23869942.305    -7136885.028 2  -5561206.191 3
        17.800          21.100
  22737358.936    22737358.157    22737358.240    -9196410.710 4  -7166030.057 4
        28.100          29.200
  20452808.246    20452807.463    20452805.516   -25798975.234 6 -20103087.108 8
        39.800          48.800
  20808079.547    20808079.027    20808076.128   -22853037.792 6 -17807553.178 7
        41.600          44.900
  22317956.245    22317955.479    22317954.883   -14105344.319 4 -10991167.968 5
        29.500          30.400
 09  1 12  0 11  0.0000000  0 10G26G19G15G 6G21G14G 3G18G22G 9
  24734559.318    24734558.817    24734559.265     2264232.166     1764347.161 1
         3.000          11.000
  23114340.788    23114339.640    23114337.955    -9996436.658 4  -7789429.117 4
        28.600          29.500
  23159056.566    23159056.694    23159054.943    -8867856.112 4  -6910006.480 4
        26.800          29.900
  22763568.000    22763567.337    22763567.174   -10231538.653 4  -7972623.091 5
        28.600          30.800
  21616638.094    21616637.400    21616635.865   -20728489.588 5 -16152062.321 5
        35.800          32.400
  23849150.014    23849148.754    23849148.408    -7246160.369 3  -5646355.768 3
        18.600          21.600
  22746337.341    22746336.574    22746336.552    -9149227.946 4  -7129264.262 4
        28.100          29.000
  20455415.023    20455414.197    20455412.949   -25785276.599 6 -20092412.842 8
        39.700          48.800
  20799284.378    20799283.831    20799280.905   -22899257.216 6 -17843568.309 7
        41.900          45.200
  22303331.077    22303330.510    22303330.131   -14182198.576 4 -11051054.390 5
        29.500          30.400
 09  1 12  0 11 30.0000000  0 10G26G19G15G 6G21G14G 3G18G22G 9
  24758089.073    24758087.164    24758087.658     2387879.532     1860695.763 2
                        12.600
  23107720.835    23107719.309    23107717.926   -10031226.291 4  -7816537.908 4
        29.000          29.500
  23176822.294    23176822.295    23176821.069    -8774497.291 4  -6837259.350 5
        26.500          30.400
  22773665.266    22773664.483    22773664.261   -10178477.870 4  -7931277.027 5
        28.800          30.600
  21631994.928    21631994.090    21631992.395   -20647789.750 5 -16089179.341 5
        35.500          32.000
  23828387.237    23828386.593    23828385.704    -7355267.999 3  -5731374.678 3
        18.600          21.100
  22755415.602    22755414.830    22755414.658    -9101521.791 4  -7092090.627 4
        28.100          29.000
  20458095.927    20458095.150    20458093.182   -25771188.003 6 -20081434.713 8
        39.700          48.800
  20790555.269    20790554.686    20790551.691   -22945129.273 6 -17879312.763 7
        41.900          45.200
  22288806.343    22288805.648    22288805.170   -14258527.119 4 -11110531.158 5
        29.500          30.100
 09  1 12  0 12  0.0000000  0 10G26G19G15G 6G21G14G 3G18G22G 9
  24781636.848    24781634.569    24781635.131     2511622.623     1957118.942 2
         3.000          12.600
  23101208.361    23101206.739    23101204.548   -10065451.267 4  -7843206.706 4
        29.200          29.000
  23194637.383    23194637.368    23194636.087    -8680879.618 4  -6764310.521 5
        27.100          31.000
  22783850.811    22783850.320    22783850.195   -10124950.239 4  -7889567.184 5
        28.100          30.400
  21647427.162    21647426.312    21647424.421   -20566693.294 5 -16025987.303 5
        35.500          31.800
  23807656.626    23807656.479    23807655.418    -7464204.462 3  -5816260.210 3
        18.600          21.100
  22764593.474    22764592.344    22764592.224    -9053293.153 4  -7054509.884 4
        27.600          28.800
  20460851.342    20460850.468    20460849.127   -25756708.564 6 -20070152.027 8
        39.700          48.800
  20781892.529    20781892.058    20781888.970   -22990652.003 7 -17914785.016 7
        42.100          45.300
  22274382.473    22274381.765    22274380.952   -14334325.711 4 -11169594.988 5
        29.700          30.100
 09  1 12  0 12 30.0000000  0 10G26G19G15G 6G21G14G 3G18G22G 9
  24805200.391    24805199.473    24805199.464     2635454.186     2053611.068 2
         3.000          12.600
  23094802.236    23094800.469    23094798.731   -10099115.532 4  -7869438.598 4
        28.600          29.500
  23212500.292    23212500.325    23212498.762    -8587010.223 4  -6691165.537 5
        27.600          31.100
  22794124.639    22794123.901    22794123.872   -10070962.606 4  -7847498.902 5
        28.400          30.600
  21662933.479    21662932.629    21662930.987   -20485206.630 5 -15962491.207 5
        35.300          32.000
  23786958.845    23786958.445    23786957.838    -7572973.145 3  -5901014.995 3
        19.300          21.100
  22773869.034    22773868.130    22773868.162    -9004549.265 4  -7016527.632 4
        27.600          29.000
  20463680.051    20463679.211    20463677.393   -25741843.122 6 -20058568.563 8
        39.700          48.900
  20773295.625    20773295.066    20773291.942   -23035829.744 7 -17949988.447 7
        42.100          45.400
  22260058.975    22260058.383    22260057.625   -14409595.745 4 -11228246.946 5
        29.700          30.400
 09  1 12  0 13  0.0000000  0 10G26G19G15G 6G21G14G 3G18G22G 9
  24828780.181    24828779.529    24828781.386     2759375.071     2150172.802 2
         3.000          12.600
  23088503.817    23088502.186    23088499.956   -10132214.431 4  -7895229.930 4
        28.800          29.500
  23230411.775    23230411.652    23230409.601    -8492887.887 4  -6617823.447 5
        27.900          30.800
  22804485.569    22804484.911    22804485.078   -10016513.556 4  -7805071.068 5
        28.100          30.100
  21678514.690    21678513.736    21678512.106   -20403327.879 5 -15898689.592 5
        35.300          32.000
  23766294.245    23766293.460    23766292.807    -7681568.253 3  -5985634.514 3
        19.300          21.100
  22783243.206    22783242.530    22783242.102    -8955288.276 4  -6978142.450 4
        28.100          29.000
  20466582.912    20466582.065    20466580.827   -25726588.321 6 -20046681.699 8
        39.700          48.700
  20764764.938    20764764.433    20764761.379   -23080658.026 7 -17984919.569 7
        42.100          45.500
  22245837.209    22245836.529    22245836.162   -14484330.628 4 -11286481.905 5
        29.200          30.400
 09  1 12  0 13 30.0000000  0 10G26G19G15G 6G21G14G 3G18G22G 9
  24852378.982    24852379.305    24852381.257     2883390.448     2246808.141 2
                        12.600
  23082313.961    23082312.242    23082310.710   -10164739.174 4  -7920573.875 4
        28.100          29.900
  23248371.785    23248371.625    23248369.632    -8398507.400 4  -6544280.211 5
        27.400          30.200
  22814935.846    22814935.283    22814935.196    -9961597.519 4  -7762279.358 5
        27.600          30.100
  21694171.383    21694170.609    21694168.813   -20321050.647 5 -15834577.471 5
        35.200          31.600
  23745664.533    23745663.517    23745662.652    -7789980.204 3  -6070111.308 3
        19.900          21.100
  22792716.649    22792715.806    22792715.628    -8905504.537 4  -6939349.928 4
        27.600          29.200
  20469561.263    20469560.487    20469558.636   -25710937.054 6 -20034485.906 8
        39.800          48.900
  20756302.523    20756301.989    20756298.875   -23125128.426 7 -18019571.823 7
        42.100          45.500
  22231719.541    22231718.958    22231718.565   -14558519.486 4 -11344291.389 5
        29.500          31.000
 09  1 12  0 14  0.0000000  0 10G26G19G15G 6G21G14G 3G18G22G 9
  24875993.921    24875992.485    24875994.078     3007482.380     2343503.130 2
         3.000          12.600
  23076231.509    23076229.710    23076227.916   -10196703.728 4  -7945481.311 4
        28.400          29.900
  23266377.446    23266377.237    23266375.490    -8303886.334 4  -6470549.505 5
        26.800          30.100
  22825471.310    22825470.823    22825470.833    -9906231.853 4  -7719137.296 4
        27.400          29.500
  21709900.741    21709899.921    21709898.211   -20238392.059 5 -15770168.189 5
        34.800          31.500
  23725066.816    23725066.055    23725064.985    -7898222.522 3  -6154455.913 3
        19.300          21.100
  22802286.366    22802285.342    22802285.187    -8855215.913 4  -6900163.992 4
        27.400          29.200
  20472612.167    20472611.376    20472609.973   -25694904.608 6 -20021993.086 8
        39.800          49.000
  20747905.323    20747904.793    20747901.862   -23169255.526 7 -18053956.573 7
        42.100          45.600
  22217703.573    22217702.887    22217702.710   -14632174.632 4 -11401684.983 5
        29.900          31.600
 09  1 12  0 14 30.0000000  0 11G26G19G15G28G 6G21G14G 3G18G22G 9
  24899626.332    24899625.166    24899626.311     3131667.018     2440270.403 2
                        13.900
  23070259.370    23070257.894    23070255.691   -10228088.836 4  -7969937.234 5
        29.900          30.100
  23284432.036    23284431.850    23284430.229    -8209008.320 4  -6396618.587 5
        25.900          30.100
  25634445.508    25634444.492    25634443.299          -1.0661          -.1291
         3.000           3.000
  22836095.897    22836095.257    22836095.143    -9850400.175 4  -7675632.087 4
        27.600          29.200
  21725705.865    21725705.091    21725703.445   -20155335.413 5 -15705448.738 5
        34.800          31.500
  23704504.539    23704503.491    23704502.824    -8006274.626 3  -6238652.297 3
        18.600          21.100
  22811955.209    22811954.389    22811954.052    -8804405.734 4  -6860571.655 4
        27.600          29.200
  20475738.986    20475738.157    20475736.420   -25678472.769 6 -20009189.051 8
        39.800          49.100
  20739577.309    20739576.779    20739573.799   -23213019.877 7 -18088058.662 7
        42.100          45.800
  22203793.410    22203792.493    22203792.110   -14705274.376 4 -11458645.799 5
        29.700          31.500
 09  1 12  0 15  0.0000000  0 11G26G19G15G28G 6G21G14G 3G18G22G 9
  24923269.693    24923270.260    24923269.445     3255919.407     2537090.453 2
                        12.600
  23064393.127    23064391.510    23064389.824   -10258915.378 4  -7993957.904 5
        29.900          30.800
  23302530.623    23302530.451    23302529.074    -8113897.887 4  -6322506.554 4
        25.300          29.700
  25628482.089    25628480.553    25628478.531      -31340.456      -24420.506
         3.000
  22846804.708    22846804.114    22846803.671    -9794126.742 4  -7631782.662 4
        27.600          29.000
  21741582.187    21741581.475    21741579.865   -20071904.178 5 -15640437.398 5
        34.600          31.300
  23683975.133    23683974.776    23683973.517    -8114156.622 3  -6322716.134 3
        19.300          21.100
  22821718.384    22821717.746    22821717.571    -8753098.487 4  -6820591.992 4
        27.600          29.000
  20478937.734    20478936.899    20478935.482   -25661663.661 6 -19996091.041 8
        39.800          49.100
  20731314.209    20731313.647    20731310.581   -23256443.122 7 -18121894.953 7
        42.200          45.800
  22189984.704    22189983.975    22189983.490   -14777838.091 5 -11515188.935 5
        30.200          31.500
 09  1 12  0 15 30.0000000  0 10G26G19G15G 6G21G14G 3G18G22G 9
  24946927.754    24946925.551    24946926.583     3380237.576     2633961.733 1
                        11.000
  23058633.735    23058631.914    23058630.119   -10289181.939 4  -8017542.227 5
        29.900          30.800
  23320673.267    23320673.174    23320672.002    -8018557.218 4  -6248215.126 4
        24.900          29.900
  22857596.880    22857596.065    22857596.010    -9737413.533 4  -7587590.547 4
        27.600          29.500
  21757529.932    21757528.954    21757527.328   -19988099.980 5 -15575135.435 5
        34.600          31.000
  23663478.716    23663477.834    23663477.020    -8221866.548 3  -6406645.886 3
        19.900          21.600
  22831576.024    22831575.387    22831575.220    -8701295.956 4  -6780226.387 4
        27.600          28.800
  20482208.290    20482207.408    20482205.615   -25644477.302 6 -19982699.074 8
        40.000          49.200
  20723116.129    20723115.597    20723112.534   -23299524.151 7 -18155464.584 7
        42.300          45.900
  22176278.897    22176278.111    22176277.571   -14849862.194 5 -11571311.597 5
        30.400          31.300
 09  1 12  0 16  0.0000000  0 10G26G19G15G 6G21G14G 3G18G22G 9
  24970598.893    24970597.304    24970596.161     3504622.670     2730885.199 1
                        11.000
  23052981.506    23052979.810    23052978.003   -10318883.949 4  -8040686.639 5
        29.500          30.600
  23338859.862    23338859.930    23338858.409    -7922984.897 4  -6173743.192 4
        25.300          29.500
  22868473.328    22868472.656    22868472.258    -9680258.698 4  -7543054.328 4
        27.400          29.200
  21773548.856    21773548.040    21773546.357   -19903920.632 5 -15509541.152 5
        34.700          31.000
  23643016.141    23643014.992    23643014.078    -8329398.581 3  -6490437.036 3
        19.300          21.100
  22841528.541    22841527.670    22841527.558    -8648996.488 4  -6739473.566 4
        27.600          28.600
  20485551.040    20485550.253    20485548.701   -25626910.161 6 -19969010.389 8
        40.000          49.200
  20714983.951    20714983.450    20714980.434   -23342258.596 7 -18188764.147 7
        42.200          45.900
  22162677.003    22162676.388    22162675.762   -14921339.663 5 -11627008.306 5
        30.100          31.300
 09  1 12  0 16 30.0000000  0 10G26G19G15G 6G21G14G 3G18G22G 9
  24994287.419    24994286.974    24994282.377     3629093.029     2827875.069 2
                        12.600
  23047440.678    23047439.170    23047437.597   -10347999.458 4  -8063374.049 5
        29.700          31.000
  23357094.485    23357094.261    23357092.769    -7827162.288 4  -6099076.212 4
        25.600          29.200
  22879436.269    22879435.834    22879436.017    -9622643.909 4  -7498159.694 4
        26.800          29.500
  21789642.570    21789641.759    21789639.973   -19819347.107 5 -15443639.715 5
        34.300          30.800
  23622591.222    23622590.454    23622589.749    -8436730.010 3  -6574071.861 3
        19.300          22.100
  22851578.983    22851577.803    22851577.938    -8596181.682 4  -6698319.169 4
        27.400          28.400
  20488970.384    20488969.507    20488967.807   -25608941.993 6 -19955009.214 8
        40.000          49.200
  20706921.920    20706921.366    20706918.372   -23384624.887 7 -18221776.838 7
        42.200          46.000
  22149184.003    22149183.285    22149182.778   -14992246.916 5 -11682260.693 5
        30.200          31.300
 09  1 12  0 17  0.0000000  0 10G26G19G15G 6G21G14G 3G18G22G 9
  25017988.906    25017986.605    25017981.115     3753635.502     2924921.113 1
                         9.000
  23042010.238    23042008.751    23042007.040   -10376537.834 5  -8085611.729 5
        30.400          31.000
  23375373.896    23375373.889    23375372.253    -7731102.186 4  -6024224.182 4
        25.600          28.800
  22890485.477    22890484.989    22890484.890    -9564581.633 4  -7452916.365 4
        26.800          29.500
  21805808.977    21805808.067    21805806.576   -19734391.596 5 -15377440.628 5
        33.900          30.600
  23602203.604    23602202.372    23602201.760    -8543869.320 3  -6657556.981 3
        19.900          22.600
  22861724.642    22861723.892    22861723.581    -8542864.036 4  -6656772.957 4
        26.800          27.900
  20492463.799    20492462.972    20492461.512   -25590583.059 6 -19940703.552 8
        39.900          49.100
  20698928.129    20698927.587    20698924.537   -23426632.901 7 -18254510.353 7
        42.300          46.100
  22135797.834    22135797.182    22135796.476   -15062591.574 5 -11737074.697 5
        30.800          31.100
 09  1 12  0 17 30.0000000  0 10G26G19G15G 6G21G14G 3G18G22G 9
  25041699.300    25041698.612    25041695.194     3878252.613     3022025.343 1
                         9.000
  23036690.705    23036689.019    23036686.866   -10404493.484 5  -8107395.355 5
        30.600          30.800
  23393698.883    23393699.168    23393697.385    -7634801.955 4  -5949185.044 4
        25.300          28.100
  22901619.774    22901619.276    22901619.262    -9506069.390 4  -7407322.417 4
        26.200          29.000
  21822048.867    21822047.956    21822046.184   -19649050.876 5 -15310941.379 5
        33.900          30.600
  23581853.133    23581852.214    23581851.815    -8650809.644 3  -6740887.061 3
        20.500          22.600
  22871966.903    22871966.027    22871965.927    -8489041.041 4  -6614832.961 4
        27.100          27.900
  20496032.736    20496031.878    20496030.137   -25571828.918 6 -19926089.933 8
        40.000          49.100
  20691003.476    20691002.964    20690999.883   -23468276.884 7 -18286960.206 7
        42.200          46.100
  22122520.388    22122519.661    22122518.938   -15132365.220 5 -11791443.769 5
        30.800          31.600
 09  1 12  0 18  0.0000000  0 10G26G19G15G 6G21G14G 3G18G22G 9
  25065423.042    25065423.638    25065420.153     4002933.357     3119179.140 1
                         6.500
  23031480.490    23031478.704    23031476.682   -10431874.064 5  -8128730.868 5
        30.400          31.100
  23412067.087    23412068.035    23412066.311    -7538272.631 4  -5873967.378 4
        24.600          27.600
  22912838.253    22912837.674    22912837.539    -9447117.873 4  -7361386.176 4
        26.200          29.200
  21838359.850    21838359.101    21838357.415   -19563335.445 5 -15244150.146 5
        34.000          30.600
  23561539.583    23561538.774    23561538.162    -8757558.285 3  -6824067.784 3
        19.900          23.000
  22882303.465    22882302.646    22882302.467    -8434723.602 4  -6572507.687 4
        27.600          28.400
  20499674.986    20499674.204    20499672.587   -25552688.301 6 -19911175.165 8
        40.100          49.100
  20683146.707    20683146.163    20683143.118   -23509564.765 7 -18319132.574 7
        42.200          46.300
  22109350.250    22109349.693    22109349.186   -15201573.894 5 -11845372.585 5
        30.800          32.300
 09  1 12  0 18 30.0000000  0 11G26G19G15G28G 6G21G14G 3G18G22G 9
  25089160.529    25089162.083    25089159.993     4127681.168     3216385.225
                         3.000
  23026380.753    23026378.939    23026377.150   -10458672.597 5  -8149612.828 5
        30.200          31.300
  23430481.417    23430481.703    23430479.866    -7441510.140 4  -5798568.028 4
        24.900          27.400
  25589267.851    25589269.658    25589264.137           -.6761          -.5011
                         3.000
  22924140.205    22924139.784    22924140.054    -9387723.315 4  -7315104.712 4
        26.500          29.000
  21854743.154    21854742.371    21854740.796   -19477240.739 5 -15177063.376 5
        33.800          30.600
  23541264.574    23541263.700    23541262.809    -8864106.259 3  -6907092.144 3
        20.500          22.600
  22892734.595    22892733.597    22892733.184    -8379907.555 4  -6529793.879 4
        26.800          27.900
  20503392.019    20503391.186    20503389.514   -25533155.495 6 -19895954.794 8
        40.200          49.000
  20675359.131    20675358.523    20675355.473   -23550489.119 7 -18351021.678 7
        42.300          46.300
  22096290.004    22096289.147    22096288.439   -15270208.459 5 -11898854.052 5
        31.300          32.400
 09  1 12  0 19  0.0000000  0 11G26G19G15G28G 6G21G14G 3G18G22G 9
  25112909.064    25112909.122    25112907.523     4252476.260     3313628.137
                         3.000
  23021388.649    23021386.927    23021385.105   -10484905.597 5  -8170054.123 5
        30.400          31.000
  23448935.786    23448935.461    23448933.798    -7344534.480 4  -5723002.571 4
        24.900          28.100
  25584033.050    25584034.010    25584030.215      -27518.963      -21443.361 1
         3.000           6.500
  22935523.476    22935522.793    22935522.787    -9327905.491 4  -7268493.427 4
        26.500          28.800
  21871194.895    21871194.071    21871192.360   -19390786.012 5 -15109696.063 4
        33.400          29.900
  23521024.007    23521023.124    23521022.145    -8970469.783 3  -6989972.785 3
        20.500          22.100
  22903256.465    22903255.609    22903255.600    -8324613.248 4  -6486707.409 4
        26.500          28.100
  20507180.215    20507179.397    20507177.758   -25513248.201 6 -19880442.616 8
        40.200          48.900
  20667637.049    20667636.502    20667633.587   -23591067.982 7 -18382641.567 7
        42.200          46.400
  22083335.237    22083334.663    22083334.092   -15338283.636 5 -11951899.631 5
        31.100          32.300
 09  1 12  0 19 30.0000000  0 10G19G15G28G 6G21G14G 3G18G22G 9
  23016504.755    23016502.927    23016501.022   -10510571.028 5  -8190053.151 5
        30.400          31.000
  23467430.375    23467429.790    23467428.033    -7247347.003 4  -5647272.068 4
        25.600          27.900
  25578888.081    25578887.224    25578886.171      -54565.336 1    -42518.433 2
         9.000          12.600
  22946986.809    22946986.297    22946986.293    -9267665.539 4  -7221553.204 4
        27.400          28.600
  21887714.894    21887714.168    21887712.754   -19303971.908 5 -15042048.716 4
        33.400          29.900
  23500818.976    23500818.290    23500817.774    -9076646.017 3  -7072707.484 3
        20.500          22.100
  22913869.482    22913868.508    22913868.763    -8268841.622 4  -6443248.997 4
        26.500          28.400
  20511039.850    20511039.011    20511037.419   -25492965.609 6 -19864637.995 8
        40.100          48.900
  20659981.361    20659980.817    20659977.798   -23631299.027 7 -18413990.427 7
        42.200          46.400
  22070488.224    22070487.655    22070487.033   -15405795.150 5 -12004505.986 5
        31.300          32.600
 09  1 12  0 20  0.0000000  0 10G19G15G28G 6G21G14G 3G18G22G 9
  23011729.871    23011728.183    23011726.277   -10535663.432 5  -8209605.674 5
        30.800          31.100
  23485964.780    23485964.580    23485962.997    -7149944.902 4  -5571374.317 4
        24.600          27.900
  25573827.183    25573825.102    25573826.715      -81133.697      -63221.056
                         3.000
  22958531.169    22958530.587    22958530.079    -9207000.743 4  -7174281.932 4
        27.400          28.100
  21904304.235    21904303.382    21904301.832   -19216795.293 5 -14974118.901 4
        33.200          29.700
  23480651.645    23480651.001    23480649.551    -9182628.046 3  -7155290.873 3
        21.600          21.600
  22924573.797    22924573.002    22924572.924    -8212589.973 4  -6399416.552 4
        26.500          28.100
  20514971.816    20514970.982    20514969.360   -25472303.155 6 -19848537.382 8
        40.200          48.900
  20652392.897    20652392.381    20652389.318   -23671176.503 7 -18445063.778 7
        42.200          46.500
  22057749.987    22057749.313    22057748.627   -15472735.378 5 -12056667.179 5
        31.600          32.400
 09  1 12  0 20 30.0000000  0 10G19G15G28G 6G21G14G 3G18G22G 9
  23007069.326    23007067.720    23007065.625   -10560154.793 5  -8228689.851 5
        30.800          31.100
  23504544.793    23504544.804    23504543.957    -7052303.497 3  -5495290.105 4
        23.800          28.400
  25568871.662    25568870.432    25568869.318     -107196.049 1    -83529.369 1
         6.500           6.500
  22970160.600    22970160.144    22970159.501    -9145886.597 4  -7126660.525 4
        27.400          27.400
  21920966.998    21920966.159    21920964.760   -19129231.128 5 -14905887.094 4
        32.800          29.700
  23460526.331    23460525.160    23460524.357    -9288386.702 3  -7237700.196 3
        21.100          21.600
  22935373.925    22935373.098    22935373.283    -8155833.879 4  -6355191.017 4
        25.900          28.100
  20518981.051    20518980.230    20518978.587   -25451234.316 6 -19832120.100 8
        40.200          48.800
  20644877.106    20644876.527    20644873.386   -23710672.971 7 -18475840.242 7
        42.300          46.600
  22045126.163    22045125.525    22045124.745   -15539074.420 5 -12108359.931 5
        32.000          32.400
 09  1 12  0 21  0.0000000  0 10G19G15G28G 6G21G14G 3G18G22G 9
  23002519.858    23002518.279    23002516.523   -10584060.943 5  -8247318.012 5
        30.600          31.100
  23523167.632    23523167.614    23523166.114    -6954441.611 3  -5419034.098 4
        23.400          28.600
  25564005.043    25564005.075    25564003.345     -132767.895     -103455.547 1
         3.000           9.000
  22981872.418    22981871.595    22981871.083    -9084341.817 4  -7078703.552 4
        27.100          27.400
  21937700.485    21937699.609    21937697.979   -19041297.543 5 -14837367.431 4
        33.000          29.500
  23440440.445    23440439.875    23440438.684    -9393936.875 3  -7319947.059 3
        21.100          21.600
  22946267.103    22946266.209    22946265.867    -8098592.156 4  -6310587.090 4
        26.500          27.900
  20523064.548    20523063.699    20523062.032   -25429775.535 6 -19815398.969 8
        40.200          48.700
  20637430.594    20637430.031    20637427.025   -23749804.076 7 -18506332.005 7
        42.200          46.700
  22032614.148    22032613.445    22032612.648   -15604826.108 5 -12159595.002 5
        32.100          32.800
 09  1 12  0 21 30.0000000  0 10G19G15G28G 6G21G14G 3G18G22G 9
  22998080.527    22998078.902    22998077.328   -10607389.919 5  -8265496.433 5
        30.600          31.500
  23541830.340    23541829.580    23541828.237    -6856370.332 3  -5342614.921 4
        23.800          27.600
  25559228.409    25559228.882    25559226.782     -157856.955     -123005.415 1
                         6.500
  22993663.769    22993662.981    22993662.621    -9022377.721 4  -7030419.840 4
        27.100          27.600
  21954502.190    21954501.284    21954499.290   -18953005.108 5 -14768568.146 4
        33.200          29.500
  23420393.867    23420393.094    23420391.666    -9499285.410 3  -7402036.814 3
        22.100          22.100
  22957249.739    22957248.692    22957249.051    -8040876.156 4  -6265613.581 4
        25.900          28.400
  20527220.529    20527219.654    20527217.972   -25407936.038 6 -19798381.177 8
        40.300          48.600
  20630052.053    20630051.551    20630048.635   -23788578.194 7 -18536545.597 7
        42.300          46.800
  22020212.765    22020211.978    22020211.344   -15669996.274 5 -12210376.934 5
        32.300          33.100
 09  1 12  0 22  0.0000000  0 10G19G15G28G 6G21G14G 3G18G22G 9
  22993752.185    22993750.406    22993748.757   -10630136.960 5  -8283221.399 5
        30.600          31.300
  23560533.198    23560532.955    23560530.657    -6758088.326 4  -5266031.537 4
        24.900          27.100
  25554551.156    25554549.785    25554547.137     -182458.527     -142175.500 1
         3.000           9.000
  23005534.893    23005534.421    23005534.398    -8959992.916 4  -6981808.306 4
        26.200          27.900
  21971372.223    21971371.296    21971369.453   -18864352.165 5 -14699487.938 4
        32.700          29.200
  23400386.222    23400385.354    23400383.974    -9604426.972 3  -7483965.291 3
        22.100          22.100
  22968323.414    22968322.769    22968322.804    -7982684.522 4  -6220269.462 4
        25.900          28.600
  20531449.459    20531448.650    20531446.952   -25385712.541 6 -19781064.164 8
        40.300          48.600
  20622742.584    20622742.000    20622738.832   -23826990.834 7 -18566477.521 7
        42.400          46.800
  22007923.014    22007922.289    22007921.708   -15734578.505 5 -12260700.734 5
        32.300          33.100
 09  1 12  0 22 30.0000000  0 10G19G15G28G 6G21G14G 3G18G22G 9
  22989533.578    22989531.890    22989529.908   -10652305.649 5  -8300495.702 5
        30.600          31.000
  23579274.833    23579274.075    23579272.395    -6659601.445 4  -5189288.504 4
        24.600          26.800
  25549957.375    25549955.557    25549957.283     -206575.450     -160967.849 1
                        11.000
  23017485.606    23017484.957    23017484.562    -8897193.379 4  -6932873.604 4
        26.200          27.600
  21988310.150    21988309.227    21988307.093   -18775343.881 5 -14630130.844 4
        32.600          29.000
  23380417.561    23380416.864    23380415.310    -9709363.283 3  -7565733.834 3
        22.600          22.600
  22979486.109    22979485.421    22979485.348    -7924023.289 4  -6174559.409 4
        25.600          27.900
  20535750.825    20535750.002    20535748.224   -25363109.088 6 -19763451.078 8
        40.500          48.500
  20615500.965    20615500.457    20615497.304   -23865045.134 7 -18596130.218 7
        42.400          46.800
  21995744.884    21995744.182    21995743.938   -15798573.441 5 -12310566.906 5
        32.100          33.400
 09  1 12  0 23  0.0000000  0 10G19G15G28G 6G21G14G 3G18G22G 9
  22985426.008    22985424.179    22985422.229   -10673891.194 5  -8317315.602 5
        30.600          30.600
  23598055.194    23598055.074    23598053.469    -6560908.107 3  -5112384.599 4
        23.800          27.600
  25545464.766    25545462.905    25545461.466     -230202.567 1   -179378.588 2
         6.500          15.100
  23029515.031    23029514.495    23029514.010    -8833977.538 4  -6883614.506 4
        25.600          27.600
  22005315.393    22005314.644    22005312.741   -18685978.703 5 -14560495.657 4
        32.400          28.800
  23360489.097    23360488.190    23360486.894    -9814088.476 3  -7647337.867 3
        22.600          23.000
  22990739.014    22990737.915    22990737.887    -7864890.822 4  -6128482.161 4
        25.600          28.100
  20540125.116    20540124.290    20540122.630   -25340121.958 6 -19745539.028 8
        40.500          48.500
  20608328.368    20608327.888    20608325.000   -23902736.296 7 -18625499.952 7
        42.200          46.900
  21983680.379    21983679.524    21983679.056   -15861974.717 5 -12359970.484 5
        32.400          33.400
 09  1 12  0 23 30.0000000  0 10G19G15G28G 6G21G14G 3G18G22G 9
  22981429.827    22981428.118    22981426.173   -10694890.575 5  -8333678.757 5
        30.600          30.800
  23616874.921    23616874.911    23616873.519    -6462008.580 3  -5035320.051 4
        23.800          27.900
  25541062.126    25541061.027    25541059.461     -253337.133 1   -197405.599 2
         6.500          15.100
  23041623.697    23041622.884    23041623.013    -8770345.806 4  -6834031.358 4
        25.300          28.400
  22022389.097    22022388.325    22022386.347   -18596255.978 5 -14490581.858 4
        32.400          28.600
  23340600.727    23340600.387    23340599.474    -9918598.692 3  -7728774.373 3
        22.600          23.400
  23002080.466    23002079.559    23002080.275    -7805287.516 4  -6082038.025 4
        25.300          28.400
  20544572.760    20544571.977    20544570.295   -25316749.317 6 -19727326.577 8
        40.500          48.500
  20601225.689    20601225.139    20601222.141   -23940061.801 7 -18654584.753 7
        42.300          47.000
  21971729.267    21971728.378    21971727.822   -15924777.418 5 -12408907.648 5
        32.300          33.000
 09  1 12  0 24  0.0000000  0 10G19G15G28G 6G21G14G 3G18G22G 9
  22977544.785    22977542.896    22977541.058   -10715307.851 5  -8349588.312 5
        30.400          31.000
  23635732.540    23635732.543    23635731.119    -6362909.538 3  -4958100.012 4
        23.400          27.100
  25536751.046    25536749.722    25536748.664     -275982.764     -215051.552 2
         3.000          12.600
  23053810.542    23053809.628    23053809.610    -8706305.128 4  -6784129.535 4
        25.900          28.600
  22039529.882    22039529.072    22039526.958   -18506181.800 5 -14420394.198 4
        32.400          28.600
