     2.11           OBSERVATION DATA    G (GPS)             RINEX VERSION / TYPE
teqc  2008Oct2      WCDA Operator       20090130 00:18:43UTCPGM / RUN BY / DATE
Solaris x86 5.10|AMD64|cc SC5.8 -xarch=amd64|=+|=+          COMMENT
teqc  2008Oct2      WCDA Operator       20090129 01:18:15UTCCOMMENT
flin  WCDA-ACP   965000   CFS Flin Flon SASK Canada         MARKER NAME
40135M001                                                   MARKER NUMBER
PGC-WCDA            GEOL. SURV. CANADA                      OBSERVER / AGENCY
1115                AOA BENCHMARK ACT   3.3.32.4            REC # / TYPE / VERS
231                 AOAD/M_T        SCIS                    ANT # / TYPE
  -766174.4630 -3611375.3160  5184056.2210                  APPROX POSITION XYZ
        0.1500        0.0000        0.0000                  ANTENNA: DELTA H/E/N
     1     1                                                WAVELENGTH FACT L1/2
     7    C1    P1    P2    L1    L2    S1    S2            # / TYPES OF OBSERV
STATION INFORMATION EFFECTIVE FROM: 2001/01/13 18:20:00     COMMENT
                                TO: CURRENT DATE (above)    COMMENT
BIT 2 OF LLI FLAGS (+4) DATA COLLECTED UNDER 'AS' CONDITION COMMENT
L1 PHASE CENTRE 0.110m ABOVE ARP                            COMMENT
L2 PHASE CENTRE 0.128m ABOVE ARP                            COMMENT
where ARP is the Antenna Reference Point for HI measurement COMMENT
CONTACT gps@pgc.nrcan.gc.ca FOR ADDITIONAL INFORMATION      COMMENT
    P1 =    P1  TurboRogue; =    Y1  Benchmark              COMMENT
    L1 = L1(CA)                                             COMMENT
    P2 =    P2  TurboRogue; =    Y2  Benchmark              COMMENT
    L2 = L2(P2) TurboRogue; = L2(Y2) Benchmark              COMMENT
 SNR is mapped to RINEX snr flag value [0-9]                COMMENT
  L1 & L2: min(max(int(snr_dBHz/6), 0), 9)                  COMMENT
  2009     1    29     0     0    0.0000000     GPS         TIME OF FIRST OBS
                                                            END OF HEADER
 09  1 29  0  0  0.0000000  0  9G28G 3G19G21G 6G14G18G22G 9
  25555484.509    25555483.480    25555486.711      321233.695      250311.915 2
                        13.900
  24344977.673    24344977.081    24344978.185    -1189476.496 2   -926863.290 3
        17.800          19.900
  23094778.614    23094777.140    23094775.555    -9937684.050 5  -7743646.583 5
        31.600          30.600
  23859549.033    23859548.810    23859547.432    -8795152.136 2  -6853359.730 2
        17.800          15.100
  24426519.361    24426519.248    24426518.336    -4232946.194 3  -3298399.507 2
        19.300          17.000
  21674669.086    21674668.480    21674667.534   -18740810.076 6 -14603222.809 5
        37.900          35.800
  21221881.897    21221881.242    21221879.649   -21921936.087 6 -17082017.830 6
        41.100          38.500
  20257880.858    20257880.525    20257877.430   -25813495.865 7 -20114403.848 8
        44.800          50.000
  21415213.436    21415213.211    21415212.746   -18215601.307 6 -14193967.293 5
        37.700          35.700
 09  1 29  0  0 30.0000000  0  9G28G 3G19G21G 6G14G18G22G 9
  25560105.728    25560105.567    25560105.120      345517.263      269234.123 1
                        11.000
  24362290.397    24362289.287    24362290.514    -1098501.067 2   -855973.332 3
        17.800          20.500
  23100814.517    23100813.235    23100811.437    -9905965.606 5  -7718930.914 5
        32.000          30.400
  23881244.429    23881243.782    23881242.532    -8681142.750 2  -6764521.263 2
        17.800          16.100
  24443727.248    24443727.500    24443727.597    -4142512.126 2  -3227931.454 2
        17.000          17.000
  21660200.271    21660199.681    21660198.537   -18816845.054 6 -14662470.830 5
        38.100          35.900
  21232561.617    21232561.084    21232559.447   -21865812.935 6 -17038285.500 6
        41.100          38.300
  20257698.152    20257697.800    20257694.771   -25814455.825 7 -20115151.866 8
        44.700          49.900
  21415519.463    21415518.860    21415518.330   -18213994.786 6 -14192715.452 5
        37.700          35.600
 09  1 29  0  1  0.0000000  0  9G28G 3G19G21G 6G14G18G22G 9
  25564821.675    25564820.911    25564821.099      370294.185      288540.884 1
                         6.500
  24379641.562    24379640.616    24379641.249    -1007318.531 2   -784922.022 3
        16.100          19.300
  23106954.801    23106953.422    23106951.482    -9873698.116 5  -7693787.416 5
        31.300          30.400
  23902970.330    23902969.443    23902967.816    -8566977.264 3  -6675561.170 2
        18.600          17.000
  24460967.263    24460966.661    24460968.257    -4051916.149 2  -3157337.202 2
        16.100          16.100
  21645802.191    21645801.645    21645800.611   -18892506.636 6 -14721427.896 6
        38.100          36.100
  21243306.358    21243305.791    21243304.059   -21809349.169 6 -16994287.756 6
        41.100          38.100
  20257593.621    20257593.271    20257590.203   -25815005.092 7 -20115579.860 8
        44.700          49.900
  21415965.789    21415965.304    21415964.554   -18211649.645 6 -14190888.059 5
        37.800          35.600
 09  1 29  0  1 30.0000000  0  9G19G28G 3G21G 6G14G18G22G 9
  23113198.036    23113196.697    23113195.144    -9840888.482 5  -7668221.481 5
        31.000          30.600
  25569629.261    25569630.175    25569628.310      395558.318      308227.233 1
                         9.000
  24397030.901    24397030.066    24397029.979     -915937.110 2   -713715.739 3
        17.000          18.600
  23924723.447    23924722.113    23924720.561    -8452663.033 2  -6586485.162 2
        17.800          16.100
  24478236.983    24478236.323    24478236.798    -3961166.435 2  -3086623.126 2
        17.000          15.100
  21631474.569    21631473.945    21631473.003   -18967798.968 6 -14780097.229 6
        38.200          36.200
  21254114.843    21254114.241    21254112.687   -21752550.734 6 -16950029.230 6
        41.100          38.300
  20257566.318    20257565.967    20257562.853   -25815148.733 7 -20115691.785 8
        44.800          49.900
  21416551.449    21416550.956    21416550.373   -18208571.112 6 -14188489.198 5
        37.700          35.500
 09  1 29  0  2  0.0000000  0  9G19G28G 3G21G 6G14G18G22G 9
  23119546.256    23119544.521    23119543.012    -9807530.637 5  -7642228.369 5
        31.600          30.200
  25574527.853    25574528.458    25574531.717      421315.884      328297.993 1
                        11.000
  24414459.032    24414458.109    24414458.200     -824352.735 2   -642351.297 2
        17.000          17.800
  23946505.382    23946505.023    23946502.867    -8338194.896 2  -6497289.237 2
        16.100          13.900
  24495535.665    24495535.830    24495535.726    -3870258.483 2  -3015785.781 2
        17.000          17.000
  21617218.717    21617218.160    21617217.066   -19042713.362 6 -14838472.071 6
        38.300          36.300
  21264988.206    21264987.594    21264985.890   -21695410.911 6 -16905504.689 6
        41.100          38.000
  20257617.549    20257617.276    20257614.146   -25814879.203 7 -20115481.754 8
        44.800          49.900
  21417278.131    21417277.822    21417277.015   -18204751.718 6 -14185513.039 5
        37.700          35.300
 09  1 29  0  2 30.0000000  0  9G19G 3G11G21G 6G14G18G22G 9
  23125996.596    23125995.533    23125993.773    -9773630.716 5  -7615812.844 4
        31.600          29.700
  24431923.651    24431923.202    24431922.801     -732572.777 2   -570834.437 2
        17.800          17.000
  24875304.268    24875303.251    24875299.929           -.3741          -.55711
         3.000           9.000
  23968315.617    23968314.945    23968314.263    -8223579.539 2  -6407978.586 2
        16.100          13.900
  24512863.853    24512863.732    24512863.903    -3779199.601 2  -2944830.826 3
        16.100          19.300
  21603034.235    21603033.740    21603032.930   -19117252.619 6 -14896554.592 6
        38.400          36.600
  21275925.449    21275924.832    21275923.248   -21637934.759 6 -16860718.071 6
        40.900          37.900
  20257746.625    20257746.341    20257743.304   -25814200.734 7 -20114953.072 8
        44.800          49.900
  21418145.209    21418144.696    21418143.964   -18200196.174 6 -14181963.256 5
        37.800          35.200
 09  1 29  0  3  0.0000000  0  9G19G 3G11G21G 6G14G18G22G 9
  23132547.414    23132545.892    23132543.951    -9739208.444 5  -7588990.301 4
        31.600          29.700
  24449421.567    24449420.983    24449421.578     -640618.857 2   -499182.009 2
        17.800          17.800
  24856603.581    24856604.232    24856601.561      -98253.988 1    -76561.770 1
         6.500          11.000
  23990151.384    23990150.420    23990148.087    -8108837.801 2  -6318569.472 2
        17.000          15.100
  24530216.503    24530215.382    24530216.561    -3688010.834 2  -2873774.677 3
        15.100          19.300
  21588918.098    21588917.557    21588916.582   -19191434.118 6 -14954358.347 6
        38.500          36.500
  21286923.359    21286922.662    21286920.993   -21580140.976 6 -16815683.953 6
        40.700          37.700
  20257950.383    20257950.009    20257946.791   -25813131.022 7 -20114119.525 8
        44.800          49.800
  21419148.520    21419148.074    21419147.301   -18194923.019 6 -14177854.295 5
        37.700          35.200
 09  1 29  0  3 30.0000000  0  9G19G 3G11G21G 6G14G18G22G 9
  23139203.292    23139201.958    23139200.111    -9704232.234 5  -7561736.117 5
        32.400          30.200
  24466959.227    24466959.000    24466959.304     -548460.182 2   -427370.075 2
        17.800          17.800
  24837954.020    24837954.793    24837952.952     -196258.586 1   -152928.946 1
         6.500          11.000
  24012015.847    24012015.001    24012013.251    -7993938.476 2  -6229037.543 2
        16.100          15.100
  24547599.598    24547599.731    24547600.239    -3596662.077 2  -2802593.828 3
        13.900          19.300
  21574876.520    21574875.960    21574874.921   -19265223.442 6 -15011856.508 6
        38.600          36.500
  21297987.541    21297986.932    21297985.336   -21521997.580 6 -16770377.409 6
        40.700          37.700
  20258234.537    20258234.215    20258231.103   -25811636.835 7 -20112955.215 8
        44.700          49.800
  21420294.918    21420294.469    21420293.812   -18188899.071 6 -14173160.303 5
        37.700          35.300
 09  1 29  0  4  0.0000000  0  9G19G 3G11G21G 6G14G18G22G 9
  23145961.725    23145960.340    23145958.993    -9668714.757 5  -7534060.171 5
        32.100          30.400
  24484532.504    24484531.923    24484532.675     -456111.427 2   -355409.972 2
        17.000          16.100
  24819351.423    24819350.386    24819351.211     -294022.848 1   -229108.874 2
         9.000          12.600
  24033907.597    24033906.986    24033904.859    -7878895.346 2  -6139393.598 2
        15.100          12.600
  24565010.488    24565009.545    24565010.557    -3505167.302 1  -2731299.212 2
        11.000          17.800
  21560907.505    21560906.992    21560906.168   -19338630.550 6 -15069056.841 6
        38.800          36.800
  21309116.183    21309115.626    21309113.939   -21463516.138 6 -16724807.450 6
        40.700          37.500
  20258597.442    20258597.071    20258593.979   -25809730.058 7 -20111469.410 8
        44.700          49.900
  21421581.735    21421581.335    21421580.758   -18182135.863 6 -14167890.260 5
        37.700          35.400
 09  1 29  0  4 30.0000000  0  9G19G 3G11G21G 6G14G18G22G 9
  23152820.441    23152819.239    23152817.327    -9632671.682 5  -7505974.669 4
        31.600          29.700
  24502138.359    24502137.959    24502138.903     -363589.196 2   -283314.735 2
        15.100          13.900
  24800790.871    24800790.965    24800791.282     -391558.386 1   -305110.579 2
        11.000          12.600
  24055824.141    24055823.563    24055821.677    -7763724.362 2  -6049650.006 1
        16.100          11.000
  24582444.492    24582443.682    24582445.584    -3413543.220 1  -2659903.813 2
         6.500          16.100
  21547008.877    21547008.499    21547007.537   -19411668.051 6 -15125969.163 6
        38.900          36.900
  21320306.518    21320305.933    21320304.174   -21404711.319 6 -16678985.507 6
        40.900          37.400
  20259036.250    20259035.947    20259032.867   -25807423.653 7 -20109672.206 8
        44.700          49.900
  21423006.789    21423006.441    21423005.809   -18174647.497 6 -14162055.162 5
        37.800          35.400
 09  1 29  0  5  0.0000000  0  9G19G 3G11G21G 6G14G18G22G 9
  23159781.043    23159779.845    23159778.126    -9596093.203 5  -7477471.959 4
        32.000          29.700
  24519779.079    24519778.832    24519779.931     -270885.566 2   -211078.134 2
        16.100          15.100
  24782277.055    24782276.731    24782277.069     -488851.464 1   -380923.374 1
        11.000          11.000
  24077765.821    24077765.813    24077763.924    -7648416.827 2  -5959799.990 1
        16.100           9.000
  24599907.866    24599907.866    24599907.261    -3321781.621 1  -2588401.307 2
        11.000          16.100
  21533183.243    21533182.662    21533181.614   -19484323.701 6 -15182583.950 6
        39.100          37.200
  21331560.174    21331559.584    21331557.827   -21345572.986 6 -16632903.685 6
        40.700          37.400
  20259553.408    20259553.122    20259550.126   -25804705.712 7 -20107554.325 8
        44.700          49.900
  21424572.152    21424571.585    21424570.775   -18166422.853 6 -14155646.335 5
        37.900          35.200
 09  1 29  0  5 30.0000000  0  9G19G 3G11G21G 6G14G18G22G 9
  23166844.271    23166843.070    23166841.241    -9558977.366 5  -7448550.534 4
        32.300          29.500
  24537455.729    24537455.339    24537455.611     -177999.529 2   -138699.417 2
        17.000          15.100
  24763810.454    24763809.679    24763810.542     -585895.914 1   -456542.426 1
         9.000          11.000
  24099735.519    24099734.439    24099733.347    -7532970.910 2  -5869842.141 1
        17.000           9.000
  24617396.850    24617396.614    24617395.463    -3229881.494 1  -2516790.865 2
        11.000          17.800
  21519431.033    21519430.420    21519429.301   -19556592.266 6 -15238897.102 6
        39.100          37.200
  21342877.771    21342877.189    21342875.534   -21286097.681 6 -16586559.288 6
        40.600          37.300
  20260149.672    20260149.370    20260146.321   -25801572.569 7 -20105112.908 8
        44.700          49.900
  21426277.863    21426277.385    21426276.554   -18157458.533 6 -14148661.144 5
        37.700          35.100
 09  1 29  0  6  0.0000000  0  9G19G 3G11G21G 6G14G18G22G 9
  23174007.089    23174005.805    23174003.972    -9521335.906 5  -7419219.536 4
        31.800          29.000
  24555162.851    24555162.415    24555162.898      -84944.621 2    -66189.121 2
        17.000          16.100
  24745388.963    24745388.395    24745387.331     -682699.581 1   -531973.847 1
        11.000           9.000
  24121727.947    24121726.615    24121725.422    -7417399.196 3  -5779786.282 1
        18.600          11.000
  24634906.843    24634907.320    24634907.553    -3137856.015 1  -2445082.761 3
         9.000          18.600
  21505750.479    21505749.902    21505748.949   -19628482.877 6 -15294915.748 6
        39.100          37.200
  21354257.623    21354257.007    21354255.343   -21226296.561 6 -16539961.006 6
        40.500          37.200
  20260822.946    20260822.605    20260819.414   -25798035.107 7 -20102356.439 8
        44.700          49.800
  21428122.232    21428121.854    21428121.249   -18147764.933 6 -14141107.679 5
        37.700          35.200
 09  1 29  0  6 30.0000000  0  9G19G 3G11G21G 6G14G18G22G 9
  23181270.184    23181268.879    23181267.036    -9483168.053 5  -7389478.352 4
        31.300          28.800
  24572902.482    24572902.077    24572901.791        8278.613 2      6452.362 2
        15.100          15.100
  24727014.176    24727013.865    24727011.351     -779257.401 1   -607213.674 1
         6.500           9.000
  24143743.784    24143742.924    24143742.307    -7301701.584 2  -5689632.346 1
        17.800          11.000
  24652440.457    24652441.302    24652443.573    -3045705.630 1  -2373277.258 2
         6.500          15.100
  21492142.513    21492142.131    21492141.206   -19699991.739 6 -15350636.920 6
        39.100          37.200
  21365699.765    21365699.217    21365697.569   -21166167.734 6 -16493107.375 6
        40.500          37.200
  20261573.739    20261573.426    20261570.293   -25794089.300 7 -20099281.778 8
        44.700          49.800
  21430106.322    21430105.925    21430105.260   -18137339.837 6 -14132984.222 5
        38.000          35.300
 09  1 29  0  7  0.0000000  0  9G19G 3G11G21G 6G14G18G22G 9
  23188635.520    23188633.839    23188631.814    -9444466.196 5  -7359321.074 4
        31.100          29.200
  24590676.657    24590675.878    24590676.016      101676.621 2     79230.010 2
        15.100          16.100
  24708690.183    24708688.806    24708686.770     -875558.099 1   -682253.114 1
         9.000          11.000
  24165784.159    24165784.422    24165783.643    -7185871.141 3  -5599374.896 1
        18.600          11.000
  24670004.187    24670005.069    24670004.795    -2953423.806 2  -2301369.327 2
        12.600          17.800
  21478609.412    21478609.048    21478608.146   -19771108.706 6 -15406052.725 6
        39.200          37.300
  21377205.817    21377205.265    21377203.458   -21105703.112 6 -16445992.078 6
        40.500          36.800
  20262403.696    20262403.381    20262400.335   -25789727.419 7 -20095882.906 8
        44.600          49.800
  21432230.773    21432230.352    21432229.761   -18126174.921 6 -14124284.274 5
        37.700          35.200
 09  1 29  0  7 30.0000000  0  9G19G 3G11G21G 6G14G18G22G 9
  23196099.633    23196098.193    23196096.674    -9405239.916 5  -7328755.148 4
        30.800          29.900
  24608479.548    24608479.385    24608480.520      195238.532 2    152135.418 2
        15.100          16.100
  24690411.640    24690411.119    24690408.749     -971606.252 1   -757095.788 1
         9.000          11.000
  24187849.151    24187849.449    24187848.787    -7069917.901 3  -5509021.771 1
        20.500          11.000
  24687588.887    24687588.554    24687587.671    -2861021.155 2  -2229367.309 2
        12.600          16.100
  21465149.860    21465149.347    21465148.290   -19841840.033 6 -15461168.029 6
        39.200          37.500
  21388774.153    21388773.481    21388771.810   -21044910.790 6 -16398621.434 6
        40.200          36.800
  20263311.688    20263311.379    20263308.362   -25784956.032 7 -20092164.936 8
        44.600          49.800
  21434494.608    21434494.278    21434493.834   -18114277.641 6 -14115013.663 5
        37.500          35.300
 09  1 29  0  8  0.0000000  0  9G19G 3G11G21G 6G14G18G22G 9
  23203662.867    23203661.775    23203660.657    -9365490.348 5  -7297781.452 4
        30.400          29.900
  24626316.129    24626315.248    24626314.957      288961.964 2    225166.696 2
        16.100          17.000
  24672182.929    24672182.068    24672180.610    -1067398.867 1   -831739.367 1
        11.000          11.000
  24209938.886    24209938.338    24209937.627    -6953843.384 3  -5418574.079 1
        20.500           9.000
  24705192.662    24705193.250    24705193.111    -2768499.761 1  -2157272.783 2
         9.000          13.900
  21451763.798    21451763.278    21451762.329   -19912184.066 6 -15515981.547 6
        39.300          37.700
  21400404.988    21400404.368    21400402.573   -20983790.798 6 -16350995.462 6
        40.300          36.800
  20264297.893    20264297.555    20264294.413   -25779773.871 7 -20088126.883 8
        44.600          49.800
  21436898.298    21436897.760    21436897.114   -18101648.291 6 -14105172.600 5
        37.800          35.300
 09  1 29  0  8 30.0000000  0  9G19G14G 3G11G21G 6G18G22G 9
  23211326.818    23211325.308    23211323.476    -9325220.608 5  -7266402.451 4
        30.600          29.700
  21438451.205    21438450.810    21438449.690   -19982141.520 6 -15570493.834 6
        39.300          37.600
  24644181.138    24644180.148    24644179.715      382842.301 2    298320.239 2
        17.000          16.100
  24654003.086    24654003.351    24654001.549    -1162935.721 2   -906183.631 2
        13.900          12.600
  24232049.179    24232048.530    24232048.407    -6837651.844 3  -5328035.215 1
        19.300           9.000
  24722821.486    24722820.753    24722821.231    -2675864.569 1  -2085089.538 2
         9.000          15.100
  21412097.401    21412096.880    21412095.269   -20922345.767 6 -16303116.215 6
        40.000          36.700
  20265361.731    20265361.404    20265358.237   -25774183.279 7 -20083770.571 8
        44.600          49.700
  21439440.352    21439440.033    21439439.275   -18088289.059 6 -14094762.805 5
        38.100          35.200
 09  1 29  0  9  0.0000000  0  9G19G 3G11G21G 6G14G18G22G 9
  23219087.957    23219086.540    23219085.074    -9284433.823 5  -7234620.562 4
        30.200          29.500
  24662074.046    24662073.473    24662073.951      476875.121 2    371592.509 2
        15.100          16.100
  24635873.576    24635872.955    24635870.134    -1258215.096 2   -980427.255 2
        15.100          13.900
  24254181.354    24254180.441    24254179.692    -6721346.521 3  -5237407.738 1
        18.600           9.000
  24740471.021    24740471.239    24740471.357    -2583119.368 2  -2012820.589 2
        12.600          17.000
  21425212.490    21425211.935    21425210.850   -20051712.414 6 -15624704.907 6
        39.300          37.700
  21423851.753    21423851.104    21423849.389   -20860577.503 6 -16254985.094 6
        40.100          36.600
  20266503.123    20266502.772    20266499.736   -25768185.154 7 -20079096.701 8
        44.600          49.800
  21442121.113    21442120.660    21442120.044   -18074202.067 6 -14083785.925 5
        38.100          35.300
 09  1 29  0  9 30.0000000  0  9G19G14G 3G11G21G 6G18G22G 9
  23226948.879    23226947.647    23226945.990    -9243125.217 5  -7202432.045 4
        30.600          29.200
  21412048.540    21412048.074    21412047.044   -20120888.888 6 -15678608.640 6
        39.300          38.000
  24679996.619    24679996.340    24679997.586      571064.170 2    444986.551 2
        15.100          15.100
  24617792.717    24617792.628    24617789.580    -1353227.901 2  -1054463.175 2
        16.100          13.900
  24276335.642    24276335.598    24276333.952    -6604923.487 3  -5146688.528 1
        19.300          11.000
  24758141.090    24758141.102    24758142.543    -2490260.581 2  -1940463.088 2
        12.600          17.000
  21435668.202    21435667.655    21435666.072   -20798480.214 6 -16206597.590 6
        39.900          36.500
  20267723.334    20267723.024    20267719.980   -25761772.641 7 -20074099.933 8
        44.600          49.800
  21444941.213    21444940.834    21444940.323   -18059380.755 6 -14072236.846 5
        37.900          35.200
 09  1 29  0 10  0.0000000  0  9G19G14G 3G11G21G 6G18G22G 9
  23234908.549    23234907.213    23234905.396    -9201296.140 5  -7169837.956 4
        30.400          28.800
  21398959.949    21398959.510    21398958.664   -20189669.065 6 -15732203.565 6
        39.300          38.200
  24697950.709    24697950.628    24697950.106      665406.714 2    518500.237 2
        15.100          17.000
  24599762.566    24599762.508    24599759.664    -1447971.072 2  -1128288.983 2
        15.100          12.600
  24298512.299    24298512.505    24298511.532    -6488384.299 3  -5055878.797 2
        19.300          12.600
  24775834.066    24775832.648    24775832.573    -2397290.248 1  -1868018.728 2
         9.000          15.100
  21447547.723    21447547.071    21447545.523   -20736053.995 6 -16157953.781 6
        39.800          36.500
  20269022.611    20269022.275    20269019.254   -25754944.946 7 -20068779.643 8
        44.600          49.800
  21447901.486    21447901.079    21447900.629   -18043825.156 6 -14060115.589 5
        37.800          35.300
 09  1 29  0 10 30.0000000  0  9G19G14G 3G11G21G 6G18G22G 9
  23242965.790    23242964.624    23242963.163    -9158954.120 5  -7136844.191 4
        30.400          28.800
  21385946.023    21385945.629    21385944.660   -20258057.723 6 -15785493.412 6
        39.400          38.300
  24715931.129    24715930.807    24715930.839      759894.783 2    592127.291 2
        12.600          17.800
  24581785.391    24581784.952    24581782.459    -1542447.748 2  -1201907.140 1
        13.900          11.000
  24320710.374    24320709.388    24320708.831    -6371736.619 3  -4964984.528 2
        19.900          13.900
  24793544.110    24793542.780    24793543.751    -2304216.894    -1795494.092 2
                        12.600
  21459488.353    21459487.790    21459486.077   -20673305.308 6 -16109058.700 6
        39.700          36.300
  20270399.833    20270399.514    20270396.412   -25747707.647 7 -20063140.186 8
        44.600          49.700
  21451000.131    21450999.677    21450999.268   -18027541.504 6 -14047427.023 5
        37.800          35.100
 09  1 29  0 11  0.0000000  0  9G19G14G18G 3G11G21G 6G22G 9
  23251120.028    23251118.822    23251117.159    -9116104.780 5  -7103455.095 4
        30.800          29.000
  21373006.151    21373005.680    21373004.657   -20326057.846 6 -15838480.507 6
        39.500          38.400
  21471489.431    21471488.862    21471487.021   -20610239.232 6 -16059916.300 6
        39.600          36.000
  24733936.687    24733936.009    24733937.777      854520.797 1    665861.813 3
        11.000          18.600
  24563857.334    24563857.042    24563854.065    -1636659.847 2  -1275319.136 1
        12.600           9.000
  24342927.448    24342926.351    24342925.987    -6254986.941 3  -4874010.788 2
        20.500          16.100
  24811274.201    24811272.885    24811274.607    -2211047.688    -1722894.798 2
                        12.600
  20271854.255    20271853.943    20271850.685   -25740064.852 7 -20057184.753 8
        44.600          49.600
  21454236.410    21454235.982    21454235.383   -18010534.640 6 -14034174.913 5
        37.700          34.900
 09  1 29  0 11 30.0000000  0  9G19G14G18G 3G11G21G 6G22G 9
  23259371.743    23259370.292    23259368.362    -9072742.280 5  -7069666.131 4
        30.800          28.600
  21360141.798    21360141.316    21360140.323   -20393660.657 6 -15891158.007 6
        39.500          38.600
  21483552.280    21483551.611    21483549.979   -20546848.676 6 -16010521.059 6
        39.500          36.100
  24751971.779    24751970.499    24751970.601      949289.489 2    739707.569 2
        12.600          16.100
  24545980.187    24545980.106    24545978.346    -1730597.221 1  -1348517.051 1
        11.000           9.000
  24365164.997    24365163.963    24365162.523    -6138129.959 2  -4782953.435 2
        17.800          16.100
  24829022.279    24829022.322    24829021.920    -2117777.661 1  -1650216.856 1
         6.500          11.000
  20273387.209    20273386.889    20273383.786   -25732008.755 7 -20050907.271 8
        44.500          49.600
  21457611.545    21457611.170    21457610.692   -17992797.501 6 -14020353.765 5
        37.800          34.800
 09  1 29  0 12  0.0000000  0  9G19G14G18G 3G11G21G 6G22G 9
  23267720.326    23267718.947    23267717.182    -9028869.881 5  -7035479.859 4
        30.400          28.600
  21347353.115    21347352.635    21347351.488   -20460866.019 6 -15943525.808 6
        39.500          38.500
  21495676.361    21495675.839    21495674.028   -20483135.577 6 -15960874.483 5
        39.600          35.800
  24770032.056    24770031.353    24770031.177     1044196.758 2    813661.252 2
        12.600          16.100
  24528155.486    24528156.054    24528154.785    -1824258.432 1  -1421499.796 1
         9.000           9.000
  24387422.206    24387420.981    24387419.911    -6021169.023 2  -4691815.087 2
        17.000          13.900
  24846789.824    24846789.459    24846788.418    -2024410.821 1  -1577463.464 1
         9.000           9.000
  20274998.762    20274998.413    20274995.266   -25723540.441 7 -20044308.580 8
        44.600          49.700
  21461125.593    21461125.087    21461124.433   -17974332.113 6 -14005965.138 5
        37.700          34.800
 09  1 29  0 12 30.0000000  0  9G19G14G18G 9G 3G11G21G 6G22
  23276165.288    23276163.927    23276162.350    -8984490.651 5  -7000898.637 4
        30.200          28.800
  21334639.910    21334639.402    21334638.288   -20527674.394 6 -15995584.273 6
        39.700          38.700
  21507861.433    21507860.830    21507859.287   -20419102.136 6 -15910978.289 5
        39.300          35.800
  21464777.538    21464777.129    21464776.427   -17955140.461 6 -13991010.606 5
        38.000          34.600
  24788117.534    24788116.808    24788117.531     1139238.510 2    887719.727 2
        13.900          15.100
  24510385.137    24510385.605    24510384.817    -1917641.984 1  -1494266.184 1
         6.500           9.000
  24409697.333    24409696.602    24409695.693    -5904107.916 2  -4600598.674 2
        16.100          12.600
  24864574.871    24864574.193    24864575.393    -1930951.342 1  -1504637.900 1
         6.500           9.000
  20276688.373    20276688.065    20276684.995   -25714660.785 7 -20037389.361 8
        44.500          49.700
 09  1 29  0 13  0.0000000  0  9G19G14G18G 9G 3G11G21G 6G22
  23284706.811    23284705.280    23284703.843    -8939605.819 5  -6965923.451 4
        30.400          28.600
  21322002.319    21322001.893    21322001.043   -20594083.881 6 -16047331.909 6
        39.500          38.900
  21520107.877    21520107.148    21520105.591   -20354748.114 6 -15860832.300 5
        39.300          35.800
  21468568.098    21468567.573    21468566.794   -17935222.500 6 -13975490.104 5
        38.100          34.800
  24806227.519    24806228.352    24806228.086     1234412.348 2    961881.162 2
        12.600          15.100
  24492669.335    24492669.680    24492668.209    -2010744.949    -1566813.922 1
         3.000          11.000
  24431991.803    24431991.359    24431990.650    -5786948.072 2  -4509305.312 1
        15.100          11.000
  24882376.776    24882376.641    24882376.631    -1837401.184    -1431741.693 1
         3.000           9.000
  20278456.656    20278456.299    20278453.289   -25705368.769 7 -20030148.823 8
        44.400          49.600
 09  1 29  0 13 30.0000000  0  9G14G19G18G 9G 3G11G21G 6G22
  21309441.698    21309441.181    21309440.205   -20660090.951 6 -16098765.977 6
        39.700          39.000
  23293344.733    23293343.275    23293341.278    -8894214.514 5  -6930553.605 4
        30.800          28.400
  21532415.229    21532414.651    21532413.022   -20290071.933 6 -15810435.274 5
        39.300          35.600
  21472496.731    21472496.336    21472495.743   -17914576.622 6 -13959402.401 5
        38.000          34.800
  24824364.013    24824363.892    24824364.504     1329717.828 1   1036145.171 2
        11.000          15.100
  24475008.450    24475008.188    24475006.025    -2103562.336    -1639139.165 2
                        12.600
  24454304.648    24454304.551    24454304.186    -5669689.147 2  -4417934.719 1
        15.100          11.000
  24900192.869    24900194.848    24900195.979    -1743760.687    -1358775.037 1
         3.000           9.000
  20280303.586    20280303.276    20280300.184   -25695662.949 7 -20022585.841 8
        44.500          49.600
 09  1 29  0 14  0.0000000  0  9G19G14G18G 9G 3G11G21G 6G22
  23302077.438    23302075.904    23302074.238    -8848322.584 5  -6894793.661 4
        30.400          28.600
  21296956.937    21296956.512    21296955.469   -20725698.383 6 -16149888.639 6
        39.700          39.000
  21544783.105    21544782.518    21544780.818   -20225077.960 6 -15759790.616 5
        39.100          35.300
  21476563.187    21476562.586    21476561.977   -17893207.349 6 -13942751.014 5
        37.700          34.600
  24842523.681    24842522.776    24842524.931     1425148.047 1   1110506.324 2
        11.000          16.100
  24457400.778    24457400.160    24457397.931    -2196095.467    -1711242.887 2
         3.000          12.600
  24476637.062    24476636.576    24476634.822    -5552337.190 2  -4326491.665 1
        15.100          11.000
  24918030.817    24918030.934    24918031.890    -1650036.475 1  -1285743.167 2
         9.000          12.600
  20282228.838    20282228.501    20282225.430   -25685545.823 7 -20014702.360 8
        44.400          49.600
 09  1 29  0 14 30.0000000  0  9G19G14G18G 9G 3G11G21G 6G22
  23310905.388    23310904.248    23310902.273    -8801930.949 5  -6858644.331 4
        30.600          28.400
  21284549.098    21284548.563    21284547.364   -20790903.311 6 -16200697.660 6
        39.900          39.200
  21557211.654    21557211.073    21557209.366   -20159765.557 6 -15708897.835 5
        39.100          35.200
  21480767.217    21480766.755    21480766.174   -17871114.085 6 -13925535.473 5
        37.600          34.600
  24860708.421    24860707.873    24860708.326     1520701.847 2   1184963.821 2
        12.600          16.100
  24439847.634    24439846.453    24439843.108    -2288340.217    -1783121.916 2
                        12.600
  24498986.035    24498985.757    24498983.429    -5434893.092 2  -4234976.831 1
        15.100          11.000
  24935881.579    24935880.675    24935881.336    -1556229.830 1  -1212647.118 1
        11.000          11.000
  20284232.557    20284232.228    20284229.083   -25675016.413 7 -20006497.621 8
        44.400          49.600
 09  1 29  0 15  0.0000000  0  9G14G19G18G 9G 3G11G21G 6G22
  21272217.404    21272216.937    21272215.608   -20855706.717 6 -16251193.812 6
        40.000          39.200
  23319827.717    23319826.457    23319824.588    -8755042.900 5  -6822108.192 4
        30.200          28.100
  21569700.365    21569699.748    21569697.948   -20094137.344 6 -15657758.967 5
        39.100          34.900
  21485108.834    21485108.354    21485107.780   -17848299.385 6 -13907757.779 5
        37.600          34.700
  24878914.608    24878913.428    24878912.587     1616373.987 2   1259513.519 2
        15.100          12.600
  24422349.245    24422348.148    24422345.638    -2380296.106    -1854775.833 2
                        12.600
  24521350.716    24521351.003    24521348.811    -5317360.823 2  -4143393.272 1
        12.600           9.000
  24953746.999    24953747.308    24953747.230    -1462345.533 2  -1139490.515 1
        13.900           9.000
  20286314.257    20286313.961    20286310.910   -25664076.341 7 -19997972.885 8
        44.300          49.500
 09  1 29  0 15 30.0000000  0  9G14G19G18G 9G 3G11G21G 6G22
  21259961.995    21259961.419    21259960.234   -20920109.504 6 -16301377.788 6
        40.000          39.400
  23328843.826    23328842.447    23328840.749    -8707662.483 4  -6785188.389 4
        29.700          28.100
  21582248.718    21582248.021    21582245.921   -20028196.233 6 -15606376.279 5
        39.100          34.600
  21489587.011    21489586.492    21489585.995   -17824766.096 6 -13889420.146 5
        37.500          34.500
  24897140.375    24897140.046    24897140.885     1712159.922 2   1334151.920 1
        16.100          11.000
  24404904.338    24404904.121    24404900.094    -2471962.670    -1926204.279 1
                        11.000
  24543732.697    24543732.464    24543731.811    -5199744.901 2  -4051744.561
        12.600           3.000
  24971626.126    24971625.937    24971625.791    -1368388.174 2  -1066276.983 1
        13.900           6.500
  20288473.850    20288473.580    20288470.625   -25652727.077 7 -19989129.298 8
        44.300          49.500
 09  1 29  0 16  0.0000000  0  9G14G19G18G 9G 3G11G21G 6G22
  21247782.404    21247781.845    21247780.726   -20984113.030 6 -16351250.650 6
        40.000          39.500
  23337953.308    23337951.707    23337950.179    -8659794.031 4  -6747888.301 4
        29.200          29.000
  21594855.636    21594855.123    21594853.224   -19961945.448 6 -15554752.284 5
        39.100          34.800
  21494201.246    21494200.908    21494200.077   -17800517.923 6 -13870525.455 5
        37.700          34.400
  24915389.183    24915388.996    24915388.939     1808054.140 2   1408874.698 1
        17.000          11.000
  24387513.314    24387514.824    24387511.466    -2563339.813    -1997407.153 1
         3.000           9.000
  24566130.084    24566129.012    24566128.881    -5082049.872 2  -3960034.115
        13.900
  24989517.523    24989518.151    24989518.453    -1274363.064 2   -993010.629 1
        12.600           6.500
  20290711.021    20290710.669    20290707.578   -25640971.417 7 -19979969.040 8
        44.300          49.400
 09  1 29  0 16 30.0000000  0  8G19G14G18G 3G11G 6G22G 9
  23347156.261    23347154.781    23347153.426    -8611430.035 4  -6710202.068 4
        29.500          28.800
  21235680.837    21235680.392    21235679.181   -21047706.691 6 -16400804.140 6
        40.200          39.500
  21607523.370    21607522.754    21607521.055   -19895376.053 6 -15502880.030 5
        38.900          34.800
  24933658.657    24933658.509    24933658.923     1904063.115 2   1483686.914 1
        17.000           9.000
  24370184.683    24370184.849    24370181.012    -2654414.967 1  -2068374.761 1
         6.500          11.000
  25007425.937    25007425.996    25007427.017    -1180263.315 2   -919686.135 1
        12.600           6.500
  20293027.359    20293027.057    20293023.857   -25628799.450 7 -19970484.385 8
        44.400          49.400
  21498953.300    21498952.886    21498952.068   -17775545.977 6 -13851066.797 5
        37.800          34.300
 09  1 29  0 17  0.0000000  0  9G14G19G18G21G 3G11G 6G22G 9
  21223655.755    21223655.294    21223654.138   -21110898.980 6 -16450044.872 6
        40.300          39.600
  23356451.821    23356450.579    23356448.846    -8562582.123 5  -6672138.745 4
        30.100          28.400
  21620249.868    21620249.238    21620247.552   -19828498.106 6 -15450767.342 5
        38.800          34.800
  24610971.569    24610970.158    24610970.328           -.17212         -.2071
        17.000           3.000
  24951947.335    24951947.429    24951948.121     2000174.646 2   1558579.050 1
        13.900          11.000
  24352908.985    24352909.324    24352907.181    -2745195.326 1  -2139112.692 1
        11.000          11.000
  25025343.145    25025343.540    25025346.113    -1086101.203 2   -846313.069 1
        12.600           9.000
  20295420.869    20295420.589    20295417.562   -25616220.452 7 -19960682.565 8
        44.300          49.300
  21503841.078    21503840.632    21503839.798   -17749860.959 6 -13831052.482 5
        37.700          34.100
 09  1 29  0 17 30.0000000  0  9G19G14G21G 3G11G 6G18G22G 9
  23365842.841    23365841.341    23365840.078    -8513232.124 5  -6633684.188 4
        30.100          29.000
  21211711.168    21211710.630    21211709.443   -21173668.667 6 -16498956.308 6
        40.300          39.700
  24633416.094    24633414.824    24633415.017      117948.926 2     91908.218 1
        16.100           6.500
  24970258.551    24970258.246    24970261.455     2096406.267 2   1633564.717 2
        12.600          12.600
  24335695.724    24335695.031    24335693.641    -2835658.725 2  -2209603.659 2
        13.900          12.600
  25043278.409    25043278.582    25043276.767     -991859.356 1   -772877.888 1
        11.000           6.500
  21633038.800    21633038.134    21633036.456   -19761292.264 6 -15398399.153 5
        38.800          34.800
  20297895.940    20297895.623    20297892.562   -25603214.182 7 -19950547.804 8
        44.300          49.200
  21508867.907    21508867.493    21508866.834   -17723443.705 6 -13810467.605 5
        37.200          34.300
 09  1 29  0 18  0.0000000  0  9G14G19G21G 3G11G 6G18G22G 9
  21199843.306    21199842.829    21199841.715   -21236034.289 6 -16547552.884 6
        40.400          39.900
  23375325.261    23375323.877    23375321.925    -8463401.645 5  -6594855.238 4
        30.600          28.100
  24655874.293    24655873.639    24655872.570      235969.111 1    183872.000 1
        11.000           9.000
  24988590.913    24988591.147    24988591.146     2192735.202 2   1708626.194 2
        15.100          12.600
  24318538.258    24318537.688    24318535.096    -2925822.012 2  -2279860.730 2
        12.600          12.600
  25061222.352    25061220.800    25061222.577     -897560.082 1   -699397.987 1
         6.500           9.000
  21645885.915    21645885.355    21645883.643   -19693779.145 6 -15345791.529 5
        38.600          34.500
  20300448.469    20300448.170    20300445.026   -25589800.682 7 -19940095.722 8
        44.300          49.200
  21514030.169    21514029.805    21514029.423   -17696314.708 6 -13789328.125 5
        37.100          34.400
 09  1 29  0 18 30.0000000  0  9G14G18G19G21G 3G11G 6G22G 9
  21188053.006    21188052.520    21188051.372   -21297992.523 6 -16595832.016 6
        40.400          39.900
  21658792.177    21658791.528    21658789.691   -19625957.076 6 -15292943.163 5
        38.400          34.100
  23384899.695    23384898.154    23384896.460    -8413089.760 5  -6555651.161 4
        31.000          28.600
  24678346.296    24678346.068    24678343.731      354060.110 1    275890.927 1
         6.500          11.000
  25006942.101    25006941.430    25006940.770     2289160.799 2   1783762.983 2
        15.100          15.100
  24301436.415    24301436.182    24301435.069    -3015679.944 1  -2349879.859 2
         9.000          12.600
  25079176.641    25079175.436    25079177.824     -803203.822     -625873.696 1
                         9.000
  20303079.039    20303078.721    20303075.508   -25575977.034 7 -19929324.042 8
        44.300          49.000
  21519328.761    21519328.302    21519327.371   -17668472.638 6 -13767633.001 5
        37.200          34.000
 09  1 29  0 19  0.0000000  0  9G14G19G18G21G 3G11G 6G22G 9
  21176341.415    21176340.955    21176339.794   -21359537.940 6 -16643789.475 6
        40.600          40.200
  23394565.621    23394564.090    23394562.242    -8362294.556 5  -6516070.477 4
        30.400          28.400
  21671757.716    21671757.076    21671755.418   -19557822.112 6 -15239850.979 5
        38.300          34.100
  24700833.501    24700832.161    24700829.819      472224.456      367966.948 1
                        11.000
  25025307.838    25025308.323    25025308.842     2385684.723 1   1858976.415 2
        11.000          15.100
  24284394.434    24284393.832    24284393.731    -3105225.537 1  -2419655.602 1
         6.500           9.000
  25097143.927    25097142.627    25097142.880     -708788.843     -552303.572 1
                        11.000
  20305788.401    20305788.134    20305785.026   -25561738.731 7 -19918229.256 8
        44.200          49.100
  21524763.337    21524762.808    21524761.695   -17639914.119 6 -13745379.603 5
        37.200          33.600
 09  1 29  0 19 30.0000000  0  9G14G18G19G21G 3G11G 6G22G 9
  21164707.806    21164707.241    21164706.040   -21420673.314 6 -16691427.417 6
        40.500          40.200
  21684782.174    21684781.470    21684779.729   -19489378.920 6 -15186518.623 5
        38.300          34.300
  23404321.994    23404320.829    23404318.886    -8311021.916 4  -6476117.776 4
        29.900          27.900
  24723334.212    24723332.239    24723328.029      590456.151      460095.493 2
         3.000          13.900
  25043691.448    25043691.796    25043692.610     2482300.772     1934261.599 1
         3.000          11.000
  24267414.734    24267415.098    24267412.778    -3194460.249 1  -2489189.142 1
         9.000           9.000
  25115123.688    25115124.447    25115121.222     -614321.485     -478692.678 2
                        12.600
  20308576.000    20308575.709    20308572.669   -25547089.635 7 -19906814.371 8
        44.100          49.000
  21530332.939    21530332.485    21530331.561   -17610644.336 6 -13722571.976 5
        37.000          33.900
 09  1 29  0 20  0.0000000  0  8G14G18G19G21G 3G11G22G 9
  21153151.919    21153151.430    21153150.187   -21481399.590 6 -16738746.586 6
        40.600          40.200
  21697864.253    21697863.787    21697862.095   -19420630.739 6 -15132948.614 5
        38.200          34.300
  23414169.333    23414167.793    23414165.935    -8259276.304 4  -6435796.529 4
        29.200          28.400
  24745842.968    24745842.187    24745838.349      708750.720 1    552273.038 2
         6.500          15.100
  25062096.687    25062096.046    25062096.059     2579002.998 1   2009613.995 2
         9.000          13.900
  24250493.958    24250493.723    24250491.764    -3283383.902 2  -2558480.307 2
        12.600          12.600
  20311441.550    20311441.226    20311438.038   -25532031.885 7 -19895081.057 8
        44.200          49.000
  21536037.632    21536037.317    21536036.494   -17580666.459 6 -13699212.590 5
        37.500          34.300
 09  1 29  0 20 30.0000000  0  8G14G21G 3G19G11G18G22G 9
  21141673.171    21141672.591    21141671.368   -21541720.778 6 -16785750.098 6
        40.500          40.300
  24768363.114    24768362.097    24768360.272      827101.095 1    644494.068 2
         6.500          16.100
  25080513.792    25080513.574    25080513.934     2675784.084 1   2085027.809 2
        11.000          13.900
  23424104.743    23424103.480    23424101.649    -8207064.404 4  -6395111.945 4
        29.000          28.600
  24233631.251    24233631.717    24233629.520    -3371998.784 1  -2627530.815 2
        11.000          15.100
  21711003.769    21711003.155    21711001.319   -19351582.932 6 -15079145.128 5
        38.100          33.800
  20314383.690    20314383.396    20314380.333   -25516570.349 7 -19883033.101 8
        44.100          48.900
  21541875.814    21541875.340    21541874.616   -17549986.430 6 -13675306.063 5
        37.200          34.300
 09  1 29  0 21  0.0000000  0  8G14G18G21G 3G19G11G22G 9
  21130273.174    21130272.659    21130271.434   -21601627.975 6 -16832431.016 6
        40.600          40.400
  21724201.574    21724200.923    21724199.104   -19282227.971 6 -15025102.304 5
        37.900          33.600
  24790896.041    24790895.940    24790893.677      945513.230 1    736763.246 2
         9.000          15.100
  25098943.216    25098943.858    25098945.877     2772649.614     2160507.496 2
         3.000          12.600
  23434130.026    23434128.464    23434127.083    -8154380.237 4  -6354059.348 4
        28.800          28.600
  24216828.704    24216829.325    24216828.643    -3460293.815 2  -2696332.092 2
        12.600          16.100
  20317404.419    20317404.057    20317400.933   -25500696.580 7 -19870663.927 8
        44.100          48.800
  21547848.763    21547848.285    21547847.723   -17518597.472 6 -13650847.130 5
        36.800          34.000
 09  1 29  0 21 30.0000000  0  8G14G18G19G21G 3G11G22G 9
  21118954.229    21118953.706    21118952.491   -21661109.137 6 -16878779.962 6
        40.500          40.500
  21737459.604    21737458.929    21737457.332   -19212556.169 6 -14970812.584 5
        37.800          33.800
  23444247.316    23444245.717    23444244.527    -8101215.100 4  -6312631.983 4
        29.500          29.000
  24813442.247    24813441.833    24813440.755     1063995.898 2    829087.386 2
        12.600          13.900
  25117394.700    25117394.337    25117393.926     2869607.541     2236059.100 1
                         6.500
  24200090.668    24200091.102    24200089.343    -3548255.977 2  -2764874.024 2
        15.100          17.000
  20320505.611    20320505.290    20320502.152   -25484399.480 7 -19857964.880 8
        44.100          48.800
  21553958.685    21553958.289    21553957.436   -17486489.734 6 -13625828.116 5
        37.100          33.600
 09  1 29  0 22  0.0000000  0  8G14G18G 9G19G11G 3G 6G22
  21107714.756    21107714.308    21107713.202   -21720172.129 6 -16924803.063 6
        40.400          40.600
  21750776.211    21750775.626    21750773.904   -19142576.767 6 -14916283.178 5
        37.700          33.600
  21560203.588    21560203.129    21560202.236   -17453673.418 6 -13600256.956 5
        37.200          33.800
  23454453.879    23454452.330    23454450.555    -8047579.781 4  -6270838.244 4
        29.900          28.600
  24183415.400    24183414.689    24183413.423    -3635891.522 2  -2833161.455 2
        17.000          17.800
  25135862.202    25135861.537    25135861.664     2966646.305 1   2311673.619 2
         6.500          12.600
  25205132.073    25205132.899    25205133.817          -1.00911         -.41512
         6.500          12.600
  20323685.737    20323685.398    20323682.305   -25467687.916 7 -19844942.877 8
        44.000          48.700
 09  1 29  0 22 30.0000000  0  8G14G18G 9G19G11G 3G 6G22
  21096552.816    21096552.448    21096551.269   -21778828.268 6 -16970509.134 6
        40.300          40.700
  21764148.941    21764148.342    21764146.539   -19072303.216 6 -14861524.565 5
        37.700          33.500
  21566580.371    21566580.089    21566579.484   -17420162.061 6 -13574144.196 5
        36.800          33.900
  23464746.915    23464745.549    23464743.719    -7993488.984 4  -6228689.589 4
        29.500          28.400
  24166798.725    24166798.346    24166797.793    -3723210.535 3  -2901202.229 3
        19.300          19.300
  25154340.928    25154340.401    25154340.532     3063750.105 1   2387338.894 2
         6.500          12.600
  25223158.788    25223158.146    25223157.690       94720.618       73808.683 1
                        11.000
  20326942.350    20326942.024    20326938.806   -25450574.512 7 -19831607.752 8
        44.000          48.600
 09  1 29  0 23  0.0000000  0  8G14G18G 9G19G11G 3G 6G22
  21085472.119    21085471.606    21085470.429   -21837058.421 6 -17015883.269 6
        40.300          40.800
  21777581.041    21777580.388    21777578.626   -19001717.427 6 -14806522.649 5
        37.700          33.400
  21573093.152    21573092.624    21573091.756   -17385938.837 6 -13547476.752 5
        36.900          33.800
  23475129.947    23475128.267    23475126.600    -7938926.692 4  -6186173.519 4
        29.000          28.400
  24150245.766    24150246.059    24150245.506    -3810192.006 3  -2968979.975 3
        20.500          19.900
  25172834.977    25172834.971    25172835.652     3160934.624     2463067.118 2
         3.000          12.600
  25241189.094    25241185.442    25241191.626      189484.554      147650.686 1
                         9.000
  20330278.777    20330278.488    20330275.379   -25433040.906 7 -19817945.201 8
        44.000          48.600
 09  1 29  0 23 30.0000000  0  7G14G18G 9G19G11G 3G22
  21074468.500    21074468.034    21074466.877   -21894882.524 6 -17060941.001 6
        40.300          40.800
  21791068.152    21791067.553    21791065.888   -18930841.535 6 -14751294.676 5
        37.500          33.500
  21579736.493    21579736.141    21579735.658   -17351025.967 6 -13520271.912 5
        36.800          33.800
  23485597.883    23485596.646    23485594.808    -7883915.211 4  -6143307.434 4
        28.600          27.900
  24133754.837    24133754.763    24133753.147    -3896854.084 3  -3036508.837 3
        19.900          19.300
  25191340.278    25191339.065    25191338.488     3258176.490     2538840.032 1
                         9.000
  20333691.386    20333691.105    20333687.902   -25415107.611 7 -19803971.198 8
        44.000          48.500
 09  1 29  0 24  0.0000000  0  7G14G18G 9G19G11G 3G22
  21063544.644    21063544.159    21063542.895   -21952287.715 6 -17105672.307 6
        40.200          40.900
  21804612.868    21804612.269    21804610.483   -18859663.846 6 -14695831.544 5
        37.300          33.400
  21586513.844    21586513.344    21586512.562   -17315412.371 6 -13492521.051 5
        36.700          33.900
  23496153.725    23496152.344    23496150.460    -7828444.959 4  -6100083.867 4
        28.800          28.100
  24117327.489    24117326.985    24117325.222    -3983182.217 3  -3103777.473 3
        18.600          18.600
  25209858.221    25209854.130    25209849.026     3355484.939     2614666.219 1
                         6.500
  20337182.428    20337182.111    20337178.930   -25396762.374 7 -19789676.205 8
        44.000          48.500
 09  1 29  0 24 30.0000000  0  7G14G18G 9G19G11G 3G22
  21052703.995    21052703.561    21052702.433   -22009255.245 6 -17150062.581 6
        40.200          41.000
  21818217.810    21818217.258    21818215.693   -18788168.589 6 -14640120.949 5
        37.300          33.400
  21593427.079    21593426.616    21593425.934   -17279082.741 6 -13464212.246 5
        36.800          33.900
  23506799.775    23506798.191    23506796.330    -7772501.495 4  -6056491.563 4
        28.600          28.100
  24100966.370    24100966.529    24100964.934    -4069157.028 3  -3170770.818 2
        19.300          17.800
  25228393.178    25228389.880    25228389.272     3452874.120     2690555.386 1
                        11.000
  20340754.927    20340754.644    20340751.548   -25377988.437 7 -19775047.156 8
        44.000          48.500
 09  1 29  0 25  0.0000000  0  7G14G18G 9G19G11G 3G22
  21041943.754    21041943.227    21041942.095   -22065801.274 6 -17194124.413 6
        40.200          41.200
  21831880.189    21831879.635    21831877.973   -18716372.782 6 -14584176.174 5
        37.200          33.400
  21600472.925    21600472.661    21600472.050   -17242054.897 6 -13435359.376 5
        36.700          33.800
  23517531.558    23517530.231    23517528.589    -7716103.236 4  -6012544.870 4
        28.600          28.100
  24084670.641    24084670.388    24084668.991    -4154792.329 3  -3237499.621 3
        19.300          18.600
  25246933.410    25246932.259    25246932.756     3550324.951     2766490.940 2
                        13.900
  20344405.862    20344405.627    20344402.521   -25358802.261 7 -19760096.886 8
        43.900          48.400
 09  1 29  0 25 30.0000000  0  7G14G18G 9G19G11G 3G22
  21031262.595    21031262.069    21031261.008   -22121931.110 6 -17237861.935 6
        40.200          41.300
  21845598.417    21845597.783    21845595.989   -18644283.401 6 -14528002.636 5
        36.900          33.000
  21607651.066    21607650.530    21607649.450   -17204336.713 6 -13405968.576 5
        37.100          33.600
  23528348.796    23528347.276    23528345.640    -7659258.818 4  -5968250.526 4
        28.100          27.400
  24068439.309    24068438.906    24068437.038    -4240091.902 3  -3303966.789 3
        19.300          19.300
  25265484.935    25265484.589    25265485.590     3647827.787     2842467.148 2
                        13.900
  20348134.242    20348133.911    20348130.738   -25339210.112 7 -19744830.272 8
        43.800          48.300
 09  1 29  0 26  0.0000000  0  7G14G18G 9G19G11G 3G22
  21020662.764    21020662.194    21020660.917   -22177634.381 6 -17281267.070 6
        40.200          41.300
  21859374.179    21859373.508    21859371.632   -18571891.660 6 -14471593.486 5
        37.000          32.800
  21614960.939    21614960.489    21614960.046   -17165920.043 6 -13376033.507 5
        36.500          33.600
  23539251.784    23539250.380    23539248.779    -7601960.788 4  -5923602.700 4
        27.600          27.100
  24052273.098    24052272.661    24052271.439    -4325043.561 3  -3370162.871 3
        18.600          19.300
  25284055.096    25284053.645    25284052.729     3745389.688 1   2918489.449 2
         6.500          17.000
  20351941.492    20351941.224    20351938.108   -25319202.213 7 -19729239.696 8
        43.800          48.200
 09  1 29  0 26 30.0000000  0  7G14G18G 9G19G11G 3G22
  21010143.319    21010142.677    21010141.481   -22232914.682 6 -17324342.617 6
        40.300          41.500
  21873206.334    21873205.771    21873203.967   -18499202.589 6 -14414952.658 5
        37.100          32.700
  21622403.230    21622402.754    21622402.251   -17126810.823 6 -13345558.785 5
        36.400          33.600
  23550241.199    23550239.764    23550237.860    -7544215.600 4  -5878606.450 4
        28.100          27.400
  24036172.755    24036172.497    24036171.349    -4409649.454 3  -3436089.523 3
        19.300          19.300
  25302627.046    25302626.651    25302627.661     3843003.436     2994552.073 2
         3.000          15.100
  20355827.191    20355826.848    20355823.723   -25298783.102 7 -19713328.694 8
        43.700          48.200
 09  1 29  0 27  0.0000000  0  7G14G18G 9G19G11G 3G22
  20999703.383    20999702.847    20999701.760   -22287775.835 6 -17367091.556 6
        40.300          41.600
  21887094.109    21887093.472    21887091.577   -18426222.449 6 -14358085.013 5
        37.000          32.600
  21629976.360    21629975.829    21629974.987   -17087015.551 6 -13314549.475 5
        36.700          33.500
  23561312.924    23561311.589    23561309.813    -7486030.713 4  -5833267.575 4
        27.600          27.400
  24020138.423    24020137.966    24020136.515    -4493912.137 3  -3501748.727 3
        19.900          19.900
  25321210.756    25321208.489    25321208.845     3940661.298     3070649.116 1
         3.000          11.000
  20359790.168    20359789.845    20359786.703   -25277957.614 7 -19697101.039 8
        43.700          48.100
 09  1 29  0 27 30.0000000  0  7G18G 9G19G11G 3G14G22
  21901038.434    21901037.735    21901035.914   -18352945.068 6 -14300985.762 5
        36.600          32.600
  21637680.436    21637680.076    21637679.579   -17046528.890 6 -13283001.422 5
        36.500          33.600
  23572469.456    23572468.441    23572466.475    -7427401.828 4  -5787582.742 4
        27.100          27.400
  24004171.733    24004171.226    24004169.082    -4577822.153 3  -3567133.139 3
        21.100          20.500
  25339804.844    25339803.508    25339804.151     4038367.520 1   3146783.764 2
         6.500          12.600
  20989344.785    20989344.275    20989343.119   -22342210.381 6 -17409508.074 6
        40.200          41.600
  20363831.729    20363831.380    20363828.170   -25256719.393 7 -19680551.769 8
        43.600          48.100
 09  1 29  0 28  0.0000000  0  6G18G 9G19G11G14G22
  21915037.057    21915036.429    21915034.559   -18279381.232 6 -14243663.294 5
        36.400          32.400
  21645514.192    21645513.718    21645513.246   -17005362.575 6 -13250923.770 5
        36.300          33.600
  23583708.051    23583706.649    23583705.641    -7368341.171 4  -5741561.466 4
        26.800          27.600
  23988269.307    23988268.661    23988266.907    -4661387.133 3  -3632248.686 3
        20.500          20.500
  20979065.637    20979065.193    20979063.871   -22396227.705 6 -17451599.485 6
        40.300          41.600
  20367949.759    20367949.482    20367946.393   -25235078.171 7 -19663688.474 8
        43.600          48.000
 09  1 29  0 28 30.0000000  0  6G18G 9G19G11G14G22
  21929089.347    21929088.769    21929087.034   -18205535.009 6 -14186120.782 5
        36.300          32.400
  21653476.240    21653475.799    21653475.139   -16963521.596 6 -13218320.405 5
        36.200          33.400
  23595028.991    23595027.210    23595025.681    -7308853.930 4  -5695207.765 4
        27.600          27.600
