     2.11           OBSERVATION DATA    G (GPS)             RINEX VERSION / TYPE
teqc  2008Oct2      WCDA Operator       20090111 00:18:57UTCPGM / RUN BY / DATE
Solaris x86 5.10|AMD64|cc SC5.8 -xarch=amd64|=+|=+          COMMENT
teqc  2008Oct2      WCDA Operator       20090110 01:18:31UTCCOMMENT
flin  WCDA-ACP   965000   CFS Flin Flon SASK Canada         MARKER NAME
40135M001                                                   MARKER NUMBER
PGC-WCDA            GEOL. SURV. CANADA                      OBSERVER / AGENCY
1115                AOA BENCHMARK ACT   3.3.32.4            REC # / TYPE / VERS
231                 AOAD/M_T        SCIS                    ANT # / TYPE
  -766174.4630 -3611375.3160  5184056.2210                  APPROX POSITION XYZ
        0.1500        0.0000        0.0000                  ANTENNA: DELTA H/E/N
     1     1                                                WAVELENGTH FACT L1/2
     7    C1    P1    P2    L1    L2    S1    S2            # / TYPES OF OBSERV
STATION INFORMATION EFFECTIVE FROM: 2001/01/13 18:20:00     COMMENT
                                TO: CURRENT DATE (above)    COMMENT
BIT 2 OF LLI FLAGS (+4) DATA COLLECTED UNDER 'AS' CONDITION COMMENT
L1 PHASE CENTRE 0.110m ABOVE ARP                            COMMENT
L2 PHASE CENTRE 0.128m ABOVE ARP                            COMMENT
where ARP is the Antenna Reference Point for HI measurement COMMENT
CONTACT gps@pgc.nrcan.gc.ca FOR ADDITIONAL INFORMATION      COMMENT
    P1 =    P1  TurboRogue; =    Y1  Benchmark              COMMENT
    L1 = L1(CA)                                             COMMENT
    P2 =    P2  TurboRogue; =    Y2  Benchmark              COMMENT
    L2 = L2(P2) TurboRogue; = L2(Y2) Benchmark              COMMENT
 SNR is mapped to RINEX snr flag value [0-9]                COMMENT
  L1 & L2: min(max(int(snr_dBHz/6), 0), 9)                  COMMENT
  2009     1    10     0     0    0.0000000     GPS         TIME OF FIRST OBS
                                                            END OF HEADER
 09  1 10  0  0  0.0000000  0 11G21G 3G26G 9G15G14G24G 6G18G22G19
  21084762.371    21084761.557    21084760.005   -23578759.761 6 -18373051.460 6
        40.000          37.200
  22477169.481    22477168.554    22477168.226   -10687798.689 5  -8328150.235 5
        30.800          30.200
  23848720.684    23848719.893    23848718.569    -2564924.077 2  -1998632.315 3
        13.900          19.300
  22930703.604    22930703.353    22930703.211   -10120335.825 3  -7885971.335 4
        23.400          25.600
  22511400.542    22511400.485    22511398.966   -12344514.126 5  -9619089.828 5
        32.800          34.500
  24675434.404    24675434.144    24675433.919    -2878554.057 1  -2243027.462 2
         9.000          13.900
  24804763.981    24804763.641    24804763.975      207236.218 1    161484.919 1
         9.000          11.000
  22446357.199    22446356.729    22446356.654   -11924342.703 5  -9291691.576 5
        31.500          32.100
  20409132.006    20409131.139    20409128.729   -25923825.166 6 -20200373.618 7
        38.900          47.600
  21183036.700    21183036.163    21183033.067   -20708507.398 6 -16136491.739 6
        41.100          41.800
  23442738.814    23442737.393    23442735.460    -8371040.900 4  -6522886.191 4
        27.600          26.200
 09  1 10  0  0 30.0000000  0 11G21G 3G26G 9G15G14G24G 6G18G22G19
  21097008.205    21097007.347    21097005.632   -23514407.514 6 -18322906.857 6
        39.900          37.000
  22482189.679    22482188.920    22482189.039   -10661415.452 5  -8307591.876 5
        30.200          30.200
  23871159.185    23871158.894    23871157.850    -2447003.893 1  -1906746.499 3
        11.000          19.300
  22912788.686    22912787.953    22912787.073   -10214482.973 4  -7959332.727 4
        24.200          25.600
  22526914.617    22526914.486    22526913.019   -12262987.727 5  -9555562.766 5
        33.000          34.600
  24653709.969    24653710.112    24653709.147    -2992716.504 1  -2331985.216 1
         6.500          11.000
  24825170.467    24825170.350    24825172.286      314473.854 1    245046.711 1
         6.500          11.000
  22452791.175    22452790.620    22452790.686   -11890532.014 5  -9265345.592 5
        31.500          32.400
  20408974.838    20408974.063    20408972.869   -25924650.360 6 -20201016.624 7
        38.900          47.500
  21171877.222    21171876.723    21171873.630   -20767150.323 6 -16182187.513 6
        41.100          41.900
  23432234.090    23432232.387    23432230.324    -8426246.867 4  -6565903.816 4
        27.600          26.500
 09  1 10  0  1  0.0000000  0 11G21G 3G26G 9G15G14G24G 6G18G22G19
  21109339.913    21109339.039    21109337.359   -23449604.144 6 -18272410.732 6
        39.800          36.900
  22487322.292    22487321.374    22487321.546   -10634444.170 5  -8286575.294 5
        30.200          30.200
  23893637.289    23893636.384    23893635.966    -2328879.033 1  -1814701.178 3
        11.000          19.900
  22894949.467    22894948.859    22894948.228   -10308228.532 4  -8032381.206 4
        24.600          26.200
  22542495.798    22542495.644    22542494.112   -12181109.280 5  -9491761.377 5
        33.100          34.600
  24632004.338    24632003.913    24632002.204    -3106783.672 1  -2420868.743 1
         6.500           9.000
  24845592.126    24845591.263    24845593.781      421792.491      328671.583 1
         3.000          11.000
  22459327.190    22459326.559    22459326.366   -11856186.624 5  -9238582.959 5
        31.600          32.300
  20408893.167    20408892.397    20408890.066   -25925079.556 6 -20201351.061 7
        39.000          47.500
  21160778.585    21160778.118    21160775.165   -20825473.533 6 -16227634.162 7
        41.100          42.100
  23421824.762    23421822.911    23421821.286    -8480945.745 4  -6608526.314 4
        26.200          26.500
 09  1 10  0  1 30.0000000  0 11G 3G26G 9G15G21G14G24G 6G18G22G19
  22492567.560    22492566.825    22492566.640   -10606880.303 5  -8265096.965 5
        30.400          30.100
  23916154.480    23916154.529    23916154.568    -2210546.760 1  -1722494.246 3
         6.500          19.300
  22877188.085    22877187.490    22877187.782   -10401563.056 4  -8105109.397 4
        25.600          27.400
  22558144.084    22558144.089    22558142.731   -12098875.315 5  -9427682.962 5
        32.700          34.600
  21121758.339    21121757.477    21121755.790   -23384344.575 6 -18221559.125 6
        39.700          36.700
  24610317.534    24610316.979    24610315.297    -3220747.404 1  -2509671.701
         6.500           3.000
  24866030.740    24866028.823    24866030.977      529196.375      412362.878 1
                        11.000
  22465965.254    22465964.685    22465964.443   -11821302.233 5  -9211400.316 5
        31.300          32.000
  20408888.075    20408887.252    20408886.109   -25925106.717 6 -20201372.220 7
        39.100          47.700
  21149742.028    21149741.522    21149738.730   -20883470.231 6 -16272826.382 7
        40.900          42.100
  23411513.585    23411512.053    23411510.401    -8535129.934 4  -6650747.748 4
        26.500          26.500
 09  1 10  0  2  0.0000000  0 11G21G 3G26G 9G15G14G24G 6G18G22G19
  21134261.419    21134260.546    21134258.701   -23318641.199 6 -18170361.697 6
        39.700          36.500
  22497923.137    22497922.389    22497922.274   -10578735.691 5  -8243166.095 4
        30.400          29.900
  23938708.804    23938708.573    23938709.509    -2092020.747 1  -1630136.330 3
         9.000          19.300
  22859503.870    22859503.589    22859503.173   -10494494.222 4  -8177523.285 4
        25.900          27.400
  22573857.867    22573857.822    22573856.462   -12016298.816 5  -9363337.638 5
        32.600          34.500
  24588648.627    24588647.799    24588645.941    -3334616.850 1  -2598401.203 1
         6.500           6.500
  24886481.850    24886483.466    24886482.357      636673.280      496111.044 1
                         9.000
  22472703.876    22472703.315    22472703.081   -11785891.108 5  -9183807.235 5
        31.500          32.000
  20408957.324    20408956.525    20408954.029   -25924742.891 6 -20201088.718 7
        39.100          47.600
  21138765.973    21138765.519    21138762.535   -20941150.507 6 -16317772.043 7
        41.200          42.100
  23401299.138    23401297.356    23401295.554    -8588808.456 4  -6692575.160 4
        27.400          26.800
 09  1 10  0  2 30.0000000  0 11G 3G26G 9G15G21G14G24G 6G18G22G19
  22503389.013    22503388.326    22503388.122   -10550013.626 5  -8220785.274 5
        31.000          30.100
  23961299.186    23961299.617    23961300.767    -1973305.551 1  -1537630.989 3
        11.000          19.300
  22841896.773    22841896.316    22841895.904   -10587019.904 4  -8249621.203 4
        25.300          27.400
  22589636.070    22589636.218    22589634.480   -11933384.241 5  -9298728.882 5
        32.700          34.300
  21146848.299    21146847.430    21146845.662   -23252496.715 6 -18118820.544 6
        39.600          36.500
  24566997.314    24566997.307    24566995.416    -3448391.438 1  -2687056.779 1
         9.000           9.000
  24906949.586    24906947.805    24906948.760      744220.068      579913.687 1
                         9.000
  22479542.227    22479541.633    22479541.395   -11749956.238 5  -9155806.033 5
        31.500          32.300
  20409100.679    20409099.845    20409098.524   -25923989.708 6 -20200501.820 7
        39.100          47.600
  21127849.908    21127849.376    21127846.415   -20998515.023 6 -16362471.658 7
        41.200          42.100
  23391180.660    23391179.145    23391177.515    -8641980.901 4  -6734008.230 4
        27.400          27.600
 09  1 10  0  3  0.0000000  0 11G 3G26G 9G15G21G14G24G 6G18G22G19
  22508965.270    22508964.294    22508964.196   -10520710.719 5  -8197951.834 5
        30.400          30.200
  23983927.868    23983927.942    23983927.832    -1854399.341 1  -1444976.803 2
        11.000          17.800
  22824368.596    22824367.950    22824367.928   -10679131.786 4  -8321396.673 4
        24.900          27.400
  22605479.498    22605479.202    22605477.513   -11850128.887 5  -9233854.572 5
        32.800          34.400
  21159519.677    21159518.888    21159517.227   -23185907.347 6 -18066932.733 6
        39.400          36.600
  24545367.077    24545365.957    24545364.203    -3562064.337 1  -2775633.077 1
        11.000          11.000
  24927430.113    24927428.694    24927428.633      851840.080      663773.431 1
         3.000           9.000
  22486480.918    22486480.238    22486479.957   -11713494.119 5  -9127394.001 5
        31.500          32.100
  20409319.060    20409318.178    20409315.766   -25922842.456 6 -20199607.855 7
        39.100          47.900
  21116995.009    21116994.524    21116991.441   -21055558.113 6 -16406920.806 7
        41.400          42.200
  23381160.072    23381158.463    23381156.530    -8694640.812 4  -6775041.913 4
        27.400          27.400
 09  1 10  0  3 30.0000000  0 11G21G 3G26G 9G15G14G24G 6G18G22G19
  21172274.745    21172273.891    21172272.107   -23118879.757 6 -18014703.452 6
        39.400          36.300
  22514650.495    22514649.568    22514649.889   -10490833.062 5  -8174670.554 5
        30.100          30.200
  24006590.390    24006590.337    24006589.874    -1735310.277 1  -1352180.142 2
        11.000          17.800
  22806918.769    22806918.012    22806917.630   -10770831.583 4  -8392851.048 4
        25.300          26.800
  22621385.772    22621385.459    22621383.976   -11766540.630 5  -9168720.860 5
        32.600          34.600
  24523754.778    24523754.338    24523752.937    -3675639.121 2  -2864132.932 2
        13.900          12.600
  24947921.648    24947921.307    24947919.295      959526.637 1    747685.015 1
         6.500           6.500
  22493518.152    22493517.617    22493517.107   -11676511.765 5  -9098576.581 5
        31.600          31.600
  20409611.366    20409610.549    20409609.250   -25921306.131 6 -20198410.715 7
        39.100          47.800
  21106200.352    21106199.827    21106196.812   -21112284.317 6 -16451123.035 7
        41.300          42.300
  23371235.611    23371234.319    23371232.897    -8746791.430 4  -6815678.753 4
        27.100          27.900
 09  1 10  0  4  0.0000000  0 11G21G 3G26G 9G15G14G24G 6G18G22G19
  21185114.422    21185113.571    21185111.614   -23051407.132 6 -17962127.383 6
        39.500          36.000
  22520446.564    22520445.821    22520445.748   -10460374.690 5  -8150936.765 5
        30.200          30.200
  24029287.898    24029287.641    24029286.843    -1616033.347 1  -1259237.099 2
        11.000          16.100
  22789549.585    22789548.837    22789548.265   -10862107.818 4  -8463975.369 4
        26.500          26.500
  22637356.587    22637356.282    22637354.727   -11682613.856 5  -9103323.384 5
        32.400          34.600
  24502163.304    24502162.425    24502161.999    -3789105.561 2  -2952548.350 2
        13.900          13.900
  24968426.370    24968425.446    24968425.843     1067286.194      831653.524 1
         3.000           9.000
  22500655.818    22500655.315    22500655.090   -11639002.499 5  -9069348.581 5
        31.300          31.600
  20409979.248    20409978.397    20409976.014   -25919373.009 6 -20196904.385 7
        39.200          47.800
  21095467.673    21095467.178    21095464.272   -21168684.747 6 -16495071.411 7
        41.500          42.400
  23361411.117    23361409.770    23361407.367    -8798423.112 4  -6855911.230 4
        27.900          27.400
 09  1 10  0  4 30.0000000  0 11G21G 3G26G 9G15G14G24G 6G18G22G19
  21198038.198    21198037.410    21198035.624   -22983491.276 6 -17909205.941 5
        39.200          35.900
  22526353.035    22526351.968    22526352.056   -10429337.255 5  -8126751.746 5
        30.400          30.100
  24052021.186    24052020.406    24052019.264    -1496572.129 2  -1166150.468 2
        12.600          16.100
  22772261.801    22772260.923    22772260.209   -10952957.667 4  -8534767.463 4
        26.500          26.500
  22653391.063    22653390.980    22653389.470   -11598351.524 5  -9037664.430 5
        32.400          34.600
  24480592.416    24480591.412    24480590.392    -3902461.883 2  -3040877.905 2
        13.900          16.100
  24988945.445    24988944.669    24988947.269     1175116.841      915677.364 1
                        11.000
  22507893.379    22507892.800    22507892.532   -11600968.604 5  -9039711.782 5
        31.100          31.600
  20410422.419    20410421.579    20410420.341   -25917043.942 6 -20195089.521 7
        39.100          47.800
  21084797.062    21084796.525    21084793.550   -21224759.510 6 -16538766.023 7
        41.500          42.500
  23351684.462    23351683.044    23351680.742    -8849534.911 4  -6895738.600 4
        27.100          26.800
 09  1 10  0  5  0.0000000  0 11G21G 3G26G 9G15G14G24G 6G18G22G19
  21211045.903    21211045.044    21211043.312   -22915135.659 6 -17855941.828 5
        39.200          35.900
  22532368.571    22532367.841    22532367.886   -10397724.478 5  -8102118.416 5
        30.600          30.200
  24074788.249    24074787.489    24074785.935    -1376931.849 2  -1072924.299 2
        13.900          16.100
  22755054.688    22755054.037    22755053.402   -11043379.810 4  -8605226.261 4
        25.900          27.400
  22669488.576    22669488.417    22669486.926   -11513758.169 5  -8971747.530 5
        32.400          34.400
  24459040.986    24459040.399    24459040.448    -4015708.811 2  -3129122.183 2
        13.900          17.800
  25009478.091    25009476.850    25009480.087     1283014.737      999753.608 1
         3.000          11.000
  22515229.980    22515229.503    22515229.480   -11562413.766 5  -9009669.057 5
        31.000          31.600
  20410940.496    20410939.702    20410937.322   -25914321.117 6 -20192967.837 7
        39.100          47.800
  21074188.087    21074187.562    21074184.602   -21280509.572 6 -16582207.625 7
        41.500          42.500
  23342056.604    23342055.688    23342053.652    -8900127.233 4  -6935161.184 4
        27.100          27.400
 09  1 10  0  5 30.0000000  0 11G21G 3G26G 9G15G14G24G 6G18G22G19
  21224136.130    21224135.270    21224133.537   -22846346.410 6 -17802339.823 6
        39.100          36.000
  22538492.658    22538491.780    22538491.566   -10365543.339 5  -8077042.207 4
        30.600          29.900
  24097587.425    24097586.966    24097585.252    -1257120.295 2   -979564.664 2
        15.100          16.100
  22737928.979    22737928.213    22737928.009   -11133375.835 4  -8675353.020 4
        25.600          27.600
  22685647.694    22685647.683    22685645.863   -11428841.179 5  -8905578.447 5
        32.300          34.000
  24437511.305    24437510.351    24437510.492    -4128849.554 2  -3217283.676 3
        13.900          18.600
  25030022.777    25030021.185    25030022.631     1390973.510     1083877.270 1
         3.000          11.000
  22522664.593    22522664.099    22522664.038   -11523344.587 5  -8979225.533 5
        30.800          31.600
  20411532.518    20411531.689    20411530.566   -25911209.582 6 -20190543.260 7
        39.100          47.600
  21063640.130    21063639.618    21063636.549   -21335939.350 6 -16625399.648 7
        41.700          42.500
  23332527.792    23332526.415    23332524.773    -8950203.421 4  -6974181.582 4
        26.800          27.900
 09  1 10  0  6  0.0000000  0 11G21G 3G26G 9G15G14G24G 6G18G22G19
  21237310.324    21237309.436    21237307.623   -22777115.884 6 -17748393.962 5
        39.100          35.800
  22544726.267    22544725.399    22544724.955   -10332785.692 5  -8051516.774 4
        30.200          29.500
  24120420.325    24120420.622    24120418.245    -1137131.418 2   -886066.857 2
        13.900          17.000
  22720886.898    22720886.120    22720885.767   -11222933.025 4  -8745137.820 4
        25.600          27.900
  22701869.858    22701869.675    22701867.686   -11343593.922 5  -8839152.015 5
        32.100          33.600
  24416004.888    24416003.332    24416002.547    -4241872.972 2  -3305353.735 2
        15.100          17.800
  25050579.241    25050577.727    25050578.476     1499000.719     1168054.271 1
         3.000           9.000
  22530198.740    22530198.137    22530197.890   -11483753.518 5  -8948375.348 5
        30.600          31.500
  20412200.393    20412199.530    20412197.157   -25907700.436 6 -20187808.860 7
        39.100          47.800
  21053155.091    21053154.552    21053151.555   -21391039.232 6 -16668334.615 7
        41.800          42.800
  23323098.892    23323097.213    23323095.526    -8999752.701 4  -7012791.400 4
        26.800          27.600
 09  1 10  0  6 30.0000000  0 11G21G 3G26G 9G15G14G24G 6G18G22G19
  21250567.025    21250566.247    21250564.608   -22707449.717 6 -17694108.643 5
        38.800          35.400
  22551068.319    22551067.484    22551067.072   -10299457.699 5  -8025546.909 4
        30.600          29.500
  24143286.515    24143285.840    24143284.243    -1016972.177 2   -792436.283 3
        12.600          18.600
  22703927.748    22703927.112    22703926.822   -11312052.189 4  -8814581.300 4
        25.600          28.400
  22718153.121    22718153.182    22718151.522   -11258023.066 5  -8772473.430 5
        32.000          33.800
  24394517.702    24394517.565    24394517.310    -4354780.990 2  -3393333.882 3
        16.100          19.300
  25071148.381    25071148.308    25071147.695     1607090.735     1252280.223 1
                         6.500
  22537830.941    22537830.345    22537829.871   -11443646.355 5  -8917123.006 5
        30.800          31.300
  20412943.022    20412942.187    20412940.937   -25903797.807 6 -20184767.849 7
        39.100          47.900
  21042732.118    21042731.570    21042728.602   -21445812.441 6 -16711015.026 7
        41.600          42.800
  23313769.811    23313768.457    23313766.330    -9048777.263 4  -7050992.348 4
        26.500          27.600
 09  1 10  0  7  0.0000000  0 11G21G 3G26G 9G15G14G24G 6G18G22G19
  21263907.561    21263906.649    21263905.037   -22637346.248 6 -17639482.571 5
        38.900          35.600
  22557519.190    22557518.471    22557518.111   -10265557.761 5  -7999131.368 4
        30.400          29.500
  24166184.563    24166184.289    24166182.478     -896642.613 2   -698673.035 2
        12.600          17.800
  22687053.501    22687052.981    22687052.707   -11400727.014 4  -8883678.540 4
        26.200          28.600
  22734498.696    22734498.650    22734496.736   -11172128.109 5  -8705542.292 5
        32.000          33.400
  24373054.683    24373054.361    24373054.042    -4467569.025 2  -3481220.557 3
        16.100          18.600
  25091728.950    25091728.757    25091730.150     1715245.099     1336556.332 1
                         9.000
  22545561.381    22545560.840    22545560.601   -11403021.883 5  -8885467.567 5
        30.800          31.500
  20413761.078    20413760.227    20413758.012   -25899498.584 6 -20181417.802 7
        39.200          47.800
  21032372.005    21032371.505    21032368.298   -21500255.159 6 -16753437.919 7
        41.900          42.700
  23304541.275    23304539.689    23304537.811    -9097273.271 4  -7088781.436 4
        27.100          27.600
 09  1 10  0  7 30.0000000  0 11G21G 3G26G 9G15G14G24G 6G18G22G19
  21277329.129    21277328.243    21277326.415   -22566816.078 6 -17584524.001 5
        38.900          35.400
  22564076.600    22564075.736    22564075.853   -10231097.090 4  -7972278.910 4
        29.900          29.700
  24189112.085    24189111.754    24189110.613     -776155.190 2   -604786.759 2
        12.600          17.000
  22670262.641    22670261.848    22670261.747   -11488963.881 4  -8952434.521 4
        26.500          28.800
  22750903.481    22750903.263    22750901.363   -11085920.810 5  -8638367.763 5
        31.600          33.000
  24351613.282    24351612.485    24351612.396    -4580244.231 2  -3569019.319 3
        13.900          19.300
  25112322.165    25112322.059    25112320.997     1823452.400     1420873.641 1
                         6.500
  22553388.439    22553387.763    22553387.509   -11361891.229 5  -8853417.690 5
        30.800          31.600
  20414652.937    20414652.048    20414650.890   -25894812.655 6 -20177766.426 8
        39.200          48.000
  21022073.087    21022072.593    21022069.570   -21554375.737 6 -16795609.792 7
        41.800          42.800
  23295412.352    23295411.032    23295408.791    -9145247.604 4  -7126164.044 4
        27.600          28.400
 09  1 10  0  8  0.0000000  0 11G21G 3G26G 9G15G14G24G 6G18G22G19
  21290832.534    21290831.591    21290829.917   -22495854.367 6 -17529229.167 5
        38.600          35.100
  22570742.336    22570741.380    22570741.420   -10196070.658 4  -7944985.583 4
        29.900          29.900
  24212070.293    24212069.595    24212069.456     -655506.397 2   -510774.741 2
        12.600          16.100
  22653556.698    22653556.038    22653556.125   -11576752.354 4  -9020841.094 4
        26.200          29.000
  22767368.119    22767367.923    22767366.316   -10999397.178 5  -8570946.750 5
        31.500          33.000
  24330195.277    24330193.957    24330193.641    -4692798.521 2  -3656723.841 3
        15.100          19.300
  25132922.571    25132916.771    25132926.742     1931717.775     1505236.045
                         3.000
  22561312.287    22561311.797    22561311.765   -11320249.595 5  -8820969.658 5
        30.800          31.600
  20415619.388    20415618.484    20415616.213   -25889733.850 6 -20173808.915 8
        39.300          48.100
  21011836.789    21011836.292    21011833.331   -21608167.553 6 -16837525.480 7
        41.900          43.000
  23286383.066    23286381.309    23286380.418    -9192693.147 4  -7163134.569 4
        26.800          29.200
 09  1 10  0  8 30.0000000  0 10G21G22G 3G26G 9G15G14G 6G18G19
  21304417.571    21304416.804    21304414.965   -22424464.808 6 -17473600.947 5
        38.600          34.900
  21001663.025    21001662.493    21001659.278   -21661632.219 7 -16879186.251 7
        42.000          42.900
  22577514.127    22577513.227    22577513.359   -10160482.820 4  -7917254.802 4
        29.500          29.700
  24235058.853    24235058.623    24235058.011     -534701.464 1   -416641.071 2
        11.000          16.100
  22636937.329    22636936.442    22636935.888   -11664091.952 4  -9088897.896 4
        27.400          28.800
  22783892.062    22783891.969    22783890.430   -10912562.270 5  -8503283.189 5
        31.000          33.400
  24308800.331    24308799.667    24308797.803    -4805232.507 2  -3744334.633 3
        15.100          19.300
  22569333.085    22569332.475    22569331.981   -11278101.158 5  -8788126.718 5
        30.400          31.100
  20416660.026    20416659.161    20416658.050   -25884264.589 6 -20169547.149 7
        39.300          47.900
  23277455.506    23277453.861    23277452.502    -9239610.200 4  -7199693.309 4
        28.100          29.500
 09  1 10  0  9  0.0000000  0 10G21G22G 3G26G 9G15G14G 6G18G19
  21318083.880    21318083.131    21318081.533   -22352646.420 6 -17417638.568 5
        38.400          34.900
  20991551.776    20991551.300    20991548.161   -21714766.338 6 -16920589.455 7
        41.900          43.000
  22584392.866    22584392.253    22584392.363   -10124332.621 4  -7889085.814 4
        29.500          29.700
  24258077.053    24258076.671    24258076.472     -413740.926 1   -322386.114 2
        11.000          16.100
  22620403.430    22620402.553    22620402.419   -11750976.653 4  -9156600.234 4
        27.100          29.200
  22800475.118    22800475.290    22800473.912   -10825416.034 5  -8435377.036 5
        31.000          33.200
  24287428.817    24287427.778    24287426.201    -4917541.611 2  -3831848.114 3
        15.100          19.300
  22577450.059    22577449.550    22577449.310   -11235445.378 5  -8754888.443 5
        30.400          31.500
  20417775.593    20417774.764    20417772.483   -25878402.556 6 -20164979.328 8
        39.300          48.100
  23268628.749    23268627.299    23268625.755    -9285994.992 4  -7235837.304 5
        28.600          30.100
 09  1 10  0  9 30.0000000  0 10G21G 3G26G 9G15G14G 6G18G22G19
  21331833.847    21331833.049    21331831.321   -22280391.121 6 -17361335.741 5
        38.400          34.800
  22591380.678    22591380.076    22591380.246   -10087612.258 4  -7860472.543 4
        29.200          29.700
  24281126.198    24281124.953    24281125.534     -292618.309 1   -228004.870 2
        11.000          17.000
  22603958.550    22603957.933    22603957.768   -11837393.830 4  -9223938.253 4
        27.600          29.500
  22817119.571    22817119.340    22817117.944   -10737951.515 5  -8367222.873 5
        31.300          33.200
  24266082.746    24266081.563    24266080.187    -5029714.690 2  -3919255.606 3
        16.100          18.600
  22585665.655    22585664.972    22585664.504   -11192274.407 5  -8721248.727 5
        31.000          31.500
  20418967.537    20418966.713    20418965.475   -25872138.680 6 -20160098.381 8
        39.300          48.100
  20981505.415    20981504.875    20981501.945   -21767559.404 6 -16961726.892 7
        41.600          43.000
  23259905.729    23259903.867    23259902.372    -9331836.675 4  -7271558.091 4
        28.100          29.900
 09  1 10  0 10  0.0000000  0 10G21G 3G26G 9G15G14G 6G18G22G19
  21345665.024    21345664.188    21345662.530   -22207708.103 6 -17304699.629 5
        38.400          34.700
  22598475.186    22598474.331    22598474.456   -10050331.423 4  -7831422.542 4
        28.800          29.900
  24304203.838    24304203.042    24304202.935     -171343.992 1   -133505.474 2
         9.000          17.800
  22587602.247    22587601.509    22587601.265   -11923347.698 4  -9290915.261 4
        27.400          29.200
  22833822.342    22833822.153    22833820.745   -10650178.548 5  -8298828.366 5
        31.000          33.100
  24244760.934    24244760.170    24244759.031    -5141757.144 2  -4006561.322 2
        16.100          17.800
  22593976.749    22593976.090    22593975.985   -11148597.691 5  -8687214.915 5
        30.800          31.500
  20420234.506    20420233.693    20420231.495   -25865480.524 6 -20154910.208 8
        39.500          48.100
  20971522.889    20971522.380    20971519.319   -21820018.748 6 -17002604.292 7
        41.900          43.200
  23251284.735    23251283.051    23251280.909    -9377141.089 4  -7306860.214 4
        28.800          29.500
 09  1 10  0 10 30.0000000  0 10G21G 3G26G 9G15G14G 6G18G22G19
  21359577.360    21359576.483    21359574.552   -22134598.797 6 -17247731.345 5
        38.200          34.400
  22605675.837    22605675.109    22605675.198   -10012491.638 4  -7801937.009 5
        28.800          30.100
  24327309.000    24327308.790    24327308.770      -49920.852 1    -38890.115 3
         9.000          19.300
  22571334.785    22571334.127    22571333.288   -12008834.756 4  -9357528.522 4
        27.900          29.000
  22850583.046    22850583.000    22850581.136   -10562099.864 5  -8230195.623 5
        30.800          32.300
  24223464.494    24223463.943    24223463.260    -5253667.371 2  -4093764.009 2
        15.100          17.800
  22602384.178    22602383.557    22602383.260   -11104416.923 5  -8652788.337 5
        30.800          31.300
  20421576.513    20421575.723    20421574.506   -25858428.397 6 -20149415.037 8
        39.500          48.300
  20961603.883    20961603.371    20961600.306   -21872143.515 6 -17043220.980 7
        41.900          43.300
  23242766.016    23242764.321    23242762.123    -9421906.940 4  -7341742.682 4
        29.200          29.900
 09  1 10  0 11  0.0000000  0 10G21G 3G26G 9G15G14G 6G18G22G19
  21373570.432    21373569.593    21373567.583   -22061064.881 6 -17190432.194 5
        38.200          34.000
  22612983.000    22612982.028    22612982.028    -9974094.667 4  -7772017.281 5
        29.200          30.100
  24350442.869    24350442.431    24350442.076       71647.982 1     55838.791 3
         6.500          19.900
  22555156.510    22555155.812    22555154.829   -12093851.923 4  -9423775.652 4
        28.400          28.600
  22867401.459    22867401.293    22867399.705   -10473718.061 5  -8161326.689 5
        30.200          32.000
  24202194.715    24202193.954    24202193.228    -5365443.752 2  -4180862.411 2
        15.100          17.000
  22610886.693    22610886.052    22610886.007   -11059734.347 5  -8617970.748 5
        30.100          31.300
  20422993.499    20422992.659    20422990.465   -25850982.576 6 -20143613.092 8
        39.500          48.500
  20951748.581    20951748.117    20951745.076   -21923933.089 6 -17083576.481 7
        41.900          43.400
  23234349.963    23234348.088    23234346.410    -9466133.142 4  -7376204.645 5
        28.800          30.400
 09  1 10  0 11 30.0000000  0 11G21G 3G26G 9G15G14G24G 6G18G22G19
  21387643.693    21387642.908    21387640.941   -21987108.319 6 -17132803.708 5
        38.100          33.900
  22620395.128    22620394.356    22620393.695    -9935143.506 4  -7741665.727 4
        29.700          29.500
  24373603.785    24373604.160    24373602.774      193358.980 1    150678.479 3
        11.000          19.900
  22539067.836    22539067.228    22539066.948   -12178396.620 4  -9489654.614 4
        27.400          29.200
  22884277.273    22884276.914    22884275.262   -10385036.023 4  -8092223.808 5
        29.700          31.800
  24180950.588    24180949.171    24180948.775    -5477084.516 2  -4267855.137 2
        16.100          17.000
  25277435.040    25277433.760                           -.3991

  22619484.592    22619483.932    22619483.795   -11014552.318 5  -8582763.967 5
        30.100          31.000
  20424485.037    20424484.219    20424483.042   -25843143.769 6 -20137504.925 8
        39.500          48.300
  20941957.147    20941956.650    20941953.576   -21975387.589 6 -17123670.888 7
        41.900          43.500
  23226036.852    23226035.044    23226033.571    -9509818.708 4  -7410245.338 5
        28.600          30.400
 09  1 10  0 12  0.0000000  0 10G21G 3G26G 9G15G14G 6G18G22G19
  21401794.856    21401794.013    21401792.297   -21912743.099 6 -17074856.790 5
        37.700          33.900
  22627910.051    22627909.148    22627908.875    -9895651.692 4  -7710892.873 4
        29.500          29.200
  24396789.792    24396789.195    24396787.826      315197.251 2    245617.341 3
        13.900          19.300
  22523067.944    22523067.391    22523066.777   -12262477.467 4  -9555172.124 4
        27.900          29.700
  22901207.191    22901206.935    22901205.248   -10296068.785 4  -8022898.693 5
        29.900          32.000
  24159728.694    24159727.985    24159727.828    -5588600.198 2  -4354750.403 2
        15.100          16.100
  22628174.933    22628174.288    22628174.205   -10968884.636 4  -8547178.766 5
        29.900          31.000
  20426049.101    20426048.258    20426046.203   -25834924.326 6 -20131100.162 8
        39.500          48.200
  20932227.275    20932226.745    20932223.770   -22026518.247 6 -17163512.952 7
        41.800          43.600
  23217824.221    23217822.388    23217821.160    -9552974.134 4  -7443872.933 5
        28.400          30.400
 09  1 10  0 12 30.0000000  0 10G21G 3G26G 9G15G14G 6G18G22G19
  21416024.724    21416023.871    21416022.096   -21837964.803 6 -17016588.001 5
        37.700          33.600
  22635528.455    22635527.518    22635527.450    -9855615.527 4  -7679695.863 4
        29.000          29.200
  24419999.237    24419998.568    24419997.754      437165.492 2    340657.489 3
        13.900          19.300
  22507157.603    22507157.005    22507156.338   -12346086.063 4  -9620321.654 4
        28.400          29.700
  22918192.014    22918191.850    22918190.204   -10206812.743 4  -7953348.527 5
        29.500          32.100
  24138533.116    24138532.755    24138531.679    -5699983.335 2  -4441542.378 2
        16.100          16.100
  22636958.276    22636957.524    22636957.273   -10922728.191 4  -8511212.709 5
        29.700          30.800
  20427686.655    20427685.851    20427684.638   -25826319.248 6 -20124394.904 8
        39.600          48.400
  20922560.072    20922559.617    20922556.558   -22077318.932 6 -17203097.892 7
        41.800          43.600
  23209714.134    23209712.695    23209711.090    -9595592.620 4  -7477082.125 5
        28.600          30.100
 09  1 10  0 13  0.0000000  0 10G21G 3G26G 9G15G14G 6G18G22G19
  21430335.194    21430334.263    21430332.320   -21762764.166 6 -16957990.109 5
        37.800          33.500
  22643252.354    22643251.488    22643251.325    -9815026.519 4  -7648068.055 4
        29.000          29.200
  24443234.993    24443234.861    24443234.020      559271.517 2    435805.002 3
        13.900          18.600
  22491340.216    22491339.473    22491338.898   -12429207.985 4  -9685091.961 4
        28.400          29.700
  22935233.271    22935232.957    22935231.474   -10117260.024 4  -7883567.199 5
        28.800          32.300
  24117365.729    24117365.098    24117362.869    -5811221.179 2  -4528221.164 2
        16.100          15.100
  22645836.269    22645835.803    22645835.374   -10876073.755 4  -8474858.604 5
        29.900          30.800
  20429399.488    20429398.725    20429396.646   -25817317.715 6 -20117380.720 8
        39.600          48.200
  20912958.007    20912957.519    20912954.503   -22127778.486 6 -17242417.015 7
        41.800          43.700
  23201708.758    23201707.013    23201705.567    -9637662.196 4  -7509863.596 5
        28.400          30.200
 09  1 10  0 13 30.0000000  0 10G21G 3G26G 9G15G14G 6G18G22G19
  21444725.856    21444724.990    21444723.038   -21687140.519 6 -16899062.600 5
        37.700          33.200
  22651081.627    22651080.718    22651080.508    -9773884.216 4  -7616009.120 4
        28.800          29.200
  24466497.216    24466496.361    24466496.217      681514.617 1    531059.302 2
        11.000          17.000
  22475616.118    22475615.461    22475614.919   -12511837.797 4  -9749478.805 4
        28.800          29.900
  22952331.276    22952330.942    22952329.125   -10027410.719 4  -7813554.771 5
        29.000          32.000
  24096226.137    24096225.717    24096224.322    -5922309.647 2  -4614783.556 2
        16.100          16.100
  22654809.124    22654808.588    22654808.457   -10828920.874 4  -8438116.094 5
        29.500          31.100
  20431188.382    20431187.578    20431186.387   -25807917.465 6 -20110055.846 8
        39.700          48.400
  20903421.442    20903420.938    20903417.964   -22177893.429 6 -17281467.608 7
        41.700          43.800
  23193808.736    23193806.918    23193805.176    -9679179.188 4  -7542214.490 5
        28.600          30.400
 09  1 10  0 14  0.0000000  0 10G21G 3G26G 9G15G14G 6G18G22G19
  21459194.784    21459193.974    21459192.103   -21611105.263 6 -16839814.352 5
        37.500          33.400
  22659013.807    22659012.987    22659012.700    -9732199.710 4  -7583527.673 4
        28.800          29.000
  24489782.660    24489782.426    24489782.395      803882.510 1    626410.839 2
        11.000          15.100
  22459984.839    22459983.895    22459983.323   -12593981.850 4  -9813487.136 4
        28.600          29.700
  22969483.475    22969482.968    22969481.191    -9937276.589 4  -7743320.375 5
        29.000          31.500
  24075113.727    24075112.788    24075111.868    -6033256.761 2  -4701235.816 2
        17.000          16.100
  22663874.311    22663873.861    22663873.876   -10781281.436 4  -8400994.456 5
        29.000          31.100
  20433051.140    20433050.308    20433048.249   -25798128.816 6 -20102428.323 8
        39.700          48.600
  20893948.546    20893948.061    20893945.319   -22227673.167 6 -17320257.005 7
        41.800          44.100
  23186011.396    23186009.813    23186008.129    -9720151.788 4  -7574141.186 5
        28.400          30.100
 09  1 10  0 14 30.0000000  0 10G21G 3G26G 9G15G14G 6G18G22G19
  21473742.762    21473742.037    21473740.228   -21534654.191 6 -16780242.095 5
        37.200          33.200
  22667049.643    22667048.983    22667048.906    -9689969.479 4  -7550621.001 4
        28.600          29.200
  24513092.696    24513093.135    24513092.752      926377.941 1    721861.747 2
         6.500          12.600
  22444446.934    22444446.237    22444445.903   -12675631.298 4  -9877110.058 4
        27.900          29.200
  22986690.000    22986689.645    22986687.775    -9846854.880 4  -7672861.897 5
        29.500          31.100
  24054028.713    24054027.936    24054027.495    -6144055.044 2  -4787572.101 2
        17.000          16.100
  22673033.289    22673032.817    22673032.750   -10733151.690 4  -8363490.764 5
        29.000          30.800
  20434988.708    20434987.899    20434986.695   -25787946.479 6 -20094494.032 8
        39.800          48.600
  20884541.070    20884540.523    20884537.518   -22277111.214 6 -17358780.148 7
        41.900          44.200
  23178319.527    23178317.730    23178316.307    -9760572.901 4  -7605638.138 5
        28.100          30.200
 09  1 10  0 15  0.0000000  0 10G21G 3G26G 9G15G14G 6G18G22G19
  21488370.496    21488369.652    21488367.851   -21457785.124 6 -16720344.123 5
        37.100          33.100
  22675190.346    22675189.486    22675189.179    -9647191.678 4  -7517287.646 4
        28.600          29.000
  24536427.168    24536427.167    24536425.674     1049002.076 1    817412.964 1
         6.500           9.000
  22429005.520    22429004.637    22429004.007   -12756779.294 4  -9940342.235 4
        28.600          29.700
  23003951.791    23003951.481    23003949.858    -9756144.034 5  -7602178.113 5
        30.400          31.500
  24032973.506    24032973.224    24032973.139    -6254698.295 2  -4873787.570 2
        16.100          17.000
  22682285.671    22682284.957    22682285.023   -10684529.617 4  -8325603.431 5
        28.600          30.200
  20437002.094    20437001.270    20436999.208   -25777366.462 6 -20086249.860 8
        39.700          48.700
  20875199.172    20875198.652    20875195.497   -22326203.056 6 -17397033.524 7
        41.900          44.000
  23170733.842    23170731.967    23170730.144    -9800437.812 4  -7636701.698 5
        28.800          30.100
 09  1 10  0 15 30.0000000  0 10G21G 3G26G 9G15G14G 6G18G22G19
  21503076.363    21503075.513    21503073.785   -21380505.410 6 -16660126.179 5
        36.800          33.000
  22683433.490    22683432.547    22683432.538    -9603874.208 4  -7483533.773 4
        29.000          29.200
  24559785.120    24559784.942    24559783.640     1171745.627 1    913057.243 1
         6.500           9.000
  22413658.084    22413657.475    22413656.956   -12837428.669 4 -10003185.881 4
        29.200          29.700
  23021266.868    23021266.511    23021264.734    -9665152.597 4  -7531275.681 5
        29.500          31.500
  24011947.777    24011947.561    24011947.405    -6365190.989 2  -4959885.728 2
        16.100          17.000
  22691630.531    22691629.931    22691629.724   -10635423.448 4  -8287338.890 5
        29.000          30.600
  20439089.815    20439088.976    20439087.769   -25766395.301 6 -20077700.900 8
        39.800          48.900
  20865921.935    20865921.454    20865918.507   -22374954.094 6 -17435021.337 7
        41.900          44.200
  23163252.769    23163251.176    23163249.085    -9839751.343 4  -7667335.605 4
        29.500          29.700
 09  1 10  0 16  0.0000000  0 10G21G 3G26G 9G15G14G 6G18G22G19
  21517859.508    21517858.580    21517856.465   -21302821.133 6 -16599592.979 5
        37.100          32.700
  22691777.470    22691776.726    22691776.883    -9560023.779 4  -7449364.603 4
        28.400          29.500
  24583165.238    24583164.364    24583163.642     1294602.103 1   1008789.484 1
         6.500           6.500
  22398405.390    22398405.054    22398404.646   -12917580.196 4 -10065641.594 5
        29.200          30.100
  23038634.049    23038633.846    23038632.059    -9573887.215 4  -7460159.808 5
        28.800          31.500
  23990950.024    23990949.233    23990949.432    -6475535.460 2  -5045868.401 3
        16.100          19.300
  22701066.195    22701065.427    22701065.408   -10585839.204 4  -8248701.817 5
        29.000          30.400
  20441251.121    20441250.349    20441248.349   -25755037.023 6 -20068850.294 8
        39.800          48.700
  20856709.334    20856708.765    20856705.720   -22423367.796 7 -17472746.291 7
        42.000          44.400
  23155875.434    23155873.984    23155872.246    -9878516.007 4  -7697541.830 4
        29.700          29.000
 09  1 10  0 16 30.0000000  0 10G 3G26G 9G15G21G14G 6G18G22G19
  22700224.470    22700223.628    22700223.315    -9515636.624 4  -7414777.214 4
        28.400          29.200
  24606566.997    24606565.436    24606564.871     1417574.150 1   1104611.859 1
         6.500           6.500
  22383249.799    22383249.143    22383248.655   -12997225.407 4 -10127702.775 5
        29.200          30.200
  23056054.088    23056053.606    23056052.096    -9482344.702 4  -7388827.986 5
        28.600          31.600
  21532719.750    21532718.904    21532717.076   -21224728.286 6 -16538741.414 5
        36.600          32.700
  23969981.627    23969981.176    23969980.593    -6585724.411 2  -5131729.885 3
        17.000          19.300
  22710593.100    22710592.390    22710592.343   -10535773.592 4  -8209689.649 5
        28.600          30.200
  20443487.186    20443486.402    20443485.146   -25743286.592 6 -20059694.110 8
        39.900          48.700
  20847561.854    20847561.287    20847558.170   -22471438.003 7 -17510203.585 7
        42.000          44.400
  23148604.340    23148603.058    23148601.188    -9916725.326 4  -7727315.321 4
        29.000          28.800
 09  1 10  0 17  0.0000000  0 10G21G 3G26G 9G15G14G 6G18G22G19
  21547656.579    21547655.621    21547653.740   -21146236.028 6 -16477578.625 5
        36.500          32.600
  22708771.237    22708770.410    22708770.463    -9470722.176 4  -7379778.948 4
        28.100          29.500
  24629987.907    24629986.486    24629985.914     1540651.384 1   1200516.135 1
         6.500           6.500
  22368189.212    22368188.437    22368188.124   -13076368.678 4 -10189372.829 5
        28.800          30.100
  23073524.478    23073524.177    23073522.899    -9390535.245 4  -7317288.162 5
        28.100          31.100
  23949041.982    23949041.672    23949041.245    -6695763.384 2  -5217474.493 3
        17.800          20.500
  22720209.940    22720209.485    22720209.460   -10485236.098 4  -8170309.786 5
        28.800          30.400
  20445796.373    20445795.621    20445793.621   -25731151.861 6 -20050238.472 8
        39.900          48.900
  20838478.452    20838477.901    20838474.789   -22519171.514 7 -17547398.520 7
        42.000          44.600
  23141438.189    23141436.769    23141434.722    -9954385.619 4  -7756660.989 4
        29.000          28.800
 09  1 10  0 17 30.0000000  0 10G21G 3G26G 9G15G14G 6G18G22G19
  21562672.621    21562671.714    21562669.796   -21067325.593 6 -16416089.979 5
        36.500          32.300
  22717421.903    22717421.252    22717421.284    -9425262.005 4  -7344355.446 4
        28.100          29.500
  24653432.608    24653431.110    24653430.047     1663851.637 1   1296516.278 1
         9.000           9.000
  22353228.763    22353228.042    22353227.663   -13154986.330 4 -10250633.316 5
        28.800          30.100
  23091049.144    23091048.962    23091047.919    -9298440.725 4  -7245526.201 5
        27.900          31.000
  23928135.537    23928134.465    23928134.436    -6805629.750 3  -5303084.618 3
        18.600          21.100
  22729920.505    22729919.822    22729919.626   -10434208.204 4  -8130547.791 5
        28.800          30.400
  20448182.584    20448181.760    20448180.374   -25718612.591 6 -20040467.610 8
        40.000          49.200
  20829463.197    20829462.691    20829459.670   -22566546.802 7 -17584314.327 7
        42.100          44.800
  23134380.453    23134378.979    23134376.505    -9991474.874 4  -7785561.696 4
        29.200          28.600
 09  1 10  0 18  0.0000000  0 10G21G 3G26G 9G15G14G 6G18G22G19
  21577765.818    21577764.944    21577763.237   -20988009.896 6 -16354285.548 5
        36.400          32.400
  22726173.890    22726172.987    22726173.581    -9379269.903 4  -7308517.443 4
        27.900          29.700
  24676896.899    24676895.479    24676895.596     1787160.675 1   1392601.219 1
         9.000           9.000
  22338366.359    22338366.024    22338365.794   -13233086.691 4 -10311490.715 5
        29.000          30.400
  23108625.878    23108625.792    23108624.201    -9206074.904 4  -7173552.854 5
        28.400          30.400
  23907259.064    23907258.802    23907258.182    -6915333.078 2  -5388567.687 3
        17.000          20.500
  22739721.382    22739720.813    22739720.829   -10382703.453 4  -8090414.217 5
        28.800          30.400
  20450643.392    20450642.581    20450640.661   -25705680.504 6 -20030390.653 8
        40.000          49.100
  20820514.070    20820513.579    20820510.605   -22613574.718 7 -17620959.449 7
        42.100          44.900
  23127429.025    23127427.585    23127425.649   -10028003.441 4  -7814025.504 4
        29.700          29.000
 09  1 10  0 18 30.0000000  0 10G 3G26G 9G15G21G14G 6G18G22G19
  22735024.401    22735023.600    22735023.725    -9332760.576 4  -7272276.421 4
        28.100          29.200
  24700378.669    24700377.557    24700379.225     1910562.556 1   1488758.528 1
         6.500           9.000
  22323601.458    22323600.738    22323600.128   -13310679.426 4 -10371952.566 5
        29.700          30.200
  23126251.821    23126251.400    23126249.256    -9113453.415 4  -7101380.257 5
        28.800          30.200
  21592933.419    21592932.497    21592930.670   -20908303.763 6 -16292176.882 5
        36.300          32.300
  23886412.367    23886412.090    23886411.063    -7024884.779 2  -5473932.634 3
        17.800          21.100
  22749610.531    22749609.946    22749609.625   -10330737.124 4  -8049920.978 5
        28.800          30.800
  20453176.671    20453175.808    20453174.407   -25692368.712 6 -20020017.825 8
        40.100          49.200
  20811628.584    20811628.044    20811625.084   -22660268.101 7 -17657343.895 7
        42.000          44.900
  23120582.179    23120580.640    23120578.796   -10063983.392 4  -7842061.821 4
        29.000          29.000
 09  1 10  0 19  0.0000000  0 10G 3G26G 9G15G21G14G 6G18G22G19
  22743974.198    22743973.254    22743973.259    -9285729.568 4  -7235628.871 4
        28.600          28.800
  24723879.623    24723878.229    24723879.678     2034061.207     1584991.186 1
         3.000          11.000
  22308934.340    22308933.624    22308933.271   -13387754.931 4 -10432011.379 5
        29.900          30.400
  23143926.437    23143925.942    23143923.954    -9020572.047 4  -7029005.166 5
        28.400          30.100
  21608176.016    21608175.238    21608173.621   -20828202.314 6 -16229760.174 5
        36.200          32.300
  23865596.003    23865595.083    23865594.284    -7134276.586 2  -5559172.968 3
        17.800          21.600
  22759588.035    22759587.388    22759587.276   -10278304.590 4  -8009064.464 5
        28.600          30.600
  20455783.160    20455782.329    20455780.453   -25678671.218 6 -20009344.451 8
        40.000          49.300
  20802808.214    20802807.720    20802804.709   -22706619.474 7 -17693461.841 7
        42.100          45.100
  23113841.026    23113839.830    23113838.207   -10099407.051 4  -7869664.664 4
        29.000          29.500
 09  1 10  0 19 30.0000000  0 10G 3G26G 9G15G21G14G 6G18G22G19
  22753023.345    22753022.584    22753022.371    -9238175.554 4  -7198573.789 4
        28.400          28.800
  24747399.033    24747398.138    24747399.281     2157657.739     1681300.144 1
                        11.000
  22294367.067    22294366.275    22294366.034   -13464306.627 4 -10491662.040 5
        29.900          30.200
  23161650.128    23161650.138    23161648.221    -8927429.397 4  -6956426.467 4
        27.100          29.900
  21623494.631    21623493.814    21623492.173   -20747703.119 5 -16167033.540 5
        35.900          32.300
  23844811.479    23844810.871    23844809.502    -7243502.684 3  -5644284.185 3
        18.600          21.100
  22769654.816    22769654.035    22769653.910   -10225404.413 4  -7967843.546 5
        29.000          30.600
  20458463.830    20458462.938    20458461.440   -25664584.458 6 -19998367.751 8
        40.000          49.300
  20794053.812    20794053.260    20794050.246   -22752624.588 7 -17729309.972 7
        42.200          45.200
  23107207.379    23107205.870    23107204.249   -10134269.430 4  -7896830.149 4
        29.500          29.700
 09  1 10  0 20  0.0000000  0 10G 3G26G 9G15G21G14G 6G18G22G19
  22762173.819    22762172.748    22762172.642    -9190090.784 4  -7161105.143 4
        27.900          28.800
  24770938.590    24770937.300    24770938.368     2281359.154     1777690.823 1
         3.000          11.000
  22279901.780    22279901.257    22279900.552   -13540321.148 4 -10550894.117 5
        29.700          30.100
  23179425.477    23179425.541    23179424.408    -8834018.256 4  -6883638.567 5
        27.100          30.400
  21638890.466    21638889.576    21638887.653   -20666798.296 5 -16103990.835 5
        35.900          31.800
  23824060.195    23824059.310    23824058.170    -7352551.437 3  -5729257.214 3
        19.300          21.600
  22779811.440    22779810.910    22779810.774   -10172028.720 4  -7926252.090 5
        28.800          30.400
  20461220.318    20461219.513    20461217.571   -25650098.687 6 -19987080.133 8
        40.000          49.300
  20785367.168    20785366.686    20785363.582   -22798272.754 7 -17764879.965 7
        42.300          45.300
  23100682.403    23100680.821    23100678.568   -10168559.579 4  -7923549.740 4
        29.700          29.000
 09  1 10  0 20 30.0000000  0 10G 3G26G 9G15G21G14G 6G18G22G19
  22771423.388    22771422.478    22771422.534    -9141483.233 4  -7123229.121 4
        27.900          29.000
  24794496.058    24794494.431    24794495.748     2405157.202     1874156.775 2
         3.000          12.600
  22265538.747    22265538.007    22265537.125   -13615801.403 5 -10609709.885 5
        30.100          30.200
  23197251.064    23197250.818    23197249.619    -8740346.662 4  -6810647.728 5
        27.900          30.800
  21654361.895    21654361.018    21654359.274   -20585495.259 5 -16040637.826 5
        35.700          31.800
  23803341.283    23803340.973    23803339.788    -7461426.701 3  -5814095.059 3
        18.600          21.100
  22790057.901    22790057.124    22790057.030   -10118185.482 4  -7884296.325 5
        28.600          30.400
  20464051.582    20464050.736    20464049.319   -25635219.996 6 -19975486.344 8
        40.000          49.300
  20776747.680    20776747.153    20776744.000   -22843569.264 7 -17800175.941 7
        42.500          45.400
  23094265.208    23094263.490    23094261.661   -10202282.100 4  -7949827.030 4
        28.800          29.500
 09  1 10  0 21  0.0000000  0 10G 3G26G 9G15G21G14G 6G18G22G19
  22780771.193    22780770.509    22780770.087    -9092360.891 4  -7084951.972 4
        28.600          29.000
  24818069.700    24818069.176    24818070.402     2529043.001     1970691.166 2
         3.000          12.600
  22251276.071    22251275.302    22251275.035   -13690750.461 4 -10668111.730 5
        29.700          30.600
  23215124.217    23215124.136    23215122.591    -8646423.124 4  -6737460.558 5
        28.100          31.000
  21669907.588    21669906.813    21669905.009   -20503801.931 5 -15976980.697 5
        35.600          32.000
  23782655.695    23782654.945    23782654.015    -7570132.844 3  -5898801.122 3
        19.900          21.100
  22800390.959    22800390.479    22800390.378   -10063882.995 4  -7841982.693 5
        28.400          30.200
  20466956.491    20466955.637    20466953.850   -25619954.554 6 -19963591.192 8
        40.100          49.300
  20768193.871    20768193.316    20768190.217   -22888519.423 7 -17835202.033 7
        42.400          45.500
  23087955.237    23087953.533    23087951.303   -10235442.128 4  -7975666.008 4
        29.000          29.700
 09  1 10  0 21 30.0000000  0 10G 3G26G 9G15G21G14G 6G18G22G19
  22790216.868    22790216.032    22790215.899    -9042722.933 4  -7046273.041 4
        27.900          29.000
  24841660.231    24841661.010    24841662.808     2653016.921     2067294.192 2
         3.000          12.600
  22237115.765    22237115.239    22237114.905   -13765162.272 4 -10726094.937 5
        29.900          30.800
  23233045.488    23233045.532    23233043.716    -8552247.255 4  -6664076.755 5
        28.100          30.600
  21685527.975    21685527.163    21685525.317   -20421716.799 5 -15913018.271 5
        35.600          31.800
  23762002.377    23762001.750    23762000.978    -7678664.937 3  -5983371.556 3
        19.300          21.100
  22810811.956    22810811.342    22810811.267   -10009120.322 4  -7799310.484 5
        27.900          30.100
  20469935.442    20469934.620    20469933.074   -25604300.229 6 -19951393.016 8
        40.100          49.200
  20759706.717    20759706.181    20759703.038   -22933119.449 7 -17869955.291 7
        42.400          45.500
  23081752.286    23081750.532    23081748.945   -10268035.725 4  -8001063.612 4
        28.400          29.700
 09  1 10  0 22  0.0000000  0 10G 3G26G 9G15G21G14G 6G18G22G19
  22799761.223    22799760.293    22799760.080    -8992568.461 4  -7007191.636 4
        27.900          29.000
  24865269.145    24865269.818    24865271.673     2777079.275     2163966.042 2
                        13.900
  22223059.404    22223058.748    22223058.481   -13839030.642 5 -10783654.688 5
        30.100          31.600
  23251015.046    23251014.956    23251013.088    -8457817.981 4  -6590495.522 5
        27.900          30.100
  21701223.065    21701222.170    21701220.365   -20339238.470 5 -15848749.453 5
        35.300          31.300
  23741383.843    23741383.115    23741382.437    -7787017.942 3  -6067802.455 3
        19.900          21.600
  22821320.372    22821319.808    22821320.091    -9953896.641 4  -7756279.053 4
        27.600          29.700
  20472988.923    20472988.065    20472986.295   -25588254.112 6 -19938889.545 8
        40.200          49.300
  20751286.956    20751286.426    20751283.321   -22977365.610 7 -17904432.814 7
        42.400          45.600
  23075658.645    23075657.036    23075655.015   -10300058.819 4  -8026016.668 4
        29.000          29.700
 09  1 10  0 22 30.0000000  0 11G 3G26G 9G15G21G14G28G 6G18G22G19
  22809401.194    22809400.559    22809400.229    -8941908.516 4  -6967716.357 4
        27.600          29.000
  24888893.508    24888893.844    24888894.939     2901219.076     2260698.298 2
         3.000          12.600
  22209105.142    22209104.283    22209104.036   -13912361.043 5 -10840795.237 5
        30.100          31.800
  23269030.405    23269030.248    23269028.461    -8363146.486 4  -6516725.534 5
        27.100          30.100
  21716990.840    21716990.055    21716988.457   -20256377.305 5 -15784182.323 5
        34.900          31.600
  23720797.450    23720796.844    23720795.864    -7895198.640 3  -6152099.076 3
        19.300          20.500
  25636437.430    25636437.396    25636436.109            .0951          -.32911
         3.000           6.500
  22831914.847    22831914.364    22831914.213    -9898222.656 4  -7712896.718 4
        27.900          29.200
  20476115.283    20476114.501    20476112.912   -25571824.574 6 -19926087.305 8
        40.200          49.400
  20742932.940    20742932.429    20742929.459   -23021265.934 7 -17938640.854 7
        42.400          45.700
  23069672.340    23069670.707    23069668.547   -10331518.840 5  -8050530.973 5
        30.200          30.100
 09  1 10  0 23  0.0000000  0 11G 3G26G 9G15G21G14G28G 6G18G22G19
  22819137.691    22819136.992    22819136.944    -8890742.443 4  -6927846.691 4
        27.900          29.000
  24912531.139    24912531.651    24912530.596     3025436.494     2357491.139 1
                        11.000
  22195254.374    22195253.502    22195253.068   -13985147.746 5 -10897512.130 5
        30.200          31.500
  23287092.033    23287091.638    23287090.108    -8268232.548 4  -6442766.631 5
        26.200          30.100
  21732831.838    21732831.091    21732829.444   -20173132.424 5 -15719316.190 5
        34.900          31.500
  23700244.859    23700244.092    23700243.259    -8003202.773 3  -6236258.109 3
        19.300          21.100
  25630435.423    25630433.994    25630434.202      -31540.485      -24577.557
                         3.000
  22842595.441    22842594.751    22842594.535    -9842097.862 4  -7669163.103 4
        27.900          29.000
  20479315.202    20479314.365    20479312.656   -25555009.317 6 -19912984.506 8
        40.200          49.400
  20734645.510    20734644.957    20734641.880   -23064817.179 7 -17972576.882 7
        42.500          45.800
  23063793.423    23063791.881    23063789.984   -10362411.716 5  -8074603.340 5
        30.400          30.600
 09  1 10  0 23 30.0000000  0 11G 3G26G 9G15G21G14G28G 6G18G22G19
