     2.11           OBSERVATION DATA    G (GPS)             RINEX VERSION / TYPE
teqc  2008Oct2      WCDA Operator       20090123 00:41:27UTCPGM / RUN BY / DATE
Solaris x86 5.10|AMD64|cc SC5.8 -xarch=amd64|=+|=+          COMMENT
teqc  2008Oct2      WCDA Operator       20090123 00:41:27UTCCOMMENT
teqc  2008Oct2      WCDA Operator       20090122 01:21:06UTCCOMMENT
flin  WCDA-ACP   965000   CFS Flin Flon SASK Canada         MARKER NAME
40135M001                                                   MARKER NUMBER
PGC-WCDA            GEOL. SURV. CANADA                      OBSERVER / AGENCY
1115                AOA BENCHMARK ACT   3.3.32.4            REC # / TYPE / VERS
231                 AOAD/M_T        SCIS                    ANT # / TYPE
  -766174.4630 -3611375.3160  5184056.2210                  APPROX POSITION XYZ
        0.1500        0.0000        0.0000                  ANTENNA: DELTA H/E/N
     1     1                                                WAVELENGTH FACT L1/2
     7    C1    P1    P2    L1    L2    S1    S2            # / TYPES OF OBSERV
STATION INFORMATION EFFECTIVE FROM: 2001/01/13 18:20:00     COMMENT
                                TO: CURRENT DATE (above)    COMMENT
BIT 2 OF LLI FLAGS (+4) DATA COLLECTED UNDER 'AS' CONDITION COMMENT
L1 PHASE CENTRE 0.110m ABOVE ARP                            COMMENT
L2 PHASE CENTRE 0.128m ABOVE ARP                            COMMENT
where ARP is the Antenna Reference Point for HI measurement COMMENT
CONTACT gps@pgc.nrcan.gc.ca FOR ADDITIONAL INFORMATION      COMMENT
    P1 =    P1  TurboRogue; =    Y1  Benchmark              COMMENT
    L1 = L1(CA)                                             COMMENT
    P2 =    P2  TurboRogue; =    Y2  Benchmark              COMMENT
    L2 = L2(P2) TurboRogue; = L2(Y2) Benchmark              COMMENT
 SNR is mapped to RINEX snr flag value [0-9]                COMMENT
  L1 & L2: min(max(int(snr_dBHz/6), 0), 9)                  COMMENT
  2009     1    22     0     0    0.0000000     GPS         TIME OF FIRST OBS
                                                            END OF HEADER
 09  1 22  0  0  0.0000000  0 10G 9G19G28G15G 6G21G 3G18G22G14
  21629078.950    21629078.421    21629077.915   -16912207.262 4 -13178335.944 4
        28.100          24.200
  22922532.682    22922530.903    22922529.070   -10734517.175 4  -8364554.835 3
        25.300          22.600
  25449180.972    25449180.034    25449177.814    -1010129.917 2   -787106.397 2
        15.100          17.800
  24340193.472    24340194.032    24340191.809    -3187013.543 2  -2483377.099 3
        17.800          19.900
  23509205.301    23509204.699    23509204.471    -6214031.213 3  -4842098.545 3
        19.300          19.900
  22668848.392    22668847.626    22668846.818   -15143032.979 3 -11799760.103 3
        22.100          19.900
  23442338.916    23442337.985    23442338.527    -5004769.894 3  -3899816.118 3
        19.300          19.900
  20731244.878    20731244.017    20731242.353   -24300062.930 5 -18935102.859 5
        32.100          30.100
  20396746.979    20396746.500    20396743.655   -25014281.371 5 -19491638.896 5
        34.100          33.600
  22638155.271    22638154.292    22638153.770   -13518675.237 3 -10534028.029 3
        23.400          21.100
 09  1 22  0  0 30.0000000  0 10G 9G19G28G15G 6G21G 3G18G22G14
  21621537.977    21621537.116    21621536.893   -16951835.424 4 -13209215.017 3
        27.400          23.800
  22922404.180    22922402.623    22922401.143   -10735191.436 4  -8365080.225 3
        24.600          22.100
  25448256.952    25448257.786    25448250.374    -1014993.905 2   -790891.030 3
        15.100          18.600
  24360196.587    24360196.767    24360194.659    -3081896.168 2  -2401467.425 3
        17.800          19.900
  23523791.385    23523791.347    23523791.473    -6137378.033 3  -4782368.804 3
        18.600          20.500
  22688131.179    22688130.425    22688129.574   -15041700.833 3 -11720800.010 3
        21.600          20.500
  23456505.834    23456505.618    23456506.083    -4930320.680 3  -3841803.758 3
        18.600          20.500
  20738139.436    20738138.671    20738137.048   -24263831.139 5 -18906870.280 4
        31.300          29.000
  20392218.093    20392217.633    20392214.848   -25038080.618 5 -19510183.753 5
        33.500          32.400
  22620036.760    22620036.427    22620035.874   -13613887.859 3 -10608219.640 3
        23.000          21.600
 09  1 22  0  1  0.0000000  0 10G 9G19G28G15G 6G21G 3G18G22G14
  21614126.771    21614126.105    21614125.696   -16990781.566 4 -13239562.644 3
        27.100          23.400
  22922388.849    22922386.695    22922386.182   -10735273.223 3  -8365143.944 3
        23.800          22.100
  25447428.571    25447431.182    25447405.085    -1019346.261 2   -794269.706 3
        13.900          19.300
  24380223.253    24380221.615    24380221.076    -2976657.855 2  -2319463.515 3
        17.800          19.300
  23538439.302    23538439.067    23538438.980    -6060404.802 3  -4722389.695 3
        18.600          19.900
  22707467.483    22707466.681    22707465.941   -14940087.646 3 -11641620.920 3
        21.100          19.900
  23470743.951    23470742.867    23470742.900    -4855498.867 3  -3783501.050 3
        18.600          19.900
  20745104.349    20745103.661    20745102.287   -24227229.523 5 -18878349.531 4
        30.800          28.100
  20387762.717    20387762.202    20387759.405   -25061494.327 5 -19528428.184 5
        33.000          31.600
  22601972.019    22601971.247    22601970.914   -13708818.776 3 -10682191.750 3
        22.600          21.100
 09  1 22  0  1 30.0000000  0 10G 9G19G28G15G 6G21G 3G18G22G14
  21606844.892    21606844.152    21606844.086   -17029047.510 4 -13269380.241 3
        26.200          23.800
  22922484.998    22922483.283    22922481.913   -10734766.465 3  -8364749.080 3
        23.400          21.600
  25446696.062    25446692.640    25446663.619    -1023190.654 2   -797241.450 3
        13.900          19.900
  24400271.281    24400270.283    24400268.453    -2871304.564 2  -2237370.060 3
        17.000          20.500
  23553146.277    23553146.205    23553146.254    -5983118.033 2  -4662166.217 3
        17.800          20.500
  22726856.517    22726855.667    22726855.494   -14838199.256 3 -11562227.378 3
        20.500          20.500
  23485051.634    23485050.597    23485052.267    -4780311.138 2  -3724913.186 3
        17.800          20.500
  20752139.100    20752138.368    20752136.880   -24190262.340 5 -18849543.921 4
        30.200          27.600
  20383379.952    20383379.543    20383376.700   -25084525.891 5 -19546374.844 5
        32.400          31.000
  22583960.600    22583960.377    22583959.181   -13803469.899 3 -10755945.839 3
        22.100          21.600
 09  1 22  0  2  0.0000000  0 10G 9G19G28G15G 6G21G 3G18G22G14
  21599692.281    21599691.581    21599691.565   -17066635.146 4 -13298669.283 3
        25.600          23.800
  22922692.815    22922690.971    22922689.683   -10733674.566 3  -8363898.233 3
        23.000          22.100
  25446060.785    25446059.929    25446027.830    -1026530.225 2   -799824.564 3
        13.900          19.900
  24420339.455    24420340.000    24420337.303    -2765841.592 2  -2155191.103 3
        17.000          19.900
  23567912.227    23567912.704    23567911.987    -5905523.929 2  -4601703.308 3
        17.800          20.500
  22746296.580    22746295.681    22746293.828   -14736041.216 3 -11482623.753 3
        20.500          21.100
  23499428.074    23499427.208    23499426.619    -4704764.310 2  -3666045.560 3
        17.800          20.500
  20759242.285    20759241.639    20759240.112   -24152933.757 4 -18820456.701 4
        29.900          27.100
  20379069.265    20379068.870    20379066.167   -25107178.280 5 -19564026.039 5
        32.100          30.800
  22566002.303    22566001.713    22566000.256   -13897842.880 3 -10829483.193 3
        22.600          21.100
 09  1 22  0  2 30.0000000  0 10G 9G19G28G15G 6G21G 3G18G22G14
  21592669.675    21592669.405    21592668.785   -17103538.756 4 -13327425.332 3
        25.900          23.400
  22923012.871    22923010.955    22923009.430   -10731993.852 3  -8362588.574 3
        23.400          22.600
  25445521.653    25445522.425    25445503.207    -1029360.756 2   -802009.057 3
        13.900          20.500
  24440429.369    24440429.875    24440428.424    -2660266.993 2  -2072925.165 3
        17.000          20.500
  23582736.212    23582736.256    23582735.993    -5827621.085 2  -4540999.806 3
        17.000          21.100
  22765788.003    22765786.835    22765786.047   -14633611.598 3 -11402808.472 3
        19.900          21.100
  23513871.290    23513870.820    23513871.641    -4628856.912 2  -3606896.922 3
        17.000          21.100
  20766415.338    20766414.724    20766413.155   -24115240.021 4 -18791084.948 4
        29.700          27.100
  20374831.760    20374831.243    20374828.591   -25129446.764 5 -19581378.087 5
        31.600          30.200
  22548097.728    22548096.910    22548096.468   -13991931.930 3 -10902799.294 3
        22.100          21.600
 09  1 22  0  3  0.0000000  0 10G 9G19G28G15G 6G21G 3G18G22G14
  21585779.384    21585778.890    21585778.527   -17139747.392 4 -13355639.825 3
        25.600          23.400
  22923445.911    22923444.714    22923443.157   -10729715.464 3  -8360813.194 3
        22.600          22.100
  25445081.280    25445081.644    25445065.417    -1031672.573 2   -803792.078 3
        13.900          21.100
  24460542.252    24460542.142    24460540.590    -2554573.578 2  -1990566.579 3
        16.100          21.100
  23597621.190    23597620.373    23597622.858    -5749403.049 2  -4480050.637 3
        17.000          21.600
  22785332.909    22785332.351    22785331.333   -14530903.111 3 -11322775.893 3
        18.600          21.600
  23528387.514    23528387.257    23528386.405    -4552582.458 2  -3547462.304 3
        16.100          21.100
  20773659.478    20773658.903    20773657.539   -24077172.285 4 -18761421.755 4
        29.700          26.800
  20370668.905    20370668.567    20370665.946   -25151321.824 5 -19598423.570 4
        31.500          29.900
  22530248.915    22530248.372    22530248.002   -14085726.311 3 -10975885.795 3
        21.600          22.100
 09  1 22  0  3 30.0000000  0 10G 9G19G28G15G 6G21G 3G18G22G14
  21579022.754    21579022.326    21579021.655   -17175252.962 4 -13383306.473 3
        24.900          23.800
  22923994.398    22923993.231    22923991.179   -10726833.595 3  -8358567.589 3
        22.600          22.600
  25444741.359    25444741.070    25444719.499    -1033459.656 2   -805169.082 3
        13.900          21.100
  24480678.080    24480678.478    24480675.212    -2448756.851 2  -1908112.039 3
        15.100          21.100
  23612565.876    23612565.682    23612565.409    -5670866.271 2  -4418853.180 3
        16.100          21.600
  22804931.397    22804930.755    22804929.370   -14427911.557 3 -11242522.757 3
        19.300          21.100
  23542972.083    23542971.516    23542970.361    -4475937.196 2  -3487738.719 3
        16.100          21.600
  20780975.698    20780974.998    20780973.861   -24038725.041 4 -18731462.847 4
        29.500          26.500
  20366582.411    20366582.150    20366579.583   -25172796.541 5 -19615157.095 4
        31.600          29.700
  22512457.841    22512457.214    22512457.730   -14179218.123 3 -11048736.520 3
        21.600          22.100
 09  1 22  0  4  0.0000000  0 10G 9G19G28G15G 6G21G 3G18G22G14
  21572397.827    21572397.430    21572396.962   -17210066.686 4 -13410434.039 3
        25.600          23.800
  22924654.979    22924653.873    22924652.789   -10723361.453 3  -8355861.989 3
        22.600          23.000
  25444500.124    25444499.784    25444507.535    -1034734.937 2   -806145.118 3
        12.600          21.100
  24500834.376    24500834.594    24500836.250    -2342832.031 2  -1825573.117 3
        15.100          21.600
  23627567.969    23627568.586    23627570.498    -5592026.631 2  -4357419.693 3
        16.100          22.100
  22824581.023    22824580.667    22824580.247   -14324652.406 3 -11162061.039 3
        18.600          21.600
  23557624.556    23557624.392    23557625.326    -4398937.633 2  -3427739.025 3
        16.100          21.600
  20788361.440    20788361.001    20788359.490   -23999911.527 4 -18701218.538 4
        29.700          26.200
  20362569.477    20362569.308    20362566.606   -25193883.635 5 -19631588.582 4
        31.600          29.200
  22494722.304    22494721.863    22494720.882   -14272418.709 3 -11121360.319 3
        21.600          22.600
 09  1 22  0  4 30.0000000  0 10G 9G19G28G15G 6G21G 3G18G22G14
  21565906.190    21565905.829    21565905.808   -17244181.121 4 -13437016.686 3
        25.600          23.400
  22925429.285    22925428.117    22925426.235   -10719293.509 3  -8352692.178 3
        22.600          23.000
  25444355.111    25444353.001    25444377.999    -1035492.657 2   -806715.911 3
        12.600          21.600
  24521011.787    24521013.625    24521023.637    -2236795.434 2  -1742946.595 3
        15.100          22.100
  23642629.985    23642629.437    23642633.050    -5512881.112 2  -4295747.796 3
        16.100          22.100
  22844282.544    22844282.303    22844280.391   -14221122.086 3 -11081388.104 3
        19.300          22.100
  23572345.433    23572344.487    23572348.869    -4321580.321 2  -3367460.540 3
        17.000          22.100
  20795818.141    20795817.620    20795816.192   -23960726.743 4 -18670684.923 4
        29.900          25.900
  20358631.961    20358631.634    20358628.938   -25214576.709 5 -19647713.037 4
        32.000          29.000
  22477043.684    22477043.276    22477043.135   -14365320.542 3 -11193751.333 3
        22.100          22.600
 09  1 22  0  5  0.0000000  0 10G 9G19G28G15G 6G21G 3G18G22G14
  21559549.777    21559549.416    21559548.937   -17277584.367 4 -13463045.165 3
        25.900          23.800
  22926318.737    22926317.462    22926315.638   -10714619.774 3  -8349050.280 3
        22.600          23.000
  25444311.001    25444306.567    25444303.512    -1035722.110 2   -806881.375 3
        12.600          22.100
  24541212.555    24541215.892    24541238.560    -2130638.588 2  -1660223.201 3
        15.100          21.600
  23657749.596    23657749.672    23657751.967    -5433422.143 2  -4233831.755 3
        16.100          22.100
  22864037.015    22864036.643    22864033.233   -14117312.196 3 -11000497.233 3
        19.300          22.100
  23587135.508    23587135.389    23587135.231    -4243858.350 2  -3306898.077 3
        17.000          22.100
  20803347.190    20803346.875    20803345.485   -23921160.585 5 -18639854.138 4
        30.200          25.900
  20354771.104    20354771.053    20354768.264   -25234864.782 5 -19663521.910 4
        32.100          28.800
  22459423.862    22459423.606    22459423.459   -14457911.671 3 -11265900.211 3
        22.100          23.000
 09  1 22  0  5 30.0000000  0  9G 9G19G15G 6G21G 3G18G22G14
  21553326.223    21553326.026    21553325.475   -17310288.449 4 -13488528.857 3
        26.500          23.800
  22927320.786    22927319.266    22927317.794   -10709353.799 3  -8344946.905 3
        23.000          23.400
  24561433.419    24561434.099    24561438.305    -2024376.687 2  -1577416.998 3
        15.100          22.100
  23672927.034    23672926.454    23672927.943    -5353665.584 2  -4171683.769 3
        16.100          22.600
  22883841.961    22883841.369    22883839.505   -14013237.936 3 -10919400.400 3
        19.300          22.600
  23601991.546    23601991.795    23601991.655    -4165787.396 2  -3246063.543 3
        17.000          22.100
  20810946.489    20810946.096    20810944.450   -23881226.937 5 -18608736.993 4
        30.400          25.600
  20350985.084    20350984.966    20350982.121   -25254760.918 5 -19679025.374 4
        32.400          28.600
  22441861.712    22441861.436    22441861.979   -14550203.784 3 -11337816.093 3
        23.000          23.000
 09  1 22  0  6  0.0000000  0  9G 9G19G15G 6G21G 3G18G22G14
  21547231.727    21547231.589    21547230.919   -17342316.377 4 -13513485.674 3
        26.800          23.800
  22928430.554    22928429.520    22928427.472   -10703520.604 3  -8340401.568 3
        22.600          23.000
  24581670.254    24581670.751    24581668.132    -1918036.261 2  -1494554.837 3
        15.100          22.100
  23688156.326    23688155.617    23688154.829    -5273639.021 2  -4109325.451 3
        17.000          22.100
  22903691.555    22903690.510    22903687.858   -13908926.205 3 -10838118.626 3
        19.300          22.100
  23616908.635    23616908.479    23616910.308    -4087395.458 2  -3184978.881 3
        17.000          22.600
  20818610.574    20818610.266    20818608.635   -23840950.937 5 -18577353.096 4
        30.600          25.600
  20347268.802    20347268.856    20347266.020   -25274289.097 5 -19694242.128 4
        32.700          28.600
  22424351.455    22424351.304    22424350.741   -14642219.980 3 -11409517.009 3
        23.400          23.400
 09  1 22  0  6 30.0000000  0  9G 9G19G15G 6G21G 3G18G22G14
  21541267.617    21541267.336    21541267.469   -17373655.993 4 -13537906.141 4
        26.500          24.200
  22929650.533    22929649.655    22929647.275   -10697110.097 3  -8335406.376 3
        23.000          23.000
  24601924.362    24601923.673    24601915.888    -1811608.917 2  -1411627.625 3
        16.100          22.600
  23703437.772    23703437.607    23703437.470    -5193334.453 2  -4046750.451 3
        17.800          22.600
  22923587.762    22923587.101    22923584.541   -13804368.849 3 -10756645.340 3
        18.600          22.600
  23631888.706    23631889.187    23631889.753    -4008674.861 2  -3123638.155 3
        17.800          23.000
  20826341.906    20826341.584    20826339.914   -23800322.421 5 -18545694.503 4
        30.800          25.600
  20343624.950    20343624.868    20343622.269   -25293438.160 5 -19709163.468 4
        32.700          28.600
  22406896.229    22406895.898    22406895.543   -14733947.419 3 -11480992.917 3
        23.000          23.400
 09  1 22  0  7  0.0000000  0  9G 9G19G15G 6G21G 3G18G22G14
  21535438.766    21535438.595    21535437.591   -17404287.874 4 -13561775.120 3
        26.800          23.800
  22930983.471    22930982.553    22930979.826   -10690104.867 3  -8329947.742 3
        23.400          23.400
  24622196.391    24622196.136    24622194.850    -1705078.449 2  -1328617.169 3
        17.000          22.600
  23718774.448    23718773.931    23718775.720    -5112736.860 2  -3983947.132 3
        17.800          22.600
  22943534.560    22943533.907    22943531.716   -13699549.674 3 -10674968.104 3
        19.900          22.600
  23646934.246    23646934.067    23646936.364    -3929610.287 2  -3062029.488 3
        17.800          22.600
  20834143.700    20834143.403    20834141.745   -23759324.338 5 -18513747.940 4
        30.800          25.900
  20340056.795    20340056.651    20340053.864   -25312189.686 5 -19723775.037 4
        33.000          28.400
  22389499.538    22389499.270    22389498.851   -14825367.152 3 -11552229.046 3
        23.400          23.400
 09  1 22  0  7 30.0000000  0  9G 9G19G15G 6G21G 3G18G22G14
  21529744.228    21529743.996    21529743.536   -17434212.884 4 -13585093.301 4
        27.100          24.200
  22932429.457    22932428.073    22932426.618   -10682507.634 3  -8324027.823 3
        23.400          23.000
  24642486.070    24642488.019    24642485.562    -1598449.132 2  -1245529.395 3
        17.000          23.000
  23734166.507    23734166.368    23734168.310    -5031851.269 2  -3920919.494 3
        17.800          22.600
  22963530.121    22963529.759    22963527.652   -13594473.365 3 -10593090.437 3
        20.500          22.600
  23662044.777    23662044.906    23662042.887    -3850206.624 3  -3000156.493 3
        18.600          23.000
  20842015.325    20842015.015    20842013.652   -23717959.007 5 -18481515.205 4
        30.600          25.600
  20336563.631    20336563.581    20336560.876   -25330545.559 5 -19738078.307 4
        32.700          28.400
  22372161.166    22372160.973    22372159.371   -14916479.737 3 -11623225.852 3
        23.400          23.400
 09  1 22  0  8  0.0000000  0  9G 9G19G15G 6G21G 3G18G22G14
  21524186.386    21524186.380    21524185.752   -17463420.065 4 -13607852.138 3
        26.800          23.800
  22933989.049    22933988.176    22933987.273   -10674309.718 3  -8317639.807 3
        23.400          23.800
  24662796.931    24662797.956    24662794.570    -1491714.073 2  -1162359.202 3
        17.000          23.000
  23749614.603    23749614.298    23749615.259    -4950671.487 3  -3857662.460 3
        18.600          23.000
  22983575.571    22983575.625    22983571.518   -13489132.901 3 -10511007.069 3
        20.500          23.000
  23677220.536    23677219.826    23677215.052    -3770457.841 2  -2938014.675 3
        17.800          23.000
  20849958.190    20849957.934    20849956.571   -23676217.987 5 -18448989.730 4
        30.600          25.900
  20333147.632    20333147.601    20333144.823   -25348496.494 5 -19752066.042 4
        32.600          28.400
  22354883.577    22354883.359    22354884.186   -15007274.516 3 -11693974.981 3
        23.800          23.400
 09  1 22  0  8 30.0000000  0  9G 9G19G15G 6G21G 3G18G22G14
  21518761.918    21518761.811    21518761.734   -17491925.156 4 -13630063.886 4
        26.800          24.200
  22935660.076    22935659.439    22935657.266   -10665528.547 3  -8310797.352 3
        23.400          23.800
  24683125.227    24683126.621    24683124.363    -1384891.742 2  -1079121.063 3
        17.800          23.400
  23765114.146    23765113.587    23765115.960    -4869217.004 3  -3794191.403 3
        18.600          23.000
  23003667.430    23003667.452    23003666.522   -13383547.510 3 -10428732.667 3
        19.900          23.000
  23692457.996    23692457.761    23692459.437    -3690384.259 3  -2875619.671 3
        19.300          23.000
  20857969.560    20857969.169    20857967.647   -23634118.906 5 -18416185.250 4
        30.400          25.600
  20329805.779    20329805.683    20329802.956   -25366058.868 5 -19765750.999 4
        32.400          28.400
  22337663.812    22337663.439    22337662.255   -15097766.840 3 -11764488.478 3
        23.800          23.800
 09  1 22  0  9  0.0000000  0  9G 9G19G15G 6G21G 3G18G22G14
  21513471.053    21513470.816    21513470.584   -17519729.733 4 -13651729.778 4
        26.500          24.200
  22937441.598    22937440.498    22937438.526   -10656167.687 3  -8303503.160 3
        23.000          23.400
  24703468.784    24703469.971    24703465.691    -1277986.981 2   -995818.649 3
        17.800          23.400
  23780666.992    23780666.599    23780667.180    -4787493.721 3  -3730512.941 3
        18.600          23.000
  23023805.132    23023805.458    23023808.087   -13277722.055 3 -10346271.247 3
        19.900          23.000
  23707756.982    23707756.032    23707757.642    -3609991.587 3  -2812975.996 3
        19.300          22.600
  20866048.184    20866047.869    20866046.069   -23591664.668 5 -18383104.031 4
        30.100          25.600
  20326537.259    20326537.110    20326534.174   -25383235.121 5 -19779135.089 4
        32.100          28.100
  22320500.764    22320500.517    22320499.508   -15187957.668 3 -11834767.033 3
        23.800          23.800
 09  1 22  0  9 30.0000000  0  9G 9G19G15G 6G21G 3G18G22G14
  21508315.836    21508315.411    21508314.925   -17546820.771 4 -13672839.667 4
        26.200          24.600
  22939335.239    22939334.382    22939332.146   -10646215.970 3  -8295748.558 4
        23.000          24.200
  24723830.385    24723829.336    24723830.523    -1170990.261 2   -912444.497 3
        17.000          23.000
  23796270.611    23796272.550    23796263.508    -4705492.684 3  -3666616.248 3
        19.300          23.400
  23043990.436    23043990.474    23043994.628   -13171647.133 3 -10263613.455 3
        19.300          23.000
  23723117.109    23723117.030    23723118.969    -3529270.770 3  -2750076.714 3
        18.600          23.400
  20874196.712    20874196.387    20874194.313   -23548844.080 4 -18349737.329 4
        29.500          25.600
  20323344.524    20323344.451    20323341.709   -25400012.636 5 -19792208.470 4
        31.600          28.100
  22303397.978    22303397.934    22303396.215   -15277833.868 3 -11904800.407 3
        23.800          23.800
 09  1 22  0 10  0.0000000  0  9G 9G19G15G 6G21G 3G18G22G14
  21503297.451    21503297.194    21503297.076   -17573191.547 4 -13693388.331 4
        25.900          24.600
  22941342.869    22941341.735    22941339.683   -10635668.665 3  -8287529.894 4
        23.400          24.200
  24744209.511    24744206.958    24744206.999    -1063897.589 2   -828995.601 3
        17.800          23.400
  23811928.364    23811929.025    23811927.314    -4623211.457 3  -3602501.614 3
        18.600          23.400
  23064224.639    23064223.562    23064230.340   -13065319.572 3 -10180760.704 3
        19.900          23.400
  23738540.764    23738539.678    23738548.068    -3448219.564 3  -2686919.872 3
        18.600          23.400
  20882415.866    20882415.327    20882413.513   -23505653.042 4 -18316081.974 4
        29.200          25.600
  20320228.979    20320228.740    20320225.784   -25416386.169 5 -19804967.066 4
        31.300          28.100
  22286356.095    22286355.997    22286354.276   -15367388.649 3 -11974583.327 4
        23.800          24.200
 09  1 22  0 10 30.0000000  0  9G 9G19G15G 6G21G 3G18G22G14
  21498414.198    21498413.976    21498413.700   -17598854.061 4 -13713385.071 4
        25.600          24.600
  22943460.358    22943458.834    22943458.606   -10624539.300 3  -8278857.649 4
        23.000          24.200
  24764602.433    24764601.362    24764601.103     -956724.159 2   -745481.921 3
        17.800          23.400
  23827635.858    23827635.643    23827636.613    -4540665.506 3  -3538179.376 3
        18.600          23.000
  23084503.306    23084502.919    23084516.943   -12958754.417 3 -10097718.864 3
        19.900          23.800
  23754024.133    23754023.582    23754024.617    -3366854.016 3  -2623518.202 3
        18.600          23.400
  20890702.812    20890702.390    20890700.659   -23462104.740 4 -18282148.231 4
        29.000          25.600
  20317187.426    20317187.340    20317184.618   -25432368.248 5 -19817420.625 4
        30.800          28.100
  22269373.754    22269373.061    22269371.734   -15456633.260 3 -12044124.577 4
        23.400          24.200
 09  1 22  0 11  0.0000000  0  9G14G19G15G 6G21G 3G18G22G 9
  22252450.861    22252450.065    22252450.531   -15545563.117 3 -12113420.532 4
        23.400          24.200
  22945689.934    22945688.569    22945686.992   -10612825.415 3  -8269729.953 4
        22.600          24.200
  24785012.593    24785013.778    24785008.906     -849468.968 2   -661902.037 3
        17.800          23.800
  23843394.962    23843393.525    23843409.984    -4457854.779 2  -3473649.223 3
        17.800          23.800
  23104827.538    23104827.056    23104846.558   -12851950.802 3 -10014494.330 3
        19.900          23.400
  23769566.601    23769566.729    23769566.325    -3285174.065 3  -2559871.535 3
        19.300          23.400
  20899058.225    20899057.878    20899056.188   -23418196.595 4 -18247934.085 4
        28.400          25.600
  20314221.326    20314221.235    20314218.532   -25447955.066 5 -19829566.194 4
        30.400          28.100
  21493666.625    21493666.241    21493666.742   -17623803.741 4 -13732826.361 4
        25.300          24.900
 09  1 22  0 11 30.0000000  0  9G 9G19G15G 6G21G 3G18G22G14
  21489055.858    21489055.582    21489055.151   -17648032.579 4 -13751706.000 4
        24.900          24.900
  22948031.562    22948030.688    22948027.553   -10600520.821 3  -8260141.992 4
        22.600          24.600
  24805439.134    24805442.257    24805422.196     -742127.016 2   -578254.127 3
        17.800          23.400
  23859202.816    23859201.534    23859204.503    -4374775.385 2  -3408912.159 3
        17.800          23.800
  23125196.893    23125194.492    23125220.273   -12744904.367 3  -9931080.265 3
        18.600          23.400
  23785171.454    23785170.666    23785183.418    -3203175.479 3  -2495976.387 3
        18.600          23.800
  20907483.229    20907482.898    20907480.165   -23373922.415 4 -18213434.735 4
        27.900          25.600
  20311331.825    20311331.725    20311329.033   -25463139.634 4 -19841398.321 4
        29.700          27.900
  22235589.753    22235588.862    22235588.169   -15634169.865 3 -12182464.756 4
        23.000          24.600
 09  1 22  0 12  0.0000000  0  9G 9G19G15G 6G21G 3G18G22G14
  21484580.776    21484580.893    21484579.780   -17671549.427 4 -13770030.803 4
        24.200          24.600
  22950482.933    22950482.408    22950480.153   -10587635.963 3  -8250101.821 4
        22.100          24.600
  24825881.625    24825877.787    24825863.043     -634710.164 2   -494551.098 3
        17.000          23.800
  23875061.982    23875060.427    23875067.160    -4291439.905 2  -3343975.945 3
        17.800          23.800
  23145611.673    23145611.323    23145612.664   -12637627.080 3  -9847488.174 3
        18.600          23.800
  23800833.866    23800834.050    23800860.885    -3120871.315 3  -2431840.095 3
        18.600          23.800
  20915976.006    20915975.696    20915974.077   -23329292.627 4 -18178658.272 4
        27.100          25.900
  20308517.090    20308517.115    20308514.058   -25477931.343 4 -19852924.329 4
        29.000          27.900
  22218788.106    22218787.869    22218786.979   -15722461.918 3 -12251263.736 4
        22.600          24.600
 09  1 22  0 12 30.0000000  0  9G 9G19G15G 6G21G 3G18G22G14
  21480241.864    21480241.938    21480240.805   -17694349.155 3 -13787796.820 4
        23.400          24.900
  22953045.916    22953044.632    22953045.219   -10574167.974 3  -8239607.285 4
        21.600          24.600
  24846336.216    24846338.137    24846350.584     -527216.133 2   -410792.572 4
        17.000          24.200
  23890969.910    23890967.271    23890982.048    -4207847.580 2  -3278834.734 4
        17.800          24.200
  23166070.485    23166068.871    23166068.665   -12530117.226 3  -9763714.273 4
        18.600          24.200
  23816553.115    23816551.942    23816556.590    -3038260.998 2  -2367466.763 3
        17.800          23.800
  20924536.984    20924536.688    20924535.679   -23284303.926 4 -18143602.130 4
        26.500          25.600
  20305777.859    20305777.806    20305774.684   -25492325.885 4 -19864140.854 4
        28.100          27.600
  22202047.105    22202046.850    22202046.758   -15810433.731 3 -12319813.170 4
        22.100          24.600
 09  1 22  0 13  0.0000000  0  9G14G19G15G 6G21G 3G18G22G 9
  22185368.267    22185367.846    22185367.897   -15898082.355 3 -12388110.809 4
        21.600          24.900
  22955719.851    22955718.554    22955715.786   -10560116.020 3  -8228657.734 4
        21.100          24.600
  24866805.278    24866807.117    24866807.193     -419645.454 2   -326983.954 4
        16.100          24.200
  23906924.937    23906924.929    23906932.812    -4123999.557 2  -3213495.734 4
        17.800          24.200
  23186572.360    23186573.322    23186587.995   -12422376.052 3  -9679758.665 4
        18.600          24.200
  23832330.852    23832333.938    23832334.538    -2955345.406 2  -2302856.253 4
        17.800          24.200
  20933166.519    20933166.159    20933165.413   -23238955.196 4 -18108265.458 4
        25.900          25.600
  20303114.481    20303114.367    20303111.304   -25506321.575 4 -19875046.581 4
        27.600          27.400
  21476040.624    21476040.545    21476038.288   -17716429.065 3 -13805001.940 4
        23.400          25.300
 09  1 22  0 13 30.0000000  0  8G14G19G 6G21G 3G18G22G 9
  22168750.605    22168750.983    22168751.286   -15985408.812 3 -12456157.367 4
        21.600          24.900
  22958504.302    22958503.470    22958500.297   -10545483.617 3  -8217255.846 4
        21.100          24.900
  23922928.736    23922927.479    23923012.862    -4039901.269 2  -3147963.805 4
        17.800          24.200
  23207117.741    23207114.764    23207152.370   -12314407.565 3  -9595623.536 4
        18.600          24.200
  23848165.821    23848166.885    23848158.570    -2872130.398 2  -2238010.839 4
        17.800          24.600
  20941864.181    20941863.876    20941862.693   -23193249.887 4 -18072650.926 4
        25.300          25.600
  20300526.707    20300526.370    20300523.644   -25519920.438 4 -19885643.101 4
        27.100          27.400
  21471975.256    21471975.491    21471973.028   -17737790.735 3 -13821647.398 4
        23.000          25.300
 09  1 22  0 14  0.0000000  0  8G14G19G 6G21G 3G 9G18G22
  22152188.461    22152188.624    22152186.618   -16072442.833 3 -12523976.059 4
        21.100          25.300
  22961392.716    22961391.682    22961393.649   -10530302.703 3  -8205426.462 4
        20.500          24.900
  23938972.831    23938972.684    23939062.455    -3955586.749 2  -3082261.856 4
        17.800          24.600
  23227700.380    23227701.269    23227734.323   -12206245.300 2  -9511343.128 4
        17.800          24.600
  23864052.357    23864051.819    23864050.416    -2788650.492 2  -2172959.483 4
        17.000          24.600
  21468041.083    21468041.184    21468040.370   -17758464.562 3 -13837756.870 4
        22.600          25.300
  20950623.213    20950622.668    20950620.411   -23147219.868 4 -18036783.388 4
        24.900          25.600
  20298008.428    20298008.369    20298005.641   -25533153.130 4 -19895954.298 4
        26.500          27.400
 09  1 22  0 14 30.0000000  0  8G14G19G 6G21G 3G18G22G 9
  22135688.100    22135687.958    22135687.083   -16159153.944 3 -12591543.191 4
        21.100          24.900
  22964391.545    22964389.401    22964390.596   -10514544.914 3  -8193147.746 4
        19.900          24.900
  23955063.144    23955063.515    23955151.097    -3871029.959 2  -3016376.953 4
        17.000          24.900
  23248324.114    23248326.240    23248340.453   -12097862.827 3  -9426888.470 4
        18.600          24.900
  23879993.621    23879988.718    23879992.207    -2704879.356 2  -2107679.446 4
        17.000          24.900
  20959449.528    20959449.237    20959447.880   -23100836.787 4 -18000640.753 4
        24.200          25.600
  20295565.773    20295565.786    20295562.311   -25545990.406 4 -19905957.367 4
        25.900          27.400
  21464243.484    21464243.305    21464242.770   -17778420.486 3 -13853306.914 4
        22.100          25.300
 09  1 22  0 15  0.0000000  0  8G14G19G 6G21G 3G 9G22G18
  22119252.967    22119252.902    22119254.421   -16245522.197 3 -12658843.006 4
        20.500          25.600
  22967503.337    22967501.285    22967516.215   -10498192.690 3  -8180406.082 4
        20.500          24.900
  23971202.321    23971199.435    23971282.016    -3786215.109 2  -2950291.205 4
        17.000          25.300
  23268994.343    23268993.775    23268982.636   -11989243.841 2  -9342253.374 4
        17.800          24.900
  23895992.851    23895991.138    23895977.580    -2620801.281 2  -2042162.095 4
        17.000          24.900
  21460586.132    21460587.062    21460584.555   -17797638.839 3 -13868282.246 4
        21.600          25.600
  20293201.756    20293201.648    20293199.381   -25558413.310 4 -19915637.539 4
        25.300          27.100
  20968346.541    20968345.868    20968345.538   -23054082.526 3 -17964208.837 4
        23.800          25.900
 09  1 22  0 15 30.0000000  0  8G14G19G 6G21G 3G18G22G 9
  22102885.863    22102885.493    22102880.824   -16331529.143 3 -12725861.352 4
        20.500          25.300
  22970730.911    22970729.698    22970745.339   -10481229.695 3  -8167190.836 4
        19.300          25.300
  23987394.095    23987390.147    23987478.576    -3701128.094 2  -2884001.598 4
        17.000          25.300
  23289711.338    23289710.206    23289698.102   -11880373.569 2  -9257421.552 4
        17.800          24.900
  23912053.630    23912052.820    23912065.110    -2536402.334 2  -1976399.176 4
        17.800          25.300
  20977317.454    20977316.950    20977315.923   -23006940.541 3 -17927474.822 4
        23.400          25.900
  20290919.779    20290919.838    20290915.870   -25570404.442 4 -19924981.281 4
        24.900          27.100
  21457072.805    21457072.066    21457073.347   -17816101.763 3 -13882668.921 4
        21.100          25.600
 09  1 22  0 16  0.0000000  0  8G19G 6G21G 3G18G22G14G 9
  22974067.951    22974065.461    22974110.445   -10463694.085 3  -8153528.522 4
        19.300          25.300
  24003630.472    24003633.485    24003753.651    -3615808.702 2  -2817527.116 4
        17.000          25.600
  23310468.882    23310469.245    23310468.654   -11771290.986 2  -9172425.325 4
        17.800          25.300
  23928166.681    23928158.934    23928173.373    -2451723.178 2  -1910410.006 4
        17.800          25.300
  20986354.707    20986354.331    20986353.367   -22959448.259 3 -17890467.825 4
        23.000          25.900
  20288713.286    20288712.987    20288710.375   -25582000.261 3 -19934016.978 4
        23.800          27.100
  22086581.620    22086582.450    22086560.346   -16417209.868 3 -12792630.072 4
        19.900          25.300
  21453696.475    21453696.456    21453695.482   -17833845.286 3 -13896495.047 4
        21.100          25.600
 09  1 22  0 16 30.0000000  0  8G19G 6G21G 3G18G22G14G 9
  22977513.989    22977514.127    22977589.050   -10445580.048 3  -8139406.543 4
        19.300          25.600
  24019910.723    24019911.643    24020092.448    -3530253.535 2  -2750858.289 4
        17.800          25.600
  23331268.800    23331269.736    23331279.082   -11661992.029 2  -9087266.975 4
        17.800          25.600
  23944335.057    23944337.832    23944242.826    -2366759.636 2  -1844205.429 4
        17.800          25.600
  20995460.037    20995459.335    20995460.554   -22911600.073 3 -17853183.521 4
        22.600          25.900
  20286583.047    20286582.618    20286580.508   -25593194.381 3 -19942739.663 4
        23.400          27.100
  22070340.482    22070339.298    22070310.512   -16502556.581 3 -12859137.928 4
        19.900          25.900
  21450458.154    21450458.485    21450459.182   -17850862.142 3 -13909754.965 4
        20.500          25.900
 09  1 22  0 17  0.0000000  0  7G19G21G 3G18G14G 9G22
  22981068.236    22981065.301    22981124.008   -10426907.282 3  -8124855.716 4
        19.300          25.600
  23352105.008    23352099.942    23352133.177   -11552497.831 2  -9001952.784 4
        17.800          25.600
  23960553.487    23960557.226    23960410.082    -2281533.722 2  -1777798.143 4
        17.800          25.600
  21004629.257    21004628.557    21004627.861   -22863415.504 3 -17815637.126 4
        22.100          26.200
  22054160.473    22054159.782    22054123.712   -16587586.367 3 -12925398.935 4
        19.900          25.900
  21447354.986    21447355.001    21447366.413   -17867170.165 3 -13922462.070 4
        20.500          25.900
  20284525.767    20284525.635    20284520.542   -25604004.973 3 -19951163.532 4
        23.000          26.800
 09  1 22  0 17 30.0000000  0  6G19G21G18G14G 9G22
  22984729.586    22984728.947    22984785.125   -10407667.963 3  -8109866.277 4
        19.300          25.900
  23372979.125    23372981.157    23373060.595   -11442801.386 2  -8916472.045 4
        17.800          25.600
  21013863.896    21013862.746    21013861.847   -22814886.158 3 -17777822.106 4
        21.600          26.200
  22038042.072    22038040.822    22037997.876   -16672289.168 3 -12991401.872 4
        19.300          25.900
  21444388.326    21444388.235    21444395.404   -17882759.697 3 -13934608.398 4
        19.900          25.900
  20282543.411    20282543.112    20282540.432   -25614422.793 3 -19959281.281 4
        22.600          26.800
 09  1 22  0 18  0.0000000  0  5G19G18G14G 9G22
  22988500.183    22988498.283    22988517.037   -10387851.685 3  -8094428.599 4
        19.300          25.900
  21023166.635    21023165.979    21023167.925   -22766001.058 3 -17739729.691 4
        21.100          26.200
  22021988.137    22021987.114    22021921.438   -16756652.279 3 -13057137.877 4
        19.900          26.200
  21441560.789    21441560.369    21441560.676   -17897618.765 3 -13946185.726 4
        19.900          26.200
  20280638.019    20280637.782    20280633.620   -25624436.092 3 -19967083.855 4
        22.100          26.800
 09  1 22  0 18 30.0000000  0  5G19G18G14G 9G22
  22992385.725    22992384.046    22992405.643   -10367434.269 3  -8078521.763 4
        18.600          26.200
  21032541.647    21032541.659    21032541.207   -22716735.879 3 -17701341.285 4
        21.100          26.500
  22006003.665    22006003.892    22005925.500   -16840648.968 3 -13122590.158 4
        19.300          26.200
  21438877.367    21438878.407    21438868.116   -17911721.097 3 -13957175.897 4
        19.300          26.200
  20278814.325    20278813.425    20278810.851   -25634019.577 3 -19974551.482 4
        22.100          27.100
 09  1 22  0 19  0.0000000  0  5G19G18G14G 9G22
  22996378.121    22996377.279    22996424.463   -10346450.970 3  -8062172.783 4
        18.600          26.200
  21041982.309    21041981.820    21041982.324   -22667125.264 3 -17662683.699 4
        20.500          26.200
  21990083.830    21990082.288    21989994.917   -16924311.745 3 -13187789.483 4
        19.900          26.200
  21436331.489    21436333.095    21436296.778   -17925100.327 3 -13967604.375 4
        19.300          26.200
  20277066.137    20277065.307    20277061.952   -25643207.229 3 -19981710.683 4
        21.100          26.800
 09  1 22  0 19 30.0000000  0  5G19G18G14G 9G22
  23000479.738    23000476.582    23000530.645   -10324897.188 2  -8045383.208 4
        17.800          26.200
  21051489.682    21051488.917    21051485.068   -22617164.424 3 -17623753.182 4
        20.500          26.500
  21974227.244    21974225.958    21974142.347   -17007633.819 3 -13252727.117 4
        19.300          26.200
  21433924.046    21433922.779    21433857.298   -17937750.367 3 -13977461.587 4
        19.300          26.500
  20275394.440    20275394.344    20275392.041   -25651992.512 3 -19988556.320 4
        21.100          27.100
 09  1 22  0 20  0.0000000  0  5G19G18G14G 9G22
  23004689.438    23004689.100    23004761.849   -10302777.074 3  -8028155.523 4
        18.600          26.500
  21061062.430    21061062.611    21061062.159   -22566856.916 3 -17584552.412 4
        19.900          26.500
  21958436.139    21958435.233    21958334.720   -17090617.026 3 -13317403.156 4
        18.600          26.500
  21431654.760    21431656.072    21431530.326   -17949673.602 3 -13986755.436 4
        19.300          26.500
  20273798.426    20273797.214    20273793.777   -25660378.684 3 -19995090.982 4
        20.500          27.100
 09  1 22  0 20 30.0000000  0  5G19G18G14G 9G22
  23009007.591    23009011.504    23009128.661   -10280089.485 3  -8010479.256 4
        18.600          26.800
  21070702.091    21070702.527    21070698.727   -22516201.209 3 -17545079.685 4
        19.900          26.800
  21942711.699    21942712.124    21942663.039   -17173257.100 3 -13381816.301 4
        18.600          26.800
  21429525.037    21429520.927    21429405.254   -17960867.009 3 -13995484.680 4
        19.300          27.100
  20272279.250    20272279.182    20272277.425   -25668362.949 3 -20001312.449 4
        20.500          27.100
 09  1 22  0 21  0.0000000  0  5G19G18G14G 9G22
  23013431.297    23013433.253    23013567.811   -10256837.206 2  -7992353.725 4
        17.800          27.100
  21080407.632    21080406.352    21080385.025   -22465199.817 3 -17505340.225 4
        19.300          27.100
  21927050.154    21927054.094    21927046.620   -17255554.898 3 -13445954.066 4
        18.600          27.400
  21427534.166    21427534.311    21427449.868   -17971332.047 3 -14003653.710 4
        18.600          27.100
  20270835.831    20270836.440    20270837.307   -25675946.547 3 -20007221.216 4
        19.900          27.600
 09  1 22  0 21 30.0000000  0  5G19G18G14G 9G22
  23017963.591    23017958.319    23018016.965   -10233022.242 2  -7973803.939 4
        17.800          27.400
  21090178.376    21090175.213    21090141.433   -22413854.114 3 -17465333.343 4
        18.600          27.400
  21911453.969    21911447.478    21911405.386   -17337509.569 3 -13509821.699 4
        18.600          27.400
  21425680.904    21425679.425    21425598.947   -17981068.489 2 -14011257.559 4
        17.800          27.100
  20269469.083    20269469.262    20269466.096   -25683130.047 3 -20012818.279 4
        19.300          27.900
 09  1 22  0 22  0.0000000  0  4G18G14G 9G22
  21100014.117    21100013.283    21099977.102   -22362167.250 3 -17425057.816 4
        18.600          27.400
  21895923.302    21895923.200    21895860.023   -17419122.013 2 -13573422.481 4
        17.800          27.600
  21423966.809    21423968.964    21423872.420   -17990078.706 2 -14018306.514 4
        17.800          27.600
  20268177.772    20268177.375    20268186.073   -25689915.935 3 -20018105.948 4
        18.600          27.900
 09  1 22  0 22 30.0000000  0  4G18G14G 9G22
  21109892.369    21109891.803    21109849.738   -22310255.924 3 -17384609.146 4
        18.600          27.900
  21880436.000    21880435.801    21880363.532   -17500507.668 2 -13636838.652 4
        17.800          28.100
  21422368.338    21422366.395    21422305.362   -17998478.304 2 -14024872.686 4
        17.800          27.900
  20266939.760    20266939.941    20266979.629   -25696419.896 3 -20023171.152 4
        19.300          27.900
 09  1 22  0 23  0.0000000  0  4G18G14G 9G22
  21119760.431    21119757.775    21119717.666   -22258400.694 2 -17344202.048 4
        17.800          28.100
  21864940.658    21864942.049    21864857.625   -17581944.439 2 -13700290.649 4
        17.800          28.100
  21420831.965    21420833.513    21420738.446   -18006546.504 2 -14031174.332 4
        17.800          28.100
  20265702.711    20265703.833    20265747.975   -25702921.486 3 -20028236.820 4
        18.600          27.900
 09  1 22  0 23 30.0000000  0  4G18G14G 9G22
  21129707.944    21129709.211    21129667.518   -22206122.687 2 -17303459.465 4
        17.800          28.100
  21849525.189    21849525.411    21849376.824   -17662951.551 2 -13763393.823 4
        17.000          28.400
  21419452.736    21419456.248    21419350.701   -18013803.280 2 -14036854.583 4
        17.000          28.400
  20264557.385    20264557.076    20264597.643   -25708940.759 2 -20032928.979 4
        17.800          28.100
 09  1 22  0 24  0.0000000  0  4G18G14G 9G22
  21139708.023    21139708.489    21139626.144   -22153570.229 2 -17262505.533 4
        17.800          28.400
  21834162.309    21834159.687    21834040.621   -17743675.379 2 -13826265.802 4
        17.000          28.400
  21418197.718    21418195.293    21418229.754   -18020396.290 2 -14042004.782 4
        17.000          28.600
  20263475.568    20263474.680    20263521.939   -25714625.169 2 -20037362.999 4
        17.800          28.600
 09  1 22  0 24 30.0000000  0  4G18G14G 9G22
  21149757.735    21149757.802    21149702.872   -22100764.782 2 -17221364.172 4
        17.000          28.600
  21818852.509    21818850.773    21818684.916   -17824135.251 2 -13888935.944 4
        17.800          28.600
  21417065.075    21417059.455    21417075.898   -18026345.992 2 -14046645.858 4
        17.000          28.600
  20262453.944    20262451.465    20262491.762   -25719995.254 2 -20041552.767 4
        17.800          28.600
 09  1 22  0 25  0.0000000  0  4G18G14G 9G22
  21159869.726    21159867.957    21159894.188   -22047620.408 2 -17179950.757 4
        17.800          28.800
  21803607.767    21803611.118    21803411.646   -17904243.280 2 -13951320.996 4
        17.000          28.800
  21416071.542    21416069.789    21416009.648   -18031565.374 2 -14050717.187 4
        17.000          28.800
  20261508.133    20261503.934    20261564.379   -25724964.042 3 -20045426.999 4
        18.600          28.800
 09  1 22  0 25 30.0000000  0  3G18G 9G22
  21170046.220    21170047.193    21170086.422   -21994143.319 2 -17138278.135 4
        17.800          28.800
  21415216.466    21415227.460    21415170.623   -18036059.534 2 -14054225.737 4
        17.000          29.000
  20260637.238    20260636.051    20260713.010   -25729537.017 2 -20048993.573 4
        17.800          28.800
 09  1 22  0 26  0.0000000  0  3G18G 9G22
  21180286.081    21180288.699    21180290.675   -21940334.078 3 -17096352.469 4
        18.600          29.000
  21414499.245    21414500.580    21414543.211   -18039827.772 2 -14057158.035 4
        17.800          29.000
  20259843.225    20259842.771    20259923.183   -25733713.686 2 -20052251.674 4
        17.800          29.000
 09  1 22  0 26 30.0000000  0  3G18G 9G22
  21190589.736    21190588.174    21190591.103   -21886188.378 2 -17054162.043 4
        17.800          29.000
  21413920.755    21413933.295    21413920.193   -18042865.267 2 -14059525.764 4
        17.800          29.200
  20259124.980    20259124.036    20259190.018   -25737488.916 3 -20055194.417 4
        18.600          29.200
 09  1 22  0 27  0.0000000  0  3G18G 9G22
  21200958.163    21200958.846    21200897.805   -21831704.764 3 -17011709.072 4
        18.600          29.200
  21413483.081    21413484.340    21413461.849   -18045169.837 2 -14061329.406 4
        17.800          29.200
  20258483.233    20258482.699    20258534.884   -25740860.140 3 -20057822.623 4
        18.600          29.200
 09  1 22  0 27 30.0000000  0  3G18G 9G22
  21211389.879    21211387.182    21211273.074   -21776886.538 3 -16968985.924 4
        18.600          29.500
  21413184.017    21413178.082    21413127.899   -18046744.183 2 -14062560.102 4
        17.800          29.500
  20257918.310    20257915.627    20257944.866   -25743830.325 3 -20060138.976 4
        19.300          29.500
                            4  1
other post-header comments skipped                          COMMENT
 09  1 22  3  2 30.0000000  0  5G20G30G14G 5G11
  23157204.142    23157203.098    23157202.707           -.39814          .25713
        28.100          23.800
  22643051.901    22643051.759    22643050.332           -.88114         -.89114
        29.200          27.900
  21029317.989    21029317.521    21029316.035           -.65716         -.30016
        40.600          41.900
  23045250.184    23045249.391    23045248.812           -.29014          .30714
        28.100          26.500
  22985275.683    22985275.178    22985273.006          -1.07114         -.65314
        29.900          26.800
 09  1 22  3  3  0.0000000  0 10G20G31G32G30G14G 5G11G12G22G17
  23149356.030    23149354.926    23149354.065      -41243.866 4    -32137.510 3
        28.600          23.800
  21064258.628    21064258.721    21064256.329           -.37817         -.32617
        43.100          43.600
  21611852.495    21611851.756    21611851.324           -.47216         -.81216
        41.800          39.300
  22644842.679    22644842.718    22644841.770        9411.224 4      7333.220 4
        28.800          28.600
  21049807.584    21049807.069    21049805.516      107672.314 6     83900.718 6
        40.600          41.800
  23057972.962    23057971.897    23057971.594       66856.844 4     52096.767 4
        28.100          26.800
  23004958.735    23004958.745    23004957.347      103440.360 4     80603.057 4
        29.000          26.800
  23673228.224    23673227.792    23673225.233           -.58114         -.37014
        26.500          26.200
  23655862.168    23655861.909    23655858.924           -.94713         -.79514
        21.600          24.600
  25070230.315    25070230.079    25070227.891           -.43911          .23511
         9.000          11.000
 09  1 22  3  3 30.0000000  0 10G20G31G32G30G14G 5G11G12G22G17
  23141935.357    23141934.641    23141933.869      -80237.281 4    -62521.982 4
        28.600          24.600
  21064967.771    21064967.793    21064965.344        3725.610 7      2903.043 7
        43.100          43.700
  21611683.335    21611682.437    21611681.996        -889.980 6      -693.935 6
        41.600          39.500
  22647128.479    22647128.521    22647127.339       21422.061 4     16692.323 4
        29.200          29.000
  21070745.629    21070745.148    21070743.733      217702.919 6    169638.854 6
        40.500          41.800
  23071202.980    23071202.030    23071201.943      136380.844 4    106271.311 4
        28.100          26.800
  23025119.979    23025119.730    23025117.883      209384.377 4    163156.826 4
        29.700          26.200
  23688721.760    23688721.587    23688719.544       81422.386 4     63446.096 4
        25.900          26.800
  23686754.948    23686754.357    23686751.702      162340.940 3    126499.345 4
        20.500          25.300
  25086814.184    25086813.952    25086814.472       87157.013       67915.125
         3.000           3.000
 09  1 22  3  4  0.0000000  0 10G20G31G32G30G14G 5G11G12G22G17
  23134355.572    23134354.783    23134354.000     -120068.509 4    -93559.296 4
        28.600          24.600
  21065568.982    21065569.077    21065566.738        6885.318 7      5365.158 7
        43.100          43.800
  21611374.597    21611373.901    21611373.604       -2511.256 6     -1957.259 6
        41.500          39.500
  22649320.936    22649320.982    22649319.929       32944.082 4     25670.524 4
        28.600          29.500
  21091544.365    21091543.823    21091542.383      327000.320 6    254805.658 6
        40.500          41.800
  23084351.983    23084351.070    23084350.950      205481.932 4    160116.317 4
        27.600          26.200
  23045168.186    23045167.926    23045165.940      314738.871 4    245251.234 4
        29.500          26.500
  23704124.865    23704124.918    23704122.690      162367.212 4    126519.981 4
        26.500          26.800
  23717476.857    23717476.738    23717474.231      323788.662 3    252302.702 4
        20.500          25.300
  25103297.888    25103297.789    25103295.741      173771.474      135406.897 1
                         6.500
 09  1 22  3  4 30.0000000  0 10G20G31G32G30G14G 5G11G12G22G17
  23126431.811    23126430.989    23126430.209     -161709.477 4   -126006.794 4
        28.800          25.600
  21065877.357    21065877.370    21065875.121        8505.501 7      6627.642 7
        43.100          44.000
  21610741.765    21610740.960    21610740.660       -5836.932 6     -4548.698 6
        41.600          39.400
  22651235.465    22651235.495    22651234.574       43005.301 4     33510.447 4
        29.200          29.500
  21112017.691    21112017.246    21112015.861      434589.202 6    338641.150 6
        40.500          41.700
  23097236.143    23097235.000    23097234.394      273185.541 4    212872.386 4
        28.600          26.200
  23064918.431    23064918.524    23064916.549      418527.898 4    326125.806 4
        29.700          26.200
  23719251.687    23719251.956    23719249.872      241860.014 4    188462.410 4
        26.800          27.600
  23747844.204    23747843.755    23747841.382      483366.383 3    376648.930 4
        21.100          25.300
  25119489.271    25119491.971    25119488.374      258866.950      201714.372 1
                         6.500
 09  1 22  3  5  0.0000000  0 10G20G31G32G30G14G 5G11G12G22G17
  23118557.196    23118556.089    23118555.261     -203090.669 4   -158251.868 4
        28.400          24.600
  21066286.208    21066286.232    21066283.974       10654.303 7      8302.040 7
        43.100          44.100
  21610178.142    21610177.347    21610177.177       -8798.521 6     -6856.427 6
        41.500          39.700
  22653265.707    22653265.727    22653264.658       53674.610 4     41824.193 4
        29.500          29.200
  21132559.114    21132558.663    21132557.254      542535.192 6    422754.908 6
        40.500          41.500
  23110246.826    23110245.825    23110245.417      341558.146 4    266149.727 4
        28.600          26.500
  23084764.004    23084763.596    23084761.981      522815.878 4    407389.159 4
        29.200          26.500
  23734494.967    23734495.115    23734493.771      321966.424 4    250883.001 4
        25.600          27.600
  23778248.045    23778247.872    23778244.837      643139.501 3    501147.421 4
        22.100          24.600
  25135790.543    25135788.140    25135784.294      344508.959      268447.015 1
                         9.000
 09  1 22  3  5 30.0000000  0  9G20G31G32G30G14G 5G11G12G22
  23110370.342    23110369.647    23110368.707     -246110.547 4   -191773.843 4
        27.900          24.200
  21066434.386    21066434.544    21066432.118       11432.674 7      8908.565 7
        42.800          44.200
  21609322.550    21609321.906    21609321.683      -13294.711 6    -10359.943 6
        41.400          39.800
  22655050.590    22655050.688    22655049.264       63053.511 4     49132.429 4
        29.000          28.800
  21152806.684    21152806.345    21152804.901      648937.204 6    505665.566 6
        40.300          41.300
  23123023.398    23123022.521    23123022.414      408699.163 4    318467.407 4
        27.600          27.400
  23104342.434    23104342.021    23104340.370      625700.796 4    487559.221 4
        28.600          26.500
  23749494.546    23749494.686    23749492.527      400784.919 4    312299.998 4
        26.200          28.100
  23808326.847    23808326.717    23808323.739      801206.070 3    624316.152 3
        22.100          23.000
 09  1 22  3  6  0.0000000  0  9G20G31G32G30G14G 5G11G12G22
  23099652.484    23099651.950    23099651.006     -302433.429 4   -235661.798 4
        28.800          24.900
  21064101.736    21064101.651    21064099.621        -825.143 7      -642.973 7
        42.900          44.300
  21605955.110    21605954.457    21605954.269      -30990.432 6    -24148.816 6
        41.800          39.800
  22654370.282    22654370.342    22654368.855       59477.681 4     46346.076 4
        29.900          29.000
  21170540.470    21170539.962    21170538.391      742127.784 6    578281.606 6
        40.500          41.200
  23133345.410    23133344.384    23133344.048      462941.685 4    360734.303 4
        27.900          27.100
  23121432.806    23121432.732    23121431.086      715514.024 4    557543.551 4
        28.600          26.200
  23762027.809    23762027.506    23762025.922      466648.424 4    363622.205 4
        26.200          27.900
  23835860.638    23835860.442    23835857.645      945897.971 3    737063.064 3
        21.100          22.600
 09  1 22  3  6 30.0000000  0  9G20G31G32G30G14G 5G11G12G22
  23088184.211    23088183.566    23088182.251     -362701.328 4   -282623.796 4
        29.200          24.900
  21061069.006    21061068.989    21061066.760      -16762.383 7    -13061.597 7
        42.900          44.300
  21601856.585    21601855.833    21601855.777      -52528.360 6    -40931.615 6
        41.700          40.000
  22653005.105    22653005.365    22653003.841       52304.761 4     40756.782 4
        29.700          28.800
  21187539.901    21187539.469    21187537.967      831461.373 6    647892.194 6
