     2.11           OBSERVATION DATA    G (GPS)             RINEX VERSION / TYPE
teqc  2008Oct2      WCDA Operator       20090131 00:18:45UTCPGM / RUN BY / DATE
Solaris x86 5.10|AMD64|cc SC5.8 -xarch=amd64|=+|=+          COMMENT
teqc  2008Oct2      WCDA Operator       20090130 01:18:21UTCCOMMENT
flin  WCDA-ACP   965000   CFS Flin Flon SASK Canada         MARKER NAME
40135M001                                                   MARKER NUMBER
PGC-WCDA            GEOL. SURV. CANADA                      OBSERVER / AGENCY
1115                AOA BENCHMARK ACT   3.3.32.4            REC # / TYPE / VERS
231                 AOAD/M_T        SCIS                    ANT # / TYPE
  -766174.4630 -3611375.3160  5184056.2210                  APPROX POSITION XYZ
        0.1500        0.0000        0.0000                  ANTENNA: DELTA H/E/N
     1     1                                                WAVELENGTH FACT L1/2
     7    C1    P1    P2    L1    L2    S1    S2            # / TYPES OF OBSERV
STATION INFORMATION EFFECTIVE FROM: 2001/01/13 18:20:00     COMMENT
                                TO: CURRENT DATE (above)    COMMENT
BIT 2 OF LLI FLAGS (+4) DATA COLLECTED UNDER 'AS' CONDITION COMMENT
L1 PHASE CENTRE 0.110m ABOVE ARP                            COMMENT
L2 PHASE CENTRE 0.128m ABOVE ARP                            COMMENT
where ARP is the Antenna Reference Point for HI measurement COMMENT
CONTACT gps@pgc.nrcan.gc.ca FOR ADDITIONAL INFORMATION      COMMENT
    P1 =    P1  TurboRogue; =    Y1  Benchmark              COMMENT
    L1 = L1(CA)                                             COMMENT
    P2 =    P2  TurboRogue; =    Y2  Benchmark              COMMENT
    L2 = L2(P2) TurboRogue; = L2(Y2) Benchmark              COMMENT
 SNR is mapped to RINEX snr flag value [0-9]                COMMENT
  L1 & L2: min(max(int(snr_dBHz/6), 0), 9)                  COMMENT
  2009     1    30     0     0    0.0000000     GPS         TIME OF FIRST OBS
                                                            END OF HEADER
 09  1 30  0  0  0.0000000  0  9G 9G11G21G 6G14G18G 3G22G19
  21421938.075    21421937.584    21421937.172   -18155230.921 6 -14146924.767 5
        37.700          35.300
  24814930.034    24814929.371    24814929.911     -392291.384 1   -305681.573 1
         9.000          11.000
  24039507.592    24039506.948    24039504.679    -7823075.640 2  -6095901.271 2
        16.100          12.600
  24567886.607    24567886.297    24567886.846    -3378846.134 1  -2632865.116 2
        11.000          17.800
  21555568.484    21555567.968    21555567.220   -18050765.371 6 -14065525.439 6
        38.900          36.800
  21309033.928    21309033.373    21309031.728   -21352915.680 6 -16638627.616 6
        40.900          37.400
  24486591.205    24486590.679    24486590.549     -237884.212 2   -185361.900 2
        16.100          17.000
  20258538.658    20258538.330    20258535.221   -25788436.132 7 -20094877.339 8
        44.900          49.800
  23147126.606    23147125.171    23147123.817    -9476267.159 5  -7384100.995 5
        32.100          30.400
 09  1 30  0  0 30.0000000  0  9G 9G11G21G 6G14G18G 3G22G19
  21423395.447    21423395.086    21423394.525   -18147572.851 6 -14140957.436 5
        37.800          35.300
  24796380.916    24796380.337    24796380.891     -489768.149 1   -381637.496 1
         9.000          11.000
  24061431.358    24061431.349    24061428.789    -7707864.163 2  -6006126.090 1
        17.000           9.000
  24585324.870    24585325.207    24585325.643    -3287201.151 1  -2561453.433 2
         6.500          15.100
  21541697.070    21541696.658    21541695.669   -18123660.605 6 -14122326.911 6
        39.100          37.000
  21320226.827    21320226.295    21320224.526   -21294097.309 6 -16592795.112 6
        41.000          37.400
  24504201.676    24504201.173    24504201.964     -145337.465 2   -113247.568 2
        15.100          15.100
  20258995.271    20258994.987    20258991.949   -25786036.124 7 -20093007.199 8
        44.900          49.900
  23153988.125    23153986.968    23153985.103    -9440208.788 5  -7356003.566 4
        31.800          29.700
 09  1 30  0  1  0.0000000  0  9G 9G11G21G 6G14G18G 3G22G19
  21424993.125    21424992.562    21424991.688   -18139179.001 6 -14134416.762 5
        37.900          35.200
  24777877.525    24777877.471    24777878.461     -587002.219 1   -457404.321 1
        11.000          11.000
  24083381.218    24083380.947    24083379.354    -7592516.860 2  -5916245.049 1
        16.100           9.000
  24602791.979    24602791.943    24602791.173    -3195419.261 1  -2489935.114 2
        11.000          16.100
  21527898.404    21527897.919    21527896.854   -18196173.787 6 -14178830.683 6
        39.100          37.200
  21331483.132    21331482.534    21331480.801   -21234945.263 6 -16546702.607 6
        40.900          37.300
  24521846.653    24521846.772    24521847.697      -52609.924 2    -40992.355 2
        16.100          15.100
  20259530.073    20259529.811    20259526.795   -25783225.626 7 -20090817.196 8
        44.800          49.900
  23160951.519    23160950.327    23160948.618    -9403615.632 5  -7327489.419 4
        32.100          29.500
 09  1 30  0  1 30.0000000  0  9G 9G11G21G 6G14G18G 3G22G19
  21426729.406    21426728.901    21426728.260   -18130052.389 6 -14127305.115 5
        37.500          34.900
  24759421.186    24759420.944    24759419.850     -683993.984 1   -532982.324 1
         9.000           9.000
  24105357.317    24105355.958    24105354.181    -7477038.783 2  -5826262.149 1
        17.800           9.000
  24620283.825    24620283.009    24620281.889    -3103506.139 1  -2418314.549 2
        11.000          17.800
  21514172.158    21514171.633    21514170.372   -18268306.148 6 -14235037.710 6
        39.300          37.100
  21342802.041    21342801.492    21342799.812   -21175463.140 6 -16500352.897 6
        40.600          37.200
  24539526.873    24539526.268    24539526.186       40292.560 2     31399.158 2
        17.000          15.100
  20260142.650    20260142.314    20260139.252   -25780006.993 7 -20088309.166 8
        44.900          49.800
  23168016.309    23168014.903    23168013.195    -9366491.830 5  -7298561.782 4
        32.400          29.200
 09  1 30  0  2  0.0000000  0  9G 9G11G21G 6G14G18G 3G22G19
  21428605.158    21428604.727    21428604.126   -18120195.723 6 -14119624.590 5
        37.800          35.300
  24741009.505    24741009.179    24741008.432     -780743.481 1   -608371.551 1
         9.000           6.500
  24127355.332    24127354.521    24127353.642    -7361434.809 3  -5736181.143 1
        18.600          11.000
  24637795.067    24637795.979    24637796.802    -3011467.146 1  -2346595.901 3
         9.000          18.600
  21500517.639    21500517.199    21500516.258   -18340059.181 6 -14290949.156 6
        39.100          37.100
  21354183.317    21354182.712    21354181.117   -21115654.341 6 -16453748.638 6
        40.600          37.200
  24557236.811    24557236.269    24557237.080      133364.612 2    103922.815 2
        16.100          16.100
  20260832.451    20260832.146    20260828.961   -25776382.473 7 -20085484.858 8
        44.900          49.800
  23175180.822    23175179.471    23175177.617    -9328841.511 5  -7269223.875 4
        32.000          29.000
 09  1 30  0  2 30.0000000  0  9G 9G11G21G 6G14G18G 3G22G19
  21430620.608    21430620.331    21430619.707   -18109603.975 6 -14111371.274 5
        38.000          35.400
  24722646.138    24722645.887    24722643.544     -877242.638 1   -683565.674 1
         9.000           9.000
  24149377.799    24149377.287    24149376.575    -7245701.121 2  -5645999.070 1
        17.800          11.000
  24655332.953    24655333.144    24655336.832    -2919299.510 1  -2274776.962 2
         9.000          17.000
  21486936.951    21486936.584    21486935.570   -18411426.181 6 -14346559.796 6
        39.300          37.200
  21365627.730    21365627.190    21365625.521   -21055513.698 6 -16406885.803 6
        40.600          37.200
  24574981.154    24574980.060    24574979.783      226608.729 2    176580.544 2
        16.100          15.100
  20261600.401    20261600.077    20261596.959   -25772346.403 7 -20082339.865 8
        44.800          49.800
  23182446.595    23182444.929    23182443.148    -9290660.786 5  -7239472.656 4
        31.500          28.800
 09  1 30  0  3  0.0000000  0  9G 9G11G21G 6G14G18G 3G22G19
  21432776.726    21432776.256    21432775.690   -18098273.596 6 -14102542.401 5
        37.600          35.200
  24704333.547    24704332.382    24704329.491     -973485.043 1   -758559.718 1
         9.000          11.000
  24171425.141    24171425.693    24171424.893    -7129836.283 3  -5555714.810 1
        19.300          11.000
  24672900.053    24672900.078    24672900.239    -2827002.065 2  -2202856.863 2
        13.900          17.000
  21473430.680    21473430.369    21473429.370   -18482401.799 6 -14401865.465 6
        39.300          37.400
  21377135.807    21377135.252    21377133.469   -20995038.665 6 -16359762.393 6
        40.500          36.800
  24592757.959    24592757.351    24592757.083      320025.795 2    249373.022 2
        15.100          15.100
  20262447.567    20262447.215    20262444.194   -25767894.373 7 -20078870.748 8
        44.700          49.700
  23189813.796    23189812.258    23189810.135    -9251947.487 5  -7209306.452 4
        31.100          29.000
 09  1 30  0  3 30.0000000  0  9G 9G11G21G 6G14G18G 3G22G19
  21435072.882    21435072.489    21435072.079   -18086206.996 6 -14093139.852 5
        37.500          35.300
  24686067.111    24686066.306    24686064.159    -1069470.233 1   -833353.342 1
         9.000          11.000
  24193497.992    24193497.888    24193496.977    -7013844.914 3  -5465331.942 1
        20.500           9.000
  24690487.752    24690487.088    24690486.778    -2734579.765 1  -2130839.524 2
        11.000          15.100
  21459999.076    21459998.512    21459997.409   -18552986.956 6 -14456866.879 6
        39.400          37.500
  21388706.847    21388706.270    21388704.649   -20934231.400 6 -16312380.109 6
        40.300          36.700
  24610565.731    24610565.476    24610566.670      413610.920 2    322296.512 2
        13.900          16.100
  20263373.515    20263373.200    20263370.171   -25763028.532 7 -20075079.180 8
        44.800          49.800
  23197280.979    23197279.305    23197277.983    -9212705.420 5  -7178728.219 4
        30.800          29.900
 09  1 30  0  4  0.0000000  0  9G 9G11G21G 6G14G18G 3G22G19
  21437508.066    21437507.526    21437506.846   -18073412.066 6 -14083169.773 5
        37.900          35.300
  24667849.917    24667850.163    24667847.792    -1165203.071 1   -907950.353 2
        11.000          12.600
  24215593.935    24215592.612    24215592.566    -6897736.683 3  -5374857.972 1
        20.500           9.000
  24708094.773    24708095.277    24708094.655    -2642043.036 1  -2058733.065 2
         9.000          12.600
  21446640.032    21446639.580    21446638.550   -18623188.175 6 -14511569.118 6
        39.300          37.700
  21400339.937    21400339.306    21400337.567   -20873100.029 6 -16264745.271 6
        40.300          36.600
  24628406.391    24628405.307    24628404.815      507353.897 2    395343.001 2
        16.100          16.100
  20264376.840    20264376.547    20264373.411   -25757756.115 7 -20070970.800 8
        44.800          49.700
  23204846.573    23204845.387    23204844.113    -9172943.845 5  -7147745.158 4
        30.400          29.900
 09  1 30  0  4 30.0000000  0  9G 9G14G11G21G 6G18G 3G22G19
  21440080.311    21440079.913    21440079.324   -18059893.842 6 -14072636.087 5
        38.100          35.300
  21433353.572    21433353.143    21433351.955   -18693008.660 6 -14565974.687 6
        39.400          37.500
  24649680.407    24649680.116    24649678.127    -1260685.577 2   -982352.280 2
        13.900          12.600
  24237708.762    24237708.176    24237707.777    -6781518.122 3  -5284298.071 1
        19.300           9.000
  24725725.569    24725725.285    24725724.274    -2549399.216 1  -1986543.066 2
         9.000          13.900
  21412033.358    21412032.783    21412031.299   -20811649.715 6 -16216861.907 6
        40.100          36.700
  24646273.849    24646273.095    24646271.895      601246.884 2    468506.387 2
        16.100          15.100
  20265456.743    20265456.434    20265453.270   -25752081.312 7 -20066548.871 8
        44.800          49.700
  23212511.348    23212509.924    23212507.907    -9132668.689 5  -7116361.928 4
        30.800          29.500
 09  1 30  0  5  0.0000000  0  9G 9G14G11G21G 6G18G 3G22G19
  21442792.583    21442792.245    21442791.574   -18045640.568 6 -14061529.640 5
        38.100          35.400
  21420142.342    21420141.802    21420140.646   -18762435.219 6 -14620073.297 6
        39.500          37.700
  24631562.264    24631562.040    24631558.749    -1355903.418 2  -1056547.950 2
        16.100          13.900
  24259847.037    24259846.425    24259846.742    -6665180.012 3  -5193645.022 1
        19.300          11.000
  24743377.194    24743377.251    24743378.282    -2456638.932 2  -1914262.376 2
        13.900          17.000
  21423789.980    21423789.312    21423787.636   -20749869.578 6 -16168721.541 6
        40.200          36.500
  24664169.844    24664169.161    24664170.056      695299.053 2    541793.719 2
        13.900          15.100
  20266615.443    20266615.102    20266612.077   -25745992.188 7 -20061804.098 8
        44.700          49.800
  23220274.792    23220273.453    23220271.884    -9091869.784 5  -7084570.587 4
        30.400          29.500
 09  1 30  0  5 30.0000000  0  9G 9G14G11G21G 6G18G 3G22G19
  21445643.435    21445643.022    21445642.693   -18030658.145 6 -14049855.021 5
        37.800          35.400
  21407004.973    21407004.517    21407003.596   -18831471.612 6 -14673867.884 6
        39.400          38.100
  24613492.067    24613491.787    24613489.149    -1450859.150 2  -1130539.383 2
        17.000          12.600
  24282006.806    24282007.172    24282005.395    -6548729.308 3  -5102904.223 1
        19.300          11.000
  24761050.000    24761049.979    24761051.073    -2363770.293 2  -1841897.211 2
        13.900          17.000
  21435607.809    21435607.215    21435605.621   -20687765.418 6 -16120328.686 6
        40.000          36.500
  24682094.978    24682095.081    24682095.740      789501.957 2    615198.542 2
        13.900          15.100
  20267852.062    20267851.754    20267848.692   -25739493.580 7 -20056740.244 8
        44.700          49.700
  23228137.038    23228135.872    23228134.220    -9050554.031 5  -7052376.494 4
        30.800          29.200
 09  1 30  0  6  0.0000000  0  9G 9G14G11G21G 6G18G 3G22G19
  21448634.079    21448633.660    21448633.129   -18014943.657 6 -14037609.959 5
        37.800          35.300
  21393942.753    21393942.400    21393941.516   -18900113.453 6 -14727355.025 6
        39.400          38.300
  24595473.229    24595473.200    24595471.328    -1545546.672 2  -1204321.803 1
        15.100          11.000
  24304188.661    24304188.308    24304187.444    -6432165.190 3  -5012075.048 2
        19.300          12.600
  24778743.738    24778742.620    24778741.930    -2270792.501 1  -1769447.027 2
        11.000          15.100
  21447488.213    21447487.571    21447485.953   -20625334.296 6 -16071681.061 6
        39.900          36.500
  24700051.690    24700051.043    24700051.221      883856.180 2    688721.304 2
        15.100          16.100
  20269167.336    20269167.012    20269164.007   -25732581.681 7 -20051354.346 8
        44.700          49.800
  23236098.039    23236096.663    23236094.595    -9008719.458 5  -7019778.118 4
        30.400          28.600
 09  1 30  0  6 30.0000000  0  9G 9G14G11G21G 6G18G 3G22G19
  21451762.320    21451761.996    21451761.623   -17998503.188 6 -14024799.194 5
        37.700          35.200
  21380954.842    21380954.491    21380953.504   -18968365.230 6 -14780538.221 6
        39.600          38.300
  24577506.242    24577505.542    24577504.348    -1639969.365 2  -1277897.875 1
        13.900           9.000
  24326390.646    24326389.961    24326389.007    -6315495.153 3  -4921163.356 2
        19.300          15.100
  24796455.061    24796454.503    24796454.138    -2177714.316    -1696918.637 2
         3.000          12.600
  21459429.285    21459428.706    21459427.060   -20562583.185 6 -16022784.090 6
        39.800          36.300
  24718033.468    24718032.811    24718033.352      978353.233 2    762355.346 2
        12.600          17.800
  20270560.202    20270559.898    20270556.776   -25725262.281 7 -20045650.916 8
        44.700          49.700
  23244155.697    23244154.603    23244153.057    -8966374.021 5  -6986781.684 4
        30.600          28.600
 09  1 30  0  7  0.0000000  0  9G 9G14G18G11G21G 6G 3G22G19
  21455030.700    21455030.172    21455029.583   -17981328.689 6 -14011416.465 5
        37.700          34.900
  21368043.258    21368042.800    21368041.855   -19036216.877 6 -14833409.624 6
        39.600          38.500
  21471432.968    21471432.384    21471430.630   -20499503.287 6 -15973630.921 6
        39.700          36.000
  24559590.289    24559590.143    24559587.349    -1734115.870 2  -1351258.748 1
        12.600           9.000
  24348614.091    24348613.368    24348611.943    -6198712.649 3  -4830164.036 2
        18.600          16.100
  24814187.888    24814187.112    24814188.897    -2084529.279    -1624307.003 2
         3.000          12.600
  24736042.783    24736043.039    24736043.996     1072999.130 1    836105.363 2
         9.000          17.800
  20272032.357    20272032.054    20272028.814   -25717526.263 7 -20039622.845 8
        44.700          49.600
  23252312.522    23252311.422    23252309.889    -8923510.430 5  -6953381.485 4
        31.000          29.000
 09  1 30  0  7 30.0000000  0  9G 9G14G18G11G21G 6G 3G22G19
  21458437.000    21458436.617    21458436.194   -17963427.464 6 -13997467.460 5
        37.700          34.800
  21355206.661    21355206.098    21355205.115   -19103674.223 6 -14885973.780 6
        39.600          38.500
  21483497.774    21483497.127    21483495.568   -20436102.182 6 -15924227.463 6
        39.600          36.000
  24541724.858    24541725.856    24541723.905    -1827990.244 1  -1424407.535 1
        11.000           6.500
  24370856.485    24370856.103    24370854.339    -6081826.980 2  -4739084.325 2
        17.800          16.100
  24831938.898    24831938.527    24831938.727    -1991247.482    -1551619.917 1
         3.000          11.000
  24754080.666    24754080.303    24754080.315     1167783.781 1    909963.539 2
        11.000          16.100
  20273582.442    20273582.138    20273579.043   -25709380.270 7 -20033275.312 8
        44.700          49.600
  23260566.438    23260565.111    23260562.964    -8880137.421 5  -6919584.331 4
        31.000          28.400
 09  1 30  0  8  0.0000000  0  9G 9G14G18G11G21G 6G 3G22G19
  21461981.611    21461981.163    21461980.611   -17944800.896 6 -13982953.242 5
        37.700          34.700
  21342445.160    21342444.662    21342443.554   -19170736.537 6 -14938230.121 6
        39.700          38.600
  21495623.423    21495623.002    21495621.134   -20372381.207 6 -15874574.753 5
        39.700          35.700
  24523911.466    24523912.374    24523910.829    -1921590.666 1  -1497342.881 1
         6.500           9.000
  24393118.508    24393117.699    24393116.541    -5964840.871 2  -4647926.351 2
        17.000          13.900
  24849707.752    24849706.859    24849705.720    -1897871.978 1  -1478859.795 1
         6.500           9.000
  24772143.854    24772143.671    24772143.427     1262704.132 2    983927.389 2
        12.600          16.100
  20275210.623    20275210.356    20275207.203   -25700824.120 7 -20026608.180 8
        44.700          49.600
  23268916.524    23268915.159    23268913.216    -8836257.273 5  -6885392.017 4
        30.600          28.600
 09  1 30  0  8 30.0000000  0  9G 9G14G18G19G11G21G 6G 3G22
  21465664.207    21465663.790    21465663.059   -17925449.091 6 -13967873.910 5
        38.000          34.600
  21329759.031    21329758.583    21329757.524   -19237402.207 6 -14990177.386 6
        39.700          38.900
  21507809.833    21507809.304    21507807.693   -20308340.833 6 -15824673.155 5
        39.400          35.700
  23277362.662    23277361.468    23277359.734    -8791871.279 5  -6850805.528 4
        30.400          28.800
  24506153.014    24506152.159    24506152.781    -2014914.095    -1570062.371 1
         3.000           9.000
  24415398.447    24415398.168    24415397.320    -5847756.079 2  -4556691.463 2
        16.100          12.600
  24867494.338    24867493.058    24867494.392    -1804405.029 1  -1406028.398 1
         6.500           9.000
  24790231.822    24790231.205    24790231.979     1357757.589 2   1057994.991 2
        12.600          16.100
  20276916.760    20276916.452    20276913.444   -25691857.990 7 -20019621.581 8
        44.600          49.600
 09  1 30  0  9  0.0000000  0  9G 9G14G18G19G11G21G 6G 3G22
  21469484.479    21469483.941    21469483.183   -17905375.074 6 -13952231.810 5
        38.100          34.700
  21317148.068    21317147.591    21317146.721   -19303672.499 6 -15041816.561 6
        39.700          38.900
  21520056.835    21520056.136    21520054.578   -20243983.833 6 -15774524.846 5
        39.400          35.700
  23285904.657    23285903.209    23285901.751    -8746983.358 5  -6815827.931 4
        30.400          28.600
  24488448.651    24488448.544    24488446.995    -2107960.199    -1642565.806 1
                        11.000
  24437696.744    24437696.211    24437695.743    -5730576.755 2  -4465382.890 1
        15.100          11.000
  24885295.947    24885295.237    24885295.721    -1710851.738    -1333129.757 1
         3.000           6.500
  24808343.279    24808343.777    24808343.914     1452939.324 1   1132162.551 2
        11.000          15.100
  20278700.666    20278700.334    20278697.328   -25682483.844 7 -20012317.047 8
        44.600          49.700
 09  1 30  0  9 30.0000000  0  9G 9G14G18G19G11G21G 6G 3G22
  21473442.592    21473442.081    21473441.572   -17884573.997 6 -13936023.171 5
        37.800          34.700
  21304613.734    21304613.356    21304612.327   -19369540.553 6 -15093142.309 6
        39.800          39.000
  21532364.522    21532364.030    21532362.459   -20179305.444 6 -15724126.099 5
        39.300          35.500
  23294543.126    23294541.733    23294539.616    -8701590.138 5  -6780456.588 4
        30.800          28.400
  24470798.474    24470797.186    24470795.889    -2200720.908    -1714846.846 2
                        12.600
  24460013.710    24460013.146    24460012.734    -5613299.866 2  -4373998.336 1
        13.900          11.000
  24903113.325    24903114.625    24903115.322    -1617209.332    -1260161.603 1
         3.000          11.000
  24826480.932    24826480.841    24826480.588     1548251.206 1   1206431.533 2
        11.000          13.900
  20280563.262    20280562.955    20280559.880   -25672695.797 7 -20004689.995 8
        44.600          49.600
 09  1 30  0 10  0.0000000  0  9G 9G14G18G19G11G21G 6G 3G22
  21477539.059    21477538.600    21477537.985   -17863046.371 6 -13919248.391 5
        37.700          34.500
  21292156.432    21292155.937    21292154.805   -19435004.848 6 -15144153.439 6
        39.900          39.100
  21544733.599    21544733.025    21544731.319   -20114305.572 6 -15673476.843 5
        39.100          35.200
  23303276.916    23303275.388    23303273.597    -8655692.747 5  -6744692.393 4
        30.400          28.400
  24453202.451    24453202.177    24453198.539    -2293193.388    -1786903.284 2
                        12.600
  24482349.923    24482349.158    24482348.274    -5495926.991 2  -4282538.992 1
        13.900          11.000
  24920951.524    24920951.694    24920952.409    -1523479.861 1  -1187125.664 2
         9.000          12.600
  24844642.353    24844642.069    24844643.530     1643691.498 1   1280800.508 2
         9.000          15.100
  20282504.762    20282504.414    20282501.388   -25662493.220 7 -19996739.932 8
        44.600          49.500
 09  1 30  0 10 30.0000000  0  9G 9G14G18G11G21G 6G 3G22G19
  21481773.293    21481772.756    21481772.307   -17840795.362 6 -13901909.934 5
        37.400          34.700
  21279775.758    21279775.203    21279773.917   -19500066.754 6 -15194851.016 6
        40.100          39.100
  21557163.209    21557162.605    21557160.951   -20048987.689 6 -15622579.789 5
        39.200          35.100
  24435660.724    24435660.263    24435657.415    -2385377.244    -1858734.845 2
                        12.600
  24504702.447    24504701.672    24504700.866    -5378462.668 2  -4191008.382 1
        13.900          11.000
  24938803.254    24938802.234    24938803.911    -1429668.727 1  -1114026.107 1
        11.000          11.000
  24862829.068    24862828.674    24862829.172     1739254.073 2   1355264.822 2
        12.600          16.100
  20284524.660    20284524.377    20284521.238   -25651878.550 7 -19988468.757 8
        44.600          49.500
  23312105.822    23312104.521    23312102.595    -8609295.748 5  -6708538.887 4
        30.800          28.400
 09  1 30  0 11  0.0000000  0  9G 9G14G18G19G11G21G 6G 3G22
  21486145.386    21486145.051    21486144.448   -17817819.407 6 -13884006.587 5
        37.600          34.700
  21267471.844    21267471.409    21267470.174   -19564723.236 6 -15245232.685 6
        40.200          39.200
  21569653.524    21569652.951    21569651.233   -19983350.508 6 -15571433.935 5
        39.100          34.900
  23321029.897    23321028.540    23321026.924    -8562399.084 5  -6671996.043 4
        30.400          28.100
  24418173.502    24418172.905    24418170.275    -2477268.179    -1930338.122 1
                        11.000
  24527071.687    24527071.841    24527070.057    -5260907.449 2  -4099406.947
        12.600           3.000
  24956670.845    24956670.539    24956670.193    -1335776.864 2  -1040863.638 1
        13.900           9.000
  24881037.095    24881036.248    24881035.165     1834938.452 2   1429824.036 2
        15.100          12.600
  20286623.376    20286623.047    20286620.056   -25640849.448 7 -19979874.648 8
        44.500          49.500
 09  1 30  0 11 30.0000000  0  9G 9G14G18G11G21G 6G 3G22G19
  21490655.170    21490654.685    21490654.089   -17794120.608 6 -13865539.984 5
        37.500          34.400
  21255245.387    21255244.830    21255243.731   -19628973.812 6 -15295298.062 6
        40.200          39.300
  21582204.623    21582203.936    21582201.830   -19917395.617 6 -15520040.510 5
        39.200          34.600
  24400740.570    24400740.898    24400737.909    -2568864.337    -2001711.684 1
                        11.000
  24549458.749    24549458.142    24549457.196    -5143264.375 2  -4007737.032
        12.600           3.000
  24974551.417    24974551.820    24974550.917    -1241807.500 2   -967640.786 1
        13.900           6.500
  24899266.883    24899266.279    24899266.696     1930740.834 2   1504475.232 1
        16.100           9.000
  20288800.758    20288800.474    20288797.542   -25629406.607 7 -19970958.144 8
        44.400          49.500
  23330048.375    23330047.227    23330045.231    -8515005.295 4  -6635065.823 4
        29.700          27.900
 09  1 30  0 12  0.0000000  0  9G 9G14G18G11G21G 6G 3G22G19
  21495301.305    21495300.988    21495300.210   -17769705.256 6 -13846515.030 5
        37.700          34.300
  21243095.360    21243094.802    21243093.596   -19692822.921 6 -15345050.603 6
        40.200          39.400
  21594814.507    21594814.028    21594812.110   -19851129.034 6 -15468404.205 5
        39.100          34.600
  24383365.531    24383366.622    24383365.300    -2660168.653    -2072857.814 1
                         9.000
  24571862.146    24571860.790    24571861.070    -5025541.019 2  -3916004.553
        13.900
  24992446.371    24992446.415    24992446.763    -1147769.165 2   -894364.145 1
        12.600           6.500
  24917518.560    24917518.176    24917518.630     2026653.159 2   1579212.093 1
        17.000           9.000
  20291056.098    20291055.769    20291052.654   -25617555.522 7 -19961723.531 8
        44.400          49.400
  23339160.594    23339158.981    23339157.740    -8467121.946 4  -6597754.136 4
        29.200          28.800
 09  1 30  0 12 30.0000000  0  8G 9G14G18G11G 6G 3G22G19
  21500083.416    21500082.985    21500082.219   -17744575.239 6 -13826933.197 5
        37.700          34.300
  21231021.605    21231021.203    21231020.016   -19756270.249 6 -15394490.070 6
        40.300          39.500
  21607483.606    21607483.034    21607481.348   -19784552.362 6 -15416526.282 5
        38.900          34.700
  24366049.242    24366048.314    24366046.117    -2751179.216 1  -2143775.118 1
         6.500           9.000
  25010354.774    25010354.446    25010355.651    -1053665.101 2   -821036.320 1
        12.600           6.500
  24935790.103    24935790.014    24935789.850     2122671.571 2   1654031.655 1
        16.100           9.000
  20293388.904    20293388.607    20293385.470   -25605296.800 7 -19952171.273 8
        44.500          49.300
  23348364.990    23348363.511    23348361.990    -8418751.775 4  -6560063.101 4
        29.500          28.800
 09  1 30  0 13  0.0000000  0  9G 9G14G18G11G21G 6G 3G22G19
  21505002.821    21505002.436    21505001.616   -17718723.338 6 -13806788.847 5
        37.500          34.000
  21219026.146    21219025.656    21219024.392   -19819307.068 6 -15443609.660 6
        40.500          39.500
  21620213.154    21620212.572    21620210.856   -19717658.196 6 -15364400.959 5
        38.800          34.700
  24348788.306    24348788.036    24348785.797    -2841885.682 2  -2214455.481 1
        12.600          11.000
  24616711.219    24616710.156    24616709.897          -1.09012         -.8131
        16.100           3.000
  25028274.091    25028275.491    25028276.282     -959490.157 2   -747653.240 1
        12.600           6.500
  24954082.149    24954081.804    24954083.137     2218800.964 2   1728937.696 1
        13.900          11.000
  20295800.559    20295800.309    20295797.316   -25592622.313 7 -19942295.045 8
        44.400          49.300
  23357663.459    23357662.153    23357660.397    -8369888.672 5  -6521987.955 4
        30.200          28.400
 09  1 30  0 13 30.0000000  0  9G 9G14G18G11G21G 6G 3G22G19
  21510059.765    21510059.296    21510058.706   -17692148.740 6 -13786081.366 5
        37.100          34.100
  21207109.395    21207108.868    21207107.708   -19881930.271 6 -15492406.955 6
        40.500          39.800
  21633003.301    21633002.676    21633001.076   -19650445.983 6 -15312027.806 5
        38.900          34.700
  24331587.061    24331586.629    24331584.280    -2932283.802 2  -2284895.569 2
        13.900          12.600
  24639158.321    24639158.730    24639156.982      117965.644 2     91921.348
        13.900           3.000
  25046211.125    25046211.691    25046208.890     -865245.447 1   -674215.878 1
        11.000           6.500
  24972395.039    24972394.594    24972397.835     2315040.283 1   1803929.355 2
        11.000          12.600
  20298291.974    20298291.705    20298288.627   -25579530.362 7 -19932093.520 8
        44.400          49.200
  23367055.516    23367054.126    23367052.572    -8320532.867 5  -6483528.883 4
        30.100          28.800
 09  1 30  0 14  0.0000000  0  9G 9G14G18G11G21G 6G 3G22G19
  21515251.574    21515251.229    21515250.865   -17664863.788 6 -13764820.364 5
        37.000          34.100
  21195269.172    21195268.727    21195267.675   -19944150.050 6 -15540889.887 6
        40.500          40.000
  21645851.526    21645850.930    21645849.360   -19582927.432 6 -15259415.950 5
        38.600          34.500
  24314440.849    24314440.454    24314438.339    -3022382.341 2  -2355102.200 2
        12.600          12.600
  24661620.479    24661619.875    24661617.065      236001.580 1    183897.385 1
         9.000           6.500
  25064154.977    25064154.520    25064155.074     -770944.810 1   -600734.960 1
         6.500           9.000
  24990728.760    24990728.449    24990729.192     2411376.104 2   1878996.193 2
        15.100          12.600
  20300860.605    20300860.310    20300857.168   -25566032.242 7 -19921575.501 8
        44.400          49.100
  23376538.694    23376537.470    23376535.559    -8270697.717 5  -6444696.315 4
        30.400          28.100
 09  1 30  0 14 30.0000000  0  9G 9G14G18G11G21G 6G 3G22G19
  21520580.257    21520579.767    21520578.808   -17636863.975 6 -13743002.325 5
        37.200          33.800
  21183507.371    21183506.822    21183505.636   -20005959.938 6 -15589053.428 6
        40.600          40.000
  21658759.257    21658758.588    21658756.843   -19515097.505 6 -15206561.465 5
        38.400          34.000
  24297351.505    24297351.464    24297351.498    -3112172.815 1  -2425068.739 1
         6.500          11.000
  24684095.979    24684096.066    24684092.973      354110.136      275930.033 1
         3.000           9.000
  25082109.149    25082107.912    25082111.778     -676585.325     -527208.175 1
                         9.000
  25009081.361    25009080.272    25009080.274     2507810.553 2   1954139.872 2
        16.100          12.600
  20303507.731    20303507.422    20303504.185   -25552121.788 7 -19910736.178 8
        44.300          49.000
  23386114.500    23386113.002    23386111.223    -8220379.486 5  -6405487.301 4
        31.000          28.400
 09  1 30  0 15  0.0000000  0  9G 9G14G18G11G21G 6G 3G22G19
  21526044.209    21526043.617    21526042.679   -17608150.633 6 -13720628.290 5
        37.000          33.500
  21171823.487    21171822.939    21171821.864   -20067359.023 6 -15636896.863 6
        40.600          40.200
  21671725.761    21671725.164    21671723.472   -19446957.382 6 -15153465.263 5
        38.400          34.100
  24280322.741    24280323.957    24280322.818    -3201653.299    -2494793.761 1
         3.000           9.000
  24706586.394    24706584.985    24706582.001      472288.764      368017.188 2
         3.000          12.600
  25100077.250    25100075.597    25100076.304     -582169.966     -453637.773 1
                         9.000
  25027448.395    25027448.068    25027449.215     2604340.296 1   2029357.826 2
         9.000          13.900
  20306233.104    20306232.836    20306229.806   -25537799.064 7 -19899575.609 8
        44.300          49.100
  23395781.294    23395779.836    23395777.734    -8169580.502 5  -6365903.677 4
        30.800          28.100
 09  1 30  0 15 30.0000000  0  9G 9G14G18G11G21G 6G 3G22G19
  21531643.608    21531643.203    21531642.413   -17578724.180 6 -13697698.583 5
        37.000          33.900
  21160218.152    21160217.684    21160216.482   -20128345.377 6 -15684418.688 6
        40.600          40.200
  21684751.510    21684750.889    21684749.156   -19378507.174 6 -15100127.439 5
        38.300          34.100
  24263356.892    24263357.051    24263355.098    -3290820.311 1  -2564274.565 1
        11.000           9.000
  24729090.229    24729088.254    24729083.332      590536.408      460158.169 2
                        13.900
  25118057.920    25118056.800    25118053.475     -487700.553     -380025.321 1
                        11.000
  25045832.588    25045832.666    25045833.589     2700963.786     2104648.804 1
         3.000          11.000
  20309037.208    20309036.941    20309033.906   -25523063.336 7 -19888093.216 8
        44.300          49.000
  23405538.586    23405537.554    23405535.463    -8118302.007 4  -6325946.416 4
        29.900          27.600
 09  1 30  0 16  0.0000000  0  9G 9G14G18G11G21G 6G 3G22G19
  21537378.322    21537377.993    21537377.158   -17548589.124 6 -13674216.720 5
        37.300          34.100
  21148690.879    21148690.360    21148689.093   -20188921.590 6 -15731620.924 6
        40.600          40.200
  21697835.165    21697834.701    21697833.076   -19309750.809 6 -15046551.055 5
        38.100          34.000
  24246448.909    24246448.841    24246446.549    -3379674.769 1  -2633511.786 2
        11.000          12.600
  24751600.911    24751600.954    24751597.090      708846.782 1    552348.034 2
         6.500          15.100
  25136038.019    25136039.584    25136039.654     -393183.437     -306375.716
                         3.000
  25064240.111    25064239.951    25064238.863     2797674.189 1   2180007.550 2
         9.000          13.900
  20311919.393    20311919.089    20311915.908   -25507918.170 7 -19876291.784 8
        44.400          48.900
  23415387.159    23415385.809    23415383.717    -8066549.740 4  -6285619.985 4
        29.500          27.900
 09  1 30  0 16 30.0000000  0  9G 9G14G11G21G 6G18G 3G22G19
  21543247.981    21543247.576    21543246.941   -17517743.143 6 -13650180.881 5
        37.100          34.000
  21137242.427    21137241.872    21137240.665   -20249083.530 6 -15778500.347 6
        40.600          40.300
  24229601.350    24229600.420    24229599.672    -3468211.000 1  -2702501.005 2
        11.000          15.100
  24774125.649    24774125.775    24774123.103      827221.479 1    644588.024 2
         9.000          15.100
  25154039.977    25154038.084    25154035.940     -298618.054     -232691.315 1
                         9.000
  21710977.924    21710977.334    21710975.523   -19240686.131 6 -14992734.426 5
        38.100          33.600
  25082659.593    25082658.793    25082660.746     2894471.706 1   2255434.146 2
        11.000          13.900
  20314879.906    20314879.582    20314876.542   -25492360.302 7 -19864168.766 8
        44.300          48.900
  23425325.693    23425324.182    23425322.533    -8014322.282 4  -6244923.277 4
        29.000          28.400
 09  1 30  0 17  0.0000000  0  9G 9G14G11G21G 6G18G 3G22G19
  21549250.959    21549250.479    21549249.850   -17486196.803 6 -13625599.319 5
        36.800          33.800
  21125871.332    21125870.811    21125869.548   -20308839.240 6 -15825063.232 6
        40.700          40.400
  24212811.571    24212811.892    24212810.983    -3556435.439 2  -2771247.265 2
        12.600          16.100
  24796661.440    24796661.819    24796660.130      945648.851 1    736869.083 2
        11.000          13.900
  25172037.378    25172035.750    25172038.569     -204016.280     -158974.619 1
                         9.000
  21724177.264    21724176.668    21724174.884   -19171322.904 6 -14938685.155 5
        37.900          33.500
  25101091.952    25101091.024    25101093.162     2991344.904     2330919.804 2
                        12.600
  20317917.314    20317917.002    20317913.843   -25476398.594 7 -19851731.068 8
        44.200          48.800
  23435352.069    23435350.655    23435349.299    -7961631.022 4  -6203865.154 4
        28.800          28.400
 09  1 30  0 17 30.0000000  0  9G 9G14G18G11G21G 6G 3G22G19
  21555391.660    21555391.341    21555390.506   -17453927.136 6 -13600454.123 5
        37.100          33.600
  21114582.115    21114581.628    21114580.391   -20368163.544 6 -15871289.952 6
        40.500          40.500
  21737437.925    21737437.394    21737435.843   -19101637.268 6 -14884384.659 5
        37.900          33.600
  24196088.684    24196088.148    24196086.981    -3644321.420 2  -2839729.829 2
        15.100          17.000
  24819212.001    24819212.265    24819210.090     1064151.091 1    829208.477 2
        11.000          12.600
  25190052.090    25190051.387    25190050.816     -109356.477      -85213.845 1
                         9.000
  25119544.997    25119542.615    25119544.930     3088315.343     2406481.148 1
                         9.000
  20321036.232    20321035.927    20321032.807   -25460008.525 7 -19838959.579 8
        44.100          48.700
  23445471.755    23445470.164    23445468.871    -7908454.129 4  -6162428.623 4
        29.200          28.800
 09  1 30  0 18  0.0000000  0  9G 9G14G18G11G21G 6G 3G22G19
  21561666.215    21561665.772    21561665.023   -17420954.628 6 -13574761.254 5
        37.000          33.600
  21103371.598    21103371.238    21103370.078   -20427074.471 6 -15917194.564 6
        40.500          40.600
  21750756.262    21750755.678    21750753.921   -19031649.259 6 -14829848.551 5
        37.700          33.500
  24179426.502    24179426.093    24179424.851    -3731885.278 2  -2907961.388 2
        17.800          17.800
  24841773.371    24841772.458    24841771.732     1182707.429 2    921590.026 1
        12.600          11.000
  25208070.760    25208071.467    25208072.116      -14660.345      -11424.719 2
         3.000          12.600
  25138013.782    25138013.268    25138013.162     3185361.025     2482101.035 1
         3.000          11.000
  20324233.098    20324232.748    20324229.628   -25443209.186 7 -19825869.181 8
        44.100          48.700
  23455679.614    23455678.125    23455676.181    -7854812.134 4  -6120629.673 4
        29.900          28.600
 09  1 30  0 18 30.0000000  0  9G 9G14G18G11G21G 6G 3G22G19
  21568074.249    21568073.906    21568073.293   -17387280.002 6 -13548521.271 5
        36.700          33.900
  21092240.259    21092239.762    21092238.577   -20485570.746 6 -15962776.069 6
        40.400          40.600
  21764132.100    21764131.515    21764129.712   -18961359.404 6 -14775077.236 5
        37.800          33.400
  24162824.841    24162824.462    24162824.339    -3819124.616 3  -2975940.077 3
        19.300          19.300
  24864343.462    24864342.996    24864342.528     1301315.348 2   1014011.781 1
        12.600           6.500
  25226098.124    25226097.491    25226097.795       80069.690       62390.890 1
                        11.000
  25156495.644    25156494.199    25156495.042     3282479.173 1   2557777.490 2
         6.500          12.600
  20327507.771    20327507.427    20327504.285   -25426000.506 7 -19812459.815 8
        44.100          48.600
  23465975.526    23465973.793    23465972.129    -7800707.078 4  -6078469.902 4
        29.500          28.600
 09  1 30  0 19  0.0000000  0  7G 9G14G18G11G19G 3G22
  21574612.289    21574611.899    21574611.127   -17352922.423 6 -13521749.135 5
        36.700          33.600
  21081184.448    21081183.919    21081182.744   -20543669.497 6 -16008047.815 6
        40.300          40.700
  21777561.618    21777561.014    21777559.311   -18890786.702 6 -14720085.518 5
        37.700          33.200
  24146282.208    24146282.274    24146281.576    -3906054.833 3  -3043677.875 3
        20.500          19.900
  23476355.470    23476353.983    23476352.087    -7746159.328 4  -6035965.165 4
        29.000          28.100
  25174986.925    25174986.215    25174987.345     3379648.891 1   2633494.184 2
         6.500          12.600
  20330856.861    20330856.570    20330853.466   -25408400.499 7 -19798745.519 8
        44.100          48.600
 09  1 30  0 19 30.0000000  0  7G 9G14G18G11G19G 3G22
  21581282.254    21581281.842    21581281.405   -17317871.143 6 -13494436.435 5
        36.700          33.800
  21070206.803    21070206.308    21070205.118   -20601357.400 6 -16052999.420 6
        40.300          40.800
  21791047.107    21791046.513    21791044.981   -18819919.350 6 -14664864.208 5
        37.400          33.500
  24129801.839    24129801.619    24129799.991    -3992660.666 3  -3111162.906 3
        19.900          19.300
  23486821.508    23486820.222    23486818.342    -7691158.373 4  -5993107.280 4
        28.600          27.900
  25193488.850    25193487.341    25193486.911     3476879.863     2709258.584 1
                         9.000
  20334283.012    20334282.702    20334279.528   -25390396.211 7 -19784716.203 8
        44.100          48.500
 09  1 30  0 20  0.0000000  0  7G 9G14G18G11G19G 3G22
  21588092.088    21588091.621    21588090.866   -17282085.981 6 -13466551.894 5
        36.700          33.800
  21059315.331    21059314.849    21059313.590   -20658592.124 6 -16097597.899 6
        40.300          40.900
  21804596.640    21804596.024    21804594.345   -18748716.584 6 -14609381.540 5
        37.300          33.200
  24113391.570    24113391.033    24113389.287    -4078898.225 3  -3178360.960 3
        19.300          18.600
  23497381.663    23497380.368    23497378.487    -7635665.157 4  -5949865.814 4
        29.000          27.900
  25212010.406    25212011.199    25212007.753     3574210.754     2785101.822 1
                         6.500
  20337793.907    20337793.592    20337790.412   -25371946.482 7 -19770339.786 8
        44.100          48.500
 09  1 30  0 20 30.0000000  0  7G 9G14G18G11G19G 3G22
  21595035.063    21595034.711    21595034.028   -17245599.950 6 -13438121.220 5
        36.500          33.800
  21048504.315    21048503.848    21048502.692   -20715404.041 6 -16141866.913 6
        40.300          41.000
  21818203.655    21818203.070    21818201.494   -18677210.895 6 -14553662.827 5
        37.300          33.200
  24097044.907    24097045.084    24097043.472    -4164796.676 3  -3245294.804 3
        19.300          18.600
  23508029.263    23508027.664    23508025.772    -7579713.425 4  -5906267.069 4
        28.800          27.900
  25230546.657    25230546.299    25230544.628     3671607.112     2860997.992 1
                        11.000
  20341383.546    20341383.289    20341380.159   -25353082.667 7 -19755640.704 8
        44.100          48.400
 09  1 30  0 21  0.0000000  0  7G 9G14G18G11G19G 3G22
  21602110.050    21602109.687    21602109.075   -17208420.121 6 -13409149.920 5
        36.700          33.600
  21037773.016    21037772.528    21037771.466   -20771797.766 6 -16185810.064 6
        40.300          41.200
  21831867.313    21831866.708    21831865.027   -18605408.459 6 -14497712.884 5
        37.200          33.100
  24080763.282    24080762.983    24080761.306    -4250359.029 3  -3311966.759 3
        19.300          19.300
  23518761.975    23518760.621    23518758.897    -7523310.786 4  -5862316.965 4
        28.600          27.900
  25249088.414    25249086.850    25249087.709     3769060.762     2936935.750 2
                        12.600
  20345050.819    20345050.581    20345047.476   -25333810.400 7 -19740623.350 8
        44.000          48.300
 09  1 30  0 21 30.0000000  0  7G 9G14G18G11G19G 3G22
  21609318.150    21609317.785    21609316.732   -17170543.018 6 -13379635.291 5
        37.000          33.600
  21027122.339    21027121.853    21027120.709   -20827767.725 6 -16229423.007 6
        40.300          41.300
  21845588.242    21845587.598    21845585.793   -18533304.860 6 -14441528.259 5
        37.000          32.800
  24064547.432    24064546.580    24064545.091    -4335577.779 3  -3378370.945 3
        19.300          19.300
  23529581.495    23529579.909    23529578.310    -7466454.528 4  -5818013.396 4
        28.400          27.400
  25267642.778    25267642.127    25267644.278     3866573.518     3012919.670 2
                        13.900
  20348796.981    20348796.682    20348793.496   -25314124.765 7 -19725283.891 8
        44.000          48.300
 09  1 30  0 22  0.0000000  0  7G 9G14G18G11G19G 3G22
  21616658.238    21616657.750    21616657.543   -17131968.251 6 -13349577.033 5
        36.200          33.600
  21016552.812    21016552.297    21016550.987   -20883311.437 6 -16272703.813 6
        40.400          41.400
  21859366.437    21859365.787    21859363.917   -18460900.204 6 -14385109.049 5
        37.000          32.700
  24048395.927    24048395.431    24048394.657    -4420448.961 3  -3444504.307 3
        18.600          19.300
  23540486.604    23540485.178    23540483.489    -7409145.517 4  -5773357.018 4
        27.600          27.100
  25286214.652    25286214.104    25286212.000     3964144.724 1   3088949.222 2
         6.500          16.100
  20352621.815    20352621.591    20352618.490   -25294024.337 7 -19709621.215 8
        43.900          48.200
 09  1 30  0 22 30.0000000  0  7G 9G14G18G11G19G 3G22
  21624129.887    21624129.396    21624128.848   -17092705.579 6 -13318982.737 5
        36.400          33.600
  21006062.950    21006062.429    21006061.199   -20938435.974 6 -16315657.988 6
        40.400          41.500
  21873200.138    21873199.661    21873197.836   -18388202.439 6 -14328461.447 5
        37.100          32.700
  24032310.219    24032310.037    24032308.952    -4504978.088 3  -3510371.135 3
        19.300          19.300
  23551477.004    23551475.365    23551473.596    -7351394.131 4  -5728355.943 4
        28.100          27.400
  25304786.640    25304787.580    25304787.629     4061762.765     3165015.201 2
                        13.900
  20356524.334    20356523.998    20356520.843   -25273517.161 7 -19693641.593 8
        43.800          48.100
 09  1 30  0 23  0.0000000  0  7G 9G14G18G11G19G 3G22
  21631731.772    21631731.393    21631730.514   -17052758.412 6 -13287855.070 5
        36.600          33.500
  20995652.439    20995651.998    20995650.905   -20993142.373 6 -16358286.345 6
        40.300          41.600
  21887089.456    21887088.854    21887086.939   -18315214.643 6 -14271587.840 5
        37.000          32.600
  24016291.008    24016290.194    24016289.132    -4589164.554 3  -3575970.947 3
        20.500          20.500
  23562550.181    23562548.402    23562546.673    -7293204.267 4  -5683013.196 4
        27.600          27.400
  25323371.590    25323371.121    25323370.446     4159423.815     3241114.709 1
         3.000          11.000
  20360503.714    20360503.488    20360500.362   -25252604.863 7 -19677346.294 8
        43.800          48.100
 09  1 30  0 23 30.0000000  0  6G 9G18G11G19G14G22
  21639463.421    21639462.963    21639462.614   -17012127.365 6 -13256194.515 5
        36.300          33.600
  21901033.897    21901033.176    21901031.429   -18241936.634 6 -14214488.104 5
        36.600          32.600
  24000337.072    24000336.480    24000334.726    -4673004.861 3  -3641301.037 3
        21.100          20.500
  23573706.002    23573705.142    23573702.678    -7234577.510 4  -5637330.022 4
        27.100          27.400
  20985322.156    20985321.618    20985320.412   -21047429.080 6 -16400587.669 6
        40.300          41.600
  20364560.652    20364560.285    20364557.123   -25231286.346 7 -19660734.458 8
        43.800          48.000
 09  1 30  0 24  0.0000000  0  6G 9G18G11G19G14G22
  21647324.712    21647324.284    21647323.845   -16970815.720 6 -13224003.612 5
        36.200          33.500
  21915032.815    21915032.225    21915030.320   -18168370.998 6 -14157164.243 5
        36.400          32.400
  23984448.433    23984447.815    23984446.297    -4756498.276 3  -3706360.801 3
        21.100          21.100
  23584944.365    23584943.131    23584941.909    -7175517.621 4  -5591309.352 4
        27.100          27.600
  20975071.527    20975071.057    20975069.705   -21101296.441 6 -16442562.233 6
        40.500          41.600
  20368694.194    20368693.944    20368690.836   -25209563.644 7 -19643807.675 7
        43.700          47.900
 09  1 30  0 24 30.0000000  0  6G 9G18G11G19G14G22
  21655319.831    21655319.320    21655318.799   -16928801.618 6 -13191265.353 5
        36.100          33.400
  21929090.859    21929090.276    21929088.588   -18094494.888 6 -14099598.445 5
        36.400          32.300
  23968631.163    23968630.704    23968628.576    -4839618.660 3  -3771129.900 3
        21.100          20.500
  23596270.494    23596268.688    23596267.262    -7116003.259 4  -5544934.518 4
        27.900          27.400
  20964905.371    20964904.756    20964903.547   -21154720.190 6 -16484191.123 6
        40.400          41.800
  20372909.367    20372909.063    20372905.964   -25187413.078 7 -19626547.488 7
        43.700          47.800
 09  1 30  0 25  0.0000000  0  6G 9G18G11G19G14G22
  21663445.353    21663444.926    21663444.395   -16886101.056 6 -13157992.177 5
        36.100          33.200
  21943205.375    21943204.772    21943202.880   -18020323.461 6 -14041802.521 5
        36.600          32.000
  23952881.548    23952881.488    23952880.521    -4922378.018 3  -3835617.689 3
        21.100          21.100
  23607678.436    23607677.232    23607675.443    -7056051.230 4  -5498218.662 4
        28.400          26.800
  20954820.892    20954820.430    20954819.278   -21207713.879 6 -16525484.899 6
        40.500          41.900
  20377203.159    20377202.841    20377199.689   -25164849.187 7 -19608965.229 7
        43.600          47.800
 09  1 30  0 25 30.0000000  0  6G 9G18G11G19G14G22
  21671700.536    21671700.148    21671699.360   -16842720.311 6 -13124188.994 5
        36.100          33.100
  21957374.910    21957374.144    21957372.418   -17945862.186 6 -13983780.742 5
        36.400          32.000
  23937201.521    23937201.320    23937200.087    -5004778.502 3  -3899825.835 3
        20.500          21.600
  23619168.989    23619167.714    23619165.899    -6995668.430 4  -5451167.133 4
        28.100          26.500
  20944817.723    20944817.214    20944815.945   -21260281.520 6 -16566446.690 7
        40.600          42.000
  20381574.535    20381574.298    20381571.219   -25141876.533 7 -19591064.453 7
        43.500          47.800
 09  1 30  0 26  0.0000000  0  6G 9G18G11G19G14G22
  21680084.808    21680084.385    21680083.764   -16798661.011 6 -13089857.064 5
        36.200          33.200
  21971599.037    21971598.514    21971596.970   -17871111.687 5 -13925533.605 5
        35.800          31.800
  23921589.326    23921589.651    23921588.629    -5086817.720 3  -3963752.457 3
        19.300          23.000
  23630741.058    23630739.552    23630738.000    -6934857.289 4  -5403781.840 4
        27.900          26.500
  20934895.806    20934895.208    20934893.930   -21312421.910 6 -16607075.558 7
        40.600          42.100
  20386024.096    20386023.706    20386020.572   -25118495.145 7 -19572845.187 7
        43.500          47.700
 09  1 30  0 26 30.0000000  0  6G 9G18G11G19G14G22
  21688598.886    21688598.372    21688598.133   -16753918.222 5 -13054992.550 5
        35.800          33.500
  21985879.890    21985879.248    21985877.556   -17796066.325 5 -13867056.709 5
        35.800          31.500
  23906048.396    23906048.500    23906047.625    -5168486.089 3  -4027390.134 3
        18.600          23.000
  23642395.392    23642393.720    23642391.977    -6873613.642 4  -5356059.524 4
        27.900          26.800
  20925056.321    20925055.838    20925054.663   -21364127.947 6 -16647365.971 7
        40.700          42.300
  20390552.392    20390552.079    20390548.928   -25094698.331 7 -19554302.210 7
        43.500          47.600
 09  1 30  0 27  0.0000000  0  6G 9G18G11G19G14G22
  21697241.919    21697241.427    21697240.951   -16708499.461 5 -13019601.301 5
        35.800          33.200
  22000215.530    22000214.896    22000212.930   -17720732.648 5 -13808355.151 5
        35.900          31.000
  23890577.385    23890577.400    23890576.373    -5249787.256 3  -4090741.683 3
        18.600          22.600
  23654130.285    23654129.063    23654127.707    -6811945.316 4  -5308006.286 4
        28.400          27.100
  20915298.837    20915298.288    20915297.049   -21415404.449 6 -16687321.684 7
        40.600          42.400
  20395158.805    20395158.431    20395155.293   -25070491.912 7 -19535440.062 7
        43.500          47.700
 09  1 30  0 27 30.0000000  0  6G 9G18G11G19G14G22
  21706012.300    21706011.909    21706011.287   -16662410.362 5 -12983687.717 5
        35.800          33.100
  22014605.329    22014604.557    22014602.741   -17645115.011 5 -13749432.319 5
        35.800          31.300
  23875175.717    23875175.945    23875174.878    -5330722.492 2  -4153808.082 3
        16.100          22.600
  23665945.176    23665943.834    23665941.967    -6749858.610 4  -5259627.030 4
        27.900          26.500
  20905622.359    20905621.861    20905620.618   -21466254.315 6 -16726944.958 7
        40.700          42.500
  20399842.181    20399841.826    20399838.879   -25045879.797 7 -19516261.790 7
        43.200          47.600
 09  1 30  0 28  0.0000000  0  6G 9G18G11G19G14G22
  21714910.773    21714910.377    21714909.871   -16615648.186 5 -12947249.653 5
        35.600          33.000
  22029049.384    22029048.727    22029046.883   -17569209.994 5 -13690285.558 5
        35.700          31.100
  23859846.240    23859845.697    23859844.235    -5411284.490 2  -4216583.631 3
        17.000          21.600
  23677840.208    23677838.568    23677836.946    -6687351.225 4  -5210919.996 4
        27.100          26.800
  20896028.017    20896027.519    20896026.376   -21516672.462 6 -16766231.824 7
        40.700          42.600
  20404603.854    20404603.533    20404600.472   -25020857.291 7 -19496763.732 7
        43.200          47.500
 09  1 30  0 28 30.0000000  0  6G 9G18G11G19G14G22
  21723936.586    21723935.976    21723935.480   -16568218.440 5 -12910291.408 5
        35.600          33.000
  22043547.291    22043546.718    22043544.972   -17493022.402 5 -13630918.612 5
        35.400          31.000
  23844586.718    23844586.148    23844584.551    -5491475.262 2  -4279069.904 3
        17.000          21.100
  23689813.468    23689812.036    23689810.614    -6624429.558 4  -5161890.130 4
        27.100          26.800
  20886515.385    20886514.968    20886513.668   -21566661.924 6 -16805184.648 7
        40.700          42.700
  20409442.710    20409442.393    20409439.319   -24995428.708 7 -19476949.250 7
        43.200          47.500
 09  1 30  0 29  0.0000000  0  6G 9G18G11G19G14G22
  21733089.449    21733088.908    21733088.471   -16520119.952 5 -12872812.062 5
        35.600          33.000
  22058099.726    22058099.109    22058097.270   -17416549.826 5 -13571329.603 5
        35.600          30.800
  23829398.541    23829398.154    23829396.119    -5571289.129 3  -4341262.506 3
        19.300          19.900
  23701866.123    23701864.828    23701863.106    -6561092.756 4  -5112536.778 4
        26.800          25.900
  20877085.065    20877084.620    20877083.474   -21616218.481 6 -16843800.137 7
        40.700          42.900
  20414359.516    20414359.240    20414356.127   -24969590.812 7 -19456815.816 7
        43.200          47.500
 09  1 30  0 29 30.0000000  0  6G 9G18G11G19G14G22
  21742369.684    21742369.332    21742368.685   -16471350.094 5 -12834809.572 5
        35.500          32.700
  22072707.194    22072706.357    22072704.465   -17339788.530 5 -13511515.603 5
        35.100          30.800
  23814284.272    23814284.001    23814281.351    -5650718.898 3  -4403155.816 3
        20.500          19.900
  23713998.462    23713996.511    23713994.352    -6497338.984 4  -5062858.521 4
        27.100          24.900
  20867738.082    20867737.534    20867736.390   -21665337.552 6 -16882074.728 7
        40.700          43.000
  20419355.013    20419354.696    20419351.559   -24943339.397 7 -19436360.166 7
        43.200          47.300
 09  1 30  0 30  0.0000000  0  6G 9G18G11G19G14G22
  21751777.653    21751777.194    21751776.369   -16421912.912 5 -12796287.085 5
        35.700          32.300
  22087368.221    22087367.744    22087366.065   -17262741.575 5 -13451479.014 5
        35.100          31.000
  23799240.617    23799240.822    23799239.297    -5729764.507 3  -4464749.763 3
        18.600          19.300
  23726208.213    23726206.652    23726205.403    -6433172.848 4  -5012858.942 4
        26.200          25.900
  20858474.028    20858473.565    20858472.350   -21714020.079 6 -16920009.154 7
