     2.11           OBSERVATION DATA    G (GPS)             RINEX VERSION / TYPE
teqc  2008Oct2      WCDA Operator       20090125 00:18:51UTCPGM / RUN BY / DATE
Solaris x86 5.10|AMD64|cc SC5.8 -xarch=amd64|=+|=+          COMMENT
teqc  2008Oct2      WCDA Operator       20090124 01:18:17UTCCOMMENT
flin  WCDA-ACP   965000   CFS Flin Flon SASK Canada         MARKER NAME
40135M001                                                   MARKER NUMBER
PGC-WCDA            GEOL. SURV. CANADA                      OBSERVER / AGENCY
1115                AOA BENCHMARK ACT   3.3.32.4            REC # / TYPE / VERS
231                 AOAD/M_T        SCIS                    ANT # / TYPE
  -766174.4630 -3611375.3160  5184056.2210                  APPROX POSITION XYZ
        0.1500        0.0000        0.0000                  ANTENNA: DELTA H/E/N
     1     1                                                WAVELENGTH FACT L1/2
     7    C1    P1    P2    L1    L2    S1    S2            # / TYPES OF OBSERV
STATION INFORMATION EFFECTIVE FROM: 2001/01/13 18:20:00     COMMENT
                                TO: CURRENT DATE (above)    COMMENT
BIT 2 OF LLI FLAGS (+4) DATA COLLECTED UNDER 'AS' CONDITION COMMENT
L1 PHASE CENTRE 0.110m ABOVE ARP                            COMMENT
L2 PHASE CENTRE 0.128m ABOVE ARP                            COMMENT
where ARP is the Antenna Reference Point for HI measurement COMMENT
CONTACT gps@pgc.nrcan.gc.ca FOR ADDITIONAL INFORMATION      COMMENT
    P1 =    P1  TurboRogue; =    Y1  Benchmark              COMMENT
    L1 = L1(CA)                                             COMMENT
    P2 =    P2  TurboRogue; =    Y2  Benchmark              COMMENT
    L2 = L2(P2) TurboRogue; = L2(Y2) Benchmark              COMMENT
 SNR is mapped to RINEX snr flag value [0-9]                COMMENT
  L1 & L2: min(max(int(snr_dBHz/6), 0), 9)                  COMMENT
  2009     1    24     0     0    0.0000000     GPS         TIME OF FIRST OBS
                                                            END OF HEADER
 09  1 24  0  0  0.0000000  0 10G 9G28G14G19G 6G 3G18G15G21G22
  21522173.635    21522173.107    21522172.672   -17544592.887 6 -13671104.040 5
        36.700          35.800
  25446612.065    25446611.592    25446608.480        -408.666 1      -318.645 1
        11.000           6.500
  22341257.002    22341256.371    22341255.202   -13948624.765 5 -10869053.374 5
        33.000          30.400
  22936027.735    22936026.365    22936024.893   -10855779.146 5  -8459045.599 5
        32.300          31.300
  23755462.227    23755462.029    23755461.876    -7503146.407 3  -5846613.433 3
        21.100          21.600
  23681401.534    23681400.839    23681401.156    -4419429.772 3  -3443709.227 3
        23.400          22.100
  20849550.581    20849549.963    20849548.333   -23782973.684 6 -18532178.624 7
        41.800          42.700
  24679686.244    24679686.237    24679683.451    -2869165.305 3  -2235699.014 3
        19.900          22.600
  22993835.387    22993835.248    22993833.956   -13383089.036 4 -10428375.686 3
        25.900          22.100
  20331904.413    20331904.084    20331901.136   -25315722.307 7 -19726528.593 8
        44.100          49.500
 09  1 24  0  0 30.0000000  0 10G 9G28G14G19G 6G 3G18G15G21G22
  21516801.177    21516800.785    21516800.146   -17572825.119 6 -13693103.174 5
        36.900          35.600
  25447286.608    25447286.277    25447286.368        3151.383 1      2455.392 1
         6.500          11.000
  22324078.653    22324078.076    22324076.899   -14038898.383 5 -10939396.444 5
        33.400          30.600
  22937708.108    22937706.537    22937704.843   -10846950.861 5  -8452166.420 5
        32.600          31.100
  23770977.189    23770976.661    23770977.037    -7421616.244 3  -5783083.450 3
        20.500          21.600
  23696652.780    23696652.176    23696652.870    -4339281.125 4  -3381255.749 3
        24.200          21.600
  20857557.988    20857557.438    20857555.845   -23740894.100 6 -18499389.330 7
        41.800          42.600
  24700028.216    24700028.525    24700025.651    -2762266.136 3  -2152400.934 3
        20.500          23.400
  23013949.060    23013948.580    23013947.045   -13277392.619 4 -10346014.862 3
        25.600          21.600
  20328589.271    20328588.958    20328585.969   -25333143.356 7 -19740103.432 8
        44.100          49.500
 09  1 24  0  1  0.0000000  0 10G 9G28G14G19G 6G 3G18G15G21G22
  21511563.602    21511562.925    21511562.519   -17600349.381 6 -13714550.640 5
        36.700          35.700
  25448062.640    25448061.543    25448062.479        7223.811 1      5628.706 1
         6.500          11.000
  22306958.766    22306958.234    22306957.241   -14128862.255 5 -11009498.151 5
        33.100          31.000
  22939499.490    22939498.090    22939496.243   -10837535.984 5  -8444830.138 5
        32.400          31.100
  23786544.524    23786543.953    23786544.438    -7339810.949 3  -5719339.086 3
        21.600          22.100
  23711966.974    23711966.219    23711965.961    -4258807.183 3  -3318548.769 3
        23.400          21.100
  20865634.383    20865633.755    20865632.126   -23698452.839 6 -18466318.212 7
        41.800          42.500
  24720387.055    24720387.093    24720385.052    -2655278.899 3  -2069034.235 3
        19.300          23.400
  23034109.386    23034108.841    23034107.172   -13171450.486 4 -10263462.571 3
        25.300          21.100
  20325349.024    20325348.685    20325345.615   -25350171.382 7 -19753372.018 8
        44.200          49.500
 09  1 24  0  1 30.0000000  0 10G 9G28G14G19G 6G 3G18G15G21G22
  21506461.778    21506461.227    21506460.758   -17627159.639 6 -13735441.740 5
        36.800          35.700
  25448937.522    25448936.852    25448934.374       11813.209 1      9204.958
         6.500           3.000
  22289899.075    22289898.724    22289897.963   -14218510.030 5 -11079353.537 5
        33.200          31.100
  22941403.657    22941402.157    22941400.463   -10827530.072 5  -8437033.328 5
        32.700          31.300
  23802164.279    23802163.862    23802164.203    -7257728.629 3  -5655378.835 3
        21.100          21.600
  23727342.756    23727342.262    23727342.385    -4178005.396 3  -3255586.361 3
        23.400          21.100
  20873780.395    20873779.825    20873778.122   -23655645.202 6 -18432961.609 7
        41.800          42.300
  24740764.374    24740763.879    24740761.078    -2548201.095 2  -1985596.980 3
        17.800          23.800
  23054316.522    23054316.030    23054314.656   -13065259.898 4 -10180716.675 3
        25.300          20.500
  20322184.570    20322184.234    20322181.260   -25366800.436 7 -19766329.716 8
        44.300          49.600
 09  1 24  0  2  0.0000000  0 10G 9G28G14G19G 6G 3G18G15G21G22
  21501493.860    21501493.397    21501493.075   -17653264.364 6 -13755783.077 5
        36.700          35.600
  25449906.855    25449906.676    25449905.306       16909.439 1     13176.009 1
         6.500           6.500
  22272898.133    22272897.745    22272896.982   -14307850.599 5 -11148969.550 5
        33.500          31.100
  22943418.124    22943416.776    22943414.828   -10816944.000 5  -8428784.442 5
        33.000          31.100
  23817833.935    23817833.262    23817833.579    -7175382.388 3  -5591212.945 3
        21.100          21.600
  23742778.913    23742778.011    23742778.163    -4096889.665 3  -3192379.299 3
        22.100          21.600
  20881994.079    20881993.455    20881991.766   -23612482.270 6 -18399328.154 7
        41.800          42.300
  24761156.874    24761155.422    24761152.746    -2441044.503 2  -1902098.333 4
        17.800          24.600
  23074568.633    23074568.363    23074566.937   -12958833.231 4 -10097786.829 3
        25.600          20.500
  20319094.153    20319093.840    20319090.794   -25383040.872 7 -19778984.595 8
        44.300          49.600
 09  1 24  0  2 30.0000000  0 10G 9G28G14G19G 6G 3G18G15G21G22
  21496661.827    21496661.256    21496660.494   -17678659.194 6 -13775571.248 5
        36.900          35.500
  25450975.371    25450974.344    25450971.702       22515.483       17544.257 1
         3.000          11.000
  22255957.199    22255956.605    22255955.334   -14396878.747 5 -11218342.116 5
        34.000          31.100
  22945543.277    22945541.855    22945540.417   -10805774.973 5  -8420081.310 5
        32.800          31.000
  23833554.133    23833553.950    23833553.797    -7092771.445 3  -5526840.798 3
        22.100          21.600
  23758274.623    23758274.050    23758273.902    -4015459.102 3  -3128926.929 3
        22.100          22.100
  20890275.945    20890275.314    20890273.579   -23568960.887 6 -18365415.383 7
        41.800          42.100
  24781562.594    24781561.437    24781559.054    -2333807.472 2  -1818537.008 4
        17.000          24.600
  23094866.411    23094865.657    23094864.745   -12852169.385 4 -10014672.148 3
        25.900          20.500
  20316078.342    20316078.076    20316075.134   -25398888.371 7 -19791333.293 8
        44.300          49.700
 09  1 24  0  3  0.0000000  0 10G 9G28G14G19G 6G 3G18G15G21G22
  21491965.952    21491965.378    21491964.475   -17703336.425 6 -13794800.248 5
        37.200          35.400
  25452136.265    25452136.974    25452136.136       28637.719       22314.931 1
                        11.000
  22239076.339    22239075.854    22239074.803   -14485586.594 5 -11287465.100 5
        33.800          31.300
  22947781.246    22947779.759    22947777.860   -10794017.125 5  -8410919.345 5
        33.400          31.100
  23849325.623    23849325.369    23849325.863    -7009892.183 3  -5462259.552 3
        21.100          22.100
  23773830.262    23773829.996    23773831.057    -3933710.083 3  -3065226.400 3
        21.600          23.000
  20898627.093    20898626.462    20898624.843   -23525075.056 6 -18331218.628 7
        41.900          42.100
  24801984.309    24801984.352    24801981.588    -2226485.697 3  -1734909.646 4
        18.600          24.600
  23115209.953    23115209.273    23115208.083   -12745263.709 4  -9931369.037 3
        24.900          20.500
  20313138.678    20313138.356    20313135.362   -25414336.902 7 -19803371.103 8
        44.400          49.700
 09  1 24  0  3 30.0000000  0 10G14G28G19G 6G 3G18G 9G15G21G22
  22222257.279    22222256.773    22222255.587   -14573972.206 5 -11356336.987 5
        34.000          31.500
  25453403.093    25453403.060    25453398.968       35276.395 1     27487.887 1
         9.000           6.500
  22950130.578    22950129.271    22950127.202   -10781670.901 5  -8401298.908 5
        33.600          31.500
  23865146.280    23865146.919    23865147.608    -6926747.130 3  -5397471.214 3
        19.900          22.600
  23789447.230    23789446.607    23789446.620    -3851645.514 3  -3001279.995 3
        21.100          23.000
  20907047.548    20907046.906    20907045.223   -23480825.416 6 -18296738.386 7
        41.900          42.000
  21487406.620    21487406.187    21487405.501   -17727294.525 6 -13813468.896 5
        37.100          35.600
  24822421.988    24822422.107    24822419.814    -2119080.633 2  -1651217.363 3
        17.000          23.400
  23135598.812    23135598.335    23135597.589   -12638118.458 4  -9847879.256 3
        24.200          21.100
  20310275.244    20310274.933    20310271.811   -25429384.543 7 -19815096.531 8
        44.400          49.600
 09  1 24  0  4  0.0000000  0 10G14G28G19G 6G 3G18G 9G15G21G22
  22205499.250    22205498.872    22205497.780   -14662035.576 5 -11424957.781 5
        34.300          31.800
  25454761.339    25454760.558    25454759.096       42429.530       33061.758 1
         3.000           9.000
  22952591.243    22952589.756    22952588.154   -10768738.718 5  -8391221.885 5
        33.100          31.600
  23881019.203    23881018.990    23881019.079    -6843340.857 3  -5332479.326 3
        20.500          22.600
  23805122.232    23805122.230    23805122.104    -3769269.598 3  -2937090.998 3
        21.100          23.000
  20915536.701    20915536.132    20915534.458   -23436213.979 6 -18261976.223 6
        41.900          41.800
  21482984.299    21482983.942    21482983.123   -17750533.914 6 -13831577.497 5
        37.200          35.300
  24842876.323    24842876.458    24842873.829    -2011595.685 2  -1567462.828 3
        17.000          23.400
  23156032.945    23156032.262    23156031.336   -12530737.368 4  -9764205.699 3
        24.200          21.600
  20307487.648    20307487.378    20307484.219   -25444033.109 7 -19826510.993 8
        44.500          49.600
 09  1 24  0  4 30.0000000  0 10G14G28G19G 6G 3G18G 9G15G21G22
  22188801.367    22188800.830    22188799.958   -14749783.396 5 -11493332.697 5
        34.400          31.800
  25456219.992    25456220.420    25456217.242       50088.599       39029.920 1
                         9.000
  22955162.044    22955160.576    22955158.869   -10755229.348 5  -8380695.106 5
        33.200          31.500
  23896939.368    23896938.800    23896938.788    -6759684.428 3  -5267292.509 3
        20.500          23.000
  23820854.846    23820854.774    23820854.821    -3686594.327 3  -2872668.720 3
        20.500          23.000
  20924093.188    20924092.488    20924090.853   -23391249.914 6 -18226939.287 6
        41.900          41.700
  21478697.491    21478696.979    21478696.122   -17773061.926 6 -13849131.780 5
        37.400          35.200
  24863344.166    24863343.689    24863340.470    -1904041.168 2  -1483654.100 3
        16.100          22.600
  23176509.956    23176509.155    23176508.251   -12423130.868 4  -9680356.502 3
        24.600          21.600
  20304774.635    20304774.254    20304771.121   -25458290.431 7 -19837620.588 8
        44.400          49.600
 09  1 24  0  5  0.0000000  0 10G14G28G19G 6G 3G18G 9G15G21G22
  22172164.346    22172163.875    22172162.726   -14837211.877 5 -11561458.776 5
        34.500          32.000
  25457773.979    25457775.137    25457770.540       58255.852       45393.997 1
         3.000           9.000
  22957842.916    22957841.426    22957839.725   -10741141.205 5  -8369717.338 5
        33.500          31.300
  23912905.746    23912905.282    23912905.566    -6675778.313 3  -5201911.140 3
        21.100          23.800
  23836645.546    23836644.824    23836644.728    -3603620.193 3  -2808013.563 3
        21.100          23.400
  20932717.057    20932716.491    20932714.711   -23345931.033 6 -18191625.869 6
        41.900          41.600
  21474546.474    21474546.108    21474545.550   -17794874.903 6 -13866128.897 5
        37.300          35.500
  24883824.480    24883823.464    24883820.549    -1796416.399 2  -1399790.624 3
        13.900          20.500
  23197030.003    23197029.243    23197027.907   -12315298.692 4  -9596331.457 3
        24.900          20.500
  20302136.467    20302136.134    20302133.030   -25472153.918 7 -19848423.299 8
        44.400          49.700
 09  1 24  0  5 30.0000000  0 10G14G28G19G 6G 3G18G 9G15G21G22
  22155589.235    22155588.706    22155587.653   -14924314.762 5 -11629331.147 5
        34.500          32.300
  25459425.213    25459424.150    25459422.975       66935.377       52157.200 1
                         6.500
  22960634.886    22960633.313    22960631.603   -10726470.323 5  -8358285.483 5
        33.400          31.600
  23928920.801    23928920.244    23928920.356    -6591620.586 3  -5136333.692 3
        21.100          23.800
  23852491.558    23852490.590    23852491.724    -3520345.055 3  -2743123.866 4
        20.500          24.200
  20941409.352    20941408.686    20941406.975   -23300253.140 6 -18156032.702 6
        41.900          41.600
  21470532.910    21470532.463    21470531.784   -17815967.271 6 -13882564.503 5
        37.400          35.700
  24904317.077    24904316.910    24904314.611    -1688718.494 2  -1315870.144 3
        12.600          19.300
  23217593.233    23217592.449    23217591.525   -12207238.244 4  -9512128.529 3
        24.600          19.900
  20299574.224    20299573.872    20299570.868   -25485618.301 7 -19858915.020 8
        44.400          49.700
 09  1 24  0  6  0.0000000  0 10G14G28G19G 6G 3G18G 9G15G21G22
  22139075.508    22139074.958    22139073.918   -15011094.507 5 -11696951.718 5
        34.500          32.300
  25461174.262    25461173.445    25461171.040       76122.831       59317.183 1
                         9.000
  22963536.200    22963534.777    22963533.490   -10711221.392 5  -8346403.190 5
        33.200          32.000
  23944981.466    23944981.095    23944981.700    -6507218.084 3  -5070565.517 3
        20.500          23.800
  23868394.471    23868393.958    23868394.419    -3436775.725 3  -2678004.923 3
        21.100          23.400
  20950168.913    20950168.292    20950166.598   -23254220.783 6 -18120163.331 6
        41.900          41.400
  21466655.565    21466655.121    21466654.539   -17836341.631 6 -13898440.622 5
        37.200          35.500
  24924823.449    24924823.538    24924822.256    -1580953.492 2  -1231897.422 3
        13.900          20.500
  23238198.616    23238198.056    23238196.733   -12098956.241 4  -9427752.966 3
        24.600          20.500
  20297087.340    20297086.992    20297083.951   -25498687.126 7 -19869098.517 8
        44.500          49.700
 09  1 24  0  6 30.0000000  0 10G14G28G19G 6G 3G18G 9G15G21G22
  22122625.653    22122625.293    22122624.047   -15097538.570 5 -11764310.717 5
        34.800          32.300
  25463021.930    25463021.914    25463019.536       85829.154 1     66880.730 1
         6.500           9.000
  22966550.154    22966548.840    22966546.945   -10695384.546 5  -8334062.786 5
        33.600          31.800
  23961091.066    23961090.515    23961090.435    -6422562.729 3  -5004600.335 3
        19.900          23.400
  23884354.336    23884353.392    23884354.308    -3352904.999 3  -2612651.117 3
        19.900          23.000
  20958998.085    20958997.496    20958995.587   -23207823.763 7 -18084009.804 6
        42.000          41.300
  21462917.271    21462916.769    21462916.312   -17855986.536 6 -13913748.331 5
        37.200          35.600
  24945344.453    24945345.439    24945343.356    -1473112.343 2  -1147865.345 3
        12.600          19.300
  23258848.185    23258847.322    23258845.634   -11990443.956 4  -9343197.964 3
        24.200          19.900
  20294677.920    20294677.570    20294674.468   -25511349.088 7 -19878964.975 8
        44.600          49.800
 09  1 24  0  7  0.0000000  0 10G14G28G19G 6G 3G18G 9G15G21G22
  22106238.939    22106238.451    22106237.477   -15183651.624 5 -11831411.792 5
        34.800          32.700
  25464966.193    25464965.278    25464964.700       96047.667 1     74843.141 1
         6.500          11.000
  22969674.483    22969672.904    22969671.041   -10678966.541 5  -8321269.544 5
        33.400          31.300
  23977247.380    23977246.887    23977246.252    -6337663.459 3  -4938445.082 3
        19.900          23.000
  23900369.984    23900369.229    23900369.496    -3268741.533 3  -2547069.204 3
        20.500          22.100
  20967895.092    20967894.500    20967892.791   -23161068.683 6 -18047577.267 6
        41.800          41.200
  21459316.631    21459316.216    21459315.892   -17874906.716 6 -13928491.317 5
        37.200          35.600
  24965881.025    24965879.875    24965877.258    -1365202.884 2  -1063780.038 2
        12.600          17.800
  23279539.451    23279538.726    23279537.229   -11881709.106 3  -9258469.518 3
        23.800          19.900
  20292344.715    20292344.462    20292341.379   -25523609.281 7 -19888518.367 8
        44.600          49.800
 09  1 24  0  7 30.0000000  0 10G14G28G19G 6G 3G18G 9G15G21G22
  22089913.689    22089913.167    22089912.033   -15269441.484 5 -11898261.026 5
        35.100          32.700
  25467003.845    25467004.173    25467002.011      106769.066       83197.475 1
                         6.500
  22972906.803    22972905.609    22972904.054   -10661977.267 5  -8308031.138 5
        32.600          31.100
  23993446.169    23993445.975    23993446.996    -6252532.346 3  -4872109.171 3
        20.500          22.600
  23916439.394    23916438.644    23916438.939    -3184297.207 3  -2481268.456 3
        19.900          21.100
  20976858.594    20976857.958    20976856.249   -23113965.323 6 -18010873.349 6
        41.900          41.100
  21455852.730    21455852.354    21455851.876   -17893110.438 6 -13942676.026 5
        37.400          35.600
  24986427.306    24986426.417    24986422.805    -1257235.827 2   -979649.871 2
        12.600          17.000
  23300270.843    23300270.467    23300268.890   -11772763.433 3  -9173576.813 3
        23.000          20.500
  20290086.309    20290085.971    20290083.013   -25535477.435 7 -19897766.270 8
        44.600          49.900
 09  1 24  0  8  0.0000000  0 10G28G14G19G 6G 3G18G 9G15G21G22
  25469142.522    25469142.147    25469139.866      118001.146       91948.756 1
                         6.500
  22073651.826    22073651.285    22073650.218   -15354898.055 5 -11964850.560 5
        35.100          32.700
  22976250.137    22976248.918    22976246.809   -10644409.260 5  -8294341.787 5
        32.600          30.800
  24009692.310    24009691.780    24009691.888    -6167163.692 3  -4805588.150 3
        20.500          21.600
  23932562.642    23932561.873    23932562.822    -3099566.758 3  -2415244.742 3
        20.500          20.500
  20985889.862    20985889.290    20985887.519   -23066505.697 6 -17973891.818 6
        41.900          41.000
  21452526.951    21452526.514    21452525.689   -17910588.484 6 -13956295.272 5
        37.600          35.400
  25006984.888    25006984.057    25006980.999    -1149205.088 2   -895470.055 2
        15.100          17.000
  23321043.932    23321043.368    23321041.833   -11663600.618 3  -9088514.901 3
        23.400          19.900
  20287904.339    20287903.964    20287900.882   -25546944.165 7 -19906701.378 8
        44.500          49.900
 09  1 24  0  8 30.0000000  0 10G28G14G19G 6G 3G18G 9G15G21G22
  25471374.418    25471374.083    25471374.785      129734.776      101091.796 1
         3.000           9.000
  22057451.938    22057451.431    22057450.433   -15440028.680 5 -12031186.108 5
        35.200          32.800
  22979701.835    22979700.307    22979698.211   -10626272.252 5  -8280209.051 5
        32.600          30.600
  24025979.556    24025979.077    24025979.894    -6081569.182 3  -4738891.142 3
        19.300          21.100
  23948738.874    23948738.571    23948738.462    -3014562.114 3  -2349007.355 3
        20.500          19.900
  20994987.206    20994986.557    20994984.704   -23018699.275 6 -17936640.058 6
        41.900          40.900
  21449337.499    21449337.001    21449336.450   -17927348.602 6 -13969355.101 5
        37.500          35.300
  25027550.851    25027550.371    25027549.032    -1041120.549 2   -811248.308 2
        13.900          17.800
  23341856.153    23341855.545    23341854.378   -11554231.840 3  -9003292.487 3
        23.000          19.900
  20285797.003    20285796.625    20285793.607   -25558018.015 7 -19915330.346 8
        44.500          49.900
 09  1 24  0  9  0.0000000  0 10G28G14G19G 6G 3G18G 9G15G21G22
  25473706.842    25473705.796    25473704.844      141982.787 1    110635.728 1
         6.500           9.000
  22041317.053    22041316.593    22041315.386   -15524818.535 5 -12097256.116 5
        35.500          33.000
  22983263.741    22983262.132    22983260.440   -10607553.963 5  -8265623.366 5
        32.700          30.800
  24042312.207    24042311.824    24042312.926    -5995738.496 3  -4672010.110 3
        18.600          19.300
  23964969.191    23964968.571    23964968.703    -2929273.009 3  -2282548.318 3
        19.900          19.900
  21004152.822    21004152.238    21004150.492   -22970533.411 6 -17899108.208 6
        41.900          40.900
  21446287.616    21446287.054    21446286.368   -17943376.585 6 -13981844.430 5
        37.400          35.400
  25048131.664    25048131.520    25048129.040     -932971.212 2   -726976.086 2
        13.900          17.800
  23362709.985    23362709.239    23362707.897   -11444645.886 3  -8917900.860 3
        22.600          20.500
  20283767.041    20283766.712    20283763.667   -25568685.619 7 -19923642.759 8
        44.600          50.000
 09  1 24  0  9 30.0000000  0 10G28G14G19G 6G 3G18G 9G15G21G22
  25476135.646    25476135.709    25476133.302      154744.447 1    120579.915 1
        11.000           9.000
  22025247.212    22025246.665    22025245.553   -15609266.468 5 -12163059.695 5
        35.600          33.000
  22986936.069    22986934.640    22986932.584   -10588255.475 5  -8250585.589 5
        32.600          30.800
  24058690.694    24058690.026    24058689.949    -5909674.732 3  -4604947.448 3
        19.900          18.600
  23981252.544    23981251.611    23981252.182    -2843702.333 3  -2215869.890 3
        19.900          20.500
  21013386.618    21013386.016    21013384.380   -22922009.082 6 -17861297.038 6
        41.800          40.900
  21443376.843    21443376.364    21443375.786   -17958672.211 6 -13993763.091 5
        37.500          35.700
  25068725.047    25068724.117    25068721.267     -824759.046 2   -642654.891 2
        12.600          17.000
  23383603.704    23383603.084    23383601.826   -11334845.354 3  -8832342.022 3
        21.100          19.300
  20281814.381    20281814.054    20281811.035   -25578946.661 7 -19931638.371 8
        44.600          50.000
 09  1 24  0 10  0.0000000  0 10G28G14G19G 6G 3G18G 9G15G21G22
  25478660.855    25478659.140    25478657.366      168012.055      130918.157 1
                        11.000
  22009241.156    22009240.573    22009239.548   -15693378.156 5 -12228601.264 5
        35.700          33.000
  22990716.842    22990715.672    22990713.998   -10568385.431 5  -8235102.440 5
        32.100          31.100
  24075110.169    24075109.828    24075109.817    -5823388.005 3  -4537711.025 3
        19.300          18.600
  23997587.329    23997586.892    23997587.773    -2757861.169 3  -2148980.680 3
        21.100          21.100
  21022687.147    21022686.602    21022684.969   -22873133.994 6 -17823212.551 6
        41.800          40.800
  21440604.117    21440603.725    21440603.480   -17973241.800 6 -14005116.012 5
        37.500          35.800
  25089327.040    25089326.495    25089324.031     -716492.977 2   -558291.718 2
        12.600          17.000
  23404536.858    23404536.532    23404535.179   -11224840.074 3  -8746623.652 3
        20.500          19.300
  20279937.846    20279937.530    20279934.486   -25588808.058 7 -19939322.572 8
        44.600          50.000
 09  1 24  0 10 30.0000000  0 10G28G14G19G 6G 3G18G 9G15G21G22
  25481282.389    25481281.696    25481281.293      181787.071      141652.015 2
         3.000          12.600
  21993299.834    21993299.422    21993298.333   -15777149.900 5 -12293877.940 5
        35.800          33.200
  22994607.405    22994605.978    22994604.152   -10547941.738 5  -8219172.298 5
        31.800          31.000
  24091571.231    24091571.362    24091572.046    -5736878.787 3  -4470301.273 3
        19.300          19.300
  24013973.129    24013972.843    24013973.585    -2671749.377 3  -2081880.593 3
        19.900          21.100
  21032055.075    21032054.410    21032052.648   -22823906.540 6 -17784853.490 6
        41.800          40.700
  21437970.493    21437970.068    21437969.538   -17987082.148 6 -14015900.694 5
        37.500          35.700
  25109939.805    25109939.782    25109936.073     -608172.539 1   -473886.169 2
        11.000          16.100
  23425509.833    23425509.059    23425507.895   -11114629.640 3  -8660745.418 3
        21.600          19.300
  20278137.887    20278137.530    20278134.466   -25598266.895 7 -19946693.088 8
        44.600          50.000
 09  1 24  0 11  0.0000000  0 10G28G14G19G 6G 3G18G 9G15G21G22
  25483999.880    25483998.794    25483996.629      196066.107 1    152778.536 1
         6.500           9.000
  21977423.130    21977422.625    21977421.492   -15860583.534 6 -12358891.152 5
        36.100          33.200
  22998606.205    22998604.627    22998602.866   -10526929.087 5  -8202798.812 5
        32.100          30.800
  24108075.446    24108075.166    24108075.355    -5650153.204 3  -4402722.895 3
        19.300          19.300
  24030410.824    24030410.038    24030410.492    -2585373.444 3  -2014574.676 3
        19.900          21.100
  21041489.019    21041488.420    21041486.799   -22774330.409 6 -17746222.739 6
        41.800          40.700
  21435475.065    21435474.596    21435474.151   -18000195.925 6 -14026119.213 5
        37.600          35.700
  25130561.063    25130561.204    25130558.989     -499802.792 1   -389442.206 2
         9.000          16.100
  23446520.174    23446519.380    23446518.190   -11004219.355 3  -8574711.454 3
        21.100          19.300
  20276414.025    20276413.680    20276410.518   -25607326.221 7 -19953752.297 8
        44.600          50.000
 09  1 24  0 11 30.0000000  0 10G28G14G19G 6G 3G18G 9G15G21G22
  25486812.858    25486812.154    25486807.901      210848.565      164297.171 1
         3.000           6.500
  21961610.714    21961610.259    21961609.094   -15943677.976 6 -12423640.062 5
        36.300          33.400
  23002712.500    23002711.174    23002709.611   -10505348.879 5  -8185983.066 5
        32.300          30.800
  24124619.841    24124619.403    24124619.424    -5563214.440 3  -4334978.407 3
        18.600          19.300
  24046897.463    24046897.082    24046896.959    -2498736.875 3  -1947065.673 3
        20.500          20.500
  21050989.336    21050988.673    21050986.958   -22724406.656 6 -17707321.109 6
        41.900          40.600
  21433117.936    21433117.509    21433116.894   -18012582.679 6 -14035771.222 5
        37.500          35.500
  25151191.958    25151191.422    25151190.492     -391385.731 1   -304961.388 2
         6.500          15.100
  23467568.189    23467567.374    23467566.063   -10893611.816 3  -8488523.780 3
        21.600          18.600
  20274765.947    20274765.610    20274762.612   -25615986.009 7 -19960500.179 8
        44.500          50.000
 09  1 24  0 12  0.0000000  0 10G28G14G19G 6G 3G18G 9G15G21G22
  25489718.742    25489717.753    25489718.321      226135.777      176209.377 1
                         6.500
  21945863.640    21945863.197    21945862.073   -16026429.271 6 -12488121.581 5
        36.300          33.600
  23006927.566    23006926.299    23006924.355   -10483199.691 5  -8168723.957 5
        33.000          30.400
  24141203.651    24141203.575    24141204.006    -5476063.011 3  -4267068.198 3
        18.600          19.300
  24063433.023    24063432.181    24063432.948    -2411840.013 3  -1879353.853 3
        19.900          19.900
  21060555.827    21060555.182    21060553.593   -22674133.411 6 -17668147.148 6
        41.600          40.400
  21430899.637    21430899.228    21430898.565   -18024239.748 6 -14044854.642 5
        37.700          35.400
  25171831.747    25171829.877    25171830.387     -282920.754     -220443.236 2
         3.000          13.900
  23488653.045    23488652.944    23488651.738   -10782807.294 3  -8402182.604 2
        21.100          17.800
  20273194.530    20273194.238    20273191.213   -25624243.666 7 -19966934.712 8
        44.600          50.000
 09  1 24  0 12 30.0000000  0 10G28G14G19G 6G 3G18G 9G15G21G22
  25492729.485    25492728.281    25492726.506      241934.532 2    188520.214 1
        12.600          11.000
  21930183.618    21930183.072    21930181.978   -16108828.959 6 -12552329.120 5
        36.400          33.800
  23011252.011    23011250.707    23011248.360   -10460475.410 5  -8151016.729 5
        33.400          30.200
  24157829.853    24157829.613    24157829.276    -5388694.749 3  -4198989.031 3
        19.900          19.300
  24080019.036    24080018.727    24080019.005    -2324679.055 3  -1811436.218 3
        20.500          20.500
  21070190.193    21070189.577    21070187.911   -22623504.269 6 -17628695.864 6
        41.500          40.200
  21428822.008    21428821.447    21428820.768   -18035159.461 6 -14053363.506 5
        37.700          35.600
  25192480.735    25192482.809    25192481.097     -174402.516     -135883.594 2
                        13.900
  23509777.478    23509776.888    23509775.848   -10671800.688 3  -8315683.959 2
        20.500          17.800
  20271701.168    20271700.805    20271697.838   -25632091.852 7 -19973050.177 8
        44.600          50.100
 09  1 24  0 13  0.0000000  0 10G28G14G19G 6G 3G18G 9G15G21G22
  25495829.540    25495828.663    25495827.384      258237.826 1    201223.976 1
         9.000          11.000
  21914569.327    21914568.891    21914567.760   -16190881.711 6 -12616266.318 5
        36.300          33.800
  23015684.387    23015682.884    23015681.030   -10437183.388 5  -8132867.106 5
        33.200          31.000
  24174494.807    24174494.442    24174494.580    -5301118.667 3  -4130747.936 3
        18.600          19.900
  24096653.420    24096652.951    24096653.517    -2237263.087 3  -1743319.905 3
        19.900          21.100
  21079891.059    21079890.448    21079888.584   -22572526.209 6 -17588972.696 6
        41.500          40.000
  21426883.154    21426882.714    21426882.043   -18045347.194 6 -14061301.996 5
        37.700          35.600
  25213140.173    25213139.549    25213140.149      -65838.756      -51288.461 2
         3.000          15.100
  23530937.795    23530937.482    23530936.232   -10560600.370 3  -8229034.382 2
        19.900          17.800
  20270284.541    20270284.218    20270281.222   -25639536.162 7 -19978850.932 8
        44.600          50.100
 09  1 24  0 13 30.0000000  0 10G28G14G19G 6G 3G18G 9G15G21G22
  25499026.134    25499026.018    25499024.166      275038.015      214315.096 1
         3.000          11.000
  21899019.994    21899019.627    21899018.653   -16272593.275 6 -12679937.655 5
        36.500          34.000
  23020223.020    23020221.558    23020219.938   -10413331.664 5  -8114281.339 5
        32.700          31.000
  24191197.477    24191197.496    24191197.526    -5213344.425 2  -4062352.449 3
        17.800          19.300
  24113335.567    24113334.941    24113335.046    -2149602.374 3  -1675012.879 3
        20.500          19.900
  21089656.886    21089656.291    21089654.503   -22521206.506 6 -17548983.312 6
        41.400          40.000
  21425082.568    21425082.082    21425081.542   -18054809.092 6 -14068674.891 5
        37.700          35.700
  25233805.146    25233806.614    25233804.535       42761.753 1     33335.323 2
         6.500          12.600
  23552134.119    23552133.441    23552132.007   -10449215.544 3  -8142241.038 3
        19.900          18.600
  20268943.632    20268943.283    20268940.126   -25646583.184 7 -19984342.114 8
        44.600          50.100
 09  1 24  0 14  0.0000000  0 10G28G14G19G 6G 3G18G 9G15G21G22
  25502318.131    25502317.158    25502318.402      292341.586 1    227798.518 2
         6.500          12.600
  21883537.279    21883536.942    21883536.036   -16353955.143 6 -12743336.504 5
        36.500          34.000
  23024869.817    23024868.276    23024866.116   -10388914.721 5  -8095255.163 5
        32.800          30.600
  24207939.406    24207938.635    24207938.289    -5125368.363 2  -3993799.681 3
        16.100          18.600
  24130064.669    24130063.846    24130063.546    -2061692.821 3  -1606511.930 3
        20.500          19.300
  21099488.797    21099488.208    21099486.509   -22469539.040 6 -17508722.946 6
        41.400          39.800
  21423421.712    21423421.145    21423420.279   -18063538.158 6 -14075476.754 5
        37.800          35.600
  25254480.330    25254482.818    25254479.682      151403.912 1    117991.571 1
         6.500          11.000
  23573366.568    23573365.419    23573364.175   -10337641.746 3  -8055300.436 2
        20.500          17.800
  20267679.490    20267679.182    20267676.021   -25653226.162 7 -19989518.452 8
        44.700          50.100
 09  1 24  0 14 30.0000000  0 10G28G14G19G 6G 3G18G 9G15G21G22
  25505707.906    25505706.759    25505706.535      310152.058      241676.743 1
                        11.000
  21868122.515    21868121.993    21868120.885   -16434961.883 6 -12806458.627 5
        36.800          34.300
  23029623.734    23029622.187    23029620.671   -10363929.549 5  -8075786.201 5
        31.800          30.600
  24224718.777    24224717.932    24224717.857    -5037189.052 2  -3925088.524 2
        16.100          17.800
  24146841.530    24146840.406    24146839.446    -1973533.409 3  -1537816.293 3
        19.300          19.300
  21109387.736    21109387.047    21109385.222   -22417520.548 6 -17468189.052 6
        41.300          39.700
  21421900.698    21421900.236    21421899.571   -18071529.700 6 -14081703.922 5
        37.700          35.500
  25275162.674    25275163.626    25275163.192      260090.340 1    202682.312 1
         9.000          11.000
  23594635.109    23594634.113    23594631.605   -10225876.987 3  -7968211.036 2
        21.600          17.800
  20266493.168    20266492.870    20266489.730   -25659460.106 7 -19994376.066 8
        44.700          50.100
 09  1 24  0 15  0.0000000  0 10G28G14G19G 6G 3G18G 9G15G21G22
  25509192.210    25509192.378    25509190.296      328463.275      255945.226
                         3.000
  21852774.160    21852773.765    21852772.691   -16515617.175 6 -12869306.898 5
        37.000          34.400
  23034485.450    23034483.828    23034482.323   -10338382.191 5  -8055879.176 5
        31.500          31.000
  24241536.717    24241536.241    24241534.947    -4948814.383 2  -3856225.151 2
        17.000          17.000
  24163661.419    24163662.117    24163662.429    -1885132.227 3  -1468932.264 3
        18.600          19.300
  21119352.146    21119351.537    21119349.857   -22365156.547 6 -17427385.933 6
        41.200          39.700
  21420519.622    21420519.142    21420518.361   -18078788.296 6 -14087359.970 5
        37.800          35.500
  25295853.801    25295852.859    25295854.560      368814.452 1    287402.407 1
         9.000          11.000
  23615937.629    23615936.981    23615935.004   -10113928.720 3  -7880978.646 2
        22.100          17.800
  20265383.795    20265383.437    20265380.275   -25665290.262 7 -19998919.040 8
        44.700          50.100
 09  1 24  0 15 30.0000000  0 10G28G14G19G 6G 3G18G 9G15G21G22
  25512773.245    25512772.532    25512770.354      347276.971 1    270605.173 1
         6.500           9.000
  21837493.452    21837493.033    21837491.912   -16595918.054 6 -12931879.002 5
        37.100          34.500
  23039453.966    23039452.631    23039450.883   -10312272.287 5  -8035533.798 5
        32.000          30.800
  24258390.083    24258389.521    24258389.581    -4860245.696 2  -3787210.614 3
        17.000          18.600
  24180529.458    24180529.576    24180529.898    -1796490.306 2  -1399860.634 3
        17.800          18.600
  21129382.563    21129382.012    21129380.368   -22312445.961 6 -17386312.744 6
        41.200          39.500
  21419278.328    21419277.768    21419277.108   -18085311.666 6 -14092443.103 5
        37.700          35.600
  25316551.808    25316551.066    25316549.176      477576.059 1    372151.693 1
        11.000           9.000
  23637275.627    23637274.695    23637272.982   -10001797.694 3  -7793603.850 2
        20.500          17.000
  20264351.556    20264351.216    20264348.099   -25670714.435 7 -20003145.662 8
        44.700          50.100
 09  1 24  0 16  0.0000000  0 10G28G14G19G 6G 3G18G 9G15G21G22
  25516447.415    25516447.719    25516446.682      366588.276 1    285652.984 1
         6.500           9.000
  21822279.762    21822279.324    21822278.240   -16675866.437 6 -12994176.433 5
        37.200          34.800
  23044528.438    23044527.153    23044525.277   -10285604.565 5  -8014753.757 5
        31.800          30.100
  24275279.906    24275279.278    24275280.280    -4771489.156 2  -3718049.695 3
        17.000          19.300
  24197442.475    24197442.023    24197443.019    -1707614.720 2  -1330606.956 2
        17.000          17.800
  21139478.312    21139477.684    21139475.972   -22259392.840 6 -17344972.649 6
        41.200          39.300
  21418176.066    21418175.636    21418174.752   -18091103.111 6 -14096955.908 5
        37.800          35.400
  25337253.168    25337253.632    25337249.400      586370.111 2    456926.294 1
        12.600           9.000
  23658646.943    23658645.833    23658644.937    -9889489.261 3  -7706090.795 2
        20.500          17.000
  20263395.946    20263395.618    20263392.488   -25675736.056 7 -20007058.610 8
        44.700          50.100
 09  1 24  0 16 30.0000000  0 10G28G14G19G 6G 3G18G 9G15G21G22
  25520214.767    25520215.504    25520214.253      386393.891 1    301085.896 1
         6.500           6.500
  21807133.036    21807132.509    21807131.246   -16755463.824 6 -13056200.358 5
        37.300          34.700
  23049708.653    23049707.330    23049705.355   -10258382.847 5  -7993542.031 4
        32.300          29.900
  24292204.518    24292204.400    24292204.658    -4682550.464 2  -3648746.837 3
        16.100          19.300
  24214399.207    24214398.330    24214398.191    -1618510.710 2  -1261175.259 2
        17.800          17.000
  21149638.571    21149637.986    21149636.113   -22206000.665 6 -17303368.352 6
        41.300          39.200
  21417212.860    21417212.376    21417211.511   -18096165.114 6 -14100900.323 5
        38.000          35.300
  25357959.123    25357960.275    25357957.993      695192.058 1    541722.595 1
        11.000          11.000
  23680050.445    23680050.039    23680049.010    -9777008.601 3  -7618443.539 2
        18.600          16.100
  20262516.622    20262516.281    20262513.134   -25680357.350 7 -20010659.613 8
        44.700          50.200
 09  1 24  0 17  0.0000000  0  9G28G14G19G 6G 3G18G 9G21G22
  25524076.796    25524076.797    25524076.601      406682.570 1    316895.245 1
         6.500           9.000
  21792051.020    21792050.574    21792049.401   -16834719.597 6 -13117958.094 5
        37.400          34.900
  23054992.207    23054990.756    23054988.784   -10230619.276 5  -7971908.084 4
        32.400          29.900
  24309161.091    24309160.682    24309160.753    -4593443.294 2  -3579312.660 2
        17.000          17.000
  24231396.104    24231395.497    24231394.832    -1529191.975 2  -1191576.280 2
        17.800          17.000
  21159860.896    21159860.362    21159858.684   -22152280.971 6 -17261508.846 6
        41.100          39.100
  21416386.451    21416385.998    21416385.062   -18100507.897 6 -14104284.302 5
        38.000          35.300
  23701484.786    23701484.746    23701483.958    -9664368.606 2  -7530672.126 2
        16.100          17.000
  20261711.211    20261710.951    20261707.979   -25684588.822 7 -20013956.861 8
        44.800          50.300
 09  1 24  0 17 30.0000000  0  9G28G14G19G 6G 3G18G 9G21G22
  25528034.501    25528032.947    25528031.876      427476.198      333098.062 1
                         9.000
  21777039.044    21777038.360    21777037.350   -16913609.223 6 -13179430.512 5
        37.500          35.300
  23060382.654    23060381.044    23060379.351   -10202292.462 5  -7949835.249 5
        32.000          30.100
  24326152.521    24326152.987    24326153.225    -4504147.610 2  -3509731.638 2
        17.800          17.000
  24248437.484    24248436.066    24248436.105    -1439638.943 2  -1121794.699 2
        17.000          17.800
  21170150.201    21170149.551    21170147.733   -22098211.483 6 -17219376.779 6
        41.100          39.100
  21415701.213    21415700.717    21415699.935   -18104108.293 6 -14107089.801 5
        37.700          35.200
  23722953.613    23722952.844    23722952.760    -9551548.718 2  -7442760.566 2
        15.100          15.100
  20260984.674    20260984.364    20260981.258   -25688407.353 7 -20016932.335 8
        44.800          50.200
 09  1 24  0 18  0.0000000  0  9G28G14G19G 6G 3G18G 9G21G22
  25532089.861    25532089.554    25532086.574      448786.453      349703.529 1
                         9.000
  21762098.803    21762098.338    21762097.379   -16992119.133 6 -13240607.047 5
        37.400          35.400
  23065882.223    23065880.650    23065879.008   -10173390.931 5  -7927314.574 5
        31.800          30.200
  24343184.575    24343184.217    24343182.856    -4414653.586 3  -3439996.032 2
        18.600          17.000
  24265524.328    24265523.863    24265524.365    -1349842.379 2  -1051823.365 3
        16.100          18.600
  21180508.100    21180507.427    21180505.670   -22043780.201 6 -17176962.790 6
        41.100          38.900
  21415159.725    21415159.338    21415158.423   -18106953.465 6 -14109306.813 5
        37.700          35.300
  23744458.594    23744458.498    23744457.679    -9438538.876 2  -7354700.971 2
        15.100          15.100
  20260339.155    20260338.818    20260335.727   -25691799.508 7 -20019575.567 8
        44.700          50.200
 09  1 24  0 18 30.0000000  0  9G28G14G19G 6G 3G18G 9G21G22
  25536241.247    25536240.319    25536238.869      470595.735 1    366697.694 1
         9.000          11.000
  21747228.224    21747227.771    21747226.648   -17070264.896 6 -13301499.831 5
        37.700          35.400
  23071487.765    23071486.222    23071484.789   -10143933.083 5  -7904360.407 5
        31.600          30.200
  24360248.321    24360247.931    24360247.156    -4324981.167 2  -3370121.413 2
        17.000          16.100
  24282654.404    24282654.370    24282654.551    -1259821.652 2   -981677.352 3
        16.100          18.600
  21190931.311    21190930.758    21190929.054   -21989004.925 6 -17134280.753 6
        41.100          38.700
  21414758.752    21414758.294    21414757.887   -18109060.549 6 -14110948.691 5
        37.600          35.800
  23765996.133    23765995.863    23765994.939    -9325358.279 2  -7266508.311 2
        16.100          13.900
  20259771.604    20259771.238    20259768.086   -25694782.400 7 -20021899.894 8
        44.700          50.200
 09  1 24  0 19  0.0000000  0  9G28G14G19G 6G 3G18G 9G21G22
  25540483.449    25540481.669    25540481.422      492892.837      384072.035 1
         3.000          11.000
  21732425.140    21732424.667    21732423.615   -17148055.262 6 -13362115.687 5
        37.700          35.500
  23077196.984    23077195.560    23077193.965   -10113930.563 5  -7880981.818 5
        31.800          30.200
  24377341.673    24377341.859    24377342.639    -4235143.585 2  -3300118.120 2
        15.100          16.100
  24299825.727    24299824.959    24299825.153    -1169590.437 2   -911367.300 3
        17.000          19.300
  21201418.261    21201417.645    21201415.770   -21933896.360 6 -17091339.012 6
        41.000          38.600
  21414496.340    21414495.888    21414495.423   -18110439.588 6 -14112023.263 5
        37.800          35.700
  23787563.811    23787563.951    23787562.431    -9212019.289 2  -7178192.241 2
        17.000          13.900
  20259279.700    20259279.444    20259276.340   -25697366.583 7 -20023913.539 8
        44.800          50.200
 09  1 24  0 19 30.0000000  0  9G28G14G19G 6G 3G18G 9G21G22
  25544817.578    25544816.710    25544817.682      515688.752      401835.190
                         3.000
  21717692.169    21717691.697    21717690.688   -17225477.201 6 -13422444.452 5
        37.700          35.600
  23083012.031    23083010.841    23083008.798   -10083372.746 5  -7857170.533 5
        32.100          30.200
  24394471.313    24394471.555    24394471.360    -4145131.804 2  -3229979.077 2
        17.000          16.100
  24317037.952    24317037.591    24317037.171    -1079139.739 2   -840886.246 3
        17.000          19.300
  21211970.445    21211969.867    21211968.269   -21878443.217 6 -17048128.769 6
        40.900          38.600
  21414374.989    21414374.526    21414373.789   -18111078.196 6 -14112520.871 5
        38.000          35.500
  23809163.940    23809163.658    23809161.968    -9098512.336 3  -7089745.272 2
        18.600          13.900
  20258866.544    20258866.158    20258862.992   -25699538.543 7 -20025605.968 8
        44.800          50.100
 09  1 24  0 20  0.0000000  0  9G28G14G19G 6G 3G18G 9G21G22
  25549251.790    25549250.883    25549251.847      538979.338      419983.596 1
                        11.000
  21703028.824    21703028.432    21703027.534   -17302532.946 6 -13482487.871 5
        37.800          35.900
  23088931.820    23088930.225    23088928.492   -10052264.589 5  -7832930.424 5
        32.000          30.400
  24411632.913    24411632.959    24411631.840    -4054952.167 3  -3159709.214 2
        18.600          17.000
  24334289.222    24334289.128    24334290.186     -988476.180 2   -770239.344 3
        17.000          19.300
  21222587.761    21222587.094    21222585.439   -21822649.917 6 -17004653.469 6
        41.000          38.600
  21414393.586    21414393.033    21414392.469   -18110979.738 6 -14112444.150 5
        37.700          35.500
  23830795.015    23830794.240    23830792.347    -8984843.116 3  -7001171.850 2
        19.300          13.900
  20258530.793    20258530.472    20258527.262   -25701302.811 7 -20026980.719 8
        44.800          50.100
 09  1 24  0 20 30.0000000  0  9G28G14G19G 6G 3G18G 9G21G22
  25553775.670    25553775.940    25553775.617      562749.676      438505.887 2
                        15.100
  21688432.932    21688432.462    21688431.501   -17379235.045 6 -13542255.717 6
        37.800          36.000
  23094953.504    23094951.997    23094949.889   -10020621.469 5  -7808273.444 5
        32.100          30.400
  24428821.783    24428821.526    24428820.953    -3964621.509 2  -3089321.705 2
        17.800          17.000
  24351581.119    24351580.133    24351581.023     -897616.756 3   -699439.786 3
        18.600          19.900
  21233266.677    21233266.187    21233264.428   -21766531.002 6 -16960924.442 6
        41.100          38.400
  21414549.829    21414549.431    21414548.849   -18110158.290 6 -14111804.053 5
        37.800          35.500
  23852452.969    23852452.583    23852451.237    -8871027.922 3  -6912484.664 2
        18.600          15.100
  20258270.095    20258269.732    20258266.588   -25702672.772 7 -20028048.218 8
        44.800          50.100
 09  1 24  0 21  0.0000000  0  9G28G14G19G 6G 3G18G 9G21G22
  25558391.810    25558392.396    25558389.660      587008.618      457408.918 1
                        11.000
  21673906.473    21673905.979    21673904.914   -17455572.701 6 -13601739.587 6
        38.100          36.100
  23101078.170    23101076.650    23101074.887    -9988435.180 5  -7783193.216 5
        31.600          30.600
  24446040.437    24446040.243    24446041.117    -3874133.087 2  -3018811.272 2
        15.100          16.100
  24368908.980    24368908.255    24368908.877     -806554.840 2   -628482.461 3
        16.100          19.300
  21244009.595    21244008.904    21244007.051   -21710077.597 6 -16916934.769 6
        41.000          38.100
  21414845.483    21414845.023    21414844.507   -18108604.294 6 -14110593.145 5
        37.600          35.500
  23874140.507    23874139.779    23874138.647    -8757059.570 2  -6823678.173 2
        17.800          16.100
  20258086.345    20258085.988    20258082.879   -25703638.257 7 -20028800.539 8
        44.800          50.100
 09  1 24  0 21 30.0000000  0  9G14G28G19G 6G 3G18G 9G21G22
  21659450.635    21659450.258    21659449.149   -17531538.173 6 -13660933.445 6
        38.200          36.200
  25563102.100    25563101.797    25563098.653      611761.268      476696.717
                         3.000
  23107307.193    23107305.611    23107304.133    -9955700.880 5  -7757685.982 5
        31.100          30.800
  24463291.000    24463290.897    24463291.725    -3783483.218 2  -2948174.992 2
        16.100          16.100
  24386276.748    24386276.198    24386275.867     -715287.089 2   -557364.765 3
        16.100          18.600
  21254817.070    21254816.422    21254814.641   -21653283.999 6 -16872680.015 6
        41.000          38.400
  21415282.106    21415281.593    21415280.777   -18106311.227 6 -14108806.331 5
        37.900          35.500
  23895858.021    23895858.073    23895856.243    -8642933.795 3  -6734749.015 2
        18.600          16.100
  20257980.755    20257980.404    20257977.320   -25704192.829 7 -20029232.669 8
        44.800          50.100
 09  1 24  0 22  0.0000000  0  9G28G14G19G 6G 3G18G 9G21G22
  25567906.720    25567906.280    25567905.355      637001.870      496364.838 1
         3.000          11.000
  21645064.928    21645064.524    21645063.456   -17607135.196 6 -13719840.199 6
        38.100          36.300
  23113639.553    23113638.197    23113636.338    -9922424.812 5  -7731756.586 5
        31.600          30.400
  24480570.652    24480570.788    24480570.179    -3692679.890 2  -2877419.142 2
        17.000          15.100
  24403682.795    24403681.742    24403681.424     -623821.147 2   -486092.618 2
        17.000          17.800
  21265687.967    21265687.472    21265685.815   -21596156.002 6 -16828164.692 6
        41.000          38.200
  21415857.976    21415857.515    21415856.880   -18103283.831 6 -14106447.318 5
        37.700          35.400
  23917604.424    23917603.816    23917601.588    -8528657.747 2  -6645702.764 2
        17.800          15.100
  20257952.686    20257952.343    20257949.153   -25704340.772 7 -20029347.945 8
        44.800          50.100
 09  1 24  0 22 30.0000000  0  9G28G14G19G 6G 3G18G 9G21G22
  25572801.703    25572805.536    25572803.845      662742.625      516422.522 1
                        11.000
  21630752.443    21630751.899    21630750.901   -17682349.018 6 -13778448.354 6
        38.200          36.500
  23120076.834    23120075.558    23120073.630    -9888595.384 5  -7705395.991 4
        31.600          29.900
  24497881.230    24497881.067    24497880.930    -3601712.832 2  -2806535.727 2
        17.000          17.000
  24421126.922    24421126.504    24421126.133     -532147.282 2   -414658.462 2
        17.000          17.800
  21276625.192    21276624.532    21276622.804   -21538680.946 6 -16783378.931 6
        40.600          38.000
  21416576.274    21416575.898    21416575.024   -18099509.092 6 -14103505.957 5
        37.800          35.100
  23939380.953    23939380.340    23939377.691    -8414220.807 2  -6556531.137 2
        16.100          13.900
  20258004.247    20258003.990    20258000.791   -25704069.287 7 -20029136.394 8
        44.900          50.100
 09  1 24  0 23  0.0000000  0  9G14G19G 6G11G 3G18G 9G21G22
  21616508.813    21616508.470    21616507.411   -17757198.289 6 -13836772.437 6
        38.300          36.600
  23126615.717    23126614.255    23126612.408    -9854233.940 5  -7678620.838 4
        31.500          29.700
  24515218.807    24515218.335    24515218.064    -3510604.731 2  -2735542.420 3
        15.100          18.600
  24880120.649    24880119.965    24880116.938            .1051           .27711
         3.000           9.000
  24438606.800    24438606.893    24438606.710     -440288.036 2   -343079.819 3
        17.800          18.600
  21287624.549    21287623.875    21287622.034   -21480879.324 6 -16738338.707 6
        40.700          37.700
  21417433.167    21417432.645    21417431.854   -18095006.929 6 -14099997.771 5
        37.900          35.100
  23961183.904    23961183.759    23961181.556    -8299644.898 2  -6467251.213 2
        16.100          13.900
  20258132.062    20258131.707    20258128.598   -25703397.978 7 -20028613.293 8
        44.900          50.100
 09  1 24  0 23 30.0000000  0  9G14G19G 6G11G 3G18G 9G21G22
  21602333.394    21602332.844    21602331.956   -17831691.376 6 -13894818.980 6
        38.400          36.900
  23133253.718    23133252.521    23133250.619    -9819351.673 5  -7651439.851 5
        32.100          30.200
  24532580.263    24532580.216    24532580.359    -3419367.798 2  -2664448.735 3
        13.900          18.600
  24861414.742    24861414.868    24861413.551      -98287.449 1    -76587.374 1
         6.500          11.000
  24456120.444    24456119.606    24456120.192     -348255.995 2   -271366.561 2
        17.000          17.800
  21298683.929    21298683.331    21298681.618   -21422761.203 6 -16693051.855 6
        40.600          37.700
  21418426.414    21418425.930    21418425.028   -18089786.962 6 -14095930.257 5
        37.700          34.900
  23983011.161    23983010.480    23983009.039    -8184941.786 2  -6377872.172 2
        15.100          13.900
  20258334.223    20258333.863    20258330.618   -25702336.008 7 -20027785.779 8
        44.900          50.000
 09  1 24  0 24  0.0000000  0  9G14G19G 6G11G 3G18G 9G21G22
  21588231.776    21588231.361    21588230.301   -17905795.514 6 -13952562.446 6
        38.600          36.900
  23139996.289    23139995.033    23139993.198    -9783918.629 5  -7623829.689 5
        32.000          30.200
  24549972.246    24549971.687    24549972.678    -3327973.675 2  -2593232.514 3
        12.600          18.600
  24842757.976    24842757.858    24842756.677     -196328.692 1   -152983.127 1
         6.500          11.000
  24473671.896    24473671.584    24473671.636     -256022.713 2   -199496.481 2
        17.800          17.000
  21309809.504    21309808.799    21309807.127   -21364296.152 6 -16647494.671 6
        40.500          37.600
  21419562.111    21419561.725    21419561.060   -18083818.129 6 -14091279.213 5
        37.800          35.200
  24004868.009    24004867.808    24004866.423    -8070082.379 2  -6288371.343 2
        15.100          13.900
  20258616.547    20258616.212    20258613.038   -25700851.785 7 -20026629.237 8
        44.800          50.000
 09  1 24  0 24 30.0000000  0  9G14G19G 6G11G 3G18G 9G21G22
  21574203.543    21574203.147    21574202.045   -17979514.274 6 -14010005.617 6
        38.700          36.900
  23146842.401    23146841.072    23146839.261    -9747940.905 5  -7595795.106 4
        31.600          29.900
  24567391.507    24567390.827    24567391.706    -3236429.668 1  -2521899.510 2
         9.000          16.100
  24824148.899    24824148.538    24824148.066     -294125.673 1   -229188.521 2
         9.000          12.600
  24491259.306    24491259.000    24491260.040     -163596.146 2   -127475.781 2
        15.100          17.000
  21321000.279    21320999.655    21320997.694   -21305489.162 6 -16601671.040 6
        40.700          37.500
  21420839.544    21420839.112    21420838.472   -18077105.172 6 -14086048.331 5
        37.700          35.300
  24026753.495    24026752.731    24026751.515    -7955073.587 2  -6198754.138 2
        15.100          12.600
  20258978.555    20258978.220    20258975.097   -25698949.450 7 -20025146.894 8
        44.700          50.100
 09  1 24  0 25  0.0000000  0  9G14G19G 6G11G 3G18G 9G21G22
  21560246.942    21560246.400    21560245.297   -18052857.651 6 -14067156.285 6
        38.900          37.100
  23153790.278    23153789.018    23153787.078    -9711431.579 5  -7567346.285 4
        32.100          29.900
  24584837.699    24584836.685    24584837.091    -3144750.302 1  -2450461.039 2
         6.500          15.100
  24805582.841    24805582.507    24805583.636     -391687.094 1   -305210.389 2
        11.000          13.900
  24508881.350    24508880.842    24508881.941      -70990.673 2    -55315.662 2
        16.100          15.100
