     2.11           OBSERVATION DATA    G (GPS)             RINEX VERSION / TYPE
teqc  2008Oct2      WCDA Operator       20090129 00:18:43UTCPGM / RUN BY / DATE
Solaris x86 5.10|AMD64|cc SC5.8 -xarch=amd64|=+|=+          COMMENT
teqc  2008Oct2      WCDA Operator       20090128 01:18:15UTCCOMMENT
flin  WCDA-ACP   965000   CFS Flin Flon SASK Canada         MARKER NAME
40135M001                                                   MARKER NUMBER
PGC-WCDA            GEOL. SURV. CANADA                      OBSERVER / AGENCY
1115                AOA BENCHMARK ACT   3.3.32.4            REC # / TYPE / VERS
231                 AOAD/M_T        SCIS                    ANT # / TYPE
  -766174.4630 -3611375.3160  5184056.2210                  APPROX POSITION XYZ
        0.1500        0.0000        0.0000                  ANTENNA: DELTA H/E/N
     1     1                                                WAVELENGTH FACT L1/2
     7    C1    P1    P2    L1    L2    S1    S2            # / TYPES OF OBSERV
STATION INFORMATION EFFECTIVE FROM: 2001/01/13 18:20:00     COMMENT
                                TO: CURRENT DATE (above)    COMMENT
BIT 2 OF LLI FLAGS (+4) DATA COLLECTED UNDER 'AS' CONDITION COMMENT
L1 PHASE CENTRE 0.110m ABOVE ARP                            COMMENT
L2 PHASE CENTRE 0.128m ABOVE ARP                            COMMENT
where ARP is the Antenna Reference Point for HI measurement COMMENT
CONTACT gps@pgc.nrcan.gc.ca FOR ADDITIONAL INFORMATION      COMMENT
    P1 =    P1  TurboRogue; =    Y1  Benchmark              COMMENT
    L1 = L1(CA)                                             COMMENT
    P2 =    P2  TurboRogue; =    Y2  Benchmark              COMMENT
    L2 = L2(P2) TurboRogue; = L2(Y2) Benchmark              COMMENT
 SNR is mapped to RINEX snr flag value [0-9]                COMMENT
  L1 & L2: min(max(int(snr_dBHz/6), 0), 9)                  COMMENT
  2009     1    28     0     0    0.0000000     GPS         TIME OF FIRST OBS
                                                            END OF HEADER
 09  1 28  0  0  0.0000000  0 10G28G19G15G 6G21G 3G14G 9G18G22
  25520626.857    25520626.592    25520626.476      361553.500 1    281729.868 1
         9.000           6.500
  23049133.571    23049132.211    23049130.471   -10078646.484 5  -7853486.759 5
        32.000          30.100
  25371029.804    25371031.054    25371027.353      902485.718 1    703246.036 1
        11.000           9.000
  24287153.872    24287153.252    24287155.377    -4769336.920 2  -3716354.071 3
        17.800          19.300
  23681473.336    23681472.384    23681471.527    -9758102.225 3  -7603712.671 2
        19.300          16.100
  24205941.291    24205940.401    24205942.395    -1528060.861 3  -1190694.909 3
        19.300          18.600
  21798678.719    21798678.269    21798677.391   -16742482.739 6 -13046084.004 5
        37.400          34.600
  21417899.520    21417899.177    21417898.406   -18110972.707 6 -14112437.936 5
        37.800          35.400
  21138861.805    21138861.206    21138859.552   -22361296.257 6 -17424378.001 6
        41.500          39.200
  20262436.874    20262436.523    20262433.462   -25704898.285 7 -20029782.175 8
        44.800          50.000
 09  1 28  0  0 30.0000000  0 10G28G19G15G 6G21G 3G14G 9G18G22
  25524476.352    25524475.910    25524476.725      381776.219 1    297487.776 1
         9.000           9.000
  23054327.145    23054325.831    23054324.000   -10051354.867 5  -7832220.565 4
        32.400          29.700
  25391747.029    25391749.601    25391749.754     1011375.052      788094.863 1
         3.000          11.000
  24304097.825    24304096.732    24304098.074    -4680298.067 2  -3646973.180 2
        17.000          17.800
  23702910.802    23702910.503    23702909.658    -9645443.995 2  -7515927.042 2
        17.000          16.100
  24222919.069    24222917.949    24222918.263    -1438848.900 2  -1121179.137 2
        17.800          17.800
  21783630.804    21783630.384    21783629.553   -16821559.884 6 -13107702.536 5
        37.600          34.900
  21417055.422    21417055.024    21417054.149   -18115409.529 6 -14115895.192 5
        38.100          35.300
  21149022.269    21149021.666    21149019.878   -22307903.419 6 -17382773.186 6
        41.500          39.100
  20261619.417    20261619.137    20261616.143   -25709193.531 7 -20033129.113 8
        44.800          50.100
 09  1 28  0  1  0.0000000  0  9G28G19G 6G21G 3G14G 9G18G22
  25528417.595    25528414.503    25528415.830      402491.692      313629.643 1
                         6.500
  23059625.740    23059624.356    23059622.517   -10023511.343 5  -7810524.306 4
        32.300          29.900
  24321074.877    24321075.051    24321074.766    -4591081.849 2  -3577454.063 2
        17.800          17.000
  23724380.268    23724379.992    23724379.381    -9532618.738 2  -7428011.290 2
        16.100          16.100
  24239937.607    24239937.008    24239937.368    -1349413.389 2  -1051489.172 2
        17.800          17.800
  21768650.512    21768649.956    21768649.043   -16900282.615 6 -13169044.902 5
        37.700          34.900
  21416349.797    21416349.377    21416348.635   -18119116.961 6 -14118784.093 5
        37.800          35.300
  21159246.635    21159246.083    21159244.516   -22254172.737 6 -17340905.117 6
        41.300          39.100
  20260878.260    20260877.965    20260874.923   -25713088.421 7 -20036164.086 8
        44.800          50.000
 09  1 28  0  1 30.0000000  0  9G28G19G 6G21G 3G14G 9G18G22
  25532456.139    25532454.406    25532452.470      423699.917      330155.643 1
         3.000           9.000
  23065029.162    23065027.751    23065026.202    -9995115.907 5  -7788397.998 4
        32.000          29.900
  24338085.080    24338085.728    24338086.130    -4501689.987 3  -3507798.082 2
        18.600          17.000
  23745882.717    23745881.906    23745880.690    -9419627.387 2  -7339966.096 2
        17.000          15.100
  24256999.206    24256998.412    24256998.597    -1259756.533 2   -981626.711 3
        17.000          18.600
  21753737.888    21753737.376    21753736.586   -16978648.546 6 -13230109.239 5
        37.800          35.200
  21415783.421    21415782.996    21415782.045   -18122093.450 6 -14121103.429 5
        37.800          35.200
  21169535.825    21169535.245    21169533.579   -22200103.401 6 -17298773.165 6
        41.300          38.900
  20260213.555    20260213.256    20260210.210   -25716581.401 7 -20038885.882 8
        44.800          50.000
 09  1 28  0  2  0.0000000  0  9G28G19G 6G21G 3G14G 9G18G22
  25536587.674    25536586.532    25536585.196      445412.936 1    347074.819 1
         9.000           9.000
  23070539.763    23070538.456    23070536.635    -9966156.906 5  -7765832.538 4
        31.800          29.500
  24355133.422    24355132.082    24355131.842    -4412112.423 2  -3437997.428 2
        17.800          16.100
  23767418.237    23767417.828    23767416.188    -9306459.332 2  -7251783.210 2
        17.000          15.100
  24274103.505    24274102.598    24274104.219    -1169867.760 2   -911583.539 3
        15.100          18.600
  21738896.021    21738895.547    21738894.696   -17056643.194 6 -13290884.273 5
        37.900          35.200
  21415358.600    21415358.112    21415357.736   -18124325.596 6 -14122842.758 5
        37.600          35.800
  21179891.616    21179890.984    21179889.360   -22145683.402 6 -17256367.970 6
        41.300          38.700
  20259627.853    20259627.484    20259624.417   -25719659.531 7 -20041284.419 8
        44.800          50.000
 09  1 28  0  2 30.0000000  0  9G28G19G 6G21G 3G14G 9G18G22
  25540815.167    25540813.319    25540813.606      467626.185 1    364383.823 1
         9.000          11.000
  23076156.889    23076155.248    23076153.979    -9936639.833 5  -7742832.217 5
        32.000          30.200
  24372211.186    24372210.758    24372212.615    -4322355.781 2  -3368057.210 2
        15.100          17.000
  23788985.166    23788985.035    23788983.914    -9193120.410 2  -7163467.186 2
        17.000          15.100
  24291251.422    24291250.709    24291252.238    -1079754.245 2   -841365.243 3
        15.100          19.300
  21724124.128    21724123.612    21724122.891   -17134269.015 6 -13351371.906 5
        37.700          35.300
  21415074.717    21415074.275    21415073.875   -18125816.950 6 -14124004.845 5
        37.700          35.800
  21190313.317    21190312.771    21190311.005   -22090916.764 6 -17213692.663 6
        41.400          38.600
  20259120.319    20259120.068    20259117.049   -25722325.941 7 -20043362.132 8
        44.900          50.000
 09  1 28  0  3  0.0000000  0  9G28G19G 6G21G 3G14G 9G18G22
  25545132.770    25545132.655    25545131.020      490334.929      382079.040 1
                         6.500
  23081878.890    23081877.359    23081876.002    -9906569.655 5  -7719400.907 5
        32.000          30.400
  24389323.331    24389323.553    24389324.566    -4232427.113 2  -3297982.954 2
        15.100          16.100
  23810584.254    23810584.013    23810582.029    -9079617.208 2  -7075023.145 2
        17.800          13.900
  24308441.403    24308440.468    24308441.447     -989423.190 2   -770977.440 3
        17.800          19.300
  21709422.022    21709421.515    21709420.855   -17211529.380 6 -13411574.768 5
        37.800          35.600
  21414931.395    21414930.843    21414930.221   -18126571.757 6 -14124592.995 5
        38.000          35.700
  21200800.157    21200799.524    21200797.769   -22035808.351 6 -17170751.034 6
        41.300          38.400
  20258690.734    20258690.373    20258687.241   -25724584.298 7 -20045121.884 8
        44.800          49.900
 09  1 28  0  3 30.0000000  0  9G28G19G 6G21G 3G14G 9G18G22
  25549547.593    25549548.108    25549547.579      513533.231      400155.568 1
         3.000          11.000
  23087705.037    23087703.879    23087702.103    -9875952.699 5  -7695543.535 5
        32.300          30.400
  24406467.938    24406468.246    24406468.606    -4142334.300 2  -3227780.748 2
        17.800          16.100
  23832213.340    23832212.398    23832211.062    -8965957.117 3  -6986456.832 2
        18.600          12.600
  24325670.674    24325670.540    24325670.588     -898882.277 2   -700426.129 3
        17.800          19.300
  21694789.004    21694788.412    21694787.552   -17288427.222 6 -13471495.140 5
        37.900          35.800
  21414926.785    21414926.367    21414925.783   -18126594.490 6 -14124610.707 5
        37.700          35.500
  21211350.655    21211350.105    21211348.572   -21980364.039 6 -17127547.672 6
        41.100          38.600
  20258337.640    20258337.329    20258334.151   -25726439.604 7 -20046567.571 8
        44.900          49.900
 09  1 28  0  4  0.0000000  0  9G28G19G 6G21G 3G14G 9G18G22
  25554055.503    25554055.446    25554054.942      537219.596      418612.446 2
         3.000          13.900
  23093635.000    23093633.397    23093631.800    -9844791.250 5  -7671261.893 5
        31.800          30.400
  24423644.081    24423643.640    24423643.054    -4052080.901 3  -3157453.419 2
        19.300          17.000
  23853871.673    23853870.854    23853869.692    -8852142.813 2  -6897770.365 2
        17.800          13.900
  24342939.274    24342938.728    24342940.186     -808135.287 2   -629714.236 3
        17.800          19.900
  21680224.719    21680224.136    21680223.318   -17364962.310 6 -13531132.854 5
        37.800          35.700
  21415061.430    21415061.126    21415060.730   -18125886.067 6 -14124058.678 5
        37.700          35.600
  21221965.230    21221964.598    21221963.011   -21924585.049 6 -17084083.524 6
        41.200          38.400
  20258061.339    20258060.965    20258057.812   -25727891.997 7 -20047699.299 8
        44.800          49.900
 09  1 28  0  4 30.0000000  0  9G28G19G 6G21G 3G14G 9G18G22
  25558656.223    25558655.773    25558656.415      561397.138      437452.034 2
         3.000          12.600
  23099668.950    23099667.663    23099665.751    -9813082.810 5  -7646554.013 5
        32.000          30.400
  24440848.476    24440848.379    24440848.980    -3961665.660 2  -3087000.045 2
        17.000          16.100
  23875559.154    23875558.722    23875557.332    -8738172.805 2  -6808962.580 2
        17.800          15.100
  24360248.111    24360247.174    24360248.353     -717181.271 2   -558840.999 3
        17.800          20.500
  21665730.738    21665730.221    21665729.199   -17441129.188 6 -13590483.657 5
        38.200          35.900
  21415336.483    21415335.864    21415335.298   -18124442.172 6 -14122933.558 5
        37.700          35.600
  21232643.864    21232643.260    21232641.674   -21868468.027 6 -17040355.968 6
        41.200          38.200
  20257862.256    20257861.934    20257858.894   -25728937.506 7 -20048513.976 8
        44.800          50.000
 09  1 28  0  5  0.0000000  0  9G28G19G 6G21G 3G14G 9G18G22
  25563350.760    25563350.330    25563347.141      586070.003      456676.947 1
                         6.500
  23105807.716    23105806.285    23105804.303    -9780823.854 5  -7621417.160 5
        31.600          30.400
  24458085.173    24458084.814    24458086.031    -3871086.401 2  -3016418.814 2
        16.100          16.100
  23897278.006    23897277.020    23897275.674    -8624043.971 3  -6720031.037 2
        18.600          17.000
  24377595.198    24377594.336    24377595.474     -626018.546 2   -487805.171 3
        16.100          19.900
  21651308.057    21651307.494    21651306.415   -17516921.435 6 -13649542.533 6
        38.300          36.000
  21415752.201    21415751.705    21415750.884   -18122257.912 6 -14121231.525 5
        38.000          35.500
  21243387.789    21243387.224    21243385.497   -21812008.311 6 -16996361.377 6
        41.100          38.100
  20257741.817    20257741.483    20257738.390   -25729570.527 7 -20049007.231 8
        44.800          49.900
 09  1 28  0  5 30.0000000  0  9G28G19G 6G21G 3G14G 9G18G22
  25568140.673    25568141.526    25568138.494      611228.686      476280.968 1
                         9.000
  23112049.051    23112047.632    23112045.991    -9748024.065 5  -7595858.898 5
        31.000          30.400
  24475351.807    24475351.127    24475351.769    -3780354.472 2  -2945718.607 2
        16.100          15.100
  23919024.237    23919023.381    23919021.103    -8509767.215 2  -6630984.234 2
        17.800          15.100
  24394980.714    24394980.167    24394980.346     -534658.382 2   -416615.494 2
        17.000          17.800
  21636955.114    21636954.542    21636953.639   -17592346.241 6 -13708315.089 6
        38.200          36.200
  21416306.968    21416306.442    21416305.870   -18119341.967 6 -14118959.352 5
        37.700          35.500
  21254195.236    21254194.598    21254193.014   -21755215.461 6 -16952107.203 6
        41.200          38.200
  20257698.184    20257697.888    20257694.822   -25729799.533 7 -20049185.675 8
        44.800          49.900
 09  1 28  0  6  0.0000000  0  9G19G28G 6G21G 3G14G 9G18G22
  23118395.504    23118393.937    23118392.283    -9714675.202 5  -7569872.786 5
        31.500          30.400
  25573019.689    25573022.128    25573020.290      636882.012      496270.507 1
                        11.000
  24492647.131    24492647.059    24492646.910    -3689463.008 2  -2874894.108 2
        17.000          17.000
  23940799.356    23940799.102    23940797.062    -8395335.179 2  -6541816.441 2
        17.000          13.900
  24412405.027    24412404.158    24412404.686     -443093.691 2   -345266.427 3
        17.000          18.600
  21622674.160    21622673.596    21622672.628   -17667392.742 6 -13766792.857 6
        38.400          36.300
  21417002.810    21417002.464    21417001.709   -18115684.348 6 -14116109.250 5
        37.700          35.300
  21265067.611    21265067.079    21265065.365   -21698080.403 6 -16907586.374 6
        41.200          38.100
  20257733.429    20257733.124    20257729.929   -25729614.670 7 -20049041.619 8
        44.900          49.900
 09  1 28  0  6 30.0000000  0  9G19G28G 6G21G 3G14G 9G18G22
  23124843.537    23124842.444    23124840.485    -9680788.100 5  -7543467.245 4
        31.600          29.900
  25577993.506    25577996.146    25577995.340      663019.641      516637.406 2
                        12.600
  24509971.304    24509971.426    24509972.134    -3598424.215 2  -2803954.812 2
        17.000          17.800
  23962602.177    23962602.077    23962600.188    -8280759.225 2  -6452536.484 2
        17.000          13.900
  24429865.227    24429864.725    24429865.133     -351336.927 2   -273767.656 2
        17.800          17.000
  21608463.560    21608463.092    21608462.344   -17742068.826 6 -13824981.988 6
        38.400          36.500
  21417838.346    21417837.900    21417837.125   -18111294.341 6 -14112688.457 5
        37.800          35.200
  21276003.233    21276002.635    21276001.014   -21640612.954 6 -16862806.537 6
        41.000          37.800
  20257845.613    20257845.307    20257842.276   -25729024.745 7 -20048581.933 8
        44.900          49.900
 09  1 28  0  7  0.0000000  0  9G19G11G 6G21G 3G14G 9G18G22
  23131394.141    23131392.656    23131390.607    -9646366.007 5  -7516644.841 4
        31.600          29.900
  24861137.508    24861137.020    24861134.651           -.0451          -.08111
         3.000           9.000
  24527322.791    24527321.757    24527323.109    -3507242.776 2  -2732904.387 3
        15.100          18.600
  23984432.515    23984432.043    23984429.968    -8166043.801 2  -6363147.866 2
        17.000          13.900
  24447361.377    24447360.831    24447361.600     -259393.067 2   -202123.083 3
        17.800          18.600
  21594323.587    21594323.058    21594322.179   -17816375.215 6 -13882883.039 6
        38.500          36.500
  21418812.656    21418812.151    21418811.395   -18106174.026 6 -14108698.594 5
        37.700          35.100
  21287001.839    21287001.165    21286999.437   -21582815.673 6 -16817769.694 6
        40.900          37.700
  20258034.803    20258034.434    20258031.234   -25728031.527 7 -20047807.991 8
        45.000          49.800
 09  1 28  0  7 30.0000000  0  9G19G11G 6G21G 3G14G 9G18G22
  23138044.319    23138043.072    23138041.024    -9611419.760 5  -7489413.998 5
        32.400          30.200
  24842473.311    24842473.385    24842471.546      -98076.731 1    -76423.443 1
         6.500          11.000
  24544698.754    24544698.577    24544699.742    -3415930.684 2  -2661752.138 3
        15.100          19.300
  24006286.787    24006285.875    24006283.959    -8051199.990 2  -6273659.192 2
        17.000          13.900
  24464890.931    24464890.516    24464891.438     -167274.293 2   -130342.251 2
        17.800          17.800
  21580252.499    21580251.924    21580251.027   -17890319.696 6 -13940502.083 6
        38.700          36.500
  21419924.226    21419923.849    21419923.064   -18100332.428 6 -14104146.693 5
        37.700          35.200
  21298061.058    21298060.479    21298058.810   -21524698.319 6 -16772483.442 6
        40.900          37.600
  20258298.753    20258298.422    20258295.236   -25726643.855 7 -20046726.682 8
        44.900          49.800
 09  1 28  0  8  0.0000000  0  9G19G11G 6G21G 3G14G 9G18G22
  23144799.178    23144797.888    23144796.423    -9575920.915 5  -7461752.566 5
        32.000          30.400
  24823859.081    24823859.673    24823858.726     -195902.136 1   -152651.005 1
         9.000          11.000
  24562105.340    24562104.341    24562106.182    -3324460.664 2  -2590476.835 2
        12.600          17.800
  24028170.152    24028169.494    24028167.303    -7936200.028 2  -6184048.885 2
        16.100          12.600
  24482459.606    24482458.766    24482459.580      -74953.388 2    -58403.874 2
        17.000          17.000
  21566256.191    21566255.655    21566254.807   -17963870.837 6 -13997814.640 6
        38.900          36.700
  21421178.624    21421178.185    21421177.641   -18093739.989 6 -14099009.721 5
        37.700          35.300
  21309186.949    21309186.355    21309184.642   -21466231.611 6 -16726924.965 6
        40.800          37.400
  20258643.591    20258643.255    20258640.174   -25724831.481 7 -20045314.436 8
        44.800          49.800
 09  1 28  0  8 30.0000000  0  9G19G11G 6G21G 3G14G 9G18G22
  23151656.917    23151655.603    23151653.830    -9539883.053 5  -7433671.120 4
        31.800          29.900
  24805289.109    24805288.805    24805289.736     -293486.174 1   -228690.512 2
         6.500          12.600
  24579536.847    24579536.885    24579537.779    -3232847.681 1  -2519090.081 2
         9.000          16.100
  24050081.333    24050080.343    24050077.570    -7821058.313 2  -6094328.100 1
        17.000          11.000
  24500062.427    24500062.069    24500063.457       17554.350 2     13680.084 2
        15.100          15.100
  21552332.455    21552332.028    21552331.230   -18037039.547 6 -14054829.190 6
        38.900          37.000
  21422573.781    21422573.313    21422572.749   -18086408.947 6 -14093297.215 5
        37.900          35.300
  21320376.993    21320376.395    21320374.556   -21407428.197 6 -16681104.116 6
        41.000          37.400
  20259067.000    20259066.718    20259063.599   -25722606.107 7 -20043580.373 8
        44.800          49.800
 09  1 28  0  9  0.0000000  0  9G19G11G 6G21G 3G14G 9G18G22
  23158616.587    23158615.308    23158613.590    -9503309.867 5  -7405172.539 4
        32.100          29.700
  24786765.952    24786765.445    24786766.300     -390828.346 1   -304541.565 2
        11.000          12.600
  24596998.035    24596998.058    24596997.995    -3141096.788 1  -2447595.910 2
        11.000          15.100
  24072017.549    24072017.497    24072015.380    -7705779.272 2  -6004500.290 1
        17.000           6.500
  24517700.539    24517700.070    24517701.688      110243.723 2     85905.579 2
        16.100          15.100
  21538481.840    21538481.270    21538480.239   -18109826.766 6 -14111546.476 6
        39.200          37.000
  21424109.026    21424108.560    21424107.846   -18078341.704 6 -14087011.042 5
        37.900          35.100
  21331630.351    21331629.794    21331628.028   -21348291.017 6 -16635023.193 6
        40.900          37.300
  20259568.704    20259568.383    20259565.332   -25719969.779 7 -20041526.086 8
        44.700          49.900
 09  1 28  0  9 30.0000000  0  9G19G11G 6G21G 3G14G 9G18G22
  23165677.468    23165676.146    23165674.267    -9466206.072 5  -7376260.500 4
        32.400          29.500
  24768288.863    24768287.554    24768289.819     -487929.538 1   -380204.822 1
        11.000          11.000
  24614483.956    24614483.511    24614482.960    -3049213.973 2  -2375998.974 2
        12.600          17.000
  24093980.402    24093979.163    24093978.060    -7590368.439 2  -5914569.788 1
        17.000           6.500
  24535373.526    24535372.819    24535373.494      203109.035 2    158268.158 2
        17.000          16.100
  21524703.027    21524702.411    21524701.468   -18182234.537 6 -14167968.085 6
        39.100          37.100
  21425783.740    21425783.208    21425782.271   -18069541.809 6 -14080153.976 5
        37.800          34.800
  21342946.377    21342945.817    21342944.145   -21288824.123 6 -16588685.349 6
        40.600          37.200
  20260147.961    20260147.674    20260144.647   -25716925.461 7 -20039153.883 8
        44.700          49.800
 09  1 28  0 10  0.0000000  0  9G19G11G 6G21G 3G14G 9G18G22
  23172838.467    23172837.069    23172835.350    -9428574.127 5  -7346936.915 4
        31.600          29.000
  24749856.813    24749856.921    24749855.560     -584788.064 1   -455678.994 1
         9.000           9.000
  24631991.450    24631991.800    24631992.287    -2957202.827 1  -2304302.043 2
         9.000          17.800
  24115967.160    24115965.706    24115964.649    -7474828.751 3  -5824538.895 1
        18.600           9.000
  24553076.833    24553076.425    24553077.664      296145.829 2    230764.356 2
        17.000          16.100
  21510996.515    21510995.930    21510994.906   -18254262.386 6 -14224093.655 6
        39.100          37.100
  21427597.016    21427596.669    21427596.083   -18060010.261 6 -14072726.787 5
        37.500          34.800
  21354325.154    21354324.466    21354322.847   -21229028.932 6 -16542091.689 6
        40.500          37.100
  20260805.027    20260804.654    20260801.497   -25713473.518 7 -20036464.053 8
        44.700          49.700
 09  1 28  0 10 30.0000000  0  9G19G11G 6G21G 3G14G 9G18G22
  23180100.334    23180098.894    23180096.841    -9390413.763 5  -7317201.561 4
        31.500          28.800
  24731471.918    24731471.198    24731468.566     -681399.276 1   -530960.433 1
         6.500           9.000
  24649522.374    24649523.195    24649526.064    -2865064.487 1  -2232505.901 2
         6.500          16.100
  24137977.230    24137976.502    24137976.080    -7359160.863 3  -5734408.109 1
        18.600          11.000
  24570813.685    24570813.218    24570813.453      389353.230 2    303393.506 2
        15.100          13.900
  21497362.598    21497362.165    21497361.342   -18325907.294 6 -14279920.834 6
        39.100          37.200
  21429550.802    21429550.309    21429549.606   -18049745.423 6 -14064728.209 5
        38.100          35.200
  21365766.395    21365765.794    21365764.220   -21168904.402 6 -16495241.408 6
        40.600          37.200
  20261539.761    20261539.429    20261536.195   -25709612.467 7 -20033455.435 8
        44.800          49.800
 09  1 28  0 11  0.0000000  0  9G19G11G 6G21G 3G14G 9G18G22
  23187462.911    23187461.249    23187459.296    -9351724.832 5  -7287054.351 4
        31.100          29.200
  24713136.082    24713134.483    24713131.981     -777758.942 1   -606045.856 1
         9.000           9.000
  24667082.955    24667082.888    24667083.286    -2772799.789 2  -2160611.326 2
        12.600          17.800
  24160010.831    24160011.183    24160010.389    -7243365.015 2  -5644177.635 1
        17.800          11.000
  24588583.302    24588582.262    24588582.678      482730.211 2    376154.784 2
        15.100          15.100
  21483802.553    21483802.111    21483801.224   -18397166.038 6 -14335447.106 6
        39.300          37.200
  21431643.809    21431643.412    21431642.741   -18038745.665 6 -14056156.955 5
        37.800          35.100
  21377270.689    21377270.147    21377268.317   -21108449.343 6 -16448133.560 6
        40.600          36.900
  20262352.660    20262352.355    20262349.273   -25705339.734 7 -20030126.029 8
        44.700          49.800
 09  1 28  0 11 30.0000000  0  9G19G11G 6G21G 3G14G 9G18G22
  23194925.840    23194924.177    23194922.809    -9312505.049 5  -7256493.481 4
        31.000          29.900
  24694848.425    24694848.235    24694844.840     -873860.487 1   -680930.132 1
         9.000          11.000
  24684665.905    24684665.398    24684665.066    -2680407.465 2  -2088617.313 2
        12.600          16.100
  24182070.285    24182071.036    24182070.722    -7127439.413 3  -5553846.037 1
        19.900           9.000
  24606383.720    24606383.773    24606385.203      576277.803 2    449049.036 2
        13.900          16.100
  21470317.018    21470316.512    21470315.548   -18468033.316 6 -14390668.340 6
        39.300          37.400
  21433877.301    21433876.985    21433876.420   -18027007.389 6 -14047010.243 5
        37.600          35.100
  21388838.357    21388837.742    21388836.081   -21047660.049 6 -16400765.278 6
        40.300          36.700
  20263244.899    20263244.567    20263241.538   -25700651.213 7 -20026472.630 8
        44.700          49.800
 09  1 28  0 12  0.0000000  0  9G19G11G 6G21G 3G14G 9G18G22
  23202487.220    23202485.987    23202484.683    -9272766.076 5  -7225528.031 4
        30.600          29.700
  24676608.195    24676607.549    24676605.221     -969711.718 1   -755619.380 2
        11.000          12.600
  24702266.731    24702266.394    24702267.550    -2587900.561 1  -2016534.061 2
        11.000          13.900
  24204154.322    24204153.458    24204152.642    -7011396.294 3  -5463422.848 1
        21.100           9.000
  24624216.783    24624215.959    24624215.900      669982.744 2    522065.905 2
        15.100          17.000
  21456904.132    21456903.661    21456902.687   -18538518.214 6 -14445591.620 6
        39.300          37.600
  21436249.873    21436249.360    21436248.728   -18014541.147 6 -14037296.278 5
        37.800          35.200
  21400467.811    21400467.198    21400465.371   -20986547.494 6 -16353145.097 6
        40.400          36.600
  20264214.356    20264214.023    20264210.944   -25695556.741 7 -20022502.906 8
        44.700          49.800
 09  1 28  0 12 30.0000000  0  9G19G14G11G 6G21G 3G 9G18G22
  23210149.194    23210147.589    23210145.827    -9232505.643 5  -7194156.276 4
        30.800          29.500
  21443564.952    21443564.516    21443563.537   -18608615.742 6 -14500213.052 6
        39.300          37.700
  24658417.344    24658417.034    24658415.060    -1065305.948 2   -830108.391 2
        13.900          12.600
  24719893.234    24719892.905    24719892.613    -2495277.999 1  -1944360.664 2
         9.000          13.900
  24226259.229    24226258.486    24226257.885    -6895234.140 3  -5372906.889 1
        20.500           9.000
  24642078.875    24642077.930    24642077.637      763846.207 2    595206.271 2
        17.000          15.100
  21438761.397    21438760.975    21438760.103   -18001343.585 6 -14027012.460 5
        38.200          35.100
  21412159.104    21412158.532    21412156.936   -20925108.575 6 -16305270.613 6
        40.100          36.700
  20265261.785    20265261.477    20265258.282   -25690052.604 7 -20018213.962 8
        44.700          49.700
 09  1 28  0 13  0.0000000  0  9G19G14G11G 6G21G 3G 9G18G22
  23217909.051    23217907.831    23217906.158    -9191725.780 5  -7162379.778 4
        30.400          29.500
  21430299.899    21430299.405    21430298.342   -18678324.550 6 -14554531.590 6
        39.400          37.600
  24640277.040    24640276.638    24640273.671    -1160640.973 2   -904395.394 2
        16.100          13.900
  24737540.452    24737540.360    24737541.500    -2402542.665 2  -1872099.357 2
        13.900          17.000
  24248386.113    24248385.291    24248385.405    -6778955.377 3  -5282300.112 1
        19.300          11.000
  24659968.995    24659968.304    24659968.924      857865.358 2    668467.901 2
        13.900          13.900
  21441411.704    21441411.282    21441410.706   -17987415.356 6 -14016159.290 5
        38.100          35.200
  21423912.754    21423912.076    21423910.382   -20863343.947 6 -16257142.330 6
        40.200          36.600
  20266387.239    20266386.906    20266383.798   -25684138.310 7 -20013605.415 8
        44.700          49.700
 09  1 28  0 13 30.0000000  0  9G19G14G11G 6G21G 3G 9G18G22
  23225769.084    23225767.741    23225765.960    -9150422.605 5  -7130195.478 4
        30.800          29.200
  21417110.104    21417109.575    21417108.454   -18747637.974 6 -14608542.033 6
        39.500          37.800
  24622186.213    24622185.935    24622182.837    -1255708.486 2   -978473.963 2
        17.000          12.600
  24755209.592    24755209.644    24755211.037    -2309691.798 2  -1799748.081 2
        12.600          15.100
  24270535.783    24270535.765    24270534.567    -6662556.344 3  -5191599.588 1
        19.300           9.000
  24677889.106    24677888.700    24677890.845      952042.207 2    741852.403 2
        13.900          15.100
  21444202.077    21444201.638    21444201.079   -17972751.063 6 -14004732.567 5
        38.000          35.200
  21435728.804    21435728.286    21435726.632   -20801248.752 6 -16208756.459 6
        40.000          36.500
  20267591.741    20267591.423    20267588.359   -25677808.339 7 -20008672.965 8
        44.600          49.700
 09  1 28  0 14  0.0000000  0  9G19G14G11G 6G21G 3G 9G18G22
  23233725.742    23233724.383    23233722.542    -9108608.417 5  -7097612.988 4
        30.400          28.600
  21403993.362    21403992.931    21403992.103   -18816565.444 6 -14662251.735 6
        39.400          38.200
  24604143.979    24604143.530    24604140.562    -1350516.758 2  -1052350.504 2
        15.100          12.600
  24772899.195    24772898.294    24772897.940    -2216738.751 1  -1727317.228 2
        11.000          15.100
  24292706.184    24292706.453    24292705.395    -6546050.223 3  -5100815.630 2
        19.300          12.600
  24695839.239    24695838.770    24695839.129     1046363.499 2    815349.504 2
        15.100          16.100
  21447130.546    21447130.146    21447129.718   -17957362.064 6 -13992741.129 5
        37.900          35.200
  21447606.009    21447605.412    21447603.734   -20738834.635 6 -16160122.080 6
        39.900          36.500
  20268873.491    20268873.185    20268870.106   -25671072.652 7 -20003424.371 8
        44.600          49.700
 09  1 28  0 14 30.0000000  0  9G19G14G11G 6G21G 3G 9G18G22
  23241780.677    23241779.603    23241777.970    -9066279.175 5  -7064629.183 4
        30.600          28.800
  21390951.724    21390951.228    21390950.421   -18885099.878 6 -14715655.171 6
        39.500          38.300
  24586154.265    24586153.798    24586151.863    -1445057.147 2  -1126018.290 1
        13.900          11.000
  24790606.433    24790605.497    24790606.313    -2123680.535    -1654804.341 2
                        12.600
  24314898.184    24314897.625    24314897.111    -6429433.520 3  -5009945.503 2
        19.900          13.900
  24713815.849    24713815.127    24713816.182     1140832.103 2    888961.386 2
        13.900          17.800
  21450197.922    21450197.429    21450197.001   -17941243.303 6 -13980181.052 5
        37.900          35.100
  21459544.699    21459544.108    21459542.431   -20676096.228 6 -16111235.005 6
        39.800          36.300
  20270233.495    20270233.199    20270230.113   -25663925.911 7 -19997855.476 8
        44.600          49.700
 09  1 28  0 15  0.0000000  0  9G19G14G 9G11G 6G21G 3G18G22
  23249933.810    23249932.608    23249930.924    -9023435.748 5  -7031244.697 4
        31.100          29.000
  21377985.293    21377984.823    21377983.812   -18953239.290 6 -14768750.801 6
        39.600          38.400
  21453404.116    21453403.720    21453403.149   -17924394.070 6 -13967051.769 5
        37.700          34.900
  24568215.723    24568215.385    24568212.808    -1539326.617 2  -1199474.981 1
        12.600           9.000
  24808334.354    24808334.906    24808335.796    -2030518.868    -1582210.921 2
                        12.600
  24337110.937    24337109.989    24337109.706    -6312707.330 3  -4918990.075 2
        19.900          16.100
  24731819.440    24731819.765    24731820.902     1235446.246 1    962686.664 2
        11.000          17.800
  21471545.234    21471544.654    21471542.799   -20613033.121 6 -16062094.918 6
        39.700          36.000
  20271671.895    20271671.584    20271668.346   -25656367.194 7 -19991965.559 8
        44.700          49.600
 09  1 28  0 15 30.0000000  0  9G19G14G 9G11G 6G21G 3G18G22
  23258184.530    23258183.010    23258181.000    -8980078.749 5  -6997460.023 4
        31.000          28.600
  21365094.444    21365093.978    21365092.941   -19020981.466 6 -14821536.897 6
        39.700          38.600
  21456749.446    21456749.015    21456748.493   -17906813.981 6 -13953352.995 5
        37.700          34.800
  24550327.535    24550327.281    24550325.988    -1633321.305 1  -1272717.557 1
        11.000           6.500
  24826081.627    24826081.116    24826081.583    -1937255.739    -1509538.348 1
         3.000          11.000
  24359344.309    24359343.431    24359342.537    -6195872.650 3  -4827950.114 2
        18.600          16.100
  24749852.060    24749851.349    24749851.792     1330203.813 1   1036523.739 2
        11.000          16.100
  21483607.602    21483606.895    21483605.238   -20549645.222 6 -16012701.747 6
        39.500          36.000
  20273189.048    20273188.755    20273185.575   -25648394.184 7 -19985752.818 8
        44.700          49.600
 09  1 28  0 16  0.0000000  0  9G19G14G 9G11G 6G21G 3G18G22
  23266532.437    23266531.052    23266529.194    -8936209.302 5  -6963276.060 4
        30.400          28.600
  21352279.550    21352279.009    21352277.966   -19088324.434 6 -14874011.918 6
        39.700          38.600
  21460234.063    21460233.526    21460232.944   -17888503.042 6 -13939084.718 5
        37.800          34.700
  24532492.184    24532492.434    24532491.271    -1727037.958 1  -1345743.489 1
         9.000           6.500
  24843848.310    24843848.107    24843847.346    -1843892.931 1  -1436788.070 1
         6.500           9.000
  24381597.787    24381596.576    24381595.383    -6078931.259 2  -4736827.016 2
        17.000          15.100
  24767911.003    24767910.789    24767910.663     1425102.648 2   1110470.859 2
        12.600          15.100
  21495731.590    21495731.083    21495729.234   -20485932.583 6 -15963055.530 5
        39.700          35.800
  20274785.251    20274784.912    20274781.767   -25640006.520 7 -19979216.969 8
        44.600          49.600
 09  1 28  0 16 30.0000000  0  9G19G14G 9G18G11G 6G21G 3G22
  23274976.169    23274974.847    23274973.167    -8891836.743 5  -6928700.046 4
        30.200          28.800
  21339539.426    21339538.878    21339537.733   -19155274.485 6 -14926180.777 6
        39.700          38.600
  21463855.878    21463855.496    21463854.807   -17869469.324 6 -13924253.253 5
        37.900          34.600
  21507915.876    21507915.276    21507913.654   -20421903.273 6 -15913162.554 5
        39.300          35.700
  24514710.055    24514710.395    24514710.635    -1820481.492    -1418556.596 1
         3.000          11.000
  24861632.102    24861631.802    24861631.566    -1750440.971 1  -1363968.392 1
         6.500           9.000
  24403868.889    24403868.551    24403866.943    -5961892.625 2  -4645628.127 2
        17.000          12.600
  24785994.328    24785993.639    24785994.771     1520132.393 2   1184519.976 2
        12.600          16.100
  20276458.769    20276458.421    20276455.317   -25631211.797 7 -19972363.931 8
        44.600          49.600
 09  1 28  0 17  0.0000000  0  9G19G14G 9G18G11G 6G21G 3G22
  23283514.150    23283512.673    23283511.292    -8846969.825 5  -6893738.827 4
        30.400          28.600
  21326872.668    21326872.193    21326871.313   -19221837.358 6 -14978047.931 6
        39.700          38.800
  21467614.336    21467613.833    21467613.015   -17849720.163 6 -13908864.282 5
        38.200          34.700
  21520159.262    21520158.581    21520156.961   -20357564.863 6 -15863028.729 5
        39.300          35.800
  24496979.783    24496981.517    24496978.892    -1913656.247    -1491160.267 1
         3.000           9.000
  24879430.223    24879430.795    24879430.224    -1656909.177    -1291086.514 1
         3.000          11.000
  24426157.397    24426156.658    24426155.993    -5844765.877 2  -4554360.555 1
        15.100          11.000
  24804099.964    24804100.049    24804100.638     1615283.133 1   1258663.381 2
        11.000          15.100
  20278208.570    20278208.241    20278205.254   -25622016.223 7 -19965198.541 8
        44.500          49.600
 09  1 28  0 17 30.0000000  0  9G19G14G 9G18G11G 6G21G 3G22
  23292149.660    23292148.169    23292145.987    -8801591.919 5  -6858379.429 4
        30.800          28.400
  21314283.552    21314283.058    21314282.242   -19287993.327 6 -15029598.017 6
        39.700          38.900
  21471511.922    21471511.447    21471510.779   -17829238.015 6 -13892904.162 5
        38.100          34.800
  21532464.617    21532464.073    21532462.419   -20292899.372 6 -15812640.030 5
        39.300          35.600
  24479307.049    24479307.306    24479304.306    -2006540.998    -1563538.019 1
                        11.000
  24897244.483    24897244.124    24897248.775    -1563281.803    -1218130.072 1
                         9.000
  24448464.908    24448464.856    24448464.291    -5727534.661 2  -4463011.562 1
        13.900          11.000
  24822232.974    24822232.851    24822233.392     1710570.735 2   1332913.426 2
        12.600          15.100
  20280038.336    20280038.041    20280034.950   -25612400.854 7 -19957706.040 8
        44.600          49.600
 09  1 28  0 18  0.0000000  0  9G19G14G 9G18G11G 6G21G 3G22
  23300879.673    23300878.301    23300876.479    -8755713.362 5  -6822629.915 4
        30.400          28.600
  21301770.463    21301770.017    21301769.016   -19353750.083 6 -15080837.030 6
        39.800          39.000
  21475547.227    21475546.627    21475546.006   -17808032.419 6 -13876380.317 5
        37.800          34.700
  21544830.368    21544829.792    21544828.108   -20227916.225 6 -15762003.805 5
        39.100          35.300
  24461686.431    24461686.424    24461683.452    -2099142.006    -1635694.615 2
                        12.600
  24915079.703    24915078.862    24915080.719    -1469570.221 1  -1145108.071 2
         6.500          12.600
  24470791.831    24470791.297    24470789.774    -5610209.885 2  -4371589.727 1
        15.100          11.000
  24840389.018    24840389.438    24840390.578     1805983.439 1   1407260.902 2
        11.000          15.100
  20281946.326    20281945.968    20281942.873   -25602374.603 7 -19949893.372 8
        44.500          49.500
 09  1 28  0 18 30.0000000  0  9G14G19G 9G18G11G 6G21G 3G22
  21289334.531    21289333.988    21289332.863   -19419102.318 6 -15131760.834 6
        40.000          39.100
  23309705.925    23309704.639    23309702.646    -8709331.570 5  -6786488.270 4
        30.800          28.400
  21479720.610    21479720.194    21479719.554   -17786099.646 6 -13859289.837 5
        37.600          34.600
  21557257.361    21557256.758    21557255.119   -20162612.210 6 -15711117.557 5
        39.100          35.200
  24444121.723    24444120.748    24444116.277    -2191452.593    -1707624.940 2
                        12.600
  24932928.314    24932927.694    24932929.290    -1375773.240 1  -1072019.544 1
        11.000          11.000
  24493136.358    24493136.016    24493134.362    -5492789.694 2  -4280093.525 1
        13.900          11.000
  24858571.168    24858570.219    24858571.250     1901522.468 2   1481706.901 2
        12.600          16.100
  20283933.266    20283932.924    20283929.798   -25591933.244 7 -19941757.243 8
        44.500          49.500
 09  1 28  0 19  0.0000000  0  9G14G19G 9G18G11G 6G21G 3G22
  21276974.114    21276973.585    21276972.252   -19484057.307 6 -15182375.094 6
        40.100          39.100
  23318625.612    23318624.315    23318622.441    -8662457.478 5  -6749963.021 4
        30.400          28.400
  21484031.010    21484030.505    21484029.985   -17763449.311 6 -13841640.222 5
        37.600          34.800
  21569743.742    21569743.113    21569741.378   -20096996.237 6 -15659988.226 5
        39.100          35.100
  24426609.121    24426608.851    24426604.578    -2283478.700    -1779333.592 2
                        12.600
  24950791.540    24950791.129    24950791.754    -1281902.076 2   -998873.231 1
        13.900           9.000
  24515496.102    24515496.660    24515493.611    -5375284.395 2  -4188531.002 1
        12.600           6.500
  24876773.660    24876772.417    24876772.628     1997176.569 2   1556242.530 2
        13.900          13.900
  20285997.540    20285997.224    20285994.126   -25581084.979 7 -19933304.043 8
        44.400          49.500
 09  1 28  0 19 30.0000000  0  9G14G19G 9G18G11G 6G21G 3G22
  21264689.477    21264689.013    21264687.864   -19548612.837 6 -15232678.087 6
        40.100          39.300
  23327638.921    23327637.441    23327635.810    -8615091.898 4  -6713054.788 4
        29.700          28.400
  21488477.732    21488477.259    21488476.632   -17740081.444 6 -13823431.490 5
        37.600          34.600
  21582289.676    21582289.008    21582286.976   -20031067.817 6 -15608615.426 5
        39.100          34.700
  24409150.512    24409150.198    24409147.075    -2375216.945    -1850817.888 1
                        11.000
  24968668.270    24968667.899    24968668.067    -1187958.537 2   -925670.538 1
        13.900           6.500
  24537872.529    24537872.467    24537870.876    -5257696.032 2  -4096903.770 1
        12.600           6.500
  24894996.411    24894996.000    24894997.153     2092943.897 2   1630866.432 1
        17.000          11.000
  20288139.305    20288139.031    20288136.093   -25569829.105 7 -19924533.229 8
        44.400          49.500
 09  1 28  0 20  0.0000000  0  9G14G19G 9G18G11G 6G21G 3G22
  21252482.908    21252482.355    21252481.321   -19612758.323 6 -15282661.567 6
        40.100          39.300
  23336747.506    23336745.682    23336744.573    -8567227.097 4  -6675757.561 4
        29.200          29.000
  21493062.734    21493062.333    21493061.520   -17715986.684 6 -13804656.345 5
        37.700          34.400
  21594896.394    21594895.862    21594893.926   -19964818.426 6 -15556992.519 5
        39.200          34.700
  24391747.235    24391748.481    24391745.232    -2466654.843    -1922068.111 1
                         9.000
  24986558.793    24986559.197    24986560.164    -1093935.541 2   -852405.869 1
        12.600           6.500
  24560266.862    24560266.024    24560265.924    -5140016.365 2  -4005205.305
        12.600           3.000
  24913243.569    24913243.245    24913244.380     2188831.328 2   1705583.903 1
        17.000           9.000
  20290360.924    20290360.568    20290357.521   -25558155.075 7 -19915436.576 8
        44.300          49.400
 09  1 28  0 20 30.0000000  0  9G14G19G 9G11G 6G21G 3G18G22
  21240354.034    21240353.480    21240352.336   -19676496.159 6 -15332327.395 6
        40.200          39.500
  23345949.619    23345948.112    23345946.687    -8518868.338 4  -6638075.422 4
        29.500          28.800
  21497785.218    21497784.925    21497784.107   -17691169.938 6 -13785318.625 5
        37.800          34.400
  24374407.120    24374406.438    24374403.734    -2557793.490    -1993085.204 1
         3.000          11.000
  25004466.645    25004466.116    25004467.357     -999839.261 2   -779084.108 1
        12.600           6.500
  24582677.646    24582676.594    24582677.011    -5022251.592 2  -3913440.528
        13.900
  24931511.584    24931511.215    24931512.216     2284831.936 2   1780389.579 1
        16.100           9.000
  21607563.494    21607562.908    21607561.211   -19898252.078 6 -15505122.639 5
        38.900          34.800
  20292661.366    20292661.035    20292657.859   -25546066.723 7 -19906017.076 8
        44.400          49.400
 09  1 28  0 21  0.0000000  0  8G14G19G 9G11G 6G 3G18G22
  21228302.457    21228301.989    21228300.897   -19739827.206 6 -15381676.248 6
        40.400          39.600
  23355245.364    23355244.147    23355242.324    -8470019.630 5  -6600011.507 4
        30.200          28.400
  21502644.741    21502644.218    21502643.413   -17665633.874 6 -13765420.381 5
        37.700          34.100
  24357120.647    24357120.322    24357117.859    -2648632.063 1  -2063868.501 1
         9.000          11.000
  25022384.254    25022385.023    25022386.311     -905674.344 1   -705708.891 1
        11.000           6.500
  24949799.826    24949799.681    24949801.030     2380941.386 2   1855280.071 1
        13.900          11.000
  21620290.566    21620289.939    21620288.190   -19831371.245 6 -15453007.704 5
        38.800          34.800
  20295040.158    20295039.857    20295036.804   -25533565.471 7 -19896275.834 8
        44.400          49.300
 09  1 28  0 21 30.0000000  0  9G14G19G 9G21G11G 6G 3G18G22
  21216328.939    21216328.458    21216327.309   -19802748.320 6 -15430705.670 6
        40.500          39.600
  23364634.119    23364632.742    23364631.360    -8420681.068 5  -6561565.883 4
        30.100          28.800
  21507641.049    21507640.546    21507639.854   -17639377.386 6 -13744960.779 5
        37.400          34.300
  24627543.412    24627542.845    24627542.811          -1.21812         -.9681
        16.100           3.000
  24339893.741    24339892.839    24339890.837    -2739166.054 2  -2134414.491 1
        12.600          11.000
  25040318.289    25040318.636    25040316.940     -811441.480 1   -632280.740 1
        11.000           6.500
  24968108.441    24968108.135    24968111.700     2477158.587 1   1930254.536 2
        11.000          12.600
  21633077.621    21633076.992    21633075.306   -19764175.203 6 -15400647.148 5
        38.900          34.800
  20297497.940    20297497.639    20297494.569   -25520649.530 7 -19886211.460 8
        44.300          49.200
 09  1 28  0 22  0.0000000  0  9G14G19G 9G21G11G 6G 3G18G22
  21204433.075    21204432.533    21204431.397   -19865261.973 6 -15479417.589 6
        40.500          39.800
  23374115.268    23374113.822    23374111.890    -8370857.897 5  -6522742.654 4
        30.400          28.100
  21512773.535    21512773.087    21512772.585   -17612404.945 6 -13723943.290 5
        37.100          34.300
  24649998.059    24649998.025    24649996.304      118001.362 1     91949.079 1
        11.000           6.500
  24322723.844    24322722.866    24322720.688    -2829396.386 2  -2204723.838 2
        12.600          12.600
  25058261.189    25058260.674    25058262.975     -717146.907 1   -558804.557 1
         6.500           9.000
  24986438.881    24986438.700    24986439.539     2573477.323 2   2005308.064 2
        13.900          12.600
  21645923.645    21645923.083    21645921.381   -19696667.854 6 -15348044.019 5
        38.600          34.500
  20300034.062    20300033.773    20300030.665   -25507322.269 7 -19875826.577 8
        44.300          49.100
 09  1 28  0 22 30.0000000  0  9G14G 9G19G21G11G 6G 3G18G22
  21192614.102    21192613.709    21192612.613   -19927369.864 6 -15527813.327 6
        40.500          39.900
  21518041.881    21518041.372    21518040.741   -17584720.622 6 -13702371.086 5
        37.200          34.300
  23383688.018    23383686.366    23383684.823    -8320554.809 5  -6483545.447 4
        31.100          28.400
  24672466.865    24672467.032    24672464.414      236074.459 1    183954.063 1
         6.500           9.000
  24305608.299    24305608.667    24305606.907    -2919323.286 1  -2274796.716 2
         6.500          12.600
  25076215.060    25076212.379    25076216.869     -622796.265     -485284.659 1
                         9.000
  25004788.000    25004786.841    25004787.420     2669892.171 2   2080436.486 2
        15.100          15.100
  21658828.559    21658827.905    21658826.088   -19628852.719 6 -15295201.056 5
        38.500          34.300
  20302648.041    20302647.693    20302644.469   -25493586.166 7 -19865123.113 8
        44.300          49.000
 09  1 28  0 23  0.0000000  0  9G14G19G 9G21G11G 6G 3G18G22
  21180874.737    21180874.198    21180873.048   -19989062.140 6 -15575885.211 6
        40.700          40.100
  23393352.882    23393351.375    23393349.413    -8269765.427 5  -6443969.311 4
        30.400          28.100
  21523447.120    21523446.657    21523445.535   -17556316.518 6 -13680238.015 5
        37.300          33.800
  24694950.659    24694949.000    24694947.476      354224.397      276018.862 1
         3.000          11.000
  24288554.045    24288555.070    24288553.747    -3008935.561 1  -2344624.418 1
         6.500           9.000
  25094180.784    25094180.104    25094181.925     -528383.448     -411716.284 1
                         6.500
  25023152.680    25023152.855    25023154.132     2766408.690 1   2155644.163 2
        11.000          13.900
  21671793.415    21671792.716    21671790.974   -19560721.703 6 -15242111.948 5
        38.400          34.100
  20305341.318    20305341.012    20305337.848   -25479432.491 7 -19854094.268 8
        44.300          49.000
 09  1 28  0 23 30.0000000  0  9G14G19G 9G21G11G 6G 3G18G22
  21169212.991    21169212.394    21169211.307   -20050344.845 6 -15623637.945 6
        40.600          40.200
  23403108.020    23403107.033    23403105.161    -8218498.345 4  -6404020.953 4
        29.700          27.900
  21528987.675    21528987.089    21528986.107   -17527200.591 6 -13657550.277 5
        37.000          33.900
  24717449.468    24717447.500    24717444.010      472442.188      368136.551 2
                        13.900
  24271560.653    24271561.671    24271558.747    -3098237.489 1  -2414210.343 1
         9.000           9.000
  25112161.481    25112161.318    25112157.212     -433917.912     -338106.821 1
                        11.000
  25041534.151    25041534.256    25041536.140     2863017.032     2230923.334 2
         3.000          12.600
  21684817.034    21684816.346    21684814.560   -19492282.596 6 -15188782.773 5
        38.400          34.300
  20308112.749    20308112.489    20308109.440   -25464867.996 7 -19842745.303 8
        44.200          49.000
 09  1 28  0 24  0.0000000  0  8G14G 9G19G21G11G 3G18G22
  21157628.201    21157627.707    21157626.499   -20111222.988 6 -15671075.440 6
        40.700          40.200
  21534662.047    21534661.823    21534661.082   -17497380.216 6 -13634313.617 5
        37.200          34.300
  23412953.832    23412952.342    23412950.436    -8166761.792 4  -6363706.767 4
        29.200          28.400
  24739955.827    24739954.456    24739951.056      590719.716 1    460300.812 2
         6.500          15.100
  24254627.645    24254627.318    24254624.477    -3187232.687 1  -2483557.258 1
        11.000          11.000
  25059937.963    25059937.629    25059936.954     2959708.812 1   2306267.572 2
         9.000          12.600
  21697897.755    21697897.198    21697895.495   -19423542.091 6 -15135218.742 5
        38.300          34.300
  20310961.550    20310961.177    20310957.972   -25449898.470 7 -19831080.734 8
        44.300          48.900
 09  1 28  0 24 30.0000000  0  8G14G 9G19G21G11G 3G18G22
  21146119.558    21146119.038    21146117.810   -20171701.108 6 -15718201.231 6
        40.600          40.200
  21540469.658    21540469.214    21540468.399   -17466862.041 6 -13610533.212 5
        37.200          34.100
  23422886.467    23422885.031    23422883.425    -8114563.710 4  -6323032.954 4
        28.800          28.400
  24762471.223    24762471.386    24762468.538      709048.880 1    552505.292 2
         9.000          15.100
  24237750.002    24237750.320    24237747.814    -3275924.040 1  -2552667.357 2
        11.000          13.900
  25078351.726    25078351.756    25078352.424     3056475.316 1   2381670.007 2
        11.000          15.100
  21711034.812    21711034.236    21711032.346   -19354506.661 6 -15081424.904 5
        38.100          33.900
  20313885.937    20313885.681    20313882.549   -25434530.075 7 -19819105.353 8
        44.300          48.900
 09  1 28  0 25  0.0000000  0  8G14G 9G19G21G11G 3G18G22
  21134690.153    21134689.676    21134688.524   -20231762.554 6 -15765002.340 6
        40.700          40.300
  21546412.457    21546411.914    21546411.392   -17435631.721 6 -13586197.890 5
        36.900          34.100
  23432909.821    23432908.225    23432906.812    -8061890.255 4  -6281988.704 4
        28.800          28.600
  24785001.028    24785001.117    24784999.139      827443.415 1    644760.732 2
        11.000          13.900
  24220933.452    24220933.120    24220932.252    -3364293.848 2  -2621526.910 2
        12.600          16.100
  25096779.473    25096778.344    25096782.430     3153329.259     2457140.679 2
         3.000          12.600
  21724230.779    21724230.116    21724228.176   -19285161.604 6 -15027389.791 5
        38.000          33.500
  20316889.576    20316889.215    20316886.111   -25418746.068 7 -19806806.123 8
        44.100          48.800
 09  1 28  0 25 30.0000000  0  8G14G 9G18G21G11G19G 3G22
  21123343.072    21123342.465    21123341.242   -20291392.576 6 -15811467.273 6
        40.600          40.400
  21552493.165    21552492.772    21552491.994   -17403676.665 6 -13561297.847 5
        37.000          33.800
  21737487.975    21737487.367    21737485.756   -19215493.664 6 -14973103.080 5
        37.900          33.600
  24807545.044    24807544.919    24807543.305      945914.845 1    737076.110 2
        11.000          12.600
  24204181.224    24204181.287    24204180.249    -3452325.318 2  -2690122.825 2
        13.900          16.100
  23443026.331    23443024.697    23443023.238    -8008730.041 4  -6240565.173 4
        29.500          29.200
  25115229.832    25115229.607    25115229.710     3250281.614     2532687.938 1
                         9.000
  20319974.774    20319974.466    20319971.275   -25402533.214 7 -19794172.723 8
        44.100          48.700
 09  1 28  0 26  0.0000000  0  8G14G 9G18G21G11G19G 3G22
  21112075.051    21112074.501    21112073.395   -20350605.389 6 -15857607.103 6
        40.500          40.500
  21558709.097    21558708.623    21558707.727   -17371012.850 6 -13535845.521 5
        37.100          33.600
  21750803.837    21750803.255    21750801.555   -19145518.481 6 -14918576.963 5
        37.800          33.600
  24830101.126    24830100.492    24830099.942     1064445.877 1    829437.928 2
        11.000          12.600
  24187493.059    24187492.325    24187490.765    -3540031.060 2  -2758464.955 2
        17.000          17.000
  23453231.731    23453230.254    23453228.398    -7955099.908 4  -6198775.473 4
        29.900          28.600
  25133696.250    25133695.381    25133695.708     3347314.886     2608298.185 1
         3.000          11.000
  20323138.763    20323138.438    20323135.302   -25385906.371 7 -19781216.734 8
        44.100          48.700
 09  1 28  0 26 30.0000000  0  7G14G 9G18G11G19G 3G22
  21100883.601    21100883.129    21100882.040   -20409416.396 6 -15903433.841 6
        40.500          40.600
  21565056.016    21565055.656    21565055.033   -17337658.554 6 -13509855.144 5
        36.900          33.900
  21764174.985    21764174.371    21764172.440   -19075253.649 6 -14863825.144 5
        37.900          33.400
  24170862.154    24170861.907    24170860.915    -3627425.343 3  -2826564.359 3
        18.600          18.600
  23463522.970    23463521.541    23463519.864    -7901018.788 4  -6156634.360 4
        29.700          28.600
  25152172.959    25152172.048    25152172.870     3444408.826     2683955.794 2
         3.000          12.600
  20326378.377    20326378.023    20326374.829   -25368882.245 7 -19767951.177 8
        44.100          48.600
 09  1 28  0 27  0.0000000  0  7G14G 9G18G11G19G 3G22
  21089769.965    21089769.460    21089768.298   -20467819.483 6 -15948942.720 6
        40.500          40.700
  21571535.509    21571534.999    21571534.175   -17303610.109 6 -13483323.888 5
        36.800          33.800
  21777602.014    21777601.271    21777599.440   -19004694.795 6 -14808844.215 5
        37.700          33.400
  24154291.472    24154291.392    24154291.492    -3714500.538 3  -2894415.118 3
        19.900          19.900
  23473900.618    23473899.057    23473897.186    -7846483.985 4  -6114139.705 4
        29.000          28.400
  25170661.946    25170661.189    25170662.784     3541565.615 1   2759662.438 2
         6.500          12.600
  20329694.366    20329694.052    20329690.904   -25351456.173 7 -19754372.415 8
        44.000          48.600
 09  1 28  0 27 30.0000000  0  7G14G 9G18G11G19G 3G22
  21078739.383    21078738.906    21078737.716   -20525785.033 6 -15994110.660 6
        40.400          40.700
