     2.11           OBSERVATION DATA    G (GPS)             RINEX VERSION / TYPE
teqc  2008Oct2      WCDA Operator       20090126 00:18:43UTCPGM / RUN BY / DATE
Solaris x86 5.10|AMD64|cc SC5.8 -xarch=amd64|=+|=+          COMMENT
teqc  2008Oct2      WCDA Operator       20090125 01:18:16UTCCOMMENT
flin  WCDA-ACP   965000   CFS Flin Flon SASK Canada         MARKER NAME
40135M001                                                   MARKER NUMBER
PGC-WCDA            GEOL. SURV. CANADA                      OBSERVER / AGENCY
1115                AOA BENCHMARK ACT   3.3.32.4            REC # / TYPE / VERS
231                 AOAD/M_T        SCIS                    ANT # / TYPE
  -766174.4630 -3611375.3160  5184056.2210                  APPROX POSITION XYZ
        0.1500        0.0000        0.0000                  ANTENNA: DELTA H/E/N
     1     1                                                WAVELENGTH FACT L1/2
     7    C1    P1    P2    L1    L2    S1    S2            # / TYPES OF OBSERV
STATION INFORMATION EFFECTIVE FROM: 2001/01/13 18:20:00     COMMENT
                                TO: CURRENT DATE (above)    COMMENT
BIT 2 OF LLI FLAGS (+4) DATA COLLECTED UNDER 'AS' CONDITION COMMENT
L1 PHASE CENTRE 0.110m ABOVE ARP                            COMMENT
L2 PHASE CENTRE 0.128m ABOVE ARP                            COMMENT
where ARP is the Antenna Reference Point for HI measurement COMMENT
CONTACT gps@pgc.nrcan.gc.ca FOR ADDITIONAL INFORMATION      COMMENT
    P1 =    P1  TurboRogue; =    Y1  Benchmark              COMMENT
    L1 = L1(CA)                                             COMMENT
    P2 =    P2  TurboRogue; =    Y2  Benchmark              COMMENT
    L2 = L2(P2) TurboRogue; = L2(Y2) Benchmark              COMMENT
 SNR is mapped to RINEX snr flag value [0-9]                COMMENT
  L1 & L2: min(max(int(snr_dBHz/6), 0), 9)                  COMMENT
  2009     1    25     0     0    0.0000000     GPS         TIME OF FIRST OBS
                                                            END OF HEADER
 09  1 25  0  0  0.0000000  0 10G 9G28G 3G21G15G 6G18G14G22G19
  21482225.490    21482224.987    21482224.185   -17846915.210 6 -13906680.307 5
        37.200          35.300
  25455220.851    25455219.996    25455219.687       20225.858 1     15760.287 1
         6.500           9.000
  23807200.206    23807200.008    23807200.324    -3948551.990 3  -3076790.348 3
        21.100          23.000
  23161455.812    23161454.974    23161453.978   -12573183.906 4  -9797279.659 3
        24.200          21.600
  24851286.870    24851286.609    24851284.247    -1822307.094 2  -1419968.206 3
        16.100          22.600
  23883937.196    23883937.225    23883937.264    -6918833.010 3  -5391305.155 3
        20.500          22.600
  20915353.330    20915352.693    20915350.993   -23543047.943 6 -18345222.372 6
        41.900          41.800
  22198935.586    22198935.198    22198934.393   -14768162.628 5 -11507654.981 5
        34.300          31.800
  20306949.187    20306948.938    20306945.736   -25532999.541 7 -19895833.725 8
        44.500          49.500
  22953662.602    22953661.135    22953659.430   -10764297.219 5  -8387760.347 5
        33.000          31.600
 09  1 25  0  0 30.0000000  0 10G 9G28G 3G21G15G 6G18G14G22G19
  21477968.078    21477967.556    21477966.760   -17869288.238 6 -13924113.822 5
        37.300          35.300
  25456700.703    25456699.805    25456698.413       27999.835       21817.991 1
                        11.000
  23822941.002    23822940.869    23822940.945    -3865833.313 3  -3012334.252 3
        20.500          22.600
  23181945.180    23181944.496    23181943.273   -12465512.193 4  -9713379.645 3
        24.600          21.600
  24871762.458    24871762.033    24871758.925    -1714710.788 2  -1336126.913 3
        15.100          21.600
  23899865.716    23899865.110    23899865.376    -6835132.835 3  -5326084.259 3
        20.500          23.400
  20923910.306    20923909.644    20923908.005   -23498080.749 6 -18310182.996 6
        41.800          41.700
  22182261.409    22182260.975    22182260.081   -14855786.166 5 -11575933.049 5
        34.300          31.800
  20304252.231    20304251.857    20304248.720   -25547172.458 7 -19906877.553 8
        44.400          49.600
  22956239.159    22956237.686    22956235.988   -10750757.224 5  -8377209.705 5
        33.100          31.600
 09  1 25  0  1  0.0000000  0 10G 9G28G 3G21G15G 6G18G14G22G19
  21473846.238    21473845.849    21473845.324   -17890947.890 6 -13940991.460 5
        37.200          35.500
  25458276.920    25458276.052    25458274.861       36279.901       28269.933 1
         3.000           9.000
  23838739.792    23838738.809    23838738.820    -3782817.683 3  -2947646.766 3
        21.100          23.800
  23202476.817    23202476.134    23202475.025   -12357617.326 4  -9629305.742 3
        24.900          19.900
  24892249.202    24892249.666    24892246.599    -1607046.755 2  -1252232.846 3
        13.900          20.500
  23915840.370    23915839.607    23915839.949    -6751185.172 3  -5260670.519 3
        20.500          23.800
  20932534.501    20932533.905    20932532.074   -23452760.546 6 -18274868.549 6
        41.900          41.600
  22165647.995    22165647.429    22165646.483   -14943091.635 5 -11643963.276 5
        34.500          32.100
  20301629.725    20301629.391    20301626.303   -25560953.575 7 -19917616.081 8
        44.400          49.700
  22958925.547    22958924.063    22958922.274   -10736640.193 5  -8366209.428 5
        33.400          31.300
 09  1 25  0  1 30.0000000  0 10G 9G28G 3G21G15G 6G18G14G22G19
  21469860.979    21469860.508    21469859.904   -17911890.927 6 -13957310.706 5
        37.300          35.600
  25459947.578    25459946.483    25459946.455       45067.996       35117.784 1
                         9.000
  23854592.798    23854592.300    23854592.796    -3699505.668 3  -2882728.338 4
        19.900          24.200
  23223051.192    23223050.659    23223049.048   -12249499.180 4  -9545057.847 3
        24.600          20.500
  24912748.329    24912748.922    24912747.793    -1499314.586 2  -1168285.668 3
        12.600          19.900
  23931862.203    23931861.366    23931861.545    -6666990.759 3  -5195064.478 3
        20.500          23.800
  20941226.137    20941225.508    20941223.749   -23407085.735 6 -18239277.784 6
        41.900          41.500
  22149095.396    22149094.994    22149093.963   -15030074.920 5 -11711742.442 5
        34.400          32.100
  20299082.466    20299082.113    20299079.126   -25574339.225 7 -19928046.452 8
        44.400          49.700
  22961722.274    22961720.739    22961718.774   -10721944.724 5  -8354758.415 5
        33.400          31.500
 09  1 25  0  2  0.0000000  0 10G 9G28G 3G21G15G 6G18G14G22G19
  21466012.209    21466011.861    21466011.162   -17932115.316 6 -13973069.960 5
        37.200          35.400
  25461718.528    25461718.188    25461715.405       54364.783       42362.152 1
                         6.500
  23870502.822    23870502.239    23870502.562    -3615899.317 3  -2817580.551 3
        20.500          23.400
  23243667.789    23243667.123    23243665.526   -12141159.137 4  -9460637.044 3
        24.200          20.500
  24933261.373    24933262.741    24933261.279    -1391515.022 2  -1084285.998 3
        12.600          19.300
  23947929.810    23947929.366    23947929.869    -6582551.053 3  -5129267.326 3
        19.900          23.800
  20949985.191    20949984.572    20949982.893   -23361056.103 6 -18203410.538 6
        41.900          41.400
  22132605.047    22132604.456    22132603.337   -15116733.753 5 -11779268.791 5
        34.600          32.300
  20296610.853    20296610.460    20296607.400   -25587328.322 7 -19938167.824 8
        44.600          49.800
  22964628.447    22964626.910    22964625.504   -10706670.724 5  -8342856.593 5
        33.100          32.000
 09  1 25  0  2 30.0000000  0 10G 9G28G 3G21G15G 6G18G14G22G19
  21462302.121    21462301.686    21462301.299   -17951611.865 6 -13988262.071 5
        37.200          35.700
  25463586.349    25463585.897    25463583.382       64178.153 1     50008.976 1
         9.000           9.000
  23886469.233    23886468.520    23886469.186    -3531993.974 3  -2752199.780 3
        19.900          22.600
  23264327.648    23264327.093    23264325.414   -12032591.216 4  -9376038.676 3
        24.600          20.500
  24953789.914    24953790.242    24953788.100    -1283642.195 2  -1000229.285 3
        12.600          18.600
  23964046.151    23964045.263    23964045.415    -6497861.141 3  -5063275.222 3
        19.300          23.000
  20958813.532    20958812.921    20958811.052   -23314663.540 6 -18167260.485 6
        41.900          41.200
  22116177.737    22116177.297    22116176.166   -15203058.704 5 -11846534.975 5
        34.700          32.400
  20294215.928    20294215.629    20294212.525   -25599913.292 7 -19947974.290 8
        44.600          49.800
  22967646.381    22967645.126    22967643.323   -10690811.287 5  -8330498.584 5
        33.400          31.800
 09  1 25  0  3  0.0000000  0 10G 9G28G 3G21G15G 6G18G14G22G19
  21458729.294    21458728.782    21458728.491   -17970386.780 6 -14002891.861 5
        37.100          35.600
  25465549.484    25465547.950    25465548.654       74500.567       58052.398 1
         3.000          11.000
  23902490.843    23902490.017    23902490.458    -3447798.858 3  -2686593.204 3
        19.900          21.600
  23285028.803    23285028.282    23285026.620   -11923804.546 3  -9291269.854 3
        23.400          20.500
  24974331.445    24974330.377    24974328.401    -1175704.513 2   -916121.989 2
        12.600          17.000
  23980208.227    23980207.619    23980207.339    -6412930.792 3  -4997095.756 3
        19.900          22.600
  20967709.272    20967708.626    20967706.849   -23267915.663 6 -18130833.562 6
        41.800          41.200
  22099813.119    22099812.762    22099811.752   -15289055.027 5 -11913545.081 5
        34.900          32.700
  20291896.816    20291896.572    20291893.467   -25612099.919 7 -19957470.360 8
        44.600          49.800
  22970774.667    22970773.145    22970771.225   -10674373.332 5  -8317689.796 5
        33.200          31.300
 09  1 25  0  3 30.0000000  0 10G 9G28G 3G21G15G 6G18G14G22G19
  21455293.838    21455293.444    21455292.955   -17988440.650 6 -14016959.803 5
        37.300          35.500
  25467608.637    25467611.070    25467606.758       85329.991       66490.865
                         3.000
  23918567.150    23918566.427    23918566.355    -3363318.615 3  -2620764.467 3
        20.500          20.500
  23305771.085    23305770.401    23305769.076   -11814803.112 3  -9206333.689 3
        23.400          20.500
  24994884.118    24994883.111    24994879.951    -1067705.536 2   -831966.917 2
        12.600          17.000
  23996413.690    23996414.036    23996414.619    -6327764.313 3  -4930732.285 3
        19.900          22.600
  20976672.203    20976671.556    20976669.848   -23220814.868 6 -18094131.644 6
        41.900          41.100
  22083511.408    22083510.759    22083509.520   -15374722.642 5 -11980299.057 5
        35.200          32.600
  20289653.327    20289653.031    20289650.088   -25623889.258 7 -19966656.853 8
        44.500          49.900
  22974011.781    22974010.367    22974009.005   -10657359.598 5  -8304432.332 5
        32.600          31.000
 09  1 25  0  4  0.0000000  0 10G28G 9G 3G21G15G 6G18G14G22G19
  25469767.475    25469766.881    25469764.809       96670.675       75327.780 1
                         6.500
  21451996.793    21451996.264    21451995.437   -18005767.895 6 -14030461.543 5
        37.500          35.400
  23934697.656    23934696.867    23934697.035    -3278552.228 3  -2554712.749 3
        20.500          19.900
  23326554.477    23326554.012    23326552.602   -11705584.691 3  -9121228.444 3
        23.000          20.500
  25015446.896    25015446.783    25015443.741     -959642.867 2   -747762.219 2
        13.900          17.800
  24012666.643    24012665.951    24012666.235    -6242360.237 3  -4864183.666 3
        20.500          21.600
  20985702.998    20985702.407    20985700.650   -23173357.557 6 -18057151.917 6
        41.900          41.000
  22067272.960    22067272.331    22067271.140   -15460055.661 5 -12046792.309 5
        35.200          32.600
  20287486.473    20287486.109    20287483.021   -25635276.865 7 -19975530.309 8
        44.600          49.900
  22977359.652    22977358.570    22977356.469   -10639766.594 5  -8290723.506 5
        32.400          30.600
 09  1 25  0  4 30.0000000  0 10G28G 9G 3G21G15G 6G18G14G22G19
  25472020.166    25472019.389    25472021.612      108510.703       84553.744 1
         3.000           9.000
  21448835.582    21448835.058    21448834.533   -18022379.387 6 -14043405.559 5
        37.300          35.300
  23950879.977    23950879.541    23950879.449    -3193514.038 3  -2488449.217 3
        20.500          19.300
  23347376.952    23347376.269    23347374.889   -11596163.432 3  -9035965.142 3
        23.000          20.500
  25036018.485    25036018.946    25036017.867     -851529.712 2   -663518.205 2
        13.900          17.800
  24028960.040    24028959.381    24028960.612    -6156733.248 3  -4797461.348 3
        19.300          20.500
  20994799.468    20994798.762    20994796.955   -23125555.994 6 -18019903.945 6
        41.900          40.900
  22051096.166    22051095.701    22051094.627   -15545064.659 5 -12113033.069 5
        35.300          32.700
  20285393.653    20285393.317    20285390.314   -25646274.235 7 -19984099.684 8
        44.600          49.900
  22980815.718    22980814.120    22980812.014   -10621607.278 5  -8276573.390 5
        32.400          30.600
 09  1 25  0  5  0.0000000  0 10G28G 9G 3G21G15G 6G18G14G22G19
  25474371.304    25474370.039    25474369.044      120859.013 1     94175.847 1
         9.000           9.000
  21445812.740    21445812.242    21445811.616   -18038264.647 6 -14055783.678 5
        37.300          35.300
  23967115.596    23967114.670    23967114.672    -3108197.479 3  -2421968.783 3
        19.900          19.900
  23368239.417    23368238.787    23368237.137   -11486531.453 3  -8950537.647 3
        22.600          20.500
  25056604.331    25056603.725    25056602.236     -743357.986 2   -579228.500 2
        13.900          17.800
  24045297.913    24045297.407    24045298.692    -6070876.117 3  -4730559.724 3
        18.600          19.300
  21003963.030    21003962.472    21003960.685   -23077400.635 6 -17982380.281 6
        41.900          40.900
  22034983.299    22034982.844    22034981.632   -15629737.969 5 -12179012.264 5
        35.500          32.700
  20283377.303    20283376.945    20283373.870   -25656870.794 7 -19992356.739 8
        44.600          50.000
  22984380.543    22984379.160    22984377.419   -10602872.530 5  -8261974.881 5
        32.400          30.800
 09  1 25  0  5 30.0000000  0 10G28G 9G 3G21G15G 6G18G14G22G19
  25476820.188    25476819.362    25476816.457      133722.990 1    104199.733 1
        11.000           6.500
  21442929.658    21442929.224    21442928.743   -18053415.254 6 -14067589.336 5
        37.400          35.600
  23983404.043    23983403.523    23983404.007    -3022597.501 3  -2355267.524 3
        19.900          20.500
  23389141.813    23389141.750    23389140.640   -11376683.198 3  -8864941.622 3
        20.500          19.900
  25077201.178    25077200.426    25077198.773     -635122.035 2   -494888.740 2
        12.600          17.000
  24061681.908    24061681.197    24061680.728    -5984784.113 3  -4663475.055 3
        19.900          18.600
  21013195.302    21013194.679    21013193.065   -23028884.418 6 -17944575.435 6
        41.800          40.900
  22018936.313    22018935.618    22018934.417   -15714066.506 5 -12244722.800 5
        35.600          32.800
  20281438.550    20281438.199    20281435.219   -25667058.509 7 -20000295.211 8
        44.600          50.000
  22988056.542    22988055.201    22988053.081   -10583555.367 5  -8246922.554 5
        32.600          30.800
 09  1 25  0  6  0.0000000  0 10G28G 9G 3G21G15G 6G18G14G22G19
  25479364.865    25479363.016    25479362.213      147094.161      114618.651 1
                        11.000
  21440184.840    21440184.428    21440184.147   -18067838.314 6 -14078828.079 5
        37.400          35.700
  23999744.953    23999744.267    23999745.127    -2936725.849 3  -2288354.553 3
        21.100          21.600
  23410084.813    23410084.208    23410083.282   -11266628.916 3  -8779185.070 3
        21.100          19.300
  25097808.111    25097807.227    25097805.297     -526831.531 2   -410506.511 2
        12.600          17.000
  24078106.492    24078106.405    24078106.441    -5898468.136 3  -4596215.846 3
        19.300          18.600
  21022494.540    21022493.993    21022492.358   -22980016.139 6 -17906496.254 6
        41.800          40.700
  22002953.289    22002952.725    22002951.647   -15798056.878 5 -12310169.833 5
        35.600          33.000
  20279576.240    20279575.936    20279572.853   -25676845.142 7 -20007921.155 8
        44.600          50.000
  22991841.229    22991840.022    22991838.374   -10563665.051 5  -8231423.610 5
        32.000          31.100
 09  1 25  0  6 30.0000000  0 10G28G 9G 3G21G15G 6G18G14G22G19
  25482005.279    25482004.109    25482003.880      160968.698      125430.018 2
         3.000          12.600
  21437578.408    21437577.882    21437577.375   -18081536.233 6 -14089501.775 5
        37.400          35.500
  24016135.726    24016135.381    24016136.023    -2850588.239 3  -2221234.346 3
        19.300          21.100
  23431065.855    23431065.237    23431064.023   -11156374.423 3  -8693272.497 3
        21.100          19.300
  25118425.750    25118424.897    25118421.637     -418491.195 1   -326085.460 2
         9.000          16.100
  24094572.279    24094572.490    24094573.664    -5811934.117 3  -4528786.782 3
        19.300          19.300
  21031860.448    21031859.758    21031858.017   -22930799.276 6 -17868145.446 6
        41.800          40.700
  21987034.487    21987033.979    21987032.929   -15881710.847 6 -12375354.730 5
        36.000          33.100
  20277789.795    20277789.445    20277786.365   -25686233.043 7 -20015236.397 8
        44.600          50.000
  22995734.900    22995733.462    22995731.606   -10543205.396 5  -8215481.033 5
        32.000          31.000
 09  1 25  0  7  0.0000000  0 10G28G 9G 3G21G15G 6G18G14G22G19
  25484742.220    25484740.302    25484738.946      175350.846 1    136636.843 1
         6.500           6.500
  21435110.659    21435110.239    21435109.706   -18094503.776 6 -14099606.346 5
        37.400          35.400
  24032579.095    24032578.129    24032578.229    -2764183.461 3  -2153905.950 3
        19.900          21.100
  23452085.106    23452084.356    23452083.486   -11045917.045 3  -8607201.843 3
        21.100          18.600
  25139050.973    25139050.500    25139048.625     -310098.631 1   -241623.702 2
         9.000          16.100
  24111082.008    24111081.749    24111082.355    -5725180.457 3  -4461186.541 3
        19.300          19.300
  21041293.025    21041292.450    21041290.832   -22881230.307 6 -17829520.275 6
        41.700          40.700
  21971180.768    21971180.334    21971179.247   -15965022.511 6 -12440272.900 5
        36.200          33.200
  20276080.073    20276079.748    20276076.594   -25695217.858 7 -20022237.547 8
        44.600          49.900
  22999737.302    22999735.752    22999733.890   -10522173.277 5  -8199092.375 5
        32.100          30.600
 09  1 25  0  7 30.0000000  0 10G28G 9G 3G21G15G 6G18G14G22G19
  25487574.769    25487574.044    25487571.519      190234.551      148234.414
         3.000           3.000
  21432781.104    21432780.656    21432780.046   -18106745.904 6 -14109145.658 5
        37.400          35.300
  24049070.384    24049069.829    24049070.342    -2677519.855 3  -2086375.882 3
        19.900          21.100
  23473141.559    23473140.731    23473139.995   -10935264.868 3  -8520979.381 3
        21.100          18.600
  25159685.917    25159685.307    25159683.727     -201660.952     -157126.822 2
         3.000          15.100
  24127631.558    24127630.383    24127631.291    -5638215.542 3  -4393421.691 3
        18.600          19.300
  21050791.645    21050791.079    21050789.319   -22831315.223 6 -17790625.399 6
        41.800          40.600
  21955391.484    21955390.902    21955389.966   -16047995.834 6 -12504927.429 5
        36.300          33.500
  20274445.876    20274445.554    20274442.529   -25703804.833 7 -20028928.692 8
        44.600          50.000
  23003847.071    23003845.572    23003844.152   -10500575.134 5  -8182262.654 5
        32.100          30.800
 09  1 25  0  8  0.0000000  0 10G28G 9G 3G21G15G 6G18G14G22G19
  25490500.990    25490499.222    25490500.045      205623.747      160226.148 1
         3.000           6.500
  21430590.462    21430590.103    21430589.418   -18118256.995 6 -14118115.330 5
        37.400          35.300
  24065611.494    24065610.526    24065611.178    -2590595.479 3  -2018642.619 3
        19.900          20.500
  23494235.093    23494235.015    23494233.979   -10824415.019 3  -8434602.881 2
        20.500          17.800
  25180329.859    25180329.693    25180328.328      -93174.843      -72592.202 2
                        15.100
  24144220.428    24144220.048    24144220.533    -5551037.765 3  -4325490.969 3
        19.300          19.300
  21060356.660    21060356.053    21060354.470   -22781049.791 6 -17751457.527 6
        41.500          40.400
  21939667.831    21939667.333    21939666.224   -16130624.430 6 -12569313.333 5
        36.300          33.500
  20272888.651    20272888.312    20272885.241   -25711988.497 7 -20035305.570 8
        44.600          50.100
  23008065.797    23008064.579    23008062.525   -10478406.908 5  -8164988.715 5
        33.000          30.400
 09  1 25  0  8 30.0000000  0 10G28G 9G 3G21G15G 6G18G14G22G19
  25493528.812    25493527.456    25493525.671      221517.770 2    172611.180 1
        13.900          11.000
  21428539.518    21428538.891    21428538.333   -18129037.046 6 -14126515.367 5
        37.600          35.500
  24082201.666    24082200.932    24082201.296    -2503413.751 3  -1950708.801 3
        20.500          20.500
  23515366.930    23515366.160    23515364.693   -10713370.219 3  -8348074.467 2
        19.900          17.800
  25200982.379    25200981.806    25200981.755       15357.189       11978.197 2
                        13.900
  24160850.262    24160849.599    24160849.824    -5463649.886 3  -4257396.521 3
        19.900          19.300
  21069988.342    21069987.735    21069986.101   -22730434.958 6 -17712017.395 6
        41.500          40.200
  21924009.825    21924009.367    21924008.351   -16212907.342 6 -12633429.874 5
        36.300          33.800
  20271408.020    20271407.700    20271404.777   -25719768.855 7 -20041368.182 8
        44.500          50.100
  23012392.479    23012391.116    23012388.858   -10455670.390 5  -8147271.949 5
        33.400          30.200
 09  1 25  0  9  0.0000000  0 10G28G 9G 3G21G15G 6G18G14G22G19
  25496646.580    25496645.947    25496644.722      237917.265 1    185389.899 1
         9.000          11.000
  21426627.279    21426626.925    21426626.285   -18139084.262 6 -14134344.359 5
        37.600          35.400
  24098839.849    24098839.189    24098839.885    -2415976.620 3  -1882575.999 3
        20.500          20.500
  23536534.566    23536534.319    23536533.201   -10602131.561 3  -8261395.023 2
        19.300          17.800
  25221643.558    25221643.646    25221642.522      123934.609       96583.974 2
         3.000          13.900
  24177519.019    24177518.658    24177518.941    -5376053.687 3  -4189139.772 3
        19.300          19.900
  21079686.703    21079686.071    21079684.223   -22679470.149 6 -17672304.552 6
        41.500          39.900
  21908418.302    21908417.812    21908416.664   -16294841.804 6 -12697274.893 5
        36.400          33.800
  20270004.591    20270004.229    20270001.186   -25727144.536 7 -20047115.461 8
        44.600          50.100
  23016827.356    23016825.899    23016823.942   -10432365.393 5  -8129112.217 5
        33.100          30.800
 09  1 25  0  9 30.0000000  0 10G28G 9G 3G21G15G 6G18G14G22G19
  25499863.156    25499862.516    25499861.757      254822.229      198562.571 1
         3.000          11.000
  21424855.262    21424854.835    21424854.216   -18148396.566 6 -14141600.682 5
        37.700          35.500
  24115527.635    24115527.107    24115527.287    -2328285.714 3  -1814245.446 3
        20.500          19.900
  23557739.561    23557738.780    23557737.812   -10490700.203 3  -8174565.414 2
        19.900          17.800
  25242312.557    25242314.080    25242312.542      232557.278      181225.001 2
         3.000          12.600
  24194227.239    24194227.117    24194227.438    -5288250.841 2  -4120722.014 3
        17.800          19.300
  21089451.739    21089451.149    21089449.350   -22628154.487 6 -17632318.315 6
        41.500          39.900
  21892893.198    21892892.804    21892891.853   -16376425.439 6 -12760846.544 5
        36.500          34.000
  20268678.324    20268677.970    20268674.817   -25734114.228 7 -20052546.388 8
        44.700          50.100
  23021370.192    23021368.684    23021367.101   -10408491.908 5  -8110509.497 5
        32.800          31.000
 09  1 25  0 10  0.0000000  0 10G28G 9G 3G21G15G 6G18G14G22G19
  25503176.082    25503175.200    25503176.623      272233.480      212129.795 2
         3.000          12.600
  21423223.537    21423222.958    21423222.175   -18156972.529 6 -14148283.244 5
        37.700          35.400
  24132262.966    24132262.192    24132261.657    -2240343.594 3  -1745719.113 3
        20.500          19.300
  23578981.637    23578980.486    23578978.508   -10379077.238 3  -8087586.510 2
        19.900          17.800
  25262992.447    25262993.649    25262990.840      341224.217 1    265900.562 1
         6.500          11.000
  24210974.928    24210974.282    24210974.107    -5200243.700 2  -4052145.036 3
        17.000          19.300
  21099283.423    21099282.816    21099281.147   -22576488.263 6 -17592058.920 6
        41.400          39.800
  21877435.637    21877435.149    21877434.271   -16457655.825 6 -12824142.935 5
        36.500          34.100
  20267429.511    20267429.208    20267426.062   -25740676.641 7 -20057659.951 8
        44.700          50.100
  23026021.613    23026019.996    23026017.930   -10384050.028 5  -8091463.887 5
        32.800          30.600
 09  1 25  0 10 30.0000000  0 10G28G 9G 3G21G15G 6G18G14G22G19
  25506585.721    25506586.274    25506583.525      290144.967      226086.680 1
                         9.000
  21421730.372    21421729.957    21421729.276   -18164817.499 6 -14154396.199 5
        37.600          35.400
  24149044.613    24149043.515    24149042.552    -2152158.064 3  -1677003.122 3
        19.900          19.300
  23600257.868    23600256.946    23600254.746   -10267270.447 3  -8000464.357 3
        21.600          18.600
  25283677.459    25283678.142    25283678.835      449928.226 1    350604.959 2
         9.000          12.600
  24227758.579    24227758.735    24227758.470    -5112040.112 2  -3983414.977 3
        17.000          18.600
  21109180.902    21109180.217    21109178.427   -22524477.425 6 -17551530.988 6
        41.300          39.700
  21862044.627    21862044.121    21862042.957   -16538537.272 6 -12887167.425 5
        37.000          34.400
  20266257.346    20266256.973    20266253.855   -25746836.568 7 -20062459.892 8
        44.700          50.100
  23030779.053    23030777.734    23030775.997   -10359046.483 5  -8071980.611 5
        31.600          30.600
 09  1 25  0 11  0.0000000  0 10G28G 9G 3G21G15G 6G18G14G22G19
  25510087.157    25510086.634    25510086.737      308551.261      240429.265 1
                         6.500
  21420376.030    21420375.561    21420374.888   -18171935.517 6 -14159942.701 5
        37.700          35.500
  24165868.202    24165868.915    24165869.286    -2063737.109 3  -1608103.683 3
        18.600          19.300
  23621567.204    23621566.518    23621564.761   -10155286.864 3  -7913204.432 2
        22.100          17.800
  25304371.298    25304370.599    25304371.353      558663.040 1    435333.377 1
         9.000          11.000
  24244580.384    24244579.636    24244578.655    -5023647.581 2  -3914537.704 2
        17.800          17.800
  21119142.733    21119142.117    21119140.452   -22472127.023 6 -17510738.467 6
        41.200          39.600
  21846719.055    21846718.619    21846717.504   -16619072.866 6 -12949922.420 5
        37.000          34.400
  20265160.916    20265160.552    20265157.378   -25752598.511 7 -20066949.712 8
        44.700          50.100
  23035643.120    23035641.498    23035640.072   -10333486.769 5  -8052063.963 5
        31.500          30.800
 09  1 25  0 11 30.0000000  0 10G28G 9G 3G21G15G 6G18G14G22G19
  25513686.485    25513685.657    25513685.021      327459.116 1    255162.573 1
         6.500           6.500
  21419161.422    21419160.880    21419160.154   -18178319.163 6 -14164916.955 5
        37.700          35.600
  24182739.916    24182740.395    24182740.451    -1975076.881 3  -1539017.789 3
        18.600          18.600
  23642911.764    23642910.615    23642909.041   -10043121.541 3  -7825802.909 2
        20.500          17.000
  25325071.804    25325070.831    25325068.415      667434.087 2    520090.004 1
        12.600           9.000
  24261436.525    24261436.630    24261436.905    -4935061.847 2  -3845509.904 3
        17.800          18.600
  21129170.398    21129169.825    21129168.197   -22419430.777 6 -17469676.454 6
        41.100          39.500
  21831461.211    21831460.688    21831459.674   -16699253.662 6 -13012400.951 5
        37.100          34.600
  20264141.494    20264141.122    20264138.047   -25757955.235 7 -20071123.779 8
        44.700          50.100
  23040613.978    23040612.569    23040610.814   -10307365.102 5  -8031709.419 5
        31.800          30.800
 09  1 25  0 12  0.0000000  0 10G28G 9G 3G21G15G 6G18G14G22G19
  25517378.885    25517378.925    25517378.586      346869.606 1    270287.693 1
         6.500          11.000
  21418086.569    21418086.123    21418085.342   -18183965.645 6 -14169316.803 5
        37.500          35.400
  24199657.057    24199656.878    24199657.800    -1886177.667 2  -1469745.694 2
        17.800          17.800
  23664290.600    23664289.444    23664288.103    -9930774.487 3  -7738259.766 2
        19.900          16.100
  25345775.087    25345775.213    25345772.062      776242.126 2    604875.490 1
        13.900           9.000
  24278330.971    24278330.345    24278331.720    -4846283.911 2  -3776332.330 3
        17.000          18.600
  21139264.368    21139263.749    21139262.081   -22366386.828 6 -17428343.506 6
        41.200          39.300
  21816271.369    21816270.864    21816269.832   -16779076.333 6 -13074600.420 5
        37.200          34.700
  20263199.763    20263199.459    20263196.320   -25762903.941 7 -20074979.911 8
        44.800          50.200
  23045691.569    23045690.223    23045688.387   -10280680.780 5  -8010916.439 5
        32.000          30.100
 09  1 25  0 12 30.0000000  0 10G28G 9G 3G21G15G 6G18G14G22G19
  25521167.180    25521166.656    25521166.608      366776.995 1    285799.857 1
         6.500           9.000
  21417151.779    21417151.245    21417150.295   -18188879.652 6 -14173145.893 5
        37.900          35.300
  24216618.818    24216618.260    24216617.791    -1797047.814 2  -1400293.862 2
        17.800          17.000
  23685701.756    23685701.265    23685700.319    -9818252.959 2  -7650580.663 2
        17.800          16.100
  25366483.990    25366484.708    25366483.423      885080.196 1    689684.356 1
        11.000          11.000
  24295260.071    24295259.797    24295260.197    -4757321.234 2  -3707010.787 2
        16.100          17.800
  21149423.448    21149422.828    21149421.024   -22313001.107 6 -17386744.240 6
        41.200          39.100
  21801149.233    21801148.669    21801147.398   -16858544.597 6 -13136523.731 5
        37.300          34.700
  20262334.931    20262334.552    20262331.472   -25767449.046 7 -20078521.546 8
        44.700          50.200
  23050875.339    23050874.073    23050872.128   -10253439.879 5  -7989689.766 4
        32.300          29.900
 09  1 25  0 13  0.0000000  0 10G28G 9G 3G21G15G 6G18G14G22G19
  25525050.247    25525050.582    25525050.289      387183.720      301701.150 1
         3.000           9.000
  21416356.514    21416356.086    21416355.226   -18193057.781 6 -14176401.571 5
        37.700          35.300
  24233623.642    24233623.214    24233622.497    -1707687.179 2  -1330662.229 2
        17.800          17.000
  23707146.970    23707146.362    23707146.077    -9705556.154 2  -7562764.999 2
        16.100          16.100
  25387198.461    25387200.302    25387201.205      993949.924 1    774517.858 1
         6.500          11.000
  24312224.190    24312223.683    24312223.852    -4668173.639 2  -3637545.132 2
        17.000          17.000
  21159647.679    21159647.138    21159645.518   -22259271.105 6 -17344876.703 6
        41.100          39.100
  21786095.180    21786094.600    21786093.462   -16937653.999 6 -13198167.409 5
        37.400          35.200
  20261547.139    20261546.854    20261543.889   -25771588.035 7 -20081746.729 8
        44.700          50.200
  23056165.722    23056164.271    23056162.320   -10225640.408 5  -7968027.845 4
        32.300          29.900
 09  1 25  0 13 30.0000000  0 10G28G 9G 3G21G15G 6G18G14G22G19
  25529030.128    25529028.623    25529027.223      408088.666      317990.681 1
                         9.000
  21415701.421    21415701.007    21415700.143   -18196500.077 6 -14179083.873 5
        37.700          35.200
  24250671.955    24250671.340    24250670.599    -1618099.147 2  -1260853.378 2
        16.100          17.800
  23728625.115    23728624.831    23728623.694    -9592686.452 2  -7474814.624 2
        15.100          15.100
  25407921.913    25407921.649    25407925.068     1102849.606      859374.744 2
         3.000          12.600
  24329222.378    24329223.346    24329222.842    -4578844.737 3  -3567938.230 2
        18.600          16.100
  21169937.763    21169937.130    21169935.342   -22205197.576 6 -17302741.485 6
        41.100          39.000
  21771109.577    21771108.992    21771108.027   -17016403.269 6 -13259530.461 5
        37.400          35.200
  20260837.043    20260836.688    20260833.591   -25775320.258 7 -20084654.952 8
        44.800          50.200
  23061561.892    23061560.209    23061558.501   -10197284.108 5  -7945932.035 4
        32.100          29.900
 09  1 25  0 14  0.0000000  0  9G28G 9G 3G21G 6G18G14G22G19
  25533101.851    25533100.751    25533099.158      429484.282      334662.573 1
         3.000           9.000
  21415185.093    21415184.654    21415183.914   -18199213.031 6 -14181197.857 5
        37.700          35.400
  24267761.309    24267760.503    24267760.691    -1528293.161 2  -1190874.703 3
        15.100          18.600
  23750134.966    23750134.678    23750133.381    -9479653.109 2  -7386736.713 2
        17.000          16.100
  24346255.731    24346255.043    24346254.170    -4489343.711 3  -3498197.187 2
        18.600          16.100
  21180291.581    21180290.884    21180289.140   -22150788.053 6 -17260344.453 6
        41.100          38.800
  21756191.302    21756190.976    21756190.006   -17094798.050 6 -13320617.288 5
        37.500          35.400
  20260202.876    20260202.557    20260199.440   -25778652.455 7 -20087251.464 8
        44.800          50.200
  23067062.050    23067060.844    23067058.844   -10168378.898 5  -7923408.493 5
        31.800          30.100
 09  1 25  0 14 30.0000000  0  9G28G 9G 3G21G 6G18G14G22G19
  25537268.179    25537267.034    25537266.221      451371.623 1    351717.581 1
         9.000          11.000
  21414808.064    21414807.505    21414807.173   -18201194.821 6 -14182742.101 5
        37.600          35.800
  24284891.150    24284891.031    24284891.554    -1438270.674 2  -1120727.308 3
        13.900          18.600
  23771675.533    23771675.191    23771673.746    -9366456.515 2  -7298531.589 2
        17.000          15.100
  24363318.863    24363317.991    24363318.078    -4399671.754 2  -3428322.954 2
        16.100          16.100
  21190709.365    21190708.790    21190707.044   -22096041.517 6 -17217684.814 6
        41.100          38.600
  21741341.617    21741341.152    21741340.040   -17172835.118 6 -13381425.387 5
        37.800          35.500
  20259645.464    20259645.084    20259641.965   -25781582.088 7 -20089534.291 8
        44.800          50.200
  23072667.021    23072665.425    23072664.100   -10138924.607 5  -7900457.098 5
        31.600          30.200
 09  1 25  0 15  0.0000000  0  9G28G 9G 3G21G 6G18G14G22G19
  25541528.354    25541526.952    25541527.376      473770.419      369171.227 1
         3.000           9.000
  21414573.912    21414573.489    21414573.034   -18202424.591 6 -14183700.355 5
        37.700          35.700
  24302067.321    24302066.157    24302066.584    -1348014.244 2  -1050397.629 3
        17.000          19.300
  23793251.006    23793250.413    23793249.033    -9253078.681 2  -7210185.256 2
        17.800          13.900
  24380417.155    24380417.804    24380418.439    -4309811.254 2  -3358301.819 2
        15.100          17.000
  21201195.283    21201194.672    21201192.846   -22040937.888 6 -17174746.918 6
        41.000          38.600
  21726563.802    21726563.245    21726562.285   -17250492.546 6 -13441937.655 5
        37.600          35.500
  20259168.279    20259168.014    20259164.914   -25784089.110 7 -20091487.812 8
        44.800          50.100
  23078380.110    23078378.715    23078377.075   -10108901.956 5  -7877062.829 5
        31.800          30.200
 09  1 25  0 15 30.0000000  0  9G28G 9G 3G21G 6G18G14G22G19
  25545883.720    25545882.254    25545883.164      496665.551      387011.665 1
                         6.500
  21414480.665    21414480.014    21414479.321   -18202916.550 6 -14184083.691 5
        37.800          35.500
  24319283.497    24319283.026    24319282.915    -1257541.363 2   -979899.293 3
        17.000          19.300
  23814857.367    23814857.159    23814855.230    -9139535.979 3  -7121710.430 2
        18.600          12.600
  24397550.316    24397550.481    24397550.615    -4219779.443 2  -3288147.178 2
        16.100          16.100
  21211745.998    21211745.359    21211743.827   -21985492.667 6 -17131542.848 6
        40.900          38.500
  21711855.827    21711855.296    21711854.349   -17327783.578 6 -13502164.424 5
        37.700          35.700
  20258769.172    20258768.792    20258765.625   -25786187.081 7 -20093122.590 8
        44.800          50.100
  23084198.387    23084197.045    23084195.261   -10078326.701 5  -7853237.954 5
        32.100          30.400
 09  1 25  0 16  0.0000000  0  9G28G 9G 3G21G 6G18G14G22G19
  25550335.193    25550335.106    25550334.578      520053.933      405236.186 2
         3.000          12.600
  21414526.760    21414526.215    21414525.796   -18202672.488 6 -14183893.507 5
        37.500          35.600
  24336539.157    24336538.867    24336539.922    -1166856.895 2   -909236.097 3
        17.000          19.300
  23836494.741    23836493.970    23836492.289    -9025832.474 3  -7033110.287 2
        18.600          13.900
  24414715.544    24414715.325    24414714.587    -4129581.362 3  -3217862.947 2
        19.300          17.000
  21222361.615    21222360.978    21222359.327   -21929708.102 6 -17088074.359 6
        41.000          38.600
  21697217.363    21697216.878    21697215.892   -17404709.030 6 -13562106.321 5
        37.800          35.900
  20258447.560    20258447.168    20258443.956   -25787877.560 7 -20094439.842 8
        44.800          50.100
  23090121.393    23090119.920    23090118.078   -10047201.973 5  -7828984.932 5
        31.600          30.400
 09  1 25  0 16 30.0000000  0  9G28G 9G 3G21G 6G18G14G22G19
  25554877.973    25554879.068    25554878.639      543928.616      423839.716 2
         3.000          13.900
  21414711.908    21414711.637    21414711.009   -18201698.771 6 -14183134.757 5
        37.700          35.500
  24353836.032    24353835.206    24353836.081    -1075970.031 2   -838415.160 3
        17.800          19.900
  23858160.825    23858160.159    23858158.705    -8911976.967 2  -6944391.709 2
        17.800          15.100
  24431908.926    24431908.845    24431908.491    -4039225.618 2  -3147455.913 2
        17.800          17.000
  21233040.228    21233039.673    21233038.005   -21873591.046 6 -17044346.781 6
        41.000          38.200
  21682647.446    21682647.071    21682646.122   -17481273.245 6 -13621766.731 6
        37.800          36.000
  20258202.029    20258201.712    20258198.593   -25789167.007 7 -20095444.603 8
        44.800          50.100
  23096147.422    23096145.905    23096143.821   -10015535.783 5  -7804309.976 5
        32.100          30.400
 09  1 25  0 17  0.0000000  0  9G 9G28G 3G21G 6G18G14G22G19
  21415035.475    21415034.939    21415034.337   -18199999.347 6 -14181810.524 5
        37.700          35.400
  25559512.531    25559511.459    25559512.324      568284.339      442818.152 1
         3.000          11.000
  24371167.545    24371167.042    24371167.576     -984888.059 2   -767442.208 3
        16.100          19.300
  23879854.199    23879853.932    23879852.374    -8797976.031 2  -6855559.819 2
        17.800          16.100
  24449131.614    24449131.136    24449132.017    -3948719.833 2  -3076931.961 2
        16.100          16.100
  21243781.407    21243780.732    21243778.898   -21817146.536 6 -17000364.042 6
        40.900          38.100
  21668146.200    21668145.674    21668144.557   -17557479.408 6 -13681148.143 6
        38.100          36.100
  20258032.308    20258031.956    20258028.854   -25790059.098 7 -20096139.735 8
        44.800          50.100
  23102275.086    23102273.588    23102271.767    -9983333.558 5  -7779217.332 5
        31.600          30.600
 09  1 25  0 17 30.0000000  0  9G 9G28G 3G21G 6G18G14G22G19
  21415500.860    21415500.353    21415499.543   -18197554.697 6 -14179905.590 5
        37.900          35.400
  25564243.592    25564243.620    25564241.730      593139.948      462186.290 1
                         9.000
  24388540.366    24388540.187    24388539.331     -893594.314 2   -696304.254 3
        16.100          18.600
  23901579.133    23901578.852    23901577.009    -8683811.970 2  -6766600.837 2
        17.800          16.100
  24466386.259    24466385.919    24466386.473    -3858046.886 2  -3006277.705 2
        16.100          15.100
  21254588.489    21254587.808    21254586.090   -21760355.180 6 -16956111.034 6
        40.900          38.300
  21653716.685    21653716.224    21653715.095   -17633306.451 6 -13740234.141 6
        38.200          36.200
  20257941.837    20257941.530    20257938.432   -25790534.088 7 -20096509.853 8
        44.800          50.100
  23108508.383    23108506.823    23108505.235    -9950577.083 5  -7753692.822 5
        31.000          30.600
 09  1 25  0 18  0.0000000  0  9G 9G28G 3G21G 6G18G14G22G19
  21416106.396    21416105.861    21416105.234   -18194371.531 6 -14177425.194 5
        37.700          35.300
  25569067.506    25569067.743    25569066.939      618487.822      481937.884 1
         3.000          11.000
  24405952.111    24405951.041    24405950.811     -802098.612 2   -625008.927 2
        17.000          17.800
  23923334.176    23923333.119    23923330.547    -8569493.798 2  -6677521.752 2
        17.800          16.100
  24483671.233    24483671.098    24483670.500    -3767216.401 2  -2935500.709 2
        17.000          16.100
  21265459.746    21265459.261    21265457.596   -21703225.136 6 -16911594.115 6
        40.900          38.200
  21639358.284    21639357.837    21639356.795   -17708760.016 6 -13799029.112 6
        38.100          36.400
  20257929.767    20257929.412    20257926.200   -25790598.283 7 -20096559.871 8
        44.900          50.100
  23114845.733    23114844.424    23114842.598    -9917274.557 5  -7727742.814 5
        31.500          30.400
 09  1 25  0 18 30.0000000  0  8G 9G 3G21G 6G18G14G22G19
  21416852.568    21416852.150    21416851.372   -18190450.119 6 -14174369.542 5
        37.800          35.100
  24423400.401    24423399.936    24423399.474     -710404.001 2   -553558.589 2
        17.000          17.800
  23945116.399    23945115.784    23945113.341    -8455024.017 2  -6588324.542 2
        16.100          13.900
  24500984.917    24500984.915    24500984.527    -3676231.228 2  -2864603.193 2
        17.000          17.800
  21276395.719    21276395.032    21276393.325   -21645756.996 6 -16866813.742 6
        40.600          37.900
  21625071.331    21625070.873    21625069.812   -17783838.899 6 -13857532.122 6
        38.400          36.500
  20257995.582    20257995.271    20257992.121   -25790251.930 7 -20096289.978 8
        44.900          50.100
  23121286.419    23121285.086    23121283.186    -9883427.580 5  -7701368.544 4
        31.600          29.700
 09  1 25  0 19  0.0000000  0  9G 9G 3G11G21G 6G18G14G22G19
  21417736.114    21417735.601    21417734.727   -18185807.848 6 -14170752.179 5
        37.800          34.900
  24440882.625    24440882.109    24440882.541     -618531.405 2   -481969.546 3
        17.800          18.600
  24875291.653    24875290.787    24875287.534            .1241          -.16911
         3.000           9.000
  23966924.182    23966924.093    23966922.080    -8340422.540 2  -6499024.697 2
        15.100          13.900
  24518324.764    24518323.885    24518323.905    -3585112.032 2  -2793601.254 3
        15.100          18.600
  21287392.489    21287391.803    21287389.999   -21587968.841 6 -16821784.009 6
        40.600          37.700
  21610852.298    21610851.832    21610850.972   -17858559.438 6 -13915755.908 6
        38.300          36.700
  20258136.405    20258136.074    20258132.948   -25789511.908 7 -20095713.333 8
        44.900          50.100
  23127827.503    23127825.827    23127823.967    -9849055.397 5  -7674585.030 4
        31.600          29.700
 09  1 25  0 19 30.0000000  0  9G 9G 3G11G21G 6G18G14G22G19
  21418761.454    21418760.947    21418760.037   -18180419.241 6 -14166553.257 5
        37.700          34.800
  24458404.007    24458403.136    24458403.932     -526457.693 2   -410223.820 2
        17.800          17.800
  24856598.470    24856598.743    24856595.789      -98216.019 1    -76532.182 1
         6.500          11.000
  23988761.763    23988761.195    23988759.475    -8225666.274 2  -6409604.251 2
        16.100          13.900
  24535693.369    24535692.104    24535693.700    -3493836.226 2  -2722477.278 3
        13.900          18.600
  21298454.698    21298454.129    21298452.361   -21529835.768 6 -16776485.505 6
        40.600          37.700
  21596706.858    21596706.413    21596705.402   -17932894.726 6 -13973679.496 6
        38.400          36.900
  20258357.021    20258356.654    20258353.419   -25788353.052 7 -20094810.322 8
        44.900          50.000
  23134472.956    23134471.588    23134469.681    -9814133.894 5  -7647373.470 5
        32.300          30.200
 09  1 25  0 20  0.0000000  0  9G 9G 3G11G21G 6G18G14G22G19
  21419927.915    21419927.445    21419926.857   -18174288.964 6 -14161776.413 5
        37.700          35.100
  24475961.964    24475961.804    24475961.795     -434190.215 2   -338327.091 2
        17.800          17.000
  24837953.731    24837953.242    24837952.924     -196192.368     -152877.352 1
         3.000          11.000
  24010626.829    24010626.274    24010624.688    -8110761.402 2  -6320068.000 2
        15.100          15.100
  24553091.652    24553091.140    24553091.951    -3402410.782 2  -2651236.672 3
        12.600          18.600
  21309581.863    21309581.151    21309579.430   -21471362.512 6 -16730921.926 6
        40.500          37.500
  21582634.142    21582633.604    21582632.550   -18006847.936 6 -14031305.362 6
        38.600          36.800
  20258656.482    20258656.129    20258652.978   -25786778.777 7 -20093583.610 8
        44.800          50.000
  23141221.436    23141220.168    23141218.400    -9778668.787 5  -7619738.328 5
        32.000          30.200
 09  1 25  0 20 30.0000000  0  9G 9G 3G11G21G 6G18G14G22G19
  21421233.669    21421233.262    21421232.541   -18167426.995 6 -14156429.414 5
        37.700          35.200
  24493553.811    24493553.040    24493554.163     -341742.580 2   -266289.988 2
        16.100          15.100
  24819354.530    24819354.936    24819354.296     -293936.168 1   -229041.329 2
         9.000          12.600
  24032519.555    24032518.265    24032516.741    -7995720.153 2  -6230425.509 2
        15.100          12.600
  24570513.428    24570513.118    24570514.547    -3310848.412 1  -2579889.372 2
         9.000          16.100
  21320771.789    21320771.105    21320769.172   -21412560.035 6 -16685101.809 6
        40.700          37.500
  21568632.431    21568631.875    21568630.821   -18080427.459 6 -14088640.046 6
        38.700          36.900
  20259033.245    20259032.892    20259029.764   -25784799.065 7 -20092040.969 8
        44.800          50.100
  23148071.209    23148069.936    23148068.115    -9742671.839 5  -7591688.769 4
        31.600          29.900
 09  1 25  0 21  0.0000000  0  9G 9G 3G11G21G 6G18G14G22G19
  21422679.557    21422679.114    21422678.476   -18159828.831 6 -14150508.763 5
        37.900          35.200
  24511180.461    24511180.312    24511181.088     -249112.124 2   -194110.407 2
        16.100          15.100
  24800799.940    24800799.705    24800800.788     -391440.126 1   -305018.419 2
        11.000          12.600
  24054438.135    24054437.113    24054434.994    -7880540.073 2  -6140674.817 1
        15.100          11.000
  24587964.522    24587964.273    24587964.037    -3219146.997 1  -2508433.715 2
         9.000          15.100
  21332024.785    21332024.228    21332022.407   -21353424.281 6 -16639021.996 6
        40.600          37.500
  21554702.987    21554702.411    21554701.384   -18153627.402 6 -14145678.950 6
        38.800          37.100
  20259488.041    20259487.714    20259484.584   -25782408.753 7 -20090178.385 8
        44.700          50.000
  23155023.480    23155022.081    23155020.216    -9706139.512 5  -7563222.029 4
        32.100          29.700
 09  1 25  0 21 30.0000000  0  9G 9G 3G11G21G 6G18G14G22G19
  21424265.225    21424264.656    21424263.742   -18151497.737 6 -14144016.991 5
        37.900          34.900
  24528841.979    24528841.240    24528841.452     -156305.076 2   -121793.246 2
        17.800          15.100
  24782291.917    24782291.012    24782291.918     -488704.785 1   -380809.063 2
        11.000          12.600
  24076380.772    24076380.171    24076378.366    -7765226.154 2  -6050819.822 1
        15.100           9.000
  24605441.758    24605441.229    24605440.351    -3127312.597 1  -2436874.474 2
        11.000          16.100
  21343340.538    21343339.988    21343338.283   -21293958.841 6 -16592685.288 6
        40.300          37.300
  21540845.509    21540844.983    21540843.696   -18226449.307 6 -14202423.284 6
        39.000          37.200
  20260020.467    20260020.164    20260017.128   -25779610.475 7 -20087997.902 8
        44.700          50.000
  23162076.420    23162075.145    23162072.880    -9669076.517 5  -7534341.789 4
        32.100          29.200
 09  1 25  0 22  0.0000000  0  9G 9G 3G11G21G 6G18G14G22G19
  21425990.522    21425989.993    21425989.141   -18142429.723 6 -14136951.004 5
        37.600          34.700
  24546536.338    24546535.521    24546535.685      -63320.579 2    -49337.833 2
        17.000          15.100
  24763830.230    24763829.403    24763830.603     -585723.611 1   -456408.150 2
        11.000          12.600
  24098350.019    24098349.478    24098348.120    -7649777.135 2  -5960859.568 1
        17.000           9.000
  24622942.212    24622941.742    24622940.911    -3035344.020 1  -2365210.712 2
        11.000          17.800
  21354719.878    21354719.300    21354717.590   -21234160.344 6 -16546089.054 6
        40.300          37.200
  21527060.702    21527060.210    21527059.159   -18298887.860 6 -14258868.898 6
        39.000          37.400
  20260631.414    20260631.099    20260627.933   -25776400.468 7 -20085496.593 8
        44.700          50.000
  23169230.655    23169229.085    23169227.400    -9631480.376 5  -7505046.096 4
        31.600          29.200
 09  1 25  0 22 30.0000000  0  9G 9G 3G11G21G 6G18G14G22G19
  21427855.266    21427854.832    21427853.962   -18132630.696 6 -14129315.392 5
        37.700          34.900
  24564262.059    24564261.763    24564261.777       29832.849 2     23249.227 2
        16.100          15.100
  24745414.250    24745413.830    24745411.708     -682499.370 1   -531817.821 1
        11.000          11.000
  24120344.215    24120343.291    24120341.454    -7534200.446 3  -5870799.814 1
        18.600          11.000
  24640464.813    24640464.379    24640466.479    -2943249.585 1  -2293448.837 2
         6.500          17.800
  21366161.373    21366160.723    21366158.998   -21174035.049 6 -16499238.176 6
        40.300          37.200
  21513348.087    21513347.662    21513346.581   -18370947.795 6 -14315019.485 6
        39.100          37.400
  20261319.695    20261319.362    20261316.153   -25772783.707 7 -20082678.332 8
        44.800          50.000
  23176485.043    23176483.576    23176481.444    -9593358.276 5  -7475340.565 4
        31.300          28.800
 09  1 25  0 23  0.0000000  0  9G 9G 3G11G21G 6G18G14G22G19
  21429859.284    21429858.791    21429858.159   -18122099.634 6 -14121109.366 5
        38.000          35.200
  24582021.229    24582020.315    24582020.288      123153.745 2     95966.783 2
        13.900          15.100
  24727045.900    24727045.555    24727042.192     -779028.469 1   -607035.255 1
         9.000          11.000
  24142360.765    24142359.901    24142359.363    -7418496.810 2  -5780641.166 1
        17.800          11.000
  24658013.720    24658014.742    24658016.295    -2851030.664 1  -2221589.925 2
        11.000          17.000
  21377665.282    21377664.674    21377662.760   -21113582.120 6 -16452131.991 6
        40.300          37.000
  21499708.307    21499707.722    21499706.704   -18442625.925 6 -14370872.569 6
        39.100          37.500
  20262085.760    20262085.395    20262082.181   -25768758.190 7 -20079541.561 8
        44.700          50.000
  23183839.759    23183838.014    23183836.236    -9554710.378 5  -7445225.336 4
        31.000          29.000
 09  1 25  0 23 30.0000000  0  9G 9G 3G11G21G 6G18G14G22G19
  21432003.178    21432002.772    21432001.906   -18110833.265 6 -14112330.367 5
        37.700          34.900
  24599810.988    24599810.360    24599811.265      216642.770 2    168815.367 2
        13.900          16.100
  24708725.188    24708724.249    24708721.488     -875304.521 1   -682055.504 1
         9.000          11.000
  24164401.280    24164401.211    24164401.536    -7302665.104 2  -5690382.726 1
        17.800          11.000
  24675589.172    24675589.116    24675588.367    -2758686.399 2  -2149633.345 2
        13.900          16.100
  21389231.855    21389231.190    21389229.468   -21052798.801 6 -16404768.365 6
        40.000          36.800
  21486141.928    21486141.318    21486140.243   -18513917.905 6 -14426424.753 6
        39.100          37.600
  20262930.020    20262929.690    20262926.626   -25764320.675 7 -20076083.754 8
        44.700          50.000
  23191294.356    23191292.810    23191291.170    -9515534.899 5  -7414698.991 4
        31.000          29.700
 09  1 25  0 24  0.0000000  0  9G 9G 3G11G21G 6G18G14G22G19
  21434286.678    21434286.245    21434285.697   -18098832.551 6 -14102979.163 5
        37.600          35.200
  24617633.651    24617632.989    24617632.762      310296.138 2    241792.039 2
        15.100          16.100
  24690452.317    24690451.955    24690449.220     -971326.010 1   -756877.397 1
         9.000          11.000
  24186467.936    24186467.366    24186466.965    -7186708.293 3  -5600026.790 1
        19.300           9.000
  24693183.592    24693183.763    24693183.488    -2666220.377 1  -2077581.963 2
        11.000          13.900
  21400861.169    21400860.638    21400858.697   -20991686.429 6 -16357148.333 6
        40.100          36.800
  21472649.091    21472648.535    21472647.374   -18584822.965 6 -14481675.440 6
        39.200          37.600
  20263852.923    20263852.555    20263849.442   -25759471.416 7 -20072305.107 8
        44.700          50.000
  23198848.818    23198847.550    23198845.673    -9475834.219 5  -7383763.386 4
        30.600          29.200
 09  1 25  0 24 30.0000000  0  9G 9G 3G11G21G 6G18G14G22G19
  21436710.498    21436709.983    21436709.207   -18086096.971 6 -14093055.326 5
        37.800          35.100
  24635486.380    24635485.469    24635485.349      404111.932 2    314895.269 2
        16.100          15.100
  24672229.175    24672228.863    24672226.532    -1067089.387 1   -831498.194 2
        11.000          12.600
  24208557.598    24208557.682    24208556.510    -7070627.564 3  -5509574.271 1
        19.900           6.500
  24710801.068    24710801.774    24710801.073    -2573634.487 1  -2005437.123 2
         9.000          12.600
  21412553.169    21412552.470    21412550.810   -20930244.551 6 -16309271.542 6
        39.800          36.700
  21459230.155    21459229.689    21459228.648   -18655338.896 6 -14536622.908 6
        39.100          37.800
  20264854.221    20264853.898    20264850.741   -25754209.288 7 -20068204.743 8
        44.700          49.900
  23206503.788    23206502.279    23206500.204    -9435608.982 5  -7352419.072 4
        30.800          29.200
 09  1 25  0 25  0.0000000  0  9G 9G 3G11G21G 6G18G14G22G19
  21439272.928    21439272.494    21439271.754   -18072630.602 6 -14082562.047 5
        38.000          35.200
  24653368.039    24653367.132    24653367.778      498084.335 2    388120.491 2
        13.900          15.100
  24654055.047    24654054.263    24654053.417    -1162595.448 2   -905918.460 2
        12.600          13.900
  24230669.876    24230669.173    24230668.650    -6954428.452 3  -5419029.519 1
        19.300           9.000
  24728443.323    24728442.282    24728442.540    -2480934.919 2  -1933203.732 2
        12.600          16.100
  21424307.136    21424306.516    21424304.784   -20868477.243 6 -16261141.172 6
        39.800          36.600
  21445885.125    21445884.680    21445883.705   -18725467.882 6 -14591268.859 6
        39.300          38.100
  20265933.659    20265933.290    20265930.068   -25748537.287 7 -20063784.998 8
        44.700          49.900
  23214257.120    23214255.584    23214254.054    -9394864.030 5  -7320669.778 4
        30.200          29.500
 09  1 25  0 25 30.0000000  0  9G 9G18G 3G11G21G 6G14G22G19
  21441973.611    21441973.235    21441972.512   -18058438.437 6 -14071503.216 5
        38.000          35.300
  21436121.814    21436121.243    21436119.480   -20806390.189 6 -16212761.646 6
        39.800          36.500
  24671278.402    24671278.116    24671278.709      592204.844 2    461461.093 2
        15.100          15.100
