     2.11           OBSERVATION DATA    G (GPS)             RINEX VERSION / TYPE
teqc  2008Oct2      WCDA Operator       20090102 00:18:57UTCPGM / RUN BY / DATE
Solaris x86 5.10|AMD64|cc SC5.8 -xarch=amd64|=+|=+          COMMENT
teqc  2008Oct2      WCDA Operator       20090101 01:18:37UTCCOMMENT
flin  WCDA-ACP   965000   CFS Flin Flon SASK Canada         MARKER NAME
40135M001                                                   MARKER NUMBER
PGC-WCDA            GEOL. SURV. CANADA                      OBSERVER / AGENCY
1115                AOA BENCHMARK ACT   3.3.32.4            REC # / TYPE / VERS
231                 AOAD/M_T        SCIS                    ANT # / TYPE
  -766174.4630 -3611375.3160  5184056.2210                  APPROX POSITION XYZ
        0.1500        0.0000        0.0000                  ANTENNA: DELTA H/E/N
     1     1                                                WAVELENGTH FACT L1/2
     7    C1    P1    P2    L1    L2    S1    S2            # / TYPES OF OBSERV
STATION INFORMATION EFFECTIVE FROM: 2001/01/13 18:20:00     COMMENT
                                TO: CURRENT DATE (above)    COMMENT
BIT 2 OF LLI FLAGS (+4) DATA COLLECTED UNDER 'AS' CONDITION COMMENT
L1 PHASE CENTRE 0.110m ABOVE ARP                            COMMENT
L2 PHASE CENTRE 0.128m ABOVE ARP                            COMMENT
where ARP is the Antenna Reference Point for HI measurement COMMENT
CONTACT gps@pgc.nrcan.gc.ca FOR ADDITIONAL INFORMATION      COMMENT
    P1 =    P1  TurboRogue; =    Y1  Benchmark              COMMENT
    L1 = L1(CA)                                             COMMENT
    P2 =    P2  TurboRogue; =    Y2  Benchmark              COMMENT
    L2 = L2(P2) TurboRogue; = L2(Y2) Benchmark              COMMENT
 SNR is mapped to RINEX snr flag value [0-9]                COMMENT
  L1 & L2: min(max(int(snr_dBHz/6), 0), 9)                  COMMENT
  2009     1     1     0     0    0.0000000     GPS         TIME OF FIRST OBS
                                                            END OF HEADER
 09  1  1  0  0  0.0000000  0 12G21G26G 9G15G 6G27G18G 3G 8G22G19G24
  20426197.426    20426196.625    20426194.959   -27054403.838 6 -21081344.167 7
        40.000          45.600
  22336794.642    22336794.332    22336793.706   -10378636.846 4  -8087239.753 4
        28.100          29.200
  24414530.071    24414529.355    24414530.554    -2181146.710    -1699594.164 2
         3.000          13.900
  21595620.117    21595620.090    21595618.579   -17037643.317 6 -13276074.212 6
        39.000          40.600
  22257505.969    22257505.275    22257505.040   -12624359.897 5  -9837160.194 5
        33.600          32.800
  25787131.524    25787130.343    25787128.297     2419118.518     1885028.391 1
                         6.500
  20618192.462    20618191.692    20618190.257   -24638812.324 6 -19199063.872 8
        38.600          48.000
  22420890.477    22420889.674    22420889.851   -11183768.251 5  -8714621.157 5
        31.000          30.800
  25170101.695    25170102.365    25170103.615     1446066.574     1126804.979 1
                        11.000
  22161033.095    22161032.601    22161030.161   -15750814.497 5 -12273353.536 5
        34.600          34.800
  24424958.331    24424955.796    24424956.099    -3208920.551 1  -2500458.193 2
         6.500          17.000
  23359207.213    23359206.508    23359207.642    -7371951.666 3  -5744371.705 4
        21.100          24.200
 09  1  1  0  0 30.0000000  0 12G21G26G 9G15G 6G27G18G 3G 8G22G19G24
  20431686.479    20431685.621    20431683.992   -27025558.856 6 -21058867.555 7
        40.000          45.600
  22354717.508    22354717.212    22354716.292   -10284451.516 4  -8013848.582 4
        27.600          29.000
  24392896.528    24392896.576    24392897.235    -2294829.482 1  -1788178.096 2
         6.500          15.100
  21605123.007    21605122.919    21605121.593   -16987704.898 6 -13237161.150 6
        38.900          40.600
  22256057.251    22256056.501    22256056.359   -12631974.296 5  -9843093.478 5
        33.800          33.400
  25799489.141    25799490.454    25799487.460     2484058.421     1935630.856 1
                         6.500
  20612684.738    20612683.975    20612682.575   -24667756.005 6 -19221617.386 8
        38.700          48.000
  22417395.611    22417394.887    22417394.693   -11202133.836 5  -8728931.988 5
        30.600          30.800
  25181952.252    25181953.136    25181953.391     1508346.364     1175334.605 1
                         9.000
  22145887.530    22145887.254    22145884.639   -15830404.206 5 -12335371.471 5
        34.600          34.900
  24408575.389    24408573.543    24408572.535    -3295019.523 1  -2567548.243 3
        11.000          19.300
  23377758.534    23377757.935    23377759.332    -7274462.283 3  -5668405.978 3
        20.500          23.800
 09  1  1  0  1  0.0000000  0 12G21G26G 9G15G 6G27G18G 3G 8G22G19G24
  20437270.753    20437269.951    20437268.333   -26996213.167 6 -21036000.783 7
        40.000          45.500
  22372724.348    22372724.283    22372723.229   -10189823.638 4  -7940112.562 4
        27.400          28.800
  24371292.220    24371291.143    24371291.293    -2408373.247 2  -1876653.709 3
        13.900          18.600
  21614724.291    21614724.153    21614722.756   -16937250.769 6 -13197846.243 6
        38.800          40.600
  22254718.471    22254717.862    22254717.670   -12639007.564 5  -9848573.933 5
        33.500          33.100
  25811914.485    25811914.749    25811915.525     2549350.208     1986508.714 1
                        11.000
  20607250.655    20607249.810    20607248.280   -24696312.776 6 -19243869.431 8
        38.700          48.100
  22414018.435    22414017.693    22414017.592   -11219880.631 5  -8742760.639 5
        30.600          30.600
  25193894.851    25193890.915    25193893.902     1571103.887     1224236.574
                         3.000
  22130790.713    22130790.216    22130787.493   -15909739.526 5 -12397191.183 5
        34.400          34.800
  24392257.598    24392256.139    24392253.407    -3380772.952 1  -2634369.084 3
        11.000          19.300
  23396346.481    23396345.792    23396345.933    -7176787.149 3  -5592295.513 3
        21.600          23.000
 09  1  1  0  1 30.0000000  0 10G21G26G 9G15G 6G18G 3G22G19G24
  20442944.873    20442944.054    20442942.289   -26966395.866 6 -21012766.517 7
        40.200          45.300
  22390809.989    22390809.671    22390808.667   -10094785.064 4  -7866056.521 4
        27.600          29.000
  24349707.306    24349706.222    24349706.964    -2521802.918 2  -1965040.429 3
        17.800          19.900
  21624417.507    21624417.510    21624416.065   -16886311.708 6 -13158153.463 6
        38.700          40.500
  22253485.438    22253484.787    22253484.507   -12645488.294 5  -9853623.863 5
        33.600          33.200
  20601884.604    20601883.835    20601882.579   -24724511.121 6 -19265842.149 8
        38.700          48.000
  22410753.771    22410753.034    22410752.701   -11237036.651 5  -8756128.971 5
        31.000          30.200
  22115736.907    22115736.373    22115733.747   -15988848.279 5 -12458834.345 5
        34.500          35.300
  24375997.239    24375996.823    24375995.468    -3466206.992 1  -2700941.031 3
         9.000          19.300
  23414962.951    23414962.348    23414962.672    -7078956.267 3  -5516063.673 3
        21.100          22.600
 09  1  1  0  2  0.0000000  0 10G21G26G 9G15G 6G18G 3G22G19G24
  20448709.759    20448708.910    20448707.254   -26936101.138 6 -20989160.232 7
        40.200          45.400
  22408974.169    22408973.557    22408972.375    -9999333.446 4  -7791678.634 4
        27.600          28.800
  24328145.981    24328145.301    24328144.875    -2635109.709 2  -2053331.370 3
        15.100          20.500
  21634204.006    21634203.811    21634202.420   -16834884.078 6 -13118079.974 6
        38.600          40.500
  22252358.390    22252357.735    22252357.568   -12651410.697 5  -9858238.699 5
        33.600          33.200
  20596588.004    20596587.243    20596585.653   -24752345.198 6 -19287531.026 8
        38.700          48.100
  22407602.698    22407601.858    22407601.508   -11253596.206 5  -8769032.524 5
        30.800          30.200
  22100727.245    22100726.812    22100723.968   -16067723.806 5 -12520295.767 5
        34.700          35.300
  24359803.237    24359801.664    24359800.389    -3551313.602 2  -2767257.865 3
        13.900          19.900
  23433609.816    23433608.921    23433609.638    -6980965.627 3  -5439707.330 3
        19.900          23.000
 09  1  1  0  2 30.0000000  0 10G21G26G 9G15G 6G18G 3G22G19G24
  20454575.425    20454574.564    20454572.890   -26905276.996 6 -20965141.420 7
        40.200          45.300
  22427225.428    22427225.095    22427224.110    -9903420.120 4  -7716940.970 4
        26.800          28.400
  24306615.760    24306616.389    24306617.312    -2748238.406 2  -2141483.513 3
        12.600          19.300
  21644093.007    21644092.828    21644091.301   -16782917.680 6 -13077586.673 6
        38.800          40.300
  22251347.515    22251346.816    22251346.661   -12656722.674 5  -9862377.895 5
        33.400          32.800
  20591370.668    20591369.888    20591368.931   -24779762.118 6 -19308894.859 7
        38.600          47.600
  22404574.833    22404573.937    22404573.803   -11269506.494 5  -8781430.140 5
        30.400          30.100
  22085772.419    22085771.832    22085768.944   -16146313.299 5 -12581534.306 5
        35.100          35.400
  24343680.365    24343679.270    24343677.820    -3636038.239 2  -2833277.014 3
        15.100          20.500
  23452296.688    23452296.171    23452297.262    -6882764.407 3  -5363186.919 3
        19.900          23.000
 09  1  1  0  3  0.0000000  0 10G21G26G 9G15G 6G18G 3G22G19G24
  20460537.978    20460537.071    20460535.433   -26873943.722 6 -20940725.879 7
        40.300          45.200
  22445560.545    22445559.941    22445559.295    -9807068.168 4  -7641861.521 4
        26.500          28.100
  24285121.563    24285120.213    24285119.807    -2861204.963 1  -2229509.335 3
         6.500          18.600
  21654080.162    21654080.048    21654078.451   -16730434.472 6 -13036690.661 6
        38.900          40.200
  22250449.133    22250448.530    22250448.204   -12661443.931 5  -9866056.784 5
        33.800          33.000
  20586229.083    20586228.265    20586226.537   -24806782.127 6 -19329949.412 7
        38.600          47.800
  22401666.868    22401666.098    22401666.027   -11284787.094 5  -8793337.074 4
        30.200          29.900
  22070867.987    22070867.546    22070864.628   -16224635.744 5 -12642564.756 5
        35.300          35.400
  24327627.955    24327626.032    24327624.438    -3720398.485 2  -2899012.249 3
        16.100          20.500
  23471019.705    23471019.226    23471020.024    -6784374.137 3  -5286519.202 3
        19.300          23.000
 09  1  1  0  3 30.0000000  0 10G21G26G 9G15G 6G18G 3G22G19G24
  20466594.009    20466593.145    20466591.515   -26842118.984 6 -20915927.382 7
        40.300          45.100
  22463974.712    22463974.623    22463973.754    -9710298.690 4  -7566456.731 4
        26.500          27.600
  24263651.375    24263649.790    24263650.669    -2974023.721 1  -2317419.985 3
         6.500          18.600
  21664161.901    21664161.790    21664160.337   -16677454.115 6 -12995407.263 6
        38.600          40.300
  22249659.616    22249659.128    22249658.790   -12665592.026 5  -9869289.066 5
        34.000          33.100
  20581159.533    20581158.758    20581157.667   -24833422.370 6 -19350708.038 7
        38.600          47.700
  22398875.912    22398875.053    22398874.761   -11299455.341 5  -8804766.864 5
        30.600          30.100
  22056011.176    22056010.695    22056008.153   -16302707.613 5 -12703399.955 5
        34.900          35.600
  24311641.721    24311640.536    24311637.780    -3804409.292 3  -2964475.173 3
        18.600          21.600
  23489775.192    23489774.050    23489775.531    -6685813.586 3  -5209718.788 3
        18.600          22.600
 09  1  1  0  4  0.0000000  0 10G21G26G 9G15G 6G18G 3G22G19G24
  20472743.289    20472742.486    20472740.760   -26809804.061 6 -20890746.913 7
        40.300          45.000
  22482468.104    22482467.966    22482467.025    -9613115.914 4  -7490729.884 4
        26.200          27.100
  24242210.713    24242210.860    24242211.780    -3086691.953    -2405213.381 2
         3.000          16.100
  21674337.786    21674337.710    21674336.412   -16623979.477 6 -12953738.707 6
        38.400          40.300
  22248979.279    22248978.665    22248978.477   -12669167.895 5  -9872075.463 5
        33.800          33.200
  20576162.238    20576161.466    20576159.659   -24859683.166 6 -19371170.989 7
        38.600          47.500
  22396200.874    22396200.009    22396199.980   -11313512.060 5  -8815720.128 5
        30.400          30.400
  22041202.492    22041201.987    22041199.376   -16380528.944 5 -12764039.929 5
        35.400          35.800
  24295722.693    24295721.009    24295718.053    -3888069.148 3  -3029664.634 3
        18.600          21.600
  23508562.634    23508561.783    23508562.993    -6587085.085 3  -5132787.512 3
        20.500          23.000
 09  1  1  0  4 30.0000000  0 10G21G26G 9G15G 6G18G 3G22G19G24
  20478986.269    20478985.408    20478983.826   -26776997.075 6 -20865183.024 7
        40.400          44.900
  22501040.008    22501039.757    22501038.570    -9515520.911 4  -7414681.826 4
        26.200          26.500
  24220801.039    24220799.940    24220802.504    -3199204.184 1  -2492885.138 2
         6.500          17.800
  21684607.574    21684607.583    21684606.209   -16570010.395 6 -12911684.873 6
        38.400          40.300
  22248408.227    22248407.570    22248407.257   -12672169.250 5  -9874414.189 5
        33.800          33.000
  20571237.620    20571236.822    20571235.759   -24885562.501 6 -19391336.701 7
        38.600          47.500
  22393642.588    22393641.875    22393641.986   -11326954.660 5  -8826194.865 5
        30.200          30.200
  22026441.619    22026441.162    22026438.614   -16458096.544 5 -12824482.197 5
        35.500          35.700
  24279869.293    24279866.984    24279865.027    -3971373.508 2  -3094577.094 3
        17.000          21.600
  23527382.505    23527381.632    23527382.797    -6488187.746 3  -5055724.669 3
        21.100          23.000
 09  1  1  0  5  0.0000000  0 10G21G26G 9G15G 6G18G 3G22G19G24
  20485324.003    20485323.141    20485321.370   -26743692.704 6 -20839231.563 7
        40.500          44.800
  22519690.837    22519690.169    22519689.248    -9417511.690 4  -7338310.988 4
        26.200          27.400
  24199423.337    24199422.641    24199422.139    -3311551.334 1  -2580428.306 3
         9.000          19.900
  21694972.263    21694972.250    21694970.883   -16515543.746 6 -12869243.324 6
        38.500          40.100
  22247947.542    22247946.913    22247946.391   -12674590.793 5  -9876301.112 5
        34.000          32.800
  20566386.508    20566385.745    20566383.957   -24911054.566 6 -19411200.653 7
        38.400          47.200
  22391202.504    22391201.884    22391201.780   -11339777.164 5  -8836186.403 5
        30.200          30.400
  22011730.205    22011729.898    22011727.380   -16535404.371 5 -12884722.044 5
        35.400          35.800
  24264083.990    24264083.450    24264082.345    -4054314.105 2  -3159206.109 3
        17.000          22.100
  23546234.837    23546234.104    23546235.390    -6389117.516 3  -4978527.109 3
        21.100          23.000
 09  1  1  0  5 30.0000000  0 10G21G26G 9G15G 6G18G 3G22G19G24
  20491755.909    20491755.030    20491753.364   -26709892.509 6 -20812893.745 7
        40.500          44.800
  22538419.583    22538419.039    22538418.017    -9319092.548 4  -7261620.747 4
        26.200          27.600
  24178075.716    24178075.982    24178074.408    -3423731.314 1  -2667841.206 3
         9.000          19.300
  21705431.200    21705431.079    21705429.755   -16460582.277 6 -12826416.197 6
        38.400          40.000
  22247596.625    22247596.001    22247595.773   -12676433.598 5  -9877737.082 5
        33.500          32.800
  20561609.129    20561608.278    20561607.435   -24936160.157 6 -19430763.453 7
        38.400          47.100
  22388880.700    22388879.744    22388879.719   -11351980.184 5  -8845695.230 5
        30.400          30.600
  21997068.855    21997068.303    21997065.419   -16612452.400 5 -12944759.449 5
        35.700          35.800
  24248369.904    24248370.068    24248368.321    -4136890.017 2  -3223550.970 3
        16.100          20.500
  23565120.200    23565119.195    23565119.997    -6289876.976 3  -4901196.836 3
        20.500          23.400
 09  1  1  0  6  0.0000000  0 10G21G26G 9G15G 6G18G 3G22G19G24
  20498281.456    20498280.540    20498278.807   -26675600.727 6 -20786172.875 7
        40.500          44.600
  22557224.379    22557223.853    22557223.290    -9220271.002 4  -7184616.939 4
        25.600          27.600
  24156758.314    24156758.474    24156759.237    -3535744.709 1  -2755124.277 2
         6.500          16.100
  21715983.230    21715982.980    21715981.475   -16405132.412 6 -12783208.506 6
        38.400          40.000
  22247355.294    22247354.751    22247354.623   -12677701.788 5  -9878725.292 5
        33.600          33.100
  20556904.544    20556903.732    20556901.841   -24960883.220 6 -19450028.169 7
        38.400          47.300
  22386675.193    22386674.508    22386674.555   -11363568.031 5  -8854724.706 5
        30.200          30.600
  21982455.774    21982455.360    21982452.601   -16689244.003 5 -13004597.047 6
        35.700          36.100
  24232726.278    24232725.401    24232724.221    -4219103.011 3  -3287613.016 3
        18.600          23.000
  23584035.937    23584035.437    23584036.369    -6190471.253 3  -4823737.861 3
        19.900          23.800
 09  1  1  0  6 30.0000000  0 10G21G26G 9G15G 6G18G 3G22G19G24
  20504900.924    20504900.119    20504898.391   -26640814.352 6 -20759066.607 7
        40.500          44.400
  22576105.615    22576105.570    22576104.784    -9121046.788 4  -7107299.368 4
        25.600          27.100
  24135476.636    24135476.212    24135477.032    -3647584.303 2  -2842271.935 2
        12.600          17.800
  21726627.886    21726627.786    21726626.496   -16349192.734 6 -12739619.146 6
        38.200          40.000
  22247224.063    22247223.422    22247223.253   -12678392.002 5  -9879263.130 5
        33.600          33.000
  20552273.483    20552272.678    20552271.658   -24985219.879 6 -19468991.791 7
        38.400          47.300
  22384588.122    22384587.292    22384587.162   -11374537.209 5  -8863272.108 5
        30.400          30.400
  21967892.644    21967892.122    21967889.247   -16765774.462 5 -13064231.156 6
        35.700          36.100
  24217152.575    24217150.994    24217149.010    -4300946.943 3  -3351387.480 3
        19.900          23.800
  23602984.500    23602983.565    23602984.526    -6090898.769 3  -4746148.946 3
        19.900          23.800
 09  1  1  0  7  0.0000000  0 10G21G26G 9G15G 6G18G 3G22G19G24
  20511616.097    20511615.270    20511613.620   -26605525.621 6 -20731568.892 7
        40.400          44.300
  22595065.565    22595065.178    22595063.679    -9021415.456 4  -7029664.550 4
        26.200          26.500
  24114230.298    24114229.589    24114230.476    -3759238.945 2  -2929275.507 2
        13.900          16.100
  21737367.107    21737367.124    21737365.730   -16292757.483 6 -12695643.614 6
        38.100          39.900
  22247203.868    22247203.439    22247203.224   -12678496.459 5  -9879344.539 5
        33.400          32.800
  20547717.281    20547716.500    20547714.585   -25009162.468 6 -19487648.350 7
        38.400          47.100
  22382620.184    22382619.260    22382619.030   -11384879.183 5  -8871330.780 5
        31.000          30.400
  21953380.553    21953380.067    21953377.220   -16842035.307 5 -13123655.178 6
        35.800          36.200
  24201650.840    24201649.676    24201647.505    -4382411.558 3  -3414866.370 4
        20.500          24.600
  23621966.290    23621965.061    23621965.546    -5991152.912 3  -4668424.935 3
        19.300          23.000
 09  1  1  0  7 30.0000000  0 10G21G26G 9G15G 6G18G 3G22G19G24
  20518424.166    20518423.270    20518421.506   -26569749.856 6 -20703691.667 7
        40.600          44.200
  22614099.013    22614098.535    22614096.935    -8921395.011 4  -6951726.534 4
        26.200          26.500
  24093016.267    24093015.892    24093015.530    -3870719.729 1  -3016143.592 2
        11.000          13.900
  21748197.786    21748197.557    21748196.057   -16235843.501 6 -12651295.050 6
        38.100          39.700
  22247292.932    22247292.283    22247292.156   -12678029.933 5  -9878981.018 5
        33.500          33.200
  20543233.571    20543232.739    20543231.752   -25032724.960 6 -19506008.732 7
        38.400          47.100
  22380768.884    22380768.079    22380767.851   -11394608.198 5  -8878911.808 5
        31.100          30.600
  21938917.246    21938916.726    21938914.165   -16918040.181 5 -13182879.740 6
        35.700          36.600
  24186217.241    24186215.975    24186215.122    -4463509.090 3  -3478059.219 4
        20.500          25.300
  23640976.590    23640975.649    23640976.154    -5891249.761 3  -4590578.349 3
        18.600          22.600
 09  1  1  0  8  0.0000000  0 10G21G26G 9G15G 6G18G 3G22G19G24
  20525324.333    20525323.482    20525321.764   -26533488.658 6 -20675436.186 7
        40.600          44.000
  22633204.792    22633204.389    22633203.304    -8820990.008 4  -6873488.862 4
        25.300          26.800
  24071833.912    24071833.265    24071833.387    -3982024.726 1  -3102874.711 2
        11.000          12.600
  21759118.460    21759118.257    21759116.925   -16178454.251 6 -12606576.144 6
        37.900          39.800
  22247490.083    22247489.565    22247489.227   -12676993.838 5  -9878173.679 5
        33.500          33.000
  20538821.722    20538820.963    20538819.040   -25055908.633 6 -19524073.923 7
        38.300          47.000
  22379033.425    22379032.523    22379032.574   -11403726.132 5  -8886016.673 5
        30.600          30.800
  21924502.709    21924502.112    21924499.401   -16993789.598 5 -13241905.244 6
        35.900          36.500
  24170855.230    24170853.902    24170852.898    -4544238.637 3  -3540965.331 4
        19.900          24.900
  23660016.070    23660015.322    23660016.823    -5791192.169 2  -4512611.425 3
        17.000          22.600
 09  1  1  0  8 30.0000000  0 10G21G26G 9G15G 6G18G 3G22G19G24
  20532319.120    20532318.359    20532316.749   -26496730.471 6 -20646793.439 7
        40.600          44.100
  22652385.944    22652385.414    22652384.917    -8720192.276 4  -6794945.168 4
        24.600          27.400
  24050690.186    24050690.062    24050689.689    -4093138.463 2  -3189456.787 2
        13.900          15.100
  21770131.220    21770131.273    21770129.916   -16120580.155 6 -12561479.444 6
        37.800          39.800
  22247797.655    22247796.989    22247796.964   -12675376.692 5  -9876913.556 5
        33.100          33.000
  20534484.648    20534483.737    20534482.752   -25078701.481 6 -19541834.570 7
        38.300          47.200
  22377417.210    22377416.285    22377416.240   -11412221.113 5  -8892636.125 5
        31.000          31.000
  21910138.841    21910138.357    21910135.770   -17069271.189 6 -13300722.051 6
        36.000          36.500
  24155566.151    24155564.906    24155563.538    -4624586.062 3  -3603573.691 4
        21.100          24.600
  23679087.867    23679087.166    23679088.480    -5690969.551 2  -4434515.919 3
        17.000          22.100
 09  1  1  0  9  0.0000000  0 10G21G26G 9G15G 6G18G 3G22G19G24
  20539408.472    20539407.653    20539405.904   -26459476.308 6 -20617764.221 7
        40.700          43.900
  22671641.263    22671640.679    22671640.254    -8619005.515 4  -6716098.344 4
        24.200          27.100
  24029583.617    24029582.401    24029582.964    -4204058.073 2  -3275887.610 2
        16.100          17.000
  21781236.209    21781236.055    21781234.783   -16062223.711 6 -12516006.882 6
        37.600          39.700
  22248215.719    22248215.288    22248215.303   -12673179.277 5  -9875201.270 5
        33.100          33.400
  20530221.352    20530220.501    20530218.510   -25101104.300 6 -19559291.305 7
        38.300          46.900
  22375919.124    22375918.183    22375918.137   -11420093.085 5  -8898770.106 5
        31.000          30.800
  21895826.281    21895825.836    21895823.148   -17144484.098 6 -13359329.493 6
        36.200          36.500
  24140350.391    24140348.475    24140346.463    -4704549.469 3  -3665882.813 3
        20.500          23.800
  23698190.537    23698189.974    23698191.469    -5590583.853 2  -4356293.330 3
        17.800          22.100
 09  1  1  0  9 30.0000000  0 10G21G26G 9G15G 6G18G 3G22G19G24
  20546590.280    20546589.435    20546587.671   -26421735.979 6 -20588356.168 7
        40.700          43.800
  22690968.592    22690967.993    22690967.071    -8517442.205 4  -6636958.103 4
        24.600          27.100
  24008511.700    24008511.439    24008511.877    -4314789.042 3  -3362171.443 3
        18.600          18.600
  21792430.793    21792430.647    21792429.382   -16003396.405 6 -12470167.419 6
        37.600          39.800
  22248742.683    22248742.099    22248742.109   -12670410.888 5  -9873044.074 5
        33.200          33.400
  20526030.845    20526029.978    20526029.041   -25123125.710 6 -19576450.840 7
        38.200          46.900
  22374537.798    22374537.085    22374536.696   -11427351.977 5  -8904426.375 5
        31.500          30.400
  21881563.215    21881562.747    21881560.177   -17219436.904 6 -13417734.250 6
        36.500          36.900
  24125205.417    24125203.570    24125201.421    -4784135.321 3  -3727897.722 3
        21.100          23.400
  23717323.091    23717321.829    23717322.899    -5490045.532 2  -4277951.809 3
        17.800          21.100
 09  1  1  0 10  0.0000000  0 10G21G26G 9G15G 6G18G 3G22G19G24
  20553866.609    20553865.721    20553863.846   -26383498.803 6 -20558560.960 7
        40.700          43.600
  22710368.262    22710367.725    22710366.951    -8415495.021 4  -6557518.738 4
        24.600          26.800
  23987480.001    23987478.878    23987478.972    -4425317.226 3  -3448297.278 3
        18.600          19.300
  21803716.431    21803716.329    21803715.112   -15944089.580 6 -12423954.304 6
        37.500          39.700
  22249379.964    22249379.496    22249379.379   -12667060.986 5  -9870433.735 5
        33.200          33.200
  20521914.936    20521914.132    20521912.041   -25144754.772 6 -19593304.646 7
        38.100          46.900
  22373275.304    22373274.537    22373274.434   -11433986.295 5  -8909595.960 5
        31.500          30.800
  21867351.964    21867351.470    21867348.863   -17294117.492 6 -13475926.886 6
        36.300          36.800
  24110133.333    24110132.269    24110130.986    -4863330.724 3  -3789608.415 3
        20.500          23.800
  23736486.460    23736485.214    23736485.324    -5389345.440 3  -4199484.245 3
        18.600          20.500
 09  1  1  0 10 30.0000000  0 10G21G26G 9G15G 6G18G 3G22G19G24
  20561237.051    20561236.215    20561234.408   -26344766.333 6 -20528379.811 7
        40.700          43.600
  22729840.027    22729839.870    22729839.159    -8313168.318 4  -6477783.627 4
        24.200          27.400
  23966484.590    23966484.040    23966484.739    -4535640.189 2  -3534263.181 3
        16.100          20.500
  21815092.645    21815092.585    21815091.275   -15884306.352 6 -12377369.962 6
        37.200          39.400
  22250128.193    22250127.472    22250127.132   -12663131.125 5  -9867371.509 5
        33.600          33.200
  20517873.525    20517872.703    20517871.814   -25165992.304 6 -19609853.349 7
        38.200          46.800
  22372131.501    22372130.633    22372130.456   -11439996.984 5  -8914279.586 5
        31.600          31.000
  21853192.305    21853191.885    21853189.249   -17368526.324 6 -13533907.764 6
        36.300          36.800
  24095138.498    24095136.218    24095135.660    -4942134.443 3  -3851013.891 4
        19.900          24.600
  23755679.214    23755678.276    23755678.048    -5288486.087 3  -4120892.555 3
        19.900          19.300
 09  1  1  0 11  0.0000000  0 10G21G26G 9G15G 6G18G 3G22G19G24
  20568701.011    20568700.140    20568698.403   -26305542.958 6 -20497816.142 7
        40.700          43.500
  22749383.343    22749382.902    22749381.936    -8210469.283 4  -6397758.407 4
        24.200          27.600
  23945529.913    23945529.508    23945529.998    -4645758.463 2  -3620069.570 3
        16.100          21.600
  21826558.581    21826558.506    21826557.295   -15824052.554 6 -12330418.947 6
        37.200          39.500
  22250985.518    22250984.937    22250984.378   -12658625.136 5  -9863860.351 5
        33.600          33.000
  20513905.924    20513905.142    20513902.977   -25186842.098 6 -19626099.936 7
        38.100          46.800
  22371105.766    22371104.835    22371104.620   -11445388.231 5  -8918480.548 5
        32.000          31.100
  21839084.242    21839083.651    21839080.897   -17442666.194 6 -13591679.062 6
        36.700          36.900
  24080218.665    24080216.494    24080214.134    -5020547.950 3  -3912115.313 4
        21.100          24.200
  23774900.264    23774899.776    23774900.493    -5187472.763 3  -4042180.874 3
        19.300          19.300
 09  1  1  0 11 30.0000000  0 10G21G26G 9G15G 6G18G 3G22G19G24
  20576258.596    20576257.728    20576255.826   -26265827.802 6 -20466869.265 7
        40.700          43.100
  22768997.157    22768996.652    22768995.641    -8107399.795 4  -6317444.529 4
        24.600          27.400
  23924616.450    23924615.168    23924615.064    -4755666.988 2  -3705712.512 3
        16.100          23.000
  21838113.922    21838113.734    21838112.489   -15763329.469 6 -12283102.257 6
        37.100          39.400
  22251952.864    22251952.246    22251952.094   -12653542.034 5  -9859899.494 5
        33.800          33.400
  20510012.539    20510011.696    20510010.664   -25207302.600 6 -19642043.187 7
        38.100          46.700
  22370197.881    22370197.093    22370196.811   -11450158.749 5  -8922197.836 5
        32.000          31.100
  21825027.314    21825026.797    21825024.190   -17516535.125 6 -13649239.239 6
        36.900          37.000
  24065370.705    24065369.311    24065367.157    -5098567.521 3  -3972909.768 4
        21.600          24.200
  23794151.780    23794150.993    23794151.849    -5086305.559 2  -3963349.307 3
        17.800          19.900
 09  1  1  0 12  0.0000000  0 10G21G26G 9G15G 6G18G 3G22G19G24
  20583909.377    20583908.570    20583906.831   -26225621.800 6 -20435539.907 7
        40.600          43.100
  22788680.175    22788679.583    22788678.694    -8003963.886 4  -6236845.111 4
        24.600          26.200
  23903740.027    23903740.216    23903740.957    -4865362.893 2  -3791189.768 3
        13.900          23.000
  21849757.927    21849757.790    21849756.406   -15702139.892 6 -12235422.060 6
        37.200          39.200
  22253029.880    22253029.142    22253029.056   -12647882.796 5  -9855489.706 5
        33.600          33.400
  20506193.055    20506192.218    20506190.019   -25227373.936 6 -19657683.189 7
        38.100          46.800
  22369408.282    22369407.408    22369406.993   -11454309.167 5  -8925431.931 5
        32.000          31.300
  21811022.173    21811021.726    21811018.877   -17590132.717 6 -13706587.987 6
        37.200          37.100
  24050598.608    24050597.152    24050595.070    -5176191.323 3  -4033395.844 3
        21.100          23.400
  23813432.622    23813431.515    23813432.545    -4984986.386 2  -3884399.324 3
        17.000          20.500
 09  1  1  0 12 30.0000000  0 10G21G26G 9G15G 6G18G 3G22G19G24
  20591653.978    20591653.227    20591651.397   -26184923.564 6 -20403826.991 7
        40.700          43.000
  22808432.126    22808432.003    22808431.450    -7900162.771 3  -6155961.108 4
        23.400          25.900
  23882907.980    23882907.562    23882907.499    -4974840.325 2  -3876496.805 3
        13.900          22.600
  21861490.770    21861490.684    21861489.187   -15640483.622 6 -12187378.207 6
        37.400          39.100
  22254216.683    22254215.980    22254215.724   -12641645.567 5  -9850629.537 5
        33.400          33.100
  20502447.902    20502447.103    20502446.175   -25247054.098 6 -19673018.364 7
        38.100          46.600
  22368736.453    22368735.690    22368735.540   -11457837.521 5  -8928181.291 5
        31.500          31.300
  21797069.510    21797068.871    21797065.782   -17663455.981 6 -13763722.970 6
        37.200          37.100
  24035903.704    24035902.329    24035899.952    -5253415.207 3  -4093570.263 3
        19.300          23.000
  23832742.500    23832741.511    23832742.070    -4883514.505 2  -3805330.359 3
        17.000          21.100
 09  1  1  0 13  0.0000000  0 10G21G26G 9G15G 6G18G 3G22G19G24
  20599491.959    20599491.204    20599489.453   -26143734.957 6 -20371731.972 7
        40.800          43.000
  22828253.429    22828253.142    22828252.403    -7796001.271 3  -6074796.293 4
        22.600          25.600
  23862118.288    23862117.215    23862116.415    -5084097.710 2  -3961632.374 3
        16.100          23.800
  21873311.507    21873311.491    21873310.100   -15578364.691 6 -12138973.838 6
        37.300          39.100
  22255513.070    22255512.557    22255512.257   -12634832.508 5  -9845320.649 5
        33.400          33.200
  20498777.115    20498776.300    20498774.053   -25266344.708 6 -19688050.003 7
        38.100          46.700
  22368183.337    22368182.552    22368182.266   -11460745.632 5  -8930447.337 5
        31.600          31.300
  21783168.350    21783167.783    21783165.072   -17736505.867 6 -13820644.927 6
        37.200          37.400
  24021285.386    24021283.671    24021281.483    -5330237.834 3  -4153432.023 3
        19.900          23.000
  23852080.037    23852079.033    23852080.121    -4781893.147 2  -3726144.926 3
        16.100          21.600
 09  1  1  0 13 30.0000000  0 10G21G26G 9G15G 6G18G 3G22G19G24
  20607423.355    20607422.539    20607420.670   -26102056.134 6 -20339254.965 7
        40.900          42.900
  22848142.995    22848142.616    22848141.776    -7691482.278 3  -5993352.929 4
        23.000          25.900
  23841368.973    23841367.992    23841368.645    -5193130.961 2  -4046593.310 3
        17.000          23.800
  21885220.277    21885220.060    21885218.691   -15515784.547 6 -12090210.088 6
        37.200          39.100
  22256919.219    22256918.651    22256918.308   -12627443.342 5  -9839562.853 5
        33.500          33.200
  20495180.400    20495179.623    20495178.631   -25285244.684 6 -19702777.250 7
        38.000          46.200
  22367747.673    22367746.884    22367746.672   -11463033.003 5  -8932229.663 5
        31.500          31.100
  21769319.500    21769319.106    21769316.423   -17809280.583 6 -13877352.467 6
        37.400          37.400
  24006742.969    24006741.311    24006739.703    -5406656.692 3  -4212979.160 4
        22.100          24.200
  23871445.963    23871445.518    23871446.517    -4680122.961 2  -3646843.521 3
        16.100          21.600
 09  1  1  0 14  0.0000000  0 10G21G26G 9G15G 6G18G 3G22G19G24
  20615447.488    20615446.634    20615444.836   -26059888.892 6 -20306397.377 7
        40.900          42.800
  22868099.814    22868099.232    22868098.380    -7586610.442 3  -5911634.619 4
        23.000          26.200
  23820664.174    23820663.307    23820663.273    -5301937.637 2  -4131377.681 3
        15.100          22.100
  21897215.965    21897215.770    21897214.317   -15452747.050 6 -12041089.957 6
        37.100          39.000
  22258434.665    22258434.113    22258433.987   -12619479.926 5  -9833357.592 5
        33.400          33.200
  20491658.082    20491657.282    20491654.936   -25303755.384 6 -19717201.162 7
        38.000          46.600
  22367430.345    22367429.479    22367429.420   -11464701.310 5  -8933529.624 5
        31.500          31.100
  21755523.229    21755522.750    21755519.839   -17881781.049 6 -13933846.308 6
        37.600          37.300
  23992278.291    23992276.559    23992275.103    -5482670.820 3  -4272210.923 4
        22.100          24.600
  23890840.625    23890839.675    23890840.481    -4578207.036 2  -3567428.539 3
        16.100          21.600
 09  1  1  0 14 30.0000000  0 10G21G26G 9G15G 6G18G 3G22G19G24
  20623564.608    20623563.749    20623562.163   -26017232.614 6 -20273158.721 7
        40.800          42.800
  22888123.133    22888122.741    22888121.639    -7481388.106 3  -5829643.187 4
        23.800          26.200
  23800001.329    23800000.491    23800001.626    -5410513.077 1  -4215981.884 3
        11.000          21.100
  21909298.311    21909298.269    21909296.820   -15389253.285 6 -11991614.297 6
        37.100          38.900
  22260059.454    22260058.932    22260058.475   -12610941.602 5  -9826704.350 5
        33.200          33.100
  20488209.874    20488209.057    20488207.973   -25321875.677 6 -19731320.848 7
        38.000          46.400
  22367230.916    22367230.139    22367229.932   -11465749.476 5  -8934346.381 5
        31.500          31.000
  21741779.567    21741778.962    21741776.138   -17954004.938 6 -13990124.641 6
        37.600          37.600
  23977890.397    23977889.039    23977887.494    -5558276.742 3  -4331124.614 4
        22.100          24.200
  23910262.689    23910261.907    23910262.225    -4476145.600 2  -3487900.185 3
        15.100          21.100
 09  1  1  0 15  0.0000000  0 10G21G26G 9G15G 6G18G 3G22G19G24
  20631774.305    20631773.461    20631771.683   -25974090.864 6 -20239541.772 7
        40.800          42.500
  22908211.588    22908210.948    22908210.519    -7375821.224 3  -5747383.280 4
        23.400          26.200
  23779385.504    23779384.226    23779384.634    -5518856.985 2  -4300405.653 3
        13.900          21.600
  21921466.649    21921466.570    21921464.965   -15325308.310 6 -11941787.041 6
        37.200          38.600
  22261792.831    22261792.227    22261792.007   -12601831.606 5  -9819605.651 5
        33.100          33.000
  20484835.522    20484834.667    20484832.375   -25339608.131 6 -19745138.337 7
        38.000          46.400
  22367149.027    22367148.227    22367147.958   -11466180.516 5  -8934682.253 5
        31.300          31.300
  21728087.800    21728087.362    21728084.584   -18025954.117 6 -14046188.907 6
        37.500          37.700
  23963581.465    23963579.784    23963577.512    -5633475.136 3  -4389720.755 4
        23.000          24.600
  23929710.391    23929710.387    23929710.747    -4373942.601 2  -3408261.522 3
        15.100          20.500
 09  1  1  0 15 30.0000000  0 10G21G26G 9G15G 6G18G 3G22G19G24
  20640077.047    20640076.189    20640074.493   -25930459.123 6 -20205543.012 7
        40.700          42.500
  22928365.549    22928365.173    22928364.851    -7269908.261 3  -5664853.689 4
        22.100          25.900
  23758813.548    23758813.007    23758813.702    -5626960.293 2  -4384641.954 3
        16.100          22.600
  21933721.293    21933721.210    21933719.517   -15260909.388 6 -11891606.056 6
        36.900          38.300
  22263636.355    22263635.700    22263635.289   -12592145.475 5  -9812058.016 5
        33.500          33.000
  20481535.891    20481535.075    20481534.034   -25356947.689 6 -19758649.672 7
        38.000          46.500
  22367184.787    22367184.065    22367184.343   -11465989.807 5  -8934533.651 5
        30.800          31.500
  21714449.872    21714449.245    21714446.492   -18097622.944 6 -14102034.729 6
        37.400          37.800
  23949349.640    23949348.301    23949346.929    -5708258.510 3  -4447993.505 4
        22.100          24.200
  23949187.061    23949185.953    23949186.683    -4271594.788 2  -3328510.012 3
        16.100          19.300
 09  1  1  0 16  0.0000000  0 10G21G26G 9G15G 6G18G 3G22G19G24
  20648472.837    20648472.026    20648470.302   -25886338.675 6 -20171163.449 7
        40.700          42.300
  22948585.495    22948584.821    22948584.614    -7163652.844 3  -5582057.259 4
        21.100          26.200
  23738288.781    23738287.800    23738288.451    -5734820.164 3  -4468688.559 3
        19.300          22.100
  21946061.938    21946061.776    21946060.107   -15196059.271 6 -11841073.491 6
        36.900          38.300
  22265588.797    22265588.232    22265587.923   -12581884.068 5  -9804062.117 5
        33.500          32.800
  20478311.012    20478310.143    20478307.809   -25373894.759 6 -19771855.173 7
        38.000          46.500
  22367339.535    22367338.725    22367338.560   -11465178.405 5  -8933901.393 5
        31.000          31.300
  21700865.329    21700864.670    21700861.765   -18169011.149 6 -14157661.873 6
        37.700          37.800
  23935197.902    23935196.684    23935195.398    -5782624.970 3  -4505941.372 3
        22.100          23.800
  23968689.952    23968689.407    23968689.848    -4169104.051 3  -3248647.104 3
        18.600          19.300
 09  1  1  0 16 30.0000000  0 10G21G26G 9G15G 6G18G 3G22G19G24
  20656961.017    20656960.167    20656958.494   -25841733.086 6 -20136405.852 7
        40.700          42.200
  22968869.116    22968868.711    22968868.247    -7057061.453 3  -5498999.047 4
        21.600          25.600
  23717809.796    23717809.561    23717809.109    -5842436.055 3  -4552545.067 3
        19.300          19.900
  21958487.275    21958487.153    21958485.718   -15130763.407 6 -11790193.593 6
        36.900          38.300
  22267650.648    22267649.766    22267649.414   -12571051.074 5  -9795620.812 5
        33.400          33.000
  20475160.207    20475159.367    20475158.283   -25390452.224 6 -19784757.077 7
        38.000          46.400
  22367611.399    22367610.570    22367610.588   -11463749.010 5  -8932787.577 5
        31.000          31.300
  21687333.656    21687333.026    21687330.145   -18240120.694 6 -14213071.885 6
        38.100          38.100
  23921126.824    23921124.877    23921122.537    -5856575.519 3  -4563565.148 3
        23.400          23.400
  23988220.339    23988219.300    23988219.889    -4066475.055 3  -3168676.458 3
        18.600          19.300
 09  1  1  0 17  0.0000000  0 10G21G26G 9G15G 6G18G 3G22G19G24
  20665540.314    20665539.423    20665537.775   -25796648.597 6 -20101275.077 7
        40.700          42.100
  22989215.031    22989214.483    22989214.063    -6950142.938 3  -5415685.912 4
        22.100          24.900
  23697377.656    23697376.835    23697376.058    -5949810.241 3  -4636213.244 3
        19.300          19.300
  21970995.951    21970995.913    21970994.285   -15065029.388 6 -11738972.267 6
        36.800          38.100
  22269819.219    22269818.629    22269818.690   -12559652.785 5  -9786739.028 5
        33.000          33.200
  20472082.352    20472081.541    20472079.143   -25406625.666 6 -19797359.744 7
        37.900          46.200
  22367999.890    22367998.937    22367999.209   -11461707.775 5  -8931197.009 5
        30.600          31.500
  21673853.940    21673853.401    21673850.470   -18310956.128 6 -14268268.312 6
        38.100          37.900
  23907131.925    23907130.680    23907128.646    -5930113.364 3  -4620867.378 3
        22.600          22.600
  24007775.290    24007774.105    24007774.684    -3963714.565 2  -3088603.359 3
        17.800          19.900
 09  1  1  0 17 30.0000000  0 10G21G26G 9G15G 6G18G 3G22G19G24
  20674214.031    20674213.221    20674211.453   -25751068.086 6 -20065757.790 7
        40.900          42.000
  23009626.422    23009625.816    23009624.881    -6842882.931 3  -5332106.683 4
        21.600          24.200
  23676995.289    23676994.191    23676993.605    -6056921.483 2  -4719676.521 3
        17.000          18.600
  21983591.114    21983591.048    21983589.442   -14998841.835 6 -11687397.549 6
        36.600          38.300
  22272099.042    22272098.398    22272098.330   -12547671.850 5  -9777403.233 5
        32.800          33.100
  20469081.207    20469080.367    20469079.276   -25422397.314 6 -19809649.332 7
        37.900          46.200
  22368507.748    22368507.050    22368507.221   -11459037.523 5  -8929116.303 5
        30.800          31.500
  21660430.118    21660429.650    21660426.614   -18381499.245 6 -14323236.958 6
        38.400          38.200
  23893220.512    23893218.864    23893217.520    -6003218.655 3  -4677832.535 3
        20.500          22.600
  24027357.743    24027356.328    24027357.771    -3860806.628 2  -3008415.391 3
        16.100          21.100
 09  1  1  0 18  0.0000000  0 10G21G26G 9G15G 6G18G 3G22G19G24
  20682979.807    20682978.944    20682977.113   -25705004.467 6 -20029864.067 6
        40.900          41.900
  23030098.836    23030098.529    23030097.504    -6735297.048 3  -5248273.532 3
        21.600          23.400
  23656659.920    23656659.118    23656659.582    -6163778.415 2  -4802941.610 3
        17.000          19.300
  21996269.607    21996269.444    21996267.988   -14932215.690 6 -11635481.070 6
        36.300          38.100
  22274487.530    22274486.986    22274486.786   -12535121.289 5  -9767623.566 5
        33.000          33.100
  20466154.133    20466153.317    20466150.848   -25437778.940 6 -19821635.015 7
        37.800          46.200
  22369133.843    22369133.027    22369132.539   -11455750.999 5  -8926555.385 5
        31.300          31.300
  21647059.491    21647059.022    21647056.179   -18451761.345 6 -14377986.627 6
        38.200          38.400
  23879389.677    23879387.886    23879386.496    -6075901.396 3  -4734468.392 3
        21.100          23.000
  24046965.921    24046964.751    24046966.224    -3757764.668 2  -2928122.979 3
        16.100          21.600
 09  1  1  0 18 30.0000000  0 10G21G26G 9G15G 6G18G 3G22G19G24
  20691837.093    20691836.304    20691834.523   -25658458.207 6 -19993594.256 6
        40.900          41.700
  23050633.631    23050633.130    23050632.088    -6627388.425 3  -5164188.870 3
        22.100          23.400
  23636375.450    23636375.045    23636374.506    -6270377.119 2  -4886005.492 3
        17.800          20.500
  22009031.266    22009031.188    22009029.637   -14865152.897 6 -11583224.343 6
        36.300          38.000
  22276984.221    22276983.561    22276983.238   -12522001.671 5  -9757400.480 5
        33.000          33.100
  20463301.251    20463300.417    20463299.364   -25452770.770 6 -19833316.950 7
        37.800          46.100
  22369876.214    22369875.335    22369875.341   -11451848.250 5  -8923514.270 5
        31.000          31.300
  21633742.737    21633742.203    21633739.389   -18521741.417 6 -14432516.530 6
        38.100          38.500
  23865639.463    23865638.261    23865636.438    -6148159.186 3  -4790773.156 3
        23.000          23.000
  24066598.696    24066597.972    24066599.427    -3654590.294 2  -2847727.386 3
        13.900          21.100
 09  1  1  0 19  0.0000000  0 10G21G26G 9G15G 6G18G 3G22G19G24
  20700786.080    20700785.245    20700783.458   -25611431.815 6 -19956950.324 6
        40.900          41.700
  23071228.545    23071228.140    23071227.038    -6519162.131 3  -5079856.668 4
        22.600          24.200
  23616139.512    23616138.857    23616139.047    -6376715.835 2  -4968866.795 3
        16.100          22.100
  22021875.346    22021875.210    22021873.602   -14797657.464 6 -11530630.493 6
        36.200          38.000
  22279588.369    22279587.837    22279587.792   -12508315.191 5  -9746735.685 5
        33.000          33.000
  20460522.343    20460521.521    20460519.010   -25467373.980 6 -19844696.076 7
        37.700          46.100
  22370735.695    22370734.829    22370734.759   -11447331.232 5  -8919994.513 5
        30.800          31.100
  21620479.383    21620478.900    21620476.110   -18591440.493 6 -14486827.478 6
        38.200          38.600
  23851970.672    23851968.997    23851967.133    -6219991.396 3  -4846746.301 4
        23.000          24.200
  24086256.960    24086256.210    24086257.517    -3551286.523 2  -2767230.974 3
        12.600          21.600
 09  1  1  0 19 30.0000000  0 10G21G26G 9G15G 6G18G 3G22G19G24
  20709827.927    20709827.028    20709825.241   -25563916.986 6 -19919925.792 6
        41.000          41.600
  23091884.140    23091883.998    23091882.963    -6410612.535 3  -4995272.559 4
        22.100          24.200
  23595955.532    23595954.374    23595955.650    -6482782.403 2  -5051515.987 3
        15.100          23.400
  22034802.650    22034802.595    22034801.133   -14729722.782 6 -11477694.371 6
        36.000          37.900
  22282302.233    22282301.588    22282301.543   -12494053.799 5  -9735622.906 5
        32.800          33.100
  20457819.182    20457818.341    20457817.248   -25481579.750 6 -19855765.503 7
        37.800          46.200
  22371713.594    22371712.736    22371712.896   -11442192.181 5  -8915990.067 5
        31.000          31.500
  21607271.454    21607270.891    21607268.156   -18660848.701 6 -14540911.772 6
        38.100          38.600
  23838384.910    23838383.201    23838380.953    -6291387.047 3  -4902379.248 4
        23.400          24.900
  24105940.292    24105939.664    24105941.137    -3447845.878 2  -2686627.922 3
        12.600          21.600
 09  1  1  0 20  0.0000000  0 10G21G26G 9G15G 6G18G 3G22G19G24
  20718960.950    20718960.084    20718958.350   -25515921.925 6 -19882527.046 6
        40.900          41.500
  23112599.927    23112599.890    23112599.177    -6301750.232 3  -4910444.782 4
        22.100          24.200
  23575822.811    23575822.565    23575822.496    -6588580.646 2  -5133956.109 3
        17.000          23.000
  22047811.796    22047811.885    22047810.370   -14661358.575 5 -11424423.561 6
        35.900          37.800
  22285124.059    22285123.430    22285123.236   -12479225.520 5  -9724068.408 5
        32.800          33.100
  20455189.939    20455189.204    20455186.683   -25495395.770 6 -19866531.233 7
        37.700          46.100
  22372808.267    22372807.497    22372807.869   -11436438.674 5  -8911506.830 5
        30.600          31.500
  21594117.803    21594117.290    21594114.181   -18729972.322 6 -14594774.311 6
        38.400          38.600
  23824879.663    23824878.654    23824876.830    -6362351.308 3  -4957676.073 4
        23.400          24.600
  24125648.925    24125648.469    24125650.173    -3344277.428 1  -2605925.278 3
        11.000          21.600
 09  1  1  0 20 30.0000000  0 10G21G26G 9G15G 6G18G 3G22G19G24
  20728186.094    20728185.325    20728183.572   -25467443.358 6 -19844751.546 6
        41.000          41.500
  23133375.598    23133375.072    23133374.237    -6192574.495 3  -4825372.783 3
        21.100          23.800
  23555743.042    23555742.595    23555741.722    -6694102.606 3  -5216180.989 3
        18.600          23.000
  22060903.285    22060903.132    22060901.666   -14592563.114 5 -11370816.703 6
        35.800          37.700
  22288054.378    22288053.878    22288053.511   -12463826.929 5  -9712069.516 5
        33.100          33.000
  20452635.901    20452635.125    20452633.911   -25508817.584 6 -19876989.786 7
        37.700          46.000
  22374020.841    22374020.003    22374020.177   -11430066.703 5  -8906541.661 5
        30.400          31.100
  21581018.831    21581018.362    21581015.442   -18798806.754 6 -14648411.519 6
        38.400          38.700
  23811458.752    23811457.872    23811456.073    -6432877.801 3  -5012631.763 4
        22.600          24.900
  24145383.295    24145382.733    24145383.011    -3240578.231 2  -2525120.753 3
        12.600          20.500
 09  1  1  0 21  0.0000000  0 10G21G26G 9G15G 6G18G 3G22G19G24
  20737502.716    20737501.846    20737500.076   -25418484.462 6 -19806601.766 6
        40.800          41.200
  23154210.043    23154209.672    23154207.741    -6083091.264 3  -4740061.179 3
        21.600          23.400
  23535715.257    23535714.411    23535714.624    -6799347.408 3  -5298189.893 3
        18.600          23.000
  22074075.650    22074075.558    22074074.264   -14523341.454 5 -11316877.747 6
        35.600          37.700
  22291092.731    22291092.125    22291091.793   -12447861.292 5  -9699628.767 5
        33.100          33.100
  20450156.438    20450155.617    20450153.000   -25521847.371 6 -19887142.861 7
        37.700          46.100
  22375350.523    22375349.818    22375349.679   -11423079.794 5  -8901097.315 5
        31.000          31.000
  21567974.851    21567974.342    21567971.321   -18867353.640 6 -14701824.655 6
        38.400          38.900
  23798121.963    23798120.180    23798118.832    -6502967.008 3  -5067246.716 4
        22.600          25.300
  24165140.052    24165139.384    24165140.492    -3136752.208 2  -2444217.376 3
        12.600          19.900
 09  1  1  0 21 30.0000000  0 10G21G26G 9G15G 6G18G 3G22G19G24
  20746910.324    20746909.427    20746907.552   -25369047.897 6 -19768079.771 6
        41.000          41.200
  23175101.805    23175100.810    23175099.441    -5973305.476 3  -4654513.799 3
        21.100          23.400
  23515740.876    23515740.236    23515740.210    -6904313.560 3  -5379981.666 3
        19.300          23.000
  22087328.670    22087328.461    22087327.016   -14453697.632 5 -11262609.832 6
        35.700          37.600
  22294238.001    22294237.307    22294237.345   -12431331.231 5  -9686748.209 5
        32.600          33.100
  20447751.009    20447750.177    20447749.017   -25534487.515 6 -19896992.319 7
        37.600          45.800
  22376796.554    22376795.806    22376795.899   -11415480.406 5  -8895175.722 5
        31.300          31.000
  21554985.350    21554984.822    21554981.759   -18935613.911 6 -14755014.452 6
        38.600          38.800
  23784867.407    23784865.580    23784864.443    -6572618.601 3  -5121520.679 4
        21.600          25.300
  24184922.634    24184921.243    24184921.401    -3032802.846 2  -2363217.915 3
        13.900          19.900
 09  1  1  0 22  0.0000000  0 10G21G26G 9G15G 6G18G 3G22G19G24
  20756408.857    20756408.016    20756406.316   -25319131.746 6 -19729184.074 6
        40.900          41.100
  23196050.269    23196049.660    23196048.539    -5863218.007 3  -4568731.352 3
        20.500          23.000
  23495820.589    23495820.138    23495820.034    -7008995.048 3  -5461551.622 3
        20.500          23.800
  22100661.725    22100661.618    22100660.041   -14383631.522 5 -11208012.859 6
        35.600          37.200
  22297491.280    22297490.702    22297490.493   -12414235.186 5  -9673426.629 5
        32.600          33.000
  20445420.474    20445419.647    20445416.965   -25546735.105 6 -19906535.892 7
        37.700          46.000
  22378359.873    22378359.081    22378358.941   -11407266.362 5  -8888775.172 5
        31.500          30.800
  21542050.818    21542050.412    21542047.404   -19003584.282 6 -14807978.364 6
        38.900          38.700
  23771697.227    23771695.649    23771693.678    -6641827.805 3  -5175449.914 4
        21.600          24.600
  24204726.753    24204725.669    24204725.872    -2928729.239 2  -2282121.648 3
        15.100          19.300
 09  1  1  0 22 30.0000000  0 10G21G26G 9G15G 6G18G 3G22G19G24
  20765998.712    20765997.939    20765996.143   -25268736.140 6 -19689914.769 6
        40.700          40.900
  23217055.772    23217055.607    23217054.491    -5752831.284 3  -4482715.724 3
        19.900          23.400
  23475956.225    23475955.072    23475955.091    -7113387.229 3  -5542896.122 4
        19.900          24.200
  22114074.639    22114074.601    22114073.109   -14313144.780 5 -11153088.118 6
        35.300          37.200
  22300852.298    22300851.842    22300851.556   -12396573.027 5  -9659663.911 5
        32.600          32.800
  20443164.576    20443163.774    20443162.664   -25558589.467 6 -19915773.050 7
        37.600          45.800
  22380039.767    22380038.963    22380038.829   -11398437.510 5  -8881895.540 5
        31.100          30.400
  21529172.204    21529171.653    21529168.616   -19071263.233 6 -14860715.188 6
        38.900          38.900
  23758612.625    23758610.539    23758608.416    -6710591.618 3  -5229032.078 4
        22.600          24.900
  24224554.111    24224553.098    24224553.900    -2824531.858 2  -2200928.912 2
        16.100          17.800
 09  1  1  0 23  0.0000000  0 10G21G26G 9G15G 6G18G 3G22G19G24
  20775679.417    20775678.634    20775676.842   -25217864.344 6 -19650274.407 6
        40.800          40.900
  23238117.294    23238117.281    23238116.635    -5642151.096 3  -4396471.416 3
        20.500          23.400
  23456145.581    23456145.236    23456145.445    -7217488.897 3  -5624014.274 3
        21.100          23.800
  22127567.190    22127567.110    22127565.612   -14242242.313 5 -11097839.442 6
        35.600          37.300
  22304320.416    22304319.782    22304319.473   -12378348.060 5  -9645462.635 5
        32.300          32.800
  20440983.134    20440982.371    20440979.736   -25570053.060 6 -19924705.715 7
        37.600          45.900
  22381836.264    22381835.560    22381835.350   -11388997.304 5  -8874539.545 5
        31.600          30.600
  21516348.596    21516348.007    21516344.856   -19138652.257 6 -14913226.097 6
        38.900          39.100
  23745611.478    23745609.753    23745607.895    -6778910.486 3  -5282267.549 4
        22.100          24.900
  24244404.603    24244403.599    24244404.744    -2720214.749 2  -2119642.861 2
        16.100          17.000
 09  1  1  0 23 30.0000000  0 10G21G26G 9G15G 6G18G 3G22G19G24
  20785451.032    20785450.180    20785448.499   -25166514.023 6 -19610261.172 6
        40.700          40.800
  23259235.458    23259235.272    23259234.324    -5531177.489 3  -4309998.461 3
        19.900          23.400
  23436392.332    23436391.378    23436391.369    -7321293.532 3  -5704900.974 3
        20.500          22.100
  22141138.630    22141138.645    22141137.216   -14170923.246 5 -11042266.144 6
        35.600          37.200
  22307896.068    22307895.482    22307895.390   -12359558.072 5  -9630821.100 5
        32.300          33.100
  20438876.690    20438875.860    20438874.718   -25581122.495 6 -19933331.246 7
        37.600          45.800
  22383749.606    22383748.817    22383748.432   -11378942.845 5  -8866704.913 5
        31.800          30.200
  21503580.579    21503580.079    21503577.231   -19205747.173 6 -14965507.822 6
        38.900          39.300
  23732696.182    23732694.732    23732693.353    -6846779.050 3  -5335152.141 4
        22.600          25.900
  24264278.867    24264277.995    24264279.155    -2615776.263 2  -2038262.240 2
        15.100          15.100
 09  1  1  0 24  0.0000000  0 11G21G26G 9G15G 6G14G18G 3G22G19G24
  20795316.954    20795316.006    20795314.280   -25114669.056 6 -19569862.493 6
        40.700          40.700
  23280411.820    23280411.352    23280410.049    -5419896.666 3  -4223286.140 3
        19.900          22.600
  23416698.815    23416698.118    23416698.339    -7424780.346 3  -5785540.028 3
        19.300          21.100
  22154792.489    22154792.429    22154790.778   -14099172.617 5 -10986356.558 6
