     2.11           OBSERVATION DATA    G (GPS)             RINEX VERSION / TYPE
teqc  2008Oct2      WCDA Operator       20090112 00:18:58UTCPGM / RUN BY / DATE
Solaris x86 5.10|AMD64|cc SC5.8 -xarch=amd64|=+|=+          COMMENT
teqc  2008Oct2      WCDA Operator       20090111 01:18:36UTCCOMMENT
flin  WCDA-ACP   965000   CFS Flin Flon SASK Canada         MARKER NAME
40135M001                                                   MARKER NUMBER
PGC-WCDA            GEOL. SURV. CANADA                      OBSERVER / AGENCY
1115                AOA BENCHMARK ACT   3.3.32.4            REC # / TYPE / VERS
231                 AOAD/M_T        SCIS                    ANT # / TYPE
  -766174.4630 -3611375.3160  5184056.2210                  APPROX POSITION XYZ
        0.1500        0.0000        0.0000                  ANTENNA: DELTA H/E/N
     1     1                                                WAVELENGTH FACT L1/2
     7    C1    P1    P2    L1    L2    S1    S2            # / TYPES OF OBSERV
STATION INFORMATION EFFECTIVE FROM: 2001/01/13 18:20:00     COMMENT
                                TO: CURRENT DATE (above)    COMMENT
BIT 2 OF LLI FLAGS (+4) DATA COLLECTED UNDER 'AS' CONDITION COMMENT
L1 PHASE CENTRE 0.110m ABOVE ARP                            COMMENT
L2 PHASE CENTRE 0.128m ABOVE ARP                            COMMENT
where ARP is the Antenna Reference Point for HI measurement COMMENT
CONTACT gps@pgc.nrcan.gc.ca FOR ADDITIONAL INFORMATION      COMMENT
    P1 =    P1  TurboRogue; =    Y1  Benchmark              COMMENT
    L1 = L1(CA)                                             COMMENT
    P2 =    P2  TurboRogue; =    Y2  Benchmark              COMMENT
    L2 = L2(P2) TurboRogue; = L2(Y2) Benchmark              COMMENT
 SNR is mapped to RINEX snr flag value [0-9]                COMMENT
  L1 & L2: min(max(int(snr_dBHz/6), 0), 9)                  COMMENT
  2009     1    11     0     0    0.0000000     GPS         TIME OF FIRST OBS
                                                            END OF HEADER
 09  1 11  0  0  0.0000000  0 11G22G26G19G15G14G21G24G 3G18G 6G 9
  21093362.240    21093361.736    21093358.878   -21373080.467 6 -16654340.512 7
        41.300          42.400
  24034439.167    24034438.617    24034437.788    -1562233.145 1  -1217316.377 2
        11.000          16.100
  23361418.876    23361417.192    23361415.121    -8795748.776 4  -6853827.949 4
        27.400          27.100
  22644265.927    22644265.604    22644264.197   -11609389.700 5  -9046267.581 5
        32.100          34.700
  24493619.834    24493619.021    24493618.342    -3788465.203 2  -2952048.962 2
        13.900          15.100
  21188667.652    21188666.844    21188665.053   -23005687.107 6 -17926501.091 6
        39.100          36.000
  24972956.205    24972955.514    24972957.251     1116300.215      869846.676 1
         3.000           9.000
  22521191.739    22521190.867    22521190.776   -10343933.687 5  -8060204.318 5
        30.100          30.200
  20409778.354    20409777.493    20409776.347   -25919278.194 6 -20196829.689 7
        38.900          47.500
  22502195.330    22502194.787    22502194.712   -11421189.673 5  -8899624.087 5
        31.100          31.600
  22786207.091    22786206.589    22786205.941   -10856831.025 4  -8459863.893 4
        26.200          26.500
 09  1 11  0  0 30.0000000  0 11G22G26G19G15G14G21G24G 3G18G 6G 9
  21082701.362    21082700.859    21082697.965   -21429103.634 6 -16697994.926 7
        41.300          42.500
  24057179.063    24057178.599    24057176.349    -1442737.590 2  -1124202.948 2
        12.600          16.100
  23351697.204    23351695.783    23351693.691    -8846833.604 4  -6893634.298 4
        26.500          26.800
  22660324.223    22660324.085    22660322.700   -11525001.537 5  -8980510.570 5
        32.300          34.500
  24472054.081    24472052.711    24472052.589    -3901792.907 2  -3040356.244 2
        13.900          16.100
  21201610.820    21201610.012    21201608.318   -22937669.791 6 -17873500.591 5
        38.900          35.900
  24993477.006    24993477.068    24993477.485     1224136.576      953874.983 1
                         9.000
  22527112.521    22527111.586    22527111.675   -10312820.075 5  -8035959.941 5
        30.200          30.200
  20410219.821    20410218.989    20410216.674   -25916958.187 6 -20195021.888 7
        38.900          47.600
  22509448.598    22509448.053    22509447.796   -11383073.506 5  -8869923.170 5
        30.800          31.600
  22768934.806    22768934.057    22768933.346   -10947599.323 4  -8530592.431 4
        25.900          26.800
 09  1 11  0  1  0.0000000  0 11G22G26G19G15G14G21G24G 3G18G 6G 9
  21072101.821    21072101.286    21072098.448   -21484803.941 6 -16741397.758 7
        41.300          42.500
  24079952.099    24079951.153    24079949.748    -1323065.258 2  -1030951.755 2
        13.900          16.100
  23342074.218    23342073.167    23342071.467    -8897400.482 4  -6933037.047 4
        26.500          27.100
  22676445.184    22676445.082    22676443.479   -11440285.277 5  -8914497.890 5
        32.000          34.100
  24450508.344    24450507.427    24450507.735    -4015012.306 2  -3128579.117 2
        13.900          17.800
  21214637.466    21214636.548    21214634.905   -22869215.087 6 -17820159.272 5
        38.900          35.900
  25014010.087    25014009.882    25014011.623     1332038.256     1037954.168 2
         3.000          12.600
  22533142.156    22533141.456    22533141.541   -10281133.215 5  -8011268.883 5
        30.600          30.200
  20410735.902    20410735.022    20410733.948   -25914245.884 6 -20192908.401 7
        38.800          47.400
  22516800.424    22516799.916    22516799.940   -11344438.429 5  -8839817.923 5
        30.600          31.600
  22751743.083    22751742.439    22751742.009   -11037940.847 4  -8600988.399 4
        25.300          27.400
 09  1 11  0  1 30.0000000  0 11G22G26G19G15G14G21G24G 3G18G 6G 9
  21061566.387    21061565.869    21061562.920   -21540168.490 6 -16784538.960 7
        41.400          42.600
  24102759.737    24102759.456    24102757.591    -1203206.555 2   -937555.343 2
        15.100          16.100
  23332553.327    23332551.887    23332550.361    -8947435.184 4  -6972025.112 4
        26.500          27.900
  22692630.585    22692630.385    22692628.620   -11355230.470 5  -8848221.416 5
        31.800          33.900
  24428987.390    24428986.327    24428986.151    -4128108.783 2  -3216706.214 3
        12.600          18.600
  21227749.348    21227748.470    21227746.820   -22800311.685 6 -17766468.320 5
        38.900          35.800
  25034557.938    25034556.506    25034558.885     1440016.240     1122092.809 1
         3.000          11.000
  22539283.436    22539282.502    22539282.321   -10248861.822 5  -7986122.340 4
        30.200          29.700
  20411328.884    20411328.041    20411325.767   -25911129.363 6 -20190479.940 7
        38.800          47.300
  22524253.379    22524252.738    22524252.830   -11305273.380 5  -8809299.705 5
        30.400          31.600
  22734635.805    22734635.170    22734634.872   -11127840.033 4  -8671039.693 4
        25.300          27.600
 09  1 11  0  2  0.0000000  0 11G22G26G19G15G14G21G24G 3G18G 6G 9
  21051093.092    21051092.515    21051089.632   -21595206.632 6 -16827425.821 7
        41.400          42.800
  24125600.920    24125600.986    24125599.041    -1083175.588 2   -844024.686 2
        13.900          17.800
  23323131.359    23323129.706    23323128.316    -8996947.183 4  -7010605.870 4
        26.200          27.600
  22708877.661    22708877.551    22708875.884   -11269850.789 5  -8781691.793 5
        31.600          33.600
  24407488.315    24407487.373    24407486.341    -4241091.598 2  -3304744.738 3
        13.900          18.600
  21240944.209    21240943.357    21240941.702   -22730971.903 6 -17712437.324 5
        38.700          35.700
  25055117.802    25055116.198    25055116.365     1548057.886     1206281.058 1
         3.000           9.000
  22545533.339    22545532.464    22545531.967   -10216018.878 5  -7960530.435 4
        30.100          29.500
  20411996.863    20411995.970    20411994.805   -25907619.594 6 -20187745.050 7
        38.900          47.400
  22531804.813    22531804.089    22531803.913   -11265591.323 5  -8778378.623 5
        30.400          31.500
  22717611.445    22717610.511    22717610.420   -11217304.365 4  -8740752.130 4
        24.900          27.900
 09  1 11  0  2 30.0000000  0 11G22G26G19G15G14G21G24G 3G18G 6G 9
  21040680.499    21040679.931    21040676.988   -21649925.387 6 -16870063.803 7
        41.400          42.800
  24148473.231    24148472.596    24148471.702     -962982.700 1   -750367.885 3
        11.000          18.600
  23313807.996    23313806.311    23313804.638    -9045942.147 4  -7048783.746 4
        26.200          27.600
  22725184.809    22725184.830    22725183.321   -11184155.941 5  -8714916.587 5
        31.600          33.600
  24386007.478    24386007.472    24386007.248    -4353966.063 2  -3392698.851 3
        15.100          19.300
  21254220.336    21254219.531    21254218.044   -22661204.217 6 -17658072.902 5
        38.500          35.500
  25075687.749    25075686.698    25075687.803     1656154.106     1290511.863 1
         3.000           9.000
  22551890.107    22551889.360    22551888.993   -10182613.174 5  -7934500.014 4
        30.400          29.500
  20412738.148    20412737.337    20412735.040   -25903723.947 6 -20184709.482 7
        38.900          47.600
  22539452.701    22539452.134    22539451.780   -11225400.933 5  -8747061.437 5
        30.600          31.300
  22700668.524    22700668.083    22700667.797   -11306337.484 4  -8810128.562 4
        25.300          28.100
 09  1 11  0  3  0.0000000  0 11G22G21G26G19G15G14G24G 3G18G 6G 9
  21030329.523    21030329.040    21030325.970   -21704319.537 6 -16912448.857 7
        41.600          42.700
  21267578.974    21267578.051    21267576.495   -22591005.869 6 -17603372.897 5
        38.600          35.600
  24171376.763    24171376.330    24171374.689     -842626.307 1   -656583.701 2
        11.000          17.800
  23304584.071    23304582.377    23304580.747    -9094414.285 4  -7086554.224 4
        27.100          27.600
  22741552.563    22741552.383    22741550.602   -11098144.260 5  -8647894.490 5
        31.800          33.400
  24364550.251    24364549.612    24364549.695    -4466725.854 2  -3480563.641 3
        15.100          19.300
  25096268.091    25096268.767    25096268.451     1764307.696     1374787.369 1
                         6.500
  22558354.546    22558353.695    22558353.507   -10148641.994 5  -7908028.960 4
        30.100          29.700
  20413553.641    20413552.781    20413551.747   -25899438.307 6 -20181370.015 7
        38.900          47.400
  22547198.033    22547197.363    22547197.124   -11184699.743 5  -8715346.233 5
        30.800          31.500
  22683809.829    22683809.066    22683808.975   -11394932.022 4  -8879163.237 4
        26.200          28.600
 09  1 11  0  3 30.0000000  0 11G22G26G19G15G14G21G24G 3G18G 6G 9
  21020041.996    21020041.492    21020038.623   -21758380.422 6 -16954574.222 7
        41.500          42.800
  24194311.311    24194310.864    24194309.543     -722101.406 2   -562668.192 2
        12.600          17.000
  23295461.767    23295460.167    23295458.342    -9142354.131 4  -7123909.945 4
        27.400          28.400
  22757981.408    22757981.213    22757979.421   -11011809.977 5  -8580621.014 5
        31.100          33.000
  24343116.489    24343115.723    24343115.502    -4579360.942 2  -3568331.236 3
        13.900          19.300
  21281020.457    21281019.548    21281017.907   -22520370.199 6 -17548332.117 5
        38.500          35.300
  25116863.654    25116861.802    25116860.905     1872525.473     1459112.856 1
                         6.500
  22564927.641    22564926.813    22564926.942   -10114099.073 4  -7881112.412 4
        29.700          29.700
  20414445.032    20414444.154    20414441.949   -25894754.699 6 -20177720.450 7
        38.900          47.800
  22555041.499    22555040.820    22555040.843   -11143481.354 5  -8683228.001 5
        30.600          31.800
  22667036.286    22667035.683    22667035.628   -11483076.317 4  -8947847.075 4
        26.200          29.000
 09  1 11  0  4  0.0000000  0 11G22G26G19G15G14G21G24G 3G18G 6G 9
  21009817.830    21009817.352    21009814.439   -21812108.810 6 -16996440.486 7
        41.600          43.000
  24217277.200    24217276.148    24217276.419     -601412.375 1   -468624.795 2
        11.000          16.100
  23286439.538    23286437.798    23286437.088    -9189761.354 4  -7160850.608 4
        26.800          29.000
  22774470.680    22774470.458    22774469.055   -10925157.049 5  -8513099.250 5
        30.800          33.200
  24321707.001    24321705.624    24321705.414    -4691871.060 2  -3656001.441 3
        13.900          19.300
  21294544.680    21294543.780    21294542.207   -22449299.683 6 -17492952.504 5
        38.400          35.100
  25137464.678    25137465.747    25137464.283     1980804.339     1543485.055
                         3.000
  22571609.604    22571608.661    22571608.819   -10078987.317 4  -7853752.595 5
        29.200          30.100
  20415411.708    20415410.778    20415409.699   -25889674.793 6 -20173762.075 7
        39.100          47.800
  22562982.821    22562982.261    22562982.211   -11101749.052 5  -8650709.329 5
        30.400          31.800
  22650348.973    22650348.063    22650348.274   -11570768.609 4  -9016178.700 4
        26.200          29.000
 09  1 11  0  4 30.0000000  0 10G22G21G26G19G15G14G 3G18G 6G 9
  20999657.388    20999656.855    20999653.700   -21865503.412 6 -17038046.661 7
        41.800          43.000
  21308151.502    21308150.662    21308149.055   -22377795.559 6 -17437235.014 5
        38.400          34.900
  24240274.489    24240274.237    24240273.390     -480561.554 1   -374455.324 2
        11.000          16.100
  23277520.464    23277518.809    23277517.626    -9236633.657 4  -7197374.465 4
        27.600          29.500
  22791020.160    22791020.165    22791018.930   -10838187.106 5  -8445330.452 5
        30.600          33.400
  24300321.931    24300320.789    24300319.508    -4804253.533 2  -3743572.169 3
        15.100          18.600
  22578398.771    22578397.951    22578398.035   -10043307.740 4  -7825950.328 4
        29.200          29.900
  20416453.843    20416452.951    20416450.824   -25884197.742 6 -20169494.242 7
        39.000          47.600
  22571021.904    22571021.319    22571020.981   -11059503.805 5  -8617790.965 5
        30.400          31.300
  22633749.056    22633748.249    22633747.804   -11658004.854 4  -9084154.973 4
        27.100          28.800
 09  1 11  0  5  0.0000000  0 10G21G22G26G19G15G14G 3G18G 6G 9
  21321838.943    21321838.132    21321836.645   -22305866.367 6 -17381186.300 5
        38.000          34.800
  20989558.739    20989558.251    20989555.288   -21918570.952 6 -17079397.983 7
        41.500          43.000
  24263300.874    24263300.317    24263299.536     -359558.940 2   -280167.578 2
        12.600          16.100
  23268701.751    23268700.340    23268698.972    -9282976.733 4  -7233485.943 5
        28.400          30.100
  22807628.622    22807628.563    22807627.202   -10750909.809 5  -8377322.166 5
        30.600          33.400
  24278959.458    24278958.552    24278957.039    -4916513.714 2  -3831047.599 3
        16.100          19.300
  22585294.386    22585293.765    22585293.959   -10007069.375 4  -7797712.639 4
        29.200          29.900
  20417570.194    20417569.333    20417568.240   -25878331.417 6 -20164923.075 7
        39.100          47.700
  22579156.814    22579156.252    22579156.008   -11016754.434 5  -8584479.765 5
        30.400          31.500
  22617234.131    22617233.477    22617233.369   -11744788.891 4  -9151778.873 4
        27.100          29.500
 09  1 11  0  5 30.0000000  0 10G21G22G26G19G15G14G 3G18G 6G 9
  21335608.675    21335607.901    21335606.390   -22233506.663 6 -17324802.121 5
        38.100          34.800
  20979523.968    20979523.490    20979520.610   -21971303.297 6 -17120488.111 7
        41.400          43.100
  24286356.699    24286355.424    24286355.060     -238400.814 1   -185758.641 2
         9.000          17.000
  23259985.638    23259983.697    23259982.285    -9328782.640 4  -7269178.845 4
        27.600          29.900
  22824296.487    22824296.184    22824294.975   -10663321.174 5  -8309071.276 5
        30.800          33.400
  24257621.979    24257621.246    24257619.239    -5028643.156 2  -3918421.149 3
        16.100          18.600
  22592297.811    22592296.988    22592297.423    -9970267.355 4  -7769035.734 4
        29.000          29.900
  20418761.830    20418761.001    20418758.761   -25872069.203 6 -20160043.424 7
        39.100          47.900
  22587389.037    22587388.330    22587387.959   -10973496.260 5  -8550772.102 5
        31.000          31.600
  22600807.824    22600807.222    22600806.990   -11831110.254 4  -9219042.238 4
        27.400          29.500
 09  1 11  0  6  0.0000000  0 10G21G22G26G19G15G14G 3G18G 6G 9
  21349460.055    21349459.155    21349457.569   -22160717.957 6 -17268083.659 5
        38.000          34.600
  20969553.381    20969552.923    20969549.934   -22023699.960 6 -17161316.674 7
        41.600          43.200
  24309440.881    24309440.533    24309439.422     -117090.038 1    -91230.776 3
         9.000          18.600
  23251371.610    23251369.890    23251367.906    -9374049.588 4  -7304451.766 4
        28.400          29.500
  22841022.837    22841022.671    22841021.173   -10575423.423 5  -8240579.522 5
        30.800          32.700
  24236308.628    24236308.140    24236307.306    -5140639.635 2  -4005691.096 2
        15.100          17.800
  22599408.158    22599407.263    22599407.514    -9932902.850 4  -7739920.536 4
        28.600          29.900
  20420028.814    20420027.935    20420026.900   -25865411.216 6 -20154855.378 7
        39.200          47.800
  22595716.848    22595716.257    22595716.160   -10929731.045 5  -8516669.342 5
        30.600          31.500
  22584470.208    22584469.467    22584469.051   -11916965.755 4  -9285942.604 4
        27.100          29.200
 09  1 11  0  6 30.0000000  0 10G21G22G26G19G15G14G 3G18G 6G 9
  21363392.003    21363391.072    21363389.258   -22087505.867 6 -17211035.287 5
        37.900          34.300
  20959645.749    20959645.224    20959642.294   -22075765.044 6 -17201886.866 7
        41.600          43.300
  24332552.798    24332552.099    24332551.676        4366.345 1      3410.541 3
         6.500          19.300
  23242859.604    23242857.839    23242855.882    -9418780.282 4  -7339306.834 4
        28.800          29.900
  22857806.673    22857806.544    22857804.931   -10487223.538 5  -8171852.326 5
        30.200          32.100
  24215021.379    24215021.103    24215020.071    -5252505.312 2  -4092859.105 2
        13.900          17.800
  22606624.398    22606623.527    22606623.611    -9894982.022 4  -7710371.851 5
        28.800          30.200
  20421370.272    20421369.432    20421367.338   -25858361.650 6 -20149362.206 7
        39.300          47.900
  22604140.601    22604139.969    22604139.936   -10885464.559 5  -8482175.970 5
        30.400          31.500
  22568220.934    22568220.144    22568219.527   -12002356.912 4  -9352481.146 4
        27.900          28.800
 09  1 11  0  7  0.0000000  0 11G21G22G26G19G15G14G24G 3G18G 6G 9
  21377403.241    21377402.477    21377400.596   -22013875.491 6 -17153660.975 5
        37.900          33.800
  20949800.754    20949800.243    20949797.309   -22127500.729 6 -17242200.384 7
        41.500          43.300
  24355691.523    24355691.006    24355690.373      125961.995 1     98160.345 3
         6.500          19.300
  23234449.167    23234447.549    23234445.837    -9462976.884 4  -7373745.726 5
        28.600          30.400
  22874646.913    22874646.798    22874645.068   -10398727.253 4  -8102894.176 5
        29.700          31.800
  24193759.232    24193758.180    24193757.298    -5364241.949 2  -4179926.576 2
        15.100          17.800
  25261318.205    25261317.040    25261316.965           -.4551           .4011
         3.000
  22613945.487    22613944.547    22613944.544    -9856510.647 4  -7680394.150 5
        28.800          30.100
  20422785.697    20422784.777    20422783.664   -25850924.265 6 -20143566.833 8
        39.100          48.200
  22612658.379    22612657.647    22612657.618   -10840702.201 4  -8447296.219 5
        29.900          31.100
  22552059.734    22552059.047    22552058.356   -12087283.485 4  -9418657.684 4
        27.900          28.600
 09  1 11  0  7 30.0000000  0 10G21G22G26G19G15G14G 3G18G 6G 9
  21391493.991    21391493.146    21391491.370   -21939827.878 6 -17095961.541 5
        37.700          33.800
  20940018.769    20940018.265    20940015.301   -22178905.323 6 -17282255.907 7
        41.600          43.500
  24378856.671    24378857.018    24378854.701      247694.293 1    193016.622 3
        11.000          19.300
  23226140.834    23226139.017    23226137.626    -9506637.698 4  -7407767.129 5
        28.100          30.600
  22891543.375    22891543.055    22891541.419   -10309936.410 4  -8033706.507 5
        29.500          32.000
  24172521.855    24172520.527    24172519.534    -5475847.494 2  -4266891.877 2
        15.100          17.000
  22621370.892    22621370.101    22621369.685    -9817489.419 4  -7649988.003 4
        29.500          29.500
  20424274.642    20424273.846    20424271.747   -25843098.668 6 -20137468.963 8
        39.300          48.000
  22621270.407    22621269.719    22621269.668   -10795445.731 4  -8412031.434 5
        29.700          31.100
  22535987.625    22535986.991    22535986.876   -12171741.619 4  -9484469.194 4
        27.100          29.500
 09  1 11  0  8  0.0000000  0 11G21G22G26G19G15G14G24G 3G18G 6G 9
  21405665.448    21405664.634    21405663.092   -21865355.073 6 -17037930.792 5
        37.300          33.600
  20930301.553    20930300.983    20930298.111   -22229969.576 6 -17322046.227 7
        41.500          43.600
  24402049.510    24402048.947    24402047.503      369570.151 2    287984.811 3
        15.100          19.900
  23217936.251    23217934.427    23217932.969    -9549751.433 4  -7441362.233 5
        28.100          30.400
  22908497.261    22908496.997    22908495.397   -10220843.970 4  -7964283.819 5
        29.700          32.100
  24151309.643    24151308.999    24151308.907    -5587310.299 2  -4353745.959 2
        15.100          17.000
  25302670.562    25302670.767                           -.5181

  22628902.308    22628901.358    22628901.237    -9777911.107 4  -7619147.756 4
        29.000          29.500
  20425839.419    20425838.585    20425837.605   -25834875.606 6 -20131061.375 7
        39.300          47.800
  22629978.038    22629977.349    22629977.374   -10749687.183 4  -8376375.428 5
        29.500          31.100
  22520007.534    22520006.992    22520006.431   -12255718.655 4  -9549905.819 4
        27.900          29.700
 09  1 11  0  8 30.0000000  0 10G21G22G26G19G15G14G 3G18G 6G 9
  21419916.593    21419915.691    21419913.912   -21790466.537 6 -16979576.100 5
        37.500          33.600
  20920647.576    20920647.098    20920644.123   -22280700.954 6 -17361577.164 7
        41.500          43.600
  24425266.540    24425265.820    24425264.913      491577.954 2    383055.800 3
        13.900          19.300
  23209834.456    23209832.938    23209831.471    -9592325.673 4  -7474536.948 5
        28.100          30.200
  22925506.037    22925505.668    22925504.303   -10131461.165 4  -7894634.873 5
        28.800          32.100
  24130125.458    24130124.798    24130123.304    -5698636.868 2  -4440493.870 2
        16.100          16.100
  22636537.630    22636536.666    22636536.763    -9737786.130 4  -7587881.548 4
        28.600          29.200
  20427478.171    20427477.342    20427475.300   -25826264.329 6 -20124351.287 8
        39.300          48.100
  22638779.253    22638778.618    22638778.288   -10703436.927 4  -8340336.272 5
        29.700          30.800
  22504117.760    22504117.090    22504116.604   -12339219.941 4  -9614971.741 4
        28.100          29.900
 09  1 11  0  9  0.0000000  0 10G21G22G26G19G15G14G 3G18G 6G 9
  21434245.800    21434244.899    21434243.171   -21715166.362 6 -16920900.646 5
        37.500          33.500
  20911056.834    20911056.349    20911053.498   -22331100.513 6 -17400849.545 7
        41.500          43.800
  24448508.139    24448507.460    24448506.417      613713.061 2    478225.981 2
        12.600          17.800
  23201835.572    23201833.974    23201832.624    -9634360.776 4  -7507291.562 5
        28.100          30.200
  22942569.416    22942569.142    22942567.760   -10041792.399 4  -7824763.114 5
        28.600          32.300
  24108966.456    24108965.516    24108964.099    -5809827.590 2  -4527135.936 2
        16.100          15.100
  22644276.531    22644275.699    22644275.678    -9697118.424 4  -7556192.427 4
        28.600          29.500
  20429190.306    20429189.492    20429188.489   -25817266.650 6 -20117340.104 8
        39.300          48.000
  22647673.104    22647672.571    22647672.312   -10656699.119 4  -8303917.209 5
        29.700          31.000
  22488318.787    22488318.030    22488317.628   -12422244.107 4  -9679665.876 4
        28.400          29.900
 09  1 11  0  9 30.0000000  0 10G21G22G26G19G15G14G 3G18G 6G 9
  21448656.555    21448655.648    21448653.861   -21639437.319 6 -16861891.007 5
        37.400          33.400
  20901532.861    20901532.359    20901529.516   -22381149.495 6 -17439848.744 7
        41.400          43.900
  24471776.757    24471776.184    24471775.291      735991.052 1    573507.497 2
        11.000          17.000
  23193943.555    23193941.619    23193939.959    -9675836.597 4  -7539610.376 5
        28.100          30.400
  22959690.571    22959690.294    22959688.364    -9951821.907 4  -7754656.238 5
        29.000          31.600
  24087837.152    24087836.349    24087835.163    -5920861.985 2  -4613656.207 2
        17.000          15.100
  22652122.031    22652121.139    22652121.045    -9655890.864 4  -7524067.064 4
        28.600          29.200
  20430979.610    20430978.737    20430976.695   -25807864.253 6 -20110013.557 8
        39.400          48.200
  22656662.809    22656662.294    22656662.384   -10609457.023 4  -8267105.192 5
        29.200          31.300
  22472614.745    22472613.947    22472613.647   -12504769.232 4  -9743971.151 4
        28.600          29.900
 09  1 11  0 10  0.0000000  0 10G21G22G26G19G15G14G 3G18G 6G 9
  21463146.460    21463145.630    21463143.984   -21563291.524 6 -16802556.628 5
        37.100          33.200
  20892073.702    20892073.212    20892070.541   -22430857.339 6 -17478582.121 7
        41.500          44.100
  24495069.738    24495068.899    24495068.835      858398.686 1    668890.039 2
         9.000          15.100
  23186155.204    23186153.276    23186151.750    -9716762.645 4  -7571500.799 5
        27.900          30.200
  22976866.391    22976865.856    22976864.326    -9861562.112 4  -7684323.929 5
        28.800          31.300
  24066736.187    24066735.172    24066734.598    -6031748.477 2  -4700061.224 2
        17.000          16.100
  22660071.384    22660070.609    22660070.388    -9614116.311 4  -7491515.461 4
        28.400          29.000
  20432843.782    20432842.974    20432841.949   -25798067.774 6 -20102379.930 8
        39.400          48.200
  22665746.157    22665745.584    22665745.671   -10561723.021 4  -8229909.875 5
        28.600          31.100
  22457004.334    22457003.478    22457003.096   -12586802.602 4  -9807893.247 4
        28.400          29.700
 09  1 11  0 10 30.0000000  0 10G21G22G26G19G15G14G 3G18G 6G 9
  21477714.627    21477713.979    21477712.277   -21486734.326 6 -16742901.675 5
        37.100          33.100
  20882679.151    20882678.613    20882675.670   -22480227.243 6 -17517052.174 7
        41.600          44.100
  24518386.358    24518386.302    24518385.841      980929.294 1    764368.412 2
         9.000          12.600
  23178471.217    23178469.243    23178468.119    -9757141.254 4  -7602964.633 5
        27.600          30.200
  22994096.237    22994095.776    22994094.199    -9771019.242 4  -7613771.034 5
        29.700          31.100
  24045662.433    24045661.959    24045660.942    -6142489.038 2  -4786352.532 2
        16.100          16.100
  22668123.554    22668122.740    22668122.888    -9571800.204 4  -7458541.885 4
        28.400          29.200
  20434782.207    20434781.401    20434779.385   -25787881.168 6 -20094442.313 8
        39.500          48.300
  22674922.433    22674921.766    22674921.814   -10513502.712 4  -8192335.623 5
        28.800          30.600
  22441487.076    22441486.306    22441486.102   -12668344.707 4  -9871432.534 4
        27.600          29.500
 09  1 11  0 11  0.0000000  0 10G21G22G26G19G15G14G 3G18G 6G 9
  21492361.080    21492360.148    21492358.592   -21409767.274 6 -16682927.357 5
        36.600          33.000
  20873348.831    20873348.236    20873345.195   -22529258.557 6 -17555258.389 7
        41.600          44.000
  24541725.998    24541725.628    24541725.080     1103580.223      859940.554 1
         3.000          11.000
  23170892.201    23170890.204    23170888.716    -9796970.843 4  -7634000.665 5
        28.400          30.100
  23011379.303    23011379.065    23011377.383    -9680195.926 4  -7542999.606 5
        29.700          31.500
  24024617.163    24024616.637    24024616.582    -6253081.774 2  -4872528.656 2
        16.100          17.000
  22676278.979    22676278.066    22676278.065    -9528944.656 4  -7425147.957 4
        28.600          29.200
  20436794.890    20436794.055    20436792.952   -25777304.530 6 -20086200.769 8
        39.500          48.400
  22684190.510    22684189.742    22684189.808   -10464798.242 4  -8154384.091 5
        28.400          30.400
  22426064.615    22426063.833    22426063.240   -12749392.425 4  -9934586.580 4
        28.600          29.700
 09  1 11  0 11 30.0000000  0 10G21G22G26G19G15G14G 3G18G 6G 9
  21507085.754    21507084.921    21507083.268   -21332389.086 6 -16622632.680 5
        36.600          32.800
  20864083.330    20864082.862    20864080.013   -22577947.641 6 -17593197.928 7
        41.500          44.200
  24565089.354    24565089.015    24565087.205     1226351.548 1    955606.513 1
         6.500           6.500
  23163418.260    23163416.547    23163414.597    -9836247.546 4  -7664605.876 4
        29.000          29.700
  23028715.928    23028715.655    23028713.847    -9589091.305 4  -7472008.990 5
        28.800          31.500
  24003600.957    24003600.151    24003600.914    -6363521.848 2  -4958585.831 2
        16.100          17.800
  22684537.324    22684536.311    22684536.253    -9485548.227 4  -7391332.565 4
        28.600          29.500
  20438882.315    20438881.506    20438879.507   -25766335.127 6 -20077653.178 8
        39.500          48.500
  22693551.220    22693550.534    22693550.541   -10415608.620 4  -8116054.523 5
        28.800          30.600
  22410736.558    22410735.995    22410735.678   -12829939.727 4  -9997350.702 4
        28.800          29.900
 09  1 11  0 12  0.0000000  0 10G21G22G26G19G15G14G 3G18G 6G 9
  21521888.135    21521887.209    21521885.177   -21254603.251 6 -16562020.345 5
        36.700          32.600
  20854883.266    20854882.730    20854879.758   -22626295.584 6 -17630871.648 7
        41.700          44.400
  24588475.000    24588474.451    24588472.928     1349238.390 1   1051362.519
         6.500           3.000
  23156048.429    23156047.083    23156045.393    -9874972.126 4  -7694780.868 4
        29.000          29.200
  23046105.228    23046105.004    23046103.139    -9497710.483 4  -7400803.156 5
        28.400          31.600
  23982614.139    23982613.056    23982613.785    -6473809.540 2  -5044524.251 3
        16.100          19.300
  22692896.858    22692896.097    22692896.409    -9441615.493 4  -7357099.272 4
        28.100          29.500
  20441043.759    20441043.021    20441041.956   -25754975.911 6 -20068801.834 8
        39.600          48.300
  22703003.317    22703002.651    22703002.443   -10365937.989 4  -8077350.133 5
        28.600          30.400
  22395504.314    22395503.843    22395503.486   -12909985.348 4 -10059723.896 5
        28.800          30.200
 09  1 11  0 12 30.0000000  0 10G21G22G26G19G15G14G 3G18G 6G 9
  21536767.795    21536766.907    21536765.305   -21176408.455 6 -16501089.343 5
        36.300          32.700
  20845748.394    20845747.861    20845744.949   -22674298.924 6 -17668276.839 7
        41.700          44.400
  24611882.297    24611880.875    24611879.269     1472241.058 1   1147208.756 1
         6.500           9.000
  23148785.142    23148783.849    23148782.231    -9913140.461 4  -7724522.427 4
        28.800          28.800
  23063546.736    23063546.480    23063545.112    -9406053.009 4  -7329381.747 5
        27.900          31.500
  23961656.657    23961656.477    23961656.540    -6583939.921 2  -5130340.097 3
        17.000          19.300
  22701359.682    22701358.819    22701358.555    -9397145.366 4  -7322447.228 4
        28.100          29.200
  20443280.226    20443279.405    20443277.494   -25743223.670 6 -20059644.239 8
        39.600          48.500
  22712546.544    22712545.904    22712546.096   -10315785.280 4  -8038270.099 5
        28.100          30.400
  22380369.016    22380368.270    22380368.040   -12989522.998 4 -10121701.272 5
        28.800          30.400
 09  1 11  0 13  0.0000000  0 10G21G22G26G19G15G14G 3G18G 6G 9
  21551725.678    21551724.705    21551722.945   -21097805.688 6 -16439840.446 5
        36.400          32.400
  20836679.583    20836679.069    20836676.077   -22721956.218 6 -17705412.386 7
        41.800          44.600
  24635310.473    24635309.202    24635307.669     1595357.329 1   1243143.494 1
         6.500           9.000
  23141628.587    23141626.888    23141625.203    -9950750.504 4  -7753828.941 4
        28.800          28.800
  23081040.900    23081040.427    23081039.232    -9314119.990 4  -7257745.635 5
        27.600          31.000
  23940730.414    23940729.400    23940729.482    -6693910.639 2  -5216031.519 3
        17.800          20.500
  22709923.836    22709923.010    22709923.243    -9352139.317 4  -7287377.587 4
        27.900          29.500
  20445591.422    20445590.631    20445589.482   -25731078.333 6 -20050180.332 8
        39.700          48.600
  22722181.883    22722181.216    22722181.368   -10265152.040 4  -7998815.628 5
        28.600          30.600
  22365330.851    22365330.043    22365329.670   -13068548.966 4 -10183279.927 5
        28.800          30.200
 09  1 11  0 13 30.0000000  0 10G21G22G26G19G15G14G 3G18G 6G 9
  21566760.089    21566759.211    21566757.506   -21018798.313 6 -16378276.266 5
        36.200          32.300
  20827676.353    20827675.845    20827672.974   -22769268.375 6 -17742278.992 7
        41.800          44.800
  24658759.787    24658758.437    24658757.987     1718582.781 1   1339163.312 1
         9.000           9.000
  23134577.925    23134576.389    23134574.120    -9987802.611 4  -7782700.703 4
        28.800          28.600
  23098586.257    23098586.259    23098585.152    -9221915.826 4  -7185898.240 5
        27.600          30.800
  23919833.766    23919832.946    23919833.183    -6803721.323 2  -5301598.239 3
        17.800          20.500
  22718589.378    22718588.641    22718588.926    -9306601.233 4  -7251893.373 4
        27.900          29.200
  20447977.176    20447976.308    20447974.345   -25718541.638 6 -20040411.478 8
        39.700          48.700
  22731907.988    22731907.313    22731907.148   -10214041.970 4  -7958989.602 5
        28.600          30.400
  22350390.099    22350389.351    22350389.281   -13147061.901 4 -10244458.827 5
        28.400          30.200
 09  1 11  0 14  0.0000000  0 10G21G22G26G19G15G14G 3G18G 6G 9
  21581870.384    21581869.483    21581867.843   -20939393.499 6 -16316402.397 5
        36.100          32.300
  20818737.866    20818737.322    20818734.502   -22816240.438 6 -17778880.591 7
        41.800          44.800
  24682227.453    24682226.232    24682226.779     1841908.965 1   1435261.647 1
         9.000           9.000
  23127632.183    23127630.853    23127628.925   -10024301.384 4  -7811141.300 4
        29.200          29.000
  23116182.814    23116182.591    23116180.612    -9129448.675 4  -7113845.918 5
        28.100          30.100
  23898967.621    23898966.714    23898966.244    -6913375.849 2  -5387043.284 3
        17.800          20.500
  22727354.731    22727353.926    22727354.606    -9260538.466 4  -7216000.305 4
        27.600          29.500
  20450436.192    20450435.391    20450434.187   -25705618.830 6 -20030341.752 8
        39.700          48.700
  22741723.010    22741722.604    22741722.713   -10162462.617 4  -7918797.904 5
        28.400          30.600
  22335546.709    22335546.184    22335545.984   -13225064.134 4 -10305239.772 5
        29.000          30.400
 09  1 11  0 14 30.0000000  0 10G22G26G19G15G14G21G 3G18G 6G 9
  20809865.029    20809864.477    20809861.613   -22862867.298 6 -17815213.203 7
        41.700          44.900
  24705714.378    24705713.099    24705714.508     1965338.110 1   1531440.206 1
         6.500           9.000
  23120793.057    23120791.432    23120789.738   -10060241.056 4  -7839146.235 4
        28.600          29.000
  23133829.249    23133828.980    23133827.039    -9036716.320 4  -7041586.925 5
        28.400          30.200
  23878131.795    23878131.047    23878130.664    -7022867.352 2  -5472361.308 3
        17.000          20.500
  21597056.814    21597055.922    21597054.177   -20859588.135 6 -16254216.410 5
        36.000          32.100
  22736220.850    22736220.046    22736220.171    -9213948.388 4  -7179696.356 4
        27.900          29.200
  20452969.533    20452968.736    20452966.833   -25692306.333 6 -20019968.373 8
        39.800          48.900
  22751628.354    22751627.601    22751627.487   -10110411.652 4  -7878238.717 5
        28.400          30.600
  22320802.432    22320801.766    22320801.222   -13302547.677 4 -10365616.550 5
        29.500          30.200
 09  1 11  0 15  0.0000000  0 10G22G26G19G15G14G21G 3G18G 6G 9
  20801056.898    20801056.433    20801053.578   -22909154.266 6 -17851280.962 7
        41.900          45.100
  24729220.159    24729218.573    24729220.503     2088861.265     1627692.003 1
         3.000          11.000
  23114059.231    23114057.831    23114056.323   -10095626.682 4  -7866719.445 4
        28.600          29.500
  23151524.173    23151523.862    23151522.160    -8943727.070 4  -6969127.763 4
        27.400          29.900
  23857326.735    23857325.435    23857325.528    -7132200.402 2  -5557555.853 3
        17.800          21.600
  21612317.764    21612317.063    21612315.599   -20779390.011 5 -16191724.370 5
        35.800          32.300
  22745185.219    22745184.363    22745184.554    -9166839.255 4  -7142987.935 4
        28.100          28.800
  20455575.829    20455574.953    20455573.761   -25678610.315 6 -20009296.148 8
        39.800          48.800
  22761621.539    22761620.953    22761620.827   -10057896.966 4  -7837318.200 5
        28.400          30.800
  22306155.760    22306154.979    22306154.726   -13379515.856 4 -10425591.749 5
        29.500          30.200
 09  1 11  0 15 30.0000000  0 10G22G26G19G15G14G21G 3G18G 6G 9
  20792315.999    20792315.435    20792312.534   -22955088.460 6 -17887073.828 7
        41.900          45.200
  24752745.324    24752743.516    24752744.585     2212487.793     1724024.309 1
                        11.000
  23107433.780    23107432.457    23107430.966   -10130444.492 4  -7893850.199 4
        29.000          29.500
  23169269.551    23169269.866    23169268.296    -8850471.454 4  -6896461.047 5
        26.500          30.100
  23836554.526    23836553.836    23836552.922    -7241360.655 3  -5642615.765 3
        18.600          21.600
  21627655.868    21627655.038    21627653.450   -20698788.497 5 -16128918.007 5
        35.500          32.100
  22754250.569    22754249.827    22754249.708    -9119200.806 4  -7105867.063 4
        28.400          29.000
  20458257.433    20458256.558    20458254.674   -25664518.499 6 -19998315.510 8
        39.700          49.000
  22771705.064    22771704.383    22771704.187   -10004908.584 4  -7796028.557 5
        28.800          30.400
  22291610.363    22291609.544    22291609.195   -13455952.988 4 -10485153.142 5
        29.500          30.200
 09  1 11  0 16  0.0000000  0 10G22G26G19G15G14G21G 3G18G 6G 9
  20783640.999    20783640.461    20783637.462   -23000675.882 7 -17922596.485 7
        42.100          45.200
  24776288.940    24776287.591    24776288.560     2336208.517     1820430.062 1
                        11.000
  23100915.563    23100913.998    23100911.751   -10164700.161 4  -7920542.924 4
        29.200          29.200
  23187064.780    23187064.873    23187063.607    -8756958.583 4  -6823593.874 5
        26.800          30.600
  23815813.433    23815812.719    23815812.338    -7350352.930 3  -5727544.788 3
        18.600          21.100
  21643069.220    21643068.311    21643066.390   -20617791.939 5 -16065803.818 5
        35.600          31.600
  22763415.093    22763414.131    22763413.943    -9071042.123 4  -7068340.832 4
        27.600          28.800
  20461012.886    20461012.042    20461010.683   -25650038.212 6 -19987032.162 8
        39.800          49.000
  22781876.418    22781875.869    22781875.834    -9951455.298 4  -7754376.646 5
        28.400          30.400
  22277165.060    22277164.382    22277163.695   -13531862.875 4 -10544303.693 5
        29.700          30.100
 09  1 11  0 16 30.0000000  0 10G22G26G19G15G14G21G 3G18G 6G 9
  20775032.019    20775031.480    20775028.433   -23045916.756 7 -17957849.106 7
        42.100          45.400
  24799848.809    24799848.545    24799848.625     2460019.823     1916906.360 2
                        12.600
  23094503.806    23094501.980    23094500.438   -10198393.725 4  -7946797.647 4
        28.600          29.200
  23204908.201    23204908.038    23204906.857    -8663191.231 4  -6750528.406 5
        27.600          31.000
  23795104.811    23795104.448    23795103.649    -7459176.517 3  -5812342.357 3
        19.300          21.100
  21658556.924    21658555.994    21658554.366   -20536403.124 5 -16002383.970 5
        35.300          31.800
  22772677.709    22772676.691    22772676.938    -9022366.040 4  -7030411.414 4
        27.600          29.000
  20463842.041    20463841.201    20463839.487   -25635170.470 6 -19975446.906 8
        39.700          48.900
  22792136.659    22792135.714    22792135.841    -9897540.047 4  -7712364.767 5
        28.400          30.400
  22262820.794    22262820.119    22262819.388   -13607243.463 4 -10603041.796 5
        29.900          30.200
 09  1 11  0 17  0.0000000  0 10G22G26G19G15G14G21G 3G18G 6G 9
  20766487.971    20766487.453    20766484.476   -23090815.371 7 -17992835.026 7
        42.100          45.400
  24823423.602    24823424.156    24823425.080     2583913.908     2013447.164 2
         3.000          12.600
  23088198.509    23088196.726    23088194.816   -10231528.953 4  -7972617.294 4
        28.600          29.500
  23222798.915    23222798.844    23222797.228    -8569177.240 4  -6677270.749 5
        27.900          30.800
  23774428.388    23774427.677    23774426.938    -7567834.582 3  -5897010.948 3
        19.300          20.500
  21674118.087    21674117.174    21674115.573   -20454629.034 5 -15938663.910 5
        35.300          32.000
  22782037.687    22782036.962    22782036.700    -8973179.844 4  -6992084.504 4
        28.100          29.000
  20466744.047    20466743.215    20466741.890   -25619920.435 6 -19963563.754 8
        39.800          49.000
  22802482.459    22802481.832    22802481.982    -9843170.112 4  -7669998.578 5
        28.100          30.100
  22248576.409    22248575.681    22248575.336   -13682096.785 4 -10661369.042 5
        29.500          30.400
 09  1 11  0 17 30.0000000  0 10G22G26G19G15G14G21G 3G18G 6G 9
  20758013.604    20758013.091    20758010.052   -23135348.382 7 -18027536.057 7
        42.100          45.500
  24847018.869    24847019.539    24847021.674     2707910.982     2110068.193 2
         3.000          12.600
  23082003.275    23082001.554    23082000.013   -10264082.032 4  -7997983.321 4
        27.900          29.900
  23240740.255    23240740.017    23240738.198    -8474896.037 4  -6603804.871 5
        27.400          30.200
  23753787.575    23753786.975    23753786.457    -7676302.180 3  -5981531.121 3
        19.900          21.100
  21689756.517    21689755.761    21689754.039   -20372448.135 5 -15874626.859 5
        35.300          31.600
  22791498.539    22791497.695    22791497.541    -8923462.617 4  -6953343.803 4
        27.600          29.000
  20469722.995    20469722.235    20469720.439   -25604265.778 6 -19951365.319 8
        39.800          49.000
  22812919.122    22812918.605    22812918.525    -9788324.968 4  -7627262.107 5
        27.900          30.100
  22234437.378    22234436.917    22234436.559   -13756396.671 4 -10719265.031 5
        29.700          30.800
 09  1 11  0 18  0.0000000  0 10G22G26G19G15G14G21G 3G18G 6G 9
  20749605.720    20749605.217    20749602.264   -23179531.897 7 -18061964.762 7
        42.200          45.600
  24870631.544    24870631.322    24870632.909     2831991.846     2206754.533 2
                        12.600
  23075916.630    23075914.788    23075913.095   -10296068.611 4  -8022907.921 4
        28.600          29.700
  23258728.533    23258728.508    23258726.555    -8380366.981 4  -6530145.857 4
        27.100          29.900
  23733180.646    23733179.651    23733179.160    -7784594.331 3  -6065914.591 3
        19.300          21.600
  21705468.918    21705468.056    21705466.423   -20289878.907 5 -15810287.210 5
        34.900          31.500
  22801056.883    22801056.053    22801055.885    -8873233.680 4  -6914204.369 4
        27.600          29.000
  20472775.820    20472774.986    20472773.583   -25588223.489 6 -19938864.826 8
        39.900          49.100
  22823442.365    22823442.066    22823442.149    -9733023.483 4  -7584170.049 4
        27.600          29.900
  22220401.583    22220400.925    22220400.744   -13830157.001 5 -10776740.586 5
        30.100          31.800
 09  1 11  0 18 30.0000000  0 10G22G26G19G15G14G21G 3G18G 6G 9
  20741263.823    20741263.290    20741260.393   -23223368.981 7 -18096123.518 7
        42.200          45.700
  24894259.237    24894258.983    24894259.097     2956149.790     2303500.903 2
                        12.600
  23069937.358    23069935.814    23069933.673   -10327491.585 4  -8047393.351 5
        29.900          30.100
  23276762.873    23276762.547    23276760.900    -8285596.472 4  -6456298.703 5
        26.200          30.200
  23712605.960    23712605.295    23712604.572    -7892712.966 3  -6150162.842 3
        18.600          20.500
  21721253.973    21721253.225    21721251.746   -20206927.063 5 -15745649.423 5
        34.800          31.500
  22810711.311    22810710.230    22810710.263    -8822499.209 4  -6874671.017 4
        27.400          29.200
  20475901.486    20475900.623    20475898.968   -25571797.643 6 -19926065.462 8
        39.900          49.200
  22834051.825    22834051.170    22834051.141    -9677271.540 4  -7540726.967 4
        27.600          29.000
  22206468.111    22206467.281    22206466.995   -13903378.586 4 -10833796.336 5
        29.900          31.800
 09  1 11  0 19  0.0000000  0 10G22G26G19G15G14G21G 3G18G 6G 9
  20732989.872    20732989.311    20732986.322   -23266849.250 7 -18130004.238 7
        42.300          45.800
  24917901.287    24917900.540    24917901.861     3080392.395     2400313.300 1
                        11.000
  23064066.822    23064065.312    23064063.485   -10358340.014 5  -8071431.081 5
        30.100          30.600
  23294844.210    23294843.857    23294842.417    -8190576.399 4  -6382257.079 4
        25.600          29.700
  23692066.850    23692066.413    23692065.393    -8000646.122 3  -6234266.561 3
        19.300          20.500
  21737113.595    21737112.800    21737111.369   -20123584.212 5 -15680706.951 5
        34.700          31.500
  22820463.182    22820462.406    22820462.473    -8771251.349 4  -6834737.622 4
        27.600          29.000
  20479102.129    20479101.251    20479099.902   -25554978.486 6 -19912959.621 8
        40.000          49.200
  22844748.530    22844747.826    22844747.668    -9621061.660 4  -7496927.054 4
        27.400          29.000
  22192639.418    22192638.468    22192638.171   -13976048.504 5 -10890422.221 5
        30.100          31.500
 09  1 11  0 19 30.0000000  0 11G22G26G19G15G14G21G28G 3G18G 6G 9
  20724781.957    20724781.458    20724778.441   -23309981.944 7 -18163614.122 7
        42.300          45.900
  24941558.360    24941557.140    24941557.942     3204706.530     2497181.412 1
                        11.000
  23058304.326    23058302.446    23058300.750   -10388623.401 4  -8095028.516 5
        29.700          30.600
  23312970.764    23312970.647    23312969.470    -8095319.615 4  -6308031.004 4
        25.300          29.900
  23671561.369    23671560.579    23671560.236    -8108402.688 3  -6318232.681 3
        19.300          21.600
  21753045.384    21753044.579    21753043.044   -20039862.548 5 -15615469.300 5
        34.600          31.000
  25623503.830    25623501.675    25623502.058           -.1581           .2231
                         3.000
  22830310.629    22830309.923    22830309.918    -8719502.532 4  -6794413.864 4
        27.600          28.800
  20482375.580    20482374.661    20482372.958   -25537776.934 6 -19899555.812 8
        40.000          49.200
  22855529.739    22855529.146    22855529.015    -9564406.089 4  -7452779.847 4
        27.600          29.500
  22178914.077    22178913.479    22178913.045   -14048173.710 5 -10946623.658 5
        30.400          31.300
 09  1 11  0 20  0.0000000  0 11G22G26G19G15G14G21G28G 3G18G 6G 9
  20716640.723    20716640.269    20716637.323   -23352763.728 7 -18196950.569 7
        42.300          45.900
  24965229.453    24965229.879    24965226.971     3329092.619     2594105.543 1
                        11.000
  23052649.693    23052647.960    23052646.269   -10418337.878 4  -8118182.646 5
        29.700          30.600
  23331142.489    23331142.409    23331141.284    -7999825.896 4  -6233620.313 4
        24.900          29.700
  23651090.685    23651089.800    23651088.781    -8215977.850 3  -6402057.461 3
        19.300          21.100
  21769049.812    21769048.893    21769047.190   -19955760.895 5 -15549935.556 5
        34.700          31.100
  25617699.096    25617699.034    25617698.641      -30493.173      -23759.130 1
                         6.500
  22840253.738    22840252.878    22840252.909    -8667252.528 4  -6753699.580 4
        27.600          28.600
  20485722.079    20485721.241    20485719.702   -25520190.163 6 -19885851.831 8
        40.000          49.200
  22866395.956    22866395.377    22866394.981    -9507304.501 4  -7408285.115 4
        27.400          29.200
  22165293.907    22165293.107    22165292.550   -14119748.549 5 -11002396.240 5
        30.100          31.300
 09  1 11  0 20 30.0000000  0 11G22G26G19G15G14G21G28G 3G18G 6G 9
  20708566.799    20708566.252    20708563.304   -23395192.787 7 -18230012.165 7
        42.200          46.000
  24988915.168    24988913.824    24988911.582     3453549.330     2691084.741 2
                        12.600
  23047103.656    23047101.986    23047100.600   -10447481.188 4  -8140891.720 5
        29.700          31.000
  23349359.330    23349359.407    23349357.527    -7904096.374 4  -6159025.871 4
        25.600          29.200
  23630654.782    23630653.806    23630653.261    -8323368.212 3  -6485738.239 3
        18.600          21.600
  21785125.907    21785125.075    21785123.508   -19871279.425 5 -15484105.848 5
        34.500          30.800
  25611987.550    25611985.689    25611979.120      -60512.311      -47149.988 1
                         6.500
  22850291.897    22850290.919    22850291.090    -8614501.670 4  -6712595.014 4
        27.400          28.600
  20489142.239    20489141.340    20489139.777   -25502217.430 6 -19871847.098 8
        40.100          49.200
  22877346.066    22877345.354    22877345.928    -9449757.704 4  -7363443.460 4
        26.800          29.500
  22151779.164    22151778.506    22151778.026   -14190768.890 5 -11057736.737 5
        30.400          31.500
 09  1 11  0 21  0.0000000  0 11G22G26G19G15G14G21G28G 3G18G 6G 9
  20700561.236    20700560.695    20700557.705   -23437262.490 7 -18262793.745 7
        42.300          46.100
  25012615.230    25012612.405    25012607.764     3578080.094     2788121.670 1
                        11.000
  23041668.135    23041666.521    23041664.871   -10476046.248 5  -8163150.196 5
        30.400          31.100
  23367621.704    23367621.447    23367619.862    -7808127.182 4  -6084244.689 4
        25.300          29.000
  23610255.653    23610254.656    23610254.291    -8430566.056 3  -6569268.991 3
        19.900          22.600
  21801275.186    21801274.355    21801272.750   -19786414.102 5 -15417977.038 5
        34.000          30.800
  25606364.302    25606366.077    25606363.219      -90050.044      -70169.794 1
                         6.500
  22860425.704    22860424.953    22860424.732    -8561246.483 4  -6671097.466 4
        27.100          27.900
  20492636.819    20492635.954    20492634.510   -25483852.708 6 -19857536.922 8
        40.000          49.200
  22888382.701    22888381.970    22888382.123    -9391761.885 4  -7318251.916 4
        26.800          29.500
  22138371.781    22138371.072    22138370.553   -14261225.619 5 -11112638.062 5
        30.800          31.300
 09  1 11  0 21 30.0000000  0 11G22G26G19G15G14G21G28G 3G18G 6G 9
  20692622.776    20692622.245    20692619.193   -23478979.441 7 -18295300.455 7
        42.300          46.100
  25036321.650    25036319.275    25036317.040     3702674.768     2885208.370 1
                         9.000
  23036341.426    23036339.491    23036337.489   -10504039.828 5  -8184963.378 5
        30.600          30.600
  23385927.222    23385927.355    23385925.927    -7711928.050 4  -6009284.314 4
        24.900          28.600
  23589892.022    23589891.014    23589890.744    -8537577.025 3  -6652654.130 3
        20.500          22.600
  21817495.864    21817494.918    21817493.197   -19701174.400 5 -15351556.509 5
        33.900          30.400
  25600834.474    25600832.877    25600831.231     -119112.712      -92818.351 1
                         9.000
  22870654.101    22870653.339    22870653.236    -8507496.897 4  -6629214.676 4
        27.100          27.900
  20496204.661    20496203.815    20496202.144   -25465103.936 6 -19842927.483 8
        40.100          49.100
  22899502.196    22899501.564    22899501.768    -9333326.904 4  -7272718.178 4
        26.200          29.000
  22125070.628    22125069.940    22125069.253   -14331123.692 5 -11167104.082 5
        31.000          31.500
 09  1 11  0 22  0.0000000  0 11G22G26G19G15G14G21G28G 3G18G 6G 9
  20684753.068    20684752.482    20684749.544   -23520334.933 7 -18327525.505 7
        42.300          46.200
  25060040.949    25060041.929    25060040.365     3827339.186     2982349.422 1
                         6.500
  23031124.842    23031123.156    23031121.179   -10531452.929 5  -8206324.232 5
        30.400          31.000
  23404277.469    23404278.404    23404276.467    -7615493.491 4  -5934140.495 4
        25.300          27.400
  23569565.919    23569565.186    23569564.588    -8644391.116 3  -6735885.863 3
        20.500          22.100
  21833788.760    21833787.930    21833786.328   -19615553.779 5 -15284839.152 5
        34.000          30.400
  25595395.560    25595396.584    25595395.465     -147691.089     -115087.180 1
                         9.000
  22880977.721    22880976.851    22880976.875    -8453247.005 4  -6586942.038 4
        27.400          28.100
  20499846.951    20499846.106    20499844.565   -25445963.438 6 -19828012.806 8
        40.200          49.100
  22910707.050    22910706.286    22910706.399    -9274446.838 4  -7226837.613 4
        26.200          29.000
  22111877.645    22111877.033    22111876.656   -14400452.095 5 -11221126.194 5
        30.600          32.100
 09  1 11  0 22 30.0000000  0 11G22G26G19G15G14G21G28G 3G18G 6G 9
  20676950.376    20676949.773    20676946.786   -23561338.739 7 -18359476.519 7
        42.300          46.300
  25083774.080    25083775.915    25083771.823     3952060.050     3079534.481
                         3.000
  23026016.786    23026015.021    23026013.489   -10558294.966 5  -8227240.089 5
        30.200          31.300
  23422670.939    23422671.628    23422669.760    -7518836.088 4  -5858823.033 4
        24.900          27.100
  23549275.820    23549274.788    23549274.457    -8751016.911 3  -6818970.870 3
        20.500          23.000
  21850151.984    21850151.213    21850149.795   -19529564.204 5 -15217834.301 5
        33.800          30.600
  25590048.061    25590048.850    25590044.648     -175794.764     -136986.127
                         3.000
  22891393.920    22891392.929    22891392.599    -8398509.609 4  -6544289.520 4
        27.100          27.600
  20503561.829    20503560.995    20503559.377   -25426441.831 6 -19812801.161 8
        40.200          49.000
  22921993.355    22921993.012    22921993.239    -9215134.579 4  -7180620.279 4
        26.200          29.200
  22098792.380    22098791.621    22098791.090   -14469217.877 5 -11274709.899 5
        31.300          32.600
 09  1 11  0 23  0.0000000  0 11G22G26G19G15G14G21G28G 3G18G 6G 9
  20669215.607    20669215.056    20669212.169   -23601984.529 7 -18391148.560 7
        42.200          46.400
  25107519.874    25107521.072    25107517.145     4076840.707     3176766.112
                         3.000
  23021018.750    23021017.020    23021015.296   -10584559.686 5  -8247706.102 5
        30.200          31.000
  23441108.093    23441108.010    23441106.386    -7421952.698 4  -5783329.471 4
        25.300          27.900
  23529022.853    23529022.108    23529021.307    -8857447.020 3  -6901903.398 3
        20.500          22.600
  21866586.160    21866585.240    21866583.618   -19443202.703 5 -15150539.635 5
        33.500          30.100
  25584790.602    25584789.278    25584787.752     -203416.973     -158509.952
                         3.000
  22901903.198    22901902.294    22901902.346    -8343281.485 4  -6501254.627 4
        26.500          27.900
  20507350.198    20507349.322    20507347.744   -25406533.757 6 -19797288.373 8
        40.200          48.900
  22933363.323    22933362.512    22933362.821    -9155386.727 4  -7134063.520 4
        26.500          29.000
  22085815.139    22085814.551    22085813.908   -14537412.568 5 -11327848.605 5
        31.100          32.300
 09  1 11  0 23 30.0000000  0 10G22G19G15G14G21G28G 3G18G 6G 9
  20661548.482    20661547.977    20661545.037   -23642275.260 7 -18422543.927 7
        42.200          46.400
  23016130.313    23016128.460    23016126.617   -10610249.516 5  -8267724.144 5
