     2.11           OBSERVATION DATA    G (GPS)             RINEX VERSION / TYPE
teqc  2008Oct2      WCDA Operator       20090108 00:18:53UTCPGM / RUN BY / DATE
Solaris x86 5.10|AMD64|cc SC5.8 -xarch=amd64|=+|=+          COMMENT
teqc  2008Oct2      WCDA Operator       20090107 01:18:42UTCCOMMENT
flin  WCDA-ACP   965000   CFS Flin Flon SASK Canada         MARKER NAME
40135M001                                                   MARKER NUMBER
PGC-WCDA            GEOL. SURV. CANADA                      OBSERVER / AGENCY
1115                AOA BENCHMARK ACT   3.3.32.4            REC # / TYPE / VERS
231                 AOAD/M_T        SCIS                    ANT # / TYPE
  -766174.4630 -3611375.3160  5184056.2210                  APPROX POSITION XYZ
        0.1500        0.0000        0.0000                  ANTENNA: DELTA H/E/N
     1     1                                                WAVELENGTH FACT L1/2
     7    C1    P1    P2    L1    L2    S1    S2            # / TYPES OF OBSERV
STATION INFORMATION EFFECTIVE FROM: 2001/01/13 18:20:00     COMMENT
                                TO: CURRENT DATE (above)    COMMENT
BIT 2 OF LLI FLAGS (+4) DATA COLLECTED UNDER 'AS' CONDITION COMMENT
L1 PHASE CENTRE 0.110m ABOVE ARP                            COMMENT
L2 PHASE CENTRE 0.128m ABOVE ARP                            COMMENT
where ARP is the Antenna Reference Point for HI measurement COMMENT
CONTACT gps@pgc.nrcan.gc.ca FOR ADDITIONAL INFORMATION      COMMENT
    P1 =    P1  TurboRogue; =    Y1  Benchmark              COMMENT
    L1 = L1(CA)                                             COMMENT
    P2 =    P2  TurboRogue; =    Y2  Benchmark              COMMENT
    L2 = L2(P2) TurboRogue; = L2(Y2) Benchmark              COMMENT
 SNR is mapped to RINEX snr flag value [0-9]                COMMENT
  L1 & L2: min(max(int(snr_dBHz/6), 0), 9)                  COMMENT
  2009     1     7     0     0    0.0000000     GPS         TIME OF FIRST OBS
                                                            END OF HEADER
 09  1  7  0  0  0.0000000  0 11G26G24G 9G15G21G 6G14G19G 3G18G22
  23308933.601    23308933.042    23308931.587    -5238291.225 3  -4081777.335 3
        18.600          21.600
  24308306.909    24308305.565    24308306.485    -2249603.445 1  -1752932.973 2
        11.000          13.900
  23392843.272    23392842.540    23392842.412    -7641925.819 3  -5954743.720 3
        19.900          22.100
  22155099.795    22155099.744    22155098.145   -14054304.665 6 -10951398.062 6
        36.100          37.200
  20809488.747    20809487.963    20809486.215   -24998995.314 6 -19479729.016 6
        40.900          40.200
  22319243.082    22319242.482    22319242.228   -12338673.252 5  -9614547.039 5
        33.000          33.000
  25227429.064    25227428.620    25227426.820          -1.11012         -.48512
        12.600          13.900
  23722575.000    23722573.665    23722571.849    -6906069.583 3  -5381351.512 4
        23.800          24.900
  22389262.094    22389261.383    22389260.835   -11189620.606 5  -8719180.993 5
        32.100          30.400
  20435799.940    20435799.138    20435796.744   -25789150.683 6 -20095432.660 7
        38.200          46.600
  21475731.245    21475730.747    21475727.705   -19227858.510 6 -14982740.030 6
        39.700          39.500
 09  1  7  0  0 30.0000000  0 11G22G26G24G 9G15G21G 6G14G19G 3G18
  21463138.271    21463137.791    21463134.881   -19294034.401 6 -15034305.643 6
        39.900          39.700
  23330235.550    23330235.401    23330234.469    -5126344.097 3  -3994545.807 3
        19.300          22.100
  24328256.366    24328256.565    24328256.698    -2144765.447 1  -1671241.044 2
        11.000          13.900
  23373272.599    23373271.814    23373272.409    -7744768.002 3  -6034880.465 3
        19.300          23.400
  22168848.885    22168848.802    22168847.306   -13982052.194 5 -10895097.431 6
        35.900          37.100
  20819561.538    20819560.697    20819559.033   -24946062.378 6 -19438482.574 6
        40.700          40.200
  22323120.612    22323119.867    22323119.785   -12318297.370 5  -9598669.730 5
        32.800          33.000
  25205384.574    25205383.921    25205382.258     -115849.800 2    -90272.118 2
        13.900          16.100
  23709855.972    23709854.111    23709852.282    -6972910.397 3  -5433435.260 4
        23.800          24.900
  22391491.672    22391490.910    22391490.752   -11177903.299 5  -8710050.629 5
        31.800          30.800
  20433845.592    20433844.801    20433843.721   -25799420.737 6 -20103435.296 7
        38.100          46.500
 09  1  7  0  1  0.0000000  0 11G22G26G24G 9G15G21G 6G14G19G 3G18
  21450600.502    21450600.094    21450597.168   -19359920.263 6 -15085645.263 6
        39.900          39.700
  23351590.338    23351589.750    23351589.227    -5014124.455 3  -3907101.908 3
        19.300          21.600
  24348228.572    24348227.456    24348226.607    -2039819.525 1  -1589465.029 2
        11.000          12.600
  23353761.187    23353760.447    23353760.769    -7847305.299 3  -6114779.612 4
        21.600          24.600
  22182674.308    22182674.193    22182672.800   -13909398.312 5 -10838484.010 6
        35.500          36.800
  20829723.405    20829722.538    20829720.864   -24892661.897 6 -19396871.815 6
        40.700          40.200
  22327103.621    22327102.935    22327102.463   -12297367.101 5  -9582360.437 5
        33.200          32.600
  25183344.564    25183343.385    25183344.265     -231661.529 2   -180514.953 2
        12.600          13.900
  23697222.123    23697220.212    23697218.519    -7039301.079 4  -5485168.251 4
        24.200          25.600
  22393836.582    22393835.886    22393835.512   -11165581.491 5  -8700449.217 5
        31.800          30.800
  20431964.863    20431964.060    20431961.660   -25809304.065 6 -20111136.585 7
        38.100          46.500
 09  1  7  0  1 30.0000000  0 11G22G26G24G 9G15G21G 6G14G19G 3G18
  21438120.406    21438119.904    21438116.819   -19425504.315 6 -15136749.703 6
        40.000          39.700
  23372997.895    23372997.583    23372996.900    -4901624.952 2  -3819439.932 3
        17.800          21.100
  24368221.493    24368220.308    24368219.403    -1934756.239 2  -1507597.528 2
        12.600          12.600
  23334309.586    23334308.797    23334308.932    -7949523.121 3  -6194429.841 4
        22.100          24.600
  22196577.987    22196577.916    22196576.361   -13836334.495 5 -10781551.158 6
        35.500          36.800
  20839975.826    20839975.130    20839973.524   -24838783.812 6 -19354888.892 6
        40.700          40.000
  22331193.809    22331193.170    22331193.028   -12275872.651 5  -9565611.521 5
        33.200          32.800
  25161311.657    25161313.210    25161315.711     -347423.576 1   -270719.104 2
        11.000          12.600
  23684677.028    23684674.999    23684672.264    -7105229.046 3  -5536540.678 4
        23.800          25.300
  22396298.209    22396297.365    22396297.031   -11152645.596 5  -8690369.296 5
        31.600          30.600
  20430159.859    20430159.010    20430157.932   -25818789.654 6 -20118527.947 7
        38.100          46.600
 09  1  7  0  2  0.0000000  0 11G22G26G24G 9G15G21G 6G14G19G 3G18
  21425697.940    21425697.412    21425694.327   -19490785.464 6 -15187618.121 6
        40.300          39.800
  23394459.199    23394458.752    23394457.391    -4788848.561 2  -3731562.222 3
        17.800          21.600
  24388236.170    24388235.271    24388234.629    -1829576.755 1  -1425639.483 2
        11.000          12.600
  23314919.470    23314918.640    23314918.816    -8051417.822 3  -6273828.284 3
        21.600          23.800
  22210559.207    22210559.103    22210557.570   -13762862.691 5 -10724300.399 6
        35.500          36.600
  20850319.455    20850318.596    20850316.980   -24784428.776 6 -19312534.321 6
        40.700          40.000
  22335391.127    22335390.585    22335390.425   -12253814.757 5  -9548423.563 5
        33.100          32.700
  25139292.148    25139293.423    25139295.766     -463133.572 1   -360882.711 1
         9.000          11.000
  23672219.424    23672217.577    23672215.347    -7170691.407 3  -5587550.310 4
        23.800          24.600
  22398876.700    22398875.794    22398875.553   -11139095.829 5  -8679811.039 5
        31.500          31.000
  20428430.580    20428429.747    20428427.196   -25827877.071 6 -20125609.048 7
        38.100          46.600
 09  1  7  0  2 30.0000000  0 11G22G26G24G 9G15G21G 6G14G19G 3G18
  21413331.991    21413331.532    21413328.617   -19555767.391 6 -15238253.380 6
        40.100          39.800
  23415971.070    23415970.591    23415969.544    -4675803.007 2  -3643474.787 3
        17.000          21.600
  24408271.787    24408271.471    24408271.180    -1724287.292 1  -1343595.754 2
         9.000          13.900
  23295590.868    23295590.037    23295590.281    -8152990.402 3  -6352975.734 4
        21.600          24.600
  22224616.754    22224616.654    22224614.932   -13688990.079 5 -10666737.318 6
        35.700          36.500
  20860752.488    20860751.668    20860749.856   -24729602.671 6 -19269812.690 6
        40.600          39.600
  22339694.501    22339694.085    22339694.040   -12231199.084 5  -9530800.972 5
        32.800          32.700
  25117285.651    25117283.941    25117284.450     -578794.430 1   -451008.056 1
         6.500          11.000
  23659849.934    23659847.978    23659846.482    -7235691.114 3  -5638199.430 4
        23.800          25.300
  22401570.586    22401569.850    22401569.807   -11124938.022 5  -8668778.975 5
        31.500          31.300
  20426776.075    20426775.239    20426774.196   -25836571.232 6 -20132383.713 7
        38.100          46.500
 09  1  7  0  3  0.0000000  0 11G22G26G24G 9G15G21G 6G14G19G 3G18
  21401023.559    21401022.970    21401019.953   -19620449.902 6 -15288655.324 6
        40.300          40.000
  23437534.075    23437533.607    23437531.169    -4562492.393 3  -3555180.797 3
        18.600          20.500
  24428327.520    24428326.247    24428326.454    -1618890.247 1  -1261468.205 2
         9.000          13.900
  23276323.742    23276323.092    23276323.304    -8254238.327 3  -6431870.204 4
        21.100          25.300
  22238750.114    22238749.857    22238748.297   -13614720.116 5 -10608864.613 6
        35.600          36.600
  20871274.959    20871274.186    20871272.312   -24674306.951 6 -19226725.120 6
        40.700          39.400
  22344104.491    22344103.742    22344103.394   -12208027.498 5  -9512745.197 5
        33.000          32.700
  25095284.139    25095283.549    25095285.206     -694405.054 1   -541094.200 1
         6.500          11.000
  23647569.350    23647567.554    23647566.138    -7300227.122 4  -5688487.227 4
        24.200          26.500
  22404380.246    22404379.518    22404379.451   -11110173.601 5  -8657274.232 5
        31.600          31.100
  20425196.378    20425195.542    20425193.111   -25844872.502 6 -20138852.231 7
        38.100          46.500
 09  1  7  0  3 30.0000000  0 11G22G26G24G 9G15G21G 6G14G19G 3G18
  21388772.486    21388771.925    21388768.802   -19684829.864 6 -15338821.512 6
        40.400          39.900
  23459145.592    23459145.299    23459144.184    -4448917.093 3  -3466680.557 3
        18.600          21.100
  24448404.210    24448404.268    24448404.362    -1513383.875 1  -1179255.471 2
         6.500          16.100
  23257120.360    23257119.829    23257119.663    -8355154.992 3  -6510506.518 4
        22.600          26.500
  22252959.047    22252958.808    22252957.079   -13540051.969 5 -10550681.637 6
        35.500          36.400
  20881887.144    20881886.303    20881884.513   -24618539.469 6 -19183269.940 6
        40.600          39.300
  22348619.831    22348619.152    22348618.878   -12184298.019 5  -9494254.702 5
        33.000          32.400
  25073295.893    25073295.548    25073295.319     -809960.397 1   -631137.261 1
         9.000           9.000
  23635378.156    23635376.316    23635374.279    -7364294.037 4  -5738409.498 4
        24.900          25.900
  22407306.027    22407305.132    22407304.751   -11094800.387 5  -8645295.103 5
        31.600          31.000
  20423691.892    20423691.094    20423689.985   -25852778.194 6 -20145012.505 7
        38.100          46.300
 09  1  7  0  4  0.0000000  0 11G22G26G24G 9G15G21G 6G14G19G 3G18
  21376578.973    21376578.387    21376575.313   -19748906.664 6 -15388751.480 6
        40.300          40.000
  23480807.430    23480807.630    23480806.523    -4335080.427 3  -3377976.646 3
        18.600          22.100
  24468502.301    24468502.607    24468501.941    -1407770.149    -1096959.101 2
         3.000          16.100
  23237979.848    23237979.413    23237979.138    -8455737.454 3  -6588882.428 4
        22.600          25.600
  22267243.052    22267242.962    22267241.263   -13464988.266 5 -10492190.428 6
        35.300          36.400
  20892588.740    20892587.925    20892586.218   -24562301.843 6 -19139448.416 6
        40.600          39.100
  22353241.330    22353240.883    22353240.343   -12160012.053 5  -9475330.585 5
        33.100          32.700
  25051318.268    25051317.852    25051317.399     -925459.028 1   -721136.214 1
         9.000           9.000
  23623275.507    23623274.021    23623272.318    -7427890.302 4  -5787965.032 4
        24.900          25.900
  22410346.828    22410345.886    22410345.548   -11078820.172 5  -8632842.983 5
        31.500          30.800
  20422262.851    20422261.973    20422259.607   -25860288.830 6 -20150864.945 7
        38.100          46.700
 09  1  7  0  4 30.0000000  0 11G22G26G24G 9G15G21G 6G14G19G 3G18
  21364442.984    21364442.536    21364439.564   -19812681.218 6 -15438445.927 6
        40.400          40.300
  23502519.573    23502518.720    23502518.281    -4220987.408 2  -3289072.985 3
        17.000          23.000
  24488620.280    24488618.962    24488619.925    -1302052.427    -1014581.670 2
         3.000          16.100
  23218903.184    23218902.890    23218903.005    -8555983.533 3  -6666996.238 4
        22.100          25.300
  22281601.527    22281601.475    22281599.918   -13389533.251 5 -10433394.310 6
        35.100          36.500
  20903379.344    20903378.565    20903376.829   -24505596.691 6 -19095262.585 6
        40.700          39.000
  22357967.972    22357967.450    22357967.315   -12135172.558 5  -9455975.133 5
        33.000          33.000
  25029351.100    25029350.558    25029349.949    -1040900.569     -811090.635 2
         3.000          12.600
  23611263.079    23611261.804    23611259.618    -7491015.678 4  -5837153.636 4
        24.600          25.600
  22413502.421    22413501.746    22413501.748   -11062234.966 5  -8619919.453 5
        31.100          31.000
  20420908.467    20420907.557    20420906.511   -25867405.975 6 -20156410.767 7
        38.100          46.600
 09  1  7  0  5  0.0000000  0 11G22G26G24G 9G15G21G 6G14G19G 3G18
  21352364.408    21352363.808    21352360.823   -19876155.199 6 -15487906.160 6
        40.400          40.300
  23524278.705    23524277.988    23524276.662    -4106644.035 2  -3199974.276 3
        17.000          21.600
  24508754.124    24508754.061    24508753.630    -1196234.926     -932126.506 2
                        12.600
  23199892.006    23199890.989    23199891.020    -8655892.345 3  -6744847.239 4
        22.100          25.600
  22296033.418    22296033.319    22296031.695   -13313692.269 5 -10374297.438 6
        34.700          36.000
  20914258.402    20914257.565    20914255.693   -24448427.689 6 -19050715.314 6
        40.600          38.800
  22362799.402    22362798.961    22362798.861   -12109783.220 5  -9436191.246 5
        32.700          33.100
  25007394.094    25007393.446    25007392.325    -1156286.113     -901001.389 2
         3.000          12.600
  23599340.102    23599338.533    23599336.798    -7553670.779 3  -5885975.793 4
        23.800          26.200
  22416773.159    22416772.243    22416772.206   -11045048.413 5  -8606527.344 5
        31.600          31.300
  20419628.404    20419627.603    20419625.113   -25874132.442 6 -20161652.168 7
        38.200          46.700
 09  1  7  0  5 30.0000000  0 11G22G26G24G 9G15G21G 6G14G19G 3G18
  21340343.124    21340342.687    21340339.725   -19939326.376 6 -15537130.445 6
        40.600          40.500
  23546085.069    23546084.490    23546082.729    -3992051.917 3  -3110681.715 3
        18.600          21.100
  24528910.258    24528910.313    24528913.222    -1090317.589     -849593.577 2
                        13.900
  23180944.872    23180944.048    23180944.308    -8755458.969 3  -6822431.591 4
        22.600          25.900
  22310538.395    22310538.508    22310537.007   -13237466.194 5 -10314900.487 5
        34.500          35.900
  20925225.551    20925224.740    20925223.000   -24390794.432 6 -19005806.284 6
        40.700          38.700
  22367735.757    22367735.050    22367734.947   -12083843.750 5  -9415978.684 5
        32.600          33.000
  24985446.933    24985448.263    24985446.410    -1271612.182     -990865.848 2
         3.000          12.600
  23587507.862    23587505.989    23587503.974    -7615852.255 3  -5934428.899 4
        23.800          26.200
  22420158.169    22420157.391    22420157.121   -11027260.608 5  -8592666.709 5
        31.800          31.300
  20418423.026    20418422.165    20418421.112   -25880466.573 6 -20166587.847 7
        38.200          46.500
 09  1  7  0  6  0.0000000  0 11G22G26G24G 9G15G21G 6G14G19G 3G18
  21328381.259    21328380.778    21328377.840   -20002186.865 6 -15586112.635 6
        40.600          40.600
  23567939.025    23567938.579    23567936.970    -3877207.443 2  -3021192.508 3
        17.800          21.100
  24549086.719    24549085.989    24549087.250     -984295.295     -766978.857 2
                        13.900
  23162064.854    23162064.204    23162064.362    -8854673.022 3  -6899741.223 4
        23.000          26.200
  22325118.153    22325118.285    22325116.615   -13160850.646 5 -10255200.057 6
        34.900          36.000
  20936282.258    20936281.457    20936279.689   -24332691.211 6 -18960531.041 6
        40.600          38.600
  22372777.520    22372776.962    22372776.927   -12057348.422 5  -9395332.983 5
        32.700          33.000
  24963512.786    24963514.918    24963512.232    -1386869.993    -1080677.128 1
         3.000          11.000
  23575767.155    23575764.940    23575763.265    -7677551.300 3  -5982506.088 4
        23.800          26.500
  22423658.683    22423657.895    22423657.701   -11008865.312 5  -8578332.718 5
        31.500          31.100
  20417293.512    20417292.755    20417290.220   -25886401.805 6 -20171212.702 7
        38.200          46.600
 09  1  7  0  6 30.0000000  0 11G22G26G24G 9G15G21G 6G14G19G 3G18
  21316477.221    21316476.741    21316473.895   -20064742.294 6 -15634857.111 6
        40.500          40.600
  23589839.071    23589838.447    23589837.480    -3762119.873 2  -2931513.896 3
        16.100          21.100
  24569281.787    24569280.292    24569281.837     -878175.613     -684288.212 2
         3.000          17.000
  23143251.233    23143250.823    23143251.237    -8953537.381 3  -6976778.362 4
        22.600          26.800
  22339770.385    22339770.237    22339768.621   -13083854.186 5 -10195202.809 6
        34.900          36.000
  20947427.073    20947426.161    20947424.345   -24274125.048 6 -18914895.066 6
        40.500          38.300
  22377924.135    22377923.382    22377923.185   -12030304.603 5  -9374259.884 5
        32.600          33.000
  24941593.675    24941594.615    24941590.937    -1502063.952    -1170438.681 1
         3.000          11.000
  23564116.874    23564115.521    23564113.625    -7738772.100 4  -6030210.619 4
        24.900          26.800
  22427272.857    22427272.153    22427272.256   -10989869.865 5  -8563531.080 5
        30.800          31.000
  20416239.080    20416238.242    20416237.059   -25891944.068 6 -20175531.344 7
        38.300          46.800
 09  1  7  0  7  0.0000000  0 11G22G26G24G 9G15G21G 6G14G19G 3G18
  21304631.506    21304630.932    21304627.888   -20126992.988 6 -15683364.138 6
        40.700          40.600
  23611784.282    23611784.361    23611783.056    -3646793.577 2  -2841649.242 3
        16.100          21.600
  24589493.876    24589493.003    24589494.057     -771960.918 1   -601523.522 2
         9.000          16.100
  23124505.691    23124504.978    23124504.995    -9052049.303 3  -7053540.847 4
        23.000          26.200
  22354494.074    22354493.958    22354492.418   -13006480.451 5 -10134911.583 5
        34.600          35.900
  20958659.391    20958658.619    20958656.839   -24215098.194 6 -18868900.115 6
        40.500          38.300
  22383174.339    22383173.588    22383173.262   -12002714.677 5  -9352761.245 5
        32.700          32.800
  24919685.395    24919684.541    24919682.631    -1617192.878    -1260149.508 2
         3.000          13.900
  23552559.077    23552557.089    23552555.135    -7799513.546 4  -6077541.629 4
        24.200          27.100
  22431001.695    22431000.930    22431000.766   -10970276.317 5  -8548263.382 5
        31.100          30.800
  20415258.824    20415258.063    20415255.572   -25897094.711 6 -20179544.827 7
        38.300          46.800
 09  1  7  0  7 30.0000000  0 11G22G26G24G 9G15G21G 6G14G19G 3G18
  21292844.530    21292843.975    21292840.903   -20188933.742 6 -15731629.652 6
        40.600          40.700
  23633776.519    23633775.654    23633774.703    -3531227.347 2  -2751597.643 3
        16.100          21.600
  24609724.342    24609723.842    24609724.064     -665648.498 1   -518682.684 2
         9.000          15.100
  23105827.647    23105827.268    23105827.099    -9150201.045 3  -7130022.715 4
        23.800          25.900
  22369290.209    22369289.948    22369288.450   -12928727.525 5 -10074324.883 6
        34.600          36.300
  20969980.214    20969979.352    20969977.719   -24155607.309 6 -18822543.587 6
        40.500          38.200
  22388528.825    22388528.277    22388528.055   -11974575.363 5  -9330834.510 5
        32.800          32.800
  24897790.363    24897789.065    24897788.788    -1732250.504    -1349804.763 2
         3.000          13.900
  23541091.690    23541089.795    23541088.563    -7859769.464 3  -6124494.291 4
        23.000          26.800
  22434844.928    22434844.130    22434843.954   -10950081.487 5  -8532527.164 5
        31.500          30.800
  20414354.083    20414353.233    20414352.089   -25901849.098 6 -20183249.540 7
        38.400          46.600
 09  1  7  0  8  0.0000000  0 11G21G26G24G 9G15G 6G14G19G 3G18G22
  20981388.268    20981387.456    20981385.599   -24095657.754 6 -18775829.654 6
        40.500          37.900
  23655812.361    23655811.997    23655810.406    -3415428.553 2  -2661364.826 3
        16.100          21.100
  24629971.795    24629970.517    24629972.104     -559244.220 1   -435770.292 2
         6.500          15.100
  23087218.543    23087217.970    23087217.778    -9247993.309 3  -7206224.471 4
        23.800          25.900
  22384157.045    22384156.575    22384155.106   -12850602.084 5 -10013447.918 6
        34.100          36.300
  22393986.791    22393986.185    22393986.304   -11945892.218 5  -9308484.013 5
        32.300          32.700
  24875908.196    24875908.200    24875907.611    -1847239.303 1  -1439406.441 2
         6.500          15.100
  23529716.874    23529715.469    23529714.524    -7919542.138 3  -6171070.400 4
        23.400          27.100
  22438801.071    22438800.315    22438800.138   -10929290.696 5  -8516326.558 5
        31.100          30.400
  20413523.914    20413523.115    20413520.678   -25906211.827 6 -20186649.065 7
        38.400          46.900
  21281115.649    21281115.243    21281112.307   -20250568.408 6 -15779656.656 6
        40.600          40.900
 09  1  7  0  8 30.0000000  0 11G21G26G24G 9G15G 6G14G19G 3G18G22
  20992884.384    20992883.483    20992881.617   -24035245.854 6 -18728755.456 6
        40.500          37.800
  23677892.250    23677892.231    23677890.967    -3299395.700 2  -2570949.621 3
        17.000          21.100
  24650237.802    24650235.924    24650238.093     -452745.032     -352783.909 2
         3.000          13.900
  23068679.225    23068678.652    23068678.599    -9345418.044 3  -7282139.831 4
        23.800          26.200
  22399094.708    22399094.634    22399093.197   -12772101.693 5  -9952278.779 5
        34.000          35.900
  22399549.227    22399548.517    22399548.491   -11916661.976 5  -9285707.207 5
        32.300          32.800
  24854042.759    24854041.593    24854040.445    -1962152.708 1  -1528949.357 2
         6.500          15.100
  23518436.219    23518434.932    23518432.834    -7978825.125 4  -6217264.926 4
        24.600          26.500
  22442871.790    22442870.856    22442870.701   -10907900.432 5  -8499658.831 5
        31.100          30.400
  20412769.099    20412768.295    20412767.087   -25910178.246 6 -20189739.777 7
        38.400          46.800
  21269446.327    21269445.833    21269443.011   -20311891.074 6 -15827440.544 6
        40.600          41.000
 09  1  7  0  9  0.0000000  0 11G21G26G24G 9G15G 6G14G19G 3G18G22
  21004468.669    21004467.767    21004465.917   -23974370.204 6 -18681319.886 6
        40.500          37.800
  23700017.426    23700017.304    23700016.133    -3183129.287 2  -2480352.409 3
        17.000          20.500
  24670522.247    24670521.582    24670522.705     -346149.787     -269722.678 2
                        13.900
  23050210.900    23050210.070    23050210.298    -9442469.329 3  -7357764.182 4
        23.400          26.200
  22414104.448    22414104.077    22414102.713   -12693226.610 5  -9890817.668 5
        33.800          35.500
  22405216.210    22405215.435    22405215.431   -11886883.274 5  -9262503.028 5
        32.600          32.800
  24832191.540    24832189.773    24832188.451    -2076986.399 1  -1618430.116 2
         6.500          16.100
  23507249.219    23507247.504    23507245.495    -8037614.206 4  -6263074.605 4
        24.900          26.200
  22447056.350    22447055.519    22447055.278   -10885909.370 5  -8482522.957 5
        31.100          30.400
  20412090.224    20412089.382    20412086.927   -25913745.954 6 -20192519.810 7
        38.400          46.900
  21257836.964    21257836.531    21257833.573   -20372898.502 6 -15874978.789 6
        40.600          41.000
 09  1  7  0  9 30.0000000  0 11G21G26G24G 9G15G 6G14G19G 3G18G22
  21016139.088    21016138.224    21016136.295   -23913041.771 6 -18633531.500 6
        40.500          37.700
  23722184.152    23722183.764    23722182.695    -3066642.365 2  -2389583.374 3
        16.100          19.900
  24690822.881    24690821.443    24690823.938     -239469.445     -186595.163 2
                        13.900
  23031812.975    23031812.338    23031811.871    -9539153.158 3  -7433102.199 4
        23.800          25.900
  22429182.787    22429182.494    22429181.101   -12613988.748 5  -9829073.873 5
        33.600          35.100
  22410985.023    22410984.464    22410984.465   -11856567.181 5  -9238880.101 5
        32.600          32.700
  24810352.355    24810351.357    24810350.396    -2191748.184 1  -1707854.872 2
         9.000          17.000
  23496154.653    23496153.118    23496151.293    -8095916.908 4  -6308505.273 4
        25.600          27.100
  22451353.401    22451352.469    22451352.386   -10863328.687 5  -8464927.627 5
        31.100          30.400
  20411485.376    20411484.567    20411483.329   -25916924.457 6 -20194996.562 7
        38.500          46.900
  21246285.988    21246285.484    21246282.559   -20433599.764 6 -15922278.464 6
        40.600          41.200
 09  1  7  0 10  0.0000000  0 11G26G24G 9G15G21G 6G14G19G 3G18G22
  23744392.366    23744392.707    23744392.080    -2949932.655 2  -2298640.751 3
        15.100          19.900
  24711140.818    24711139.006    24711142.176     -132700.516     -103398.627 2
                        12.600
  23013485.484    23013485.059    23013485.093    -9635460.695 3  -7508147.017 4
        23.400          24.900
  22444330.595    22444330.449    22444329.074   -12534385.281 5  -9767045.193 5
        33.600          35.100
  21027896.374    21027895.444    21027893.709   -23851256.542 6 -18585387.172 6
        40.300          37.500
  22416857.241    22416856.514    22416856.051   -11825709.811 5  -9214835.402 5
        32.400          32.300
  24788526.262    24788525.706    24788526.520    -2306430.862 1  -1797217.969 2
         6.500          17.000
  23485153.777    23485152.357    23485150.699    -8153726.322 4  -6353551.539 4
        25.900          27.400
  22455763.316    22455762.462    22455762.559   -10840153.560 5  -8446869.093 5
        31.100          31.000
  20410955.429    20410954.669    20410952.199   -25919709.047 6 -20197166.368 7
        38.400          46.900
  21234794.155    21234793.753    21234790.892   -20493988.935 6 -15969334.950 6
        40.700          41.300
 09  1  7  0 10 30.0000000  0 11G21G26G24G 9G15G 6G14G19G 3G18G22
  21039741.421    21039740.552    21039738.619   -23789010.524 6 -18536883.788 6
        40.300          37.200
  23766643.669    23766644.254    23766643.602    -2832998.528 2  -2207523.234 3
        16.100          19.300
  24731476.186    24731475.309    24731477.458      -25839.692      -20130.481 2
                        13.900
  22995232.648    22995231.906    22995231.299    -9731383.692 3  -7582892.189 4
        23.400          24.900
  22459548.566    22459548.598    22459547.195   -12454413.976 5  -9704729.883 5
        33.600          35.300
  22422832.661    22422832.082    22422831.842   -11794307.653 5  -9190366.191 5
        32.400          32.400
  24766719.974    24766719.398    24766719.210    -2421027.346 1  -1886513.938 2
        11.000          16.100
  23474248.769    23474247.035    23474244.675    -8211035.418 4  -6398207.970 4
        26.800          26.500
  22460287.294    22460286.455    22460286.334   -10816381.211 5  -8428345.198 5
        31.100          31.000
  20410501.413    20410500.641    20410499.447   -25922094.568 6 -20199025.209 7
        38.500          46.700
  21223363.151    21223362.665    21223359.693   -20554060.253 6 -16016143.757 6
        40.900          41.400
 09  1  7  0 11  0.0000000  0 11G21G26G24G 9G15G 6G14G19G 3G18G22
  21051672.667    21051671.751    21051669.806   -23726311.751 6 -18488027.605 6
        40.200          37.200
  23788936.564    23788936.798    23788937.002    -2715849.383 2  -2116238.172 3
        16.100          19.900
  24751829.470    24751828.903    24751827.773       81104.903 1     63202.949 2
         6.500          13.900
  22977051.459    22977050.931    22977050.489    -9826924.980 4  -7657339.921 4
        24.600          25.300
  22474834.820    22474834.783    22474833.592   -12374083.774 5  -9642134.911 5
        33.400          35.300
  22428910.378    22428909.839    22428909.577   -11762368.463 5  -9165478.517 5
        32.100          32.300
  24744928.630    24744928.073    24744928.022    -2535542.218 1  -1975746.315 2
        11.000          17.000
  23463437.336    23463435.704    23463433.571    -8267849.123 4  -6442478.378 4
        27.600          26.500
  22464923.419    22464922.489    22464922.128   -10792018.972 5  -8409361.648 5
        31.300          30.600
  20410122.229    20410121.449    20410119.018   -25924087.723 6 -20200578.313 7
        38.500          47.000
  21211991.205    21211990.775    21211987.805   -20613819.281 6 -16062709.222 6
        40.700          41.300
 09  1  7  0 11 30.0000000  0 11G21G26G24G 9G15G 6G14G19G 3G18G22
  21063689.532    21063688.784    21063687.043   -23663161.045 6 -18438819.273 6
        39.800          37.200
  23811271.313    23811270.733    23811269.194    -2598488.521 2  -2024788.133 3
        16.100          19.300
  24772194.007    24772191.875    24772192.703      188131.781 1    146600.498 1
         6.500          11.000
  22958943.711    22958943.048    22958942.775    -9922081.340 4  -7731487.703 4
        24.600          25.300
  22490189.039    22490188.969    22490187.555   -12293397.244 5  -9579262.293 5
        33.000          35.100
  22435090.284    22435089.645    22435089.236   -11729893.755 5  -9140173.556 5
        32.100          32.000
  24723153.652    24723152.829    24723152.983    -2649973.777 2  -2064913.748 2
        12.600          17.000
  23452720.319    23452718.704    23452716.825    -8324165.359 4  -6486361.134 4
        27.600          26.200
  22469671.599    22469670.599    22469670.237   -10767067.857 5  -8389919.240 5
        31.500          30.600
  20409817.566    20409816.746    20409815.536   -25925688.437 6 -20201825.617 7
        38.500          46.900
  21200679.318    21200678.744    21200675.648   -20673265.298 6 -16109030.787 6
        40.900          41.500
 09  1  7  0 12  0.0000000  0 11G21G26G24G 9G15G 6G14G19G 3G18G22
  21075792.776    21075792.049    21075790.352   -23599558.325 6 -18389258.720 6
        40.000          37.200
  23833644.832    23833643.824    23833641.833    -2480917.423 2  -1933174.263 3
        15.100          18.600
  24792575.206    24792574.479    24792574.403      295240.931 1    230062.174 1
         6.500          11.000
  22940910.100    22940909.519    22940909.187   -10016847.861 3  -7805331.722 4
        23.800          25.600
  22505610.744    22505610.648    22505609.126   -12212355.248 5  -9516112.682 5
        32.700          34.600
  22441371.743    22441371.262    22441371.039   -11696883.367 5  -9114451.181 5
        31.800          32.000
  24701394.208    24701393.529    24701393.512    -2764318.694 1  -2154013.677 2
        11.000          15.100
  23442098.742    23442097.198    23442095.323    -8379980.900 4  -6529853.737 4
        27.600          26.500
  22474531.571    22474530.663    22474530.302   -10741528.045 5  -8370018.108 5
        31.100          30.400
  20409588.030    20409587.201    20409584.741   -25926895.316 6 -20202766.039 7
        38.600          47.200
  21189426.993    21189426.461    21189423.469   -20732396.172 6 -16155106.780 6
        40.900          41.800
 09  1  7  0 12 30.0000000  0 11G21G26G24G 9G15G 6G14G19G 3G18G22
  21087981.424    21087980.653    21087979.045   -23535506.890 6 -18339348.518 6
        39.900          37.200
  23856056.304    23856056.255    23856054.240    -2363141.485 2  -1841400.816 3
        12.600          19.300
  24812972.117    24812971.426    24812973.729      402428.712 1    313585.076 2
         6.500          12.600
  22922950.715    22922950.332    22922949.957   -10111223.061 3  -7878870.794 4
        23.400          25.600
  22521099.251    22521099.174    22521097.688   -12130962.330 5  -9452689.622 5
        32.600          34.500
  22447754.747    22447754.158    22447754.022   -11663340.861 5  -9088314.175 5
        31.600          32.300
  24679651.581    24679650.339    24679650.678    -2878577.181 1  -2243046.263 2
        11.000          12.600
  23431573.160    23431571.626    23431569.417    -8435296.227 4  -6572956.569 4
        27.900          26.500
  22479502.470    22479501.706    22479501.577   -10715403.673 5  -8349661.463 5
        30.400          30.200
  20409432.762    20409431.965    20409430.759   -25927710.619 6 -20203401.337 7
        38.600          47.000
  21178234.425    21178233.950    21178230.846   -20791213.399 6 -16200938.378 6
        41.000          41.800
 09  1  7  0 13  0.0000000  0 11G26G24G 9G15G21G 6G14G19G 3G18G22
  23878506.213    23878505.650    23878505.083    -2245161.740 2  -1749468.570 3
        12.600          18.600
  24833384.232    24833383.330    24833386.655      509695.391      397169.509 2
         3.000          12.600
  22905068.041    22905067.402    22905066.491   -10205201.588 4  -7952100.784 4
        24.600          25.900
  22536654.777    22536654.536    22536653.043   -12049219.056 5  -9388993.565 5
        32.800          34.500
  21100255.441    21100254.716    21100252.994   -23471006.020 6 -18289088.103 6
        39.700          36.900
  22454238.857    22454238.315    22454238.318   -11629266.008 5  -9061762.342 5
        31.600          32.400
  24657925.460    24657924.361    24657924.425    -2992745.398 1  -2332008.516 1
         6.500          11.000
  23421142.617    23421140.346    23421139.062    -8490107.702 4  -6615666.794 4
        26.500          26.500
  22484585.221    22484584.458    22484584.544   -10688693.095 5  -8328848.026 5
        30.200          30.200
  20409352.534    20409351.705    20409349.285   -25928132.576 6 -20203730.132 7
        38.600          47.000
  21167102.013    21167101.589    21167098.509   -20849714.127 6 -16246523.352 6
        41.000          41.900
 09  1  7  0 13 30.0000000  0 11G26G24G 9G15G21G 6G14G19G 3G18G22
  23900996.055    23900996.183    23900994.911    -2126975.510 1  -1657375.404 3
        11.000          19.300
  24853812.381    24853810.267    24853812.624      617045.261      480818.734 1
                        11.000
  22887261.346    22887260.792    22887260.463   -10298774.509 4  -8025014.721 4
        24.900          26.500
  22552277.047    22552277.150    22552275.667   -11967122.209 5  -9325021.989 5
        32.800          34.500
  21112616.113    21112615.289    21112613.569   -23406050.982 6 -18238473.793 6
        39.600          36.800
  22460825.563    22460824.930    22460824.670   -11594654.217 5  -9034792.125 5
        31.600          32.100
  24636219.531    24636218.142    24636217.577    -3106815.523 1  -2420894.269 1
         6.500          11.000
  23410809.199    23410807.433    23410805.967    -8544407.791 4  -6657978.530 4
        26.800          26.800
  22489780.770    22489779.883    22489779.877   -10661391.825 5  -8307574.320 5
        30.400          30.200
  20409348.213    20409347.350    20409346.153   -25928155.649 6 -20203748.108 7
        38.600          47.200
  21156030.982    21156030.519    21156027.731   -20907891.893 6 -16291856.666 7
        40.800          42.000
 09  1  7  0 14  0.0000000  0 11G26G24G 9G15G21G 6G14G19G 3G18G22
  23923523.165    23923522.640    23923522.948    -2008591.033 1  -1565127.764 3
         9.000          18.600
  24874254.160    24874253.953    24874255.292      724471.895      564527.775 1
                        11.000
  22869531.642    22869531.020    22869531.363   -10391943.270 4  -8097613.722 4
        25.600          27.600
  22567965.295    22567965.393    22567963.838   -11884679.420 5  -9260780.853 5
        32.300          34.300
  21125061.747    21125060.914    21125059.236   -23340648.134 6 -18187510.539 6
        39.500          36.600
  22467512.805    22467512.124    22467511.919   -11559512.087 5  -9007408.655 5
        31.500          31.800
  24614530.680    24614529.887    24614527.680    -3220790.791 1  -2509706.146 1
         6.500           6.500
  23400573.129    23400571.442    23400569.538    -8598199.612 4  -6699894.223 4
        27.400          26.800
  22495087.015    22495086.215    22495085.848   -10633506.965 5  -8285845.857 4
        30.400          29.900
  20409418.679    20409417.871    20409415.347   -25927785.073 6 -20203459.345 7
        38.700          47.200
  21145020.826    21145020.333    21145017.474   -20965750.928 6 -16336941.616 7
        40.900          42.100
 09  1  7  0 14 30.0000000  0 11G26G24G 9G15G21G 6G14G19G 3G18G22
  23946088.615    23946089.071    23946089.436    -1890005.491 1  -1472723.434 3
        11.000          18.600
  24894712.143    24894711.185    24894712.683      831979.272      648299.688 1
                         6.500
  22851881.053    22851880.552    22851879.931   -10484698.630 4  -8169890.603 4
        25.900          27.600
  22583720.288    22583720.244    22583718.744   -11801887.135 5  -9196267.384 5
        32.400          34.400
  21137593.677    21137592.839    21137590.977   -23274793.483 6 -18136195.232 6
        39.600          36.500
  22474301.859    22474301.391    22474300.980   -11523835.549 5  -8979608.758 5
        31.600          32.300
  24592860.718    24592859.726    24592858.321    -3334663.581 1  -2598438.096 1
         6.500           6.500
  23390434.910    23390433.462    23390431.715    -8651475.749 4  -6741408.077 4
        27.400          27.600
  22500505.122    22500504.470    22500504.306   -10605034.108 5  -8263659.223 5
        30.800          30.100
  20409565.233    20409564.362    20409563.137   -25927015.047 6 -20202859.319 7
        38.700          47.200
  21134072.618    21134072.156    21134069.159   -21023284.907 6 -16381773.287 7
        41.100          42.100
 09  1  7  0 15  0.0000000  0 11G21G26G24G 9G15G 6G14G19G 3G18G22
  21150209.744    21150208.847    21150207.201   -23208495.402 6 -18084534.394 6
        39.400          36.600
  23968690.872    23968691.252    23968692.198    -1771229.518 2  -1380170.709 3
        12.600          19.300
  24915186.659    24915185.038    24915183.126      939558.281      732127.492 1
                         9.000
  22834308.008    22834307.590    22834307.396   -10577044.158 4  -8241848.122 4
        24.600          27.600
  22599540.019    22599539.835    22599538.144   -11718755.401 5  -9131489.401 5
        32.800          34.100
  22481191.177    22481190.438    22481190.200   -11487633.521 5  -8951399.395 5
        31.500          32.400
  24571210.389    24571209.678    24571207.885    -3448439.371 1  -2687094.469 1
         6.500           9.000
  23380394.102    23380392.450    23380390.613    -8704242.005 4  -6782524.611 4
        27.400          27.600
  22506033.990    22506033.046    22506032.714   -10575982.210 5  -8241021.388 5
        30.600          30.200
  20409786.340    20409785.463    20409783.051   -25925853.255 6 -20201954.022 7
        38.700          47.400
  21123184.855    21123184.331    21123181.354   -21080500.428 6 -16426356.799 7
        41.100          42.100
 09  1  7  0 15 30.0000000  0 11G21G26G24G 9G15G 6G14G19G 3G18G22
  21162909.961    21162909.108    21162907.419   -23141754.991 6 -18032528.889 6
        39.300          36.500
  23991330.369    23991330.717    23991330.570    -1652266.089 1  -1287471.912 3
        11.000          18.600
  24935671.783    24935670.514    24935669.659     1047207.694      816010.145 1
         3.000           9.000
  22816814.087    22816813.201    22816812.978   -10668976.763 4  -8313483.883 4
        24.900          27.600
  22615423.813    22615423.406    22615421.770   -11635286.946 5  -9066449.039 5
        32.700          34.500
  22488179.763    22488179.085    22488178.689   -11450907.609 5  -8922781.809 5
        31.800          32.000
  24549577.978    24549578.069    24549576.141    -3562116.466 1  -2775673.892 1
        11.000          11.000
  23370449.865    23370448.442    23370447.167    -8756496.739 4  -6823242.569 4
        27.400          27.900
  22511671.837    22511670.857    22511671.082   -10546352.610 5  -8217933.404 5
        30.100          30.200
  20410081.935    20410081.114    20410079.867   -25924299.736 6 -20200743.482 7
        38.800          47.400
  21112357.824    21112357.391    21112354.311   -21137396.612 6 -16470691.483 7
        41.300          42.200
 09  1  7  0 16  0.0000000  0 11G21G26G24G 9G15G 6G14G19G 3G18G22
  21175694.166    21175693.366    21175691.610   -23074573.519 6 -17980179.698 6
        39.300          36.300
  24014003.551    24014004.134    24014003.127    -1533117.795 1  -1194629.078 2
        11.000          17.000
  24956168.535    24956167.845    24956166.748     1154926.546 1    899946.930 1
         6.500           6.500
  22799399.072    22799398.355    22799397.922   -10760492.655 4  -8384794.937 4
        25.600          26.800
  22631370.668    22631370.602    22631369.043   -11551483.814 5  -9001147.898 5
        32.300          34.700
  22495267.620    22495267.118    22495266.848   -11413658.913 5  -8893756.859 5
        31.300          31.500
  24527965.495    24527964.365    24527964.333    -3675692.276 2  -2864174.398 2
        12.600          12.600
  23360604.595    23360603.160    23360600.900    -8808237.822 4  -6863560.285 4
        27.900          27.600
  22517419.937    22517419.105    22517419.106   -10516146.092 5  -8194395.869 5
        30.100          30.200
  20410452.137    20410451.344    20410448.945   -25922354.207 6 -20199227.482 7
        38.800          47.400
  21101591.738    21101591.223    21101588.353   -21193972.531 6 -16514776.608 7
        41.200          42.300
 09  1  7  0 16 30.0000000  0 11G26G24G 9G15G21G 6G14G19G 3G18G22
  24036711.630    24036711.848    24036710.167    -1413788.720 1  -1101645.374 2
        11.000          17.000
  24976678.986    24976678.203    24976679.528     1262712.035      983935.646 1
                         9.000
  22782064.235    22782063.595    22782062.660   -10851589.693 4  -8455779.629 4
        26.800          26.500
  22647381.192    22647380.943    22647379.392   -11467349.365 5  -8935588.591 5
        32.300          34.500
  21188561.988    21188561.151    21188559.264   -23006953.135 6 -17927488.495 6
        39.200          36.100
  22502454.861    22502454.279    22502454.015   -11375890.105 5  -8864326.625 5
        31.500          31.600
  24506371.977    24506371.148    24506371.033    -3789165.968 1  -2952595.345 2
        11.000          15.100
  23350856.051    23350854.498    23350852.284    -8859464.617 4  -6903477.254 4
        27.100          27.100
  22523277.494    22523276.554    22523276.427   -10485365.714 5  -8170411.172 5
        30.400          30.100
  20410896.777    20410895.918    20410894.718   -25920017.637 6 -20197406.771 7
        38.800          47.400
  21090886.755    21090886.242    21090883.257   -21250228.368 6 -16558612.315 7
        41.500          42.400
 09  1  7  0 17  0.0000000  0 11G21G26G24G 9G15G 6G14G19G 3G18G22
  21201512.240    21201511.469    21201509.679   -22938898.408 6 -17874458.843 6
        39.000          36.000
  24059452.908    24059452.420    24059450.204    -1294285.093 2  -1008525.646 2
        12.600          16.100
  24997200.860    24997199.815    24997202.327     1370559.142     1067972.293 1
                         9.000
  22764808.842    22764808.163    22764807.237   -10942267.491 4  -8526437.636 4
        26.200          27.100
  22663453.282    22663453.090    22663451.580   -11382889.412 5  -8869775.639 5
        32.300          34.400
  22509739.959    22509739.425    22509739.296   -11337606.081 5  -8834494.923 5
        31.100          31.600
  24484797.361    24484797.175    24484795.893    -3902539.104 1  -3040937.905 2
        11.000          16.100
  23341204.877    23341203.829    23341202.049    -8910178.763 4  -6942994.752 4
        27.100          27.400
  22529243.149    22529242.320    22529242.389   -10454015.648 5  -8145982.563 5
        30.400          30.200
  20411415.020    20411414.186    20411411.774   -25917294.003 6 -20195284.457 7
        38.800          47.300
  21080242.007    21080241.492    21080238.524   -21306166.651 6 -16602200.581 7
        41.400          42.500
 09  1  7  0 17 30.0000000  0 11G21G26G24G 9G15G 6G14G19G 3G18G22
  21214549.902    21214549.083    21214547.404   -22870385.266 6 -17821071.985 5
        38.900          35.900
  24082231.290    24082230.549    24082229.020    -1174584.563 2   -915252.502 2
        15.100          16.100
  25017741.032    25017739.252    25017742.015     1478491.820     1152075.648 1
         3.000          11.000
  22747638.381    22747637.643    22747637.227   -11032497.213 4  -8596746.481 4
        25.600          27.600
  22679591.742    22679591.681    22679589.960   -11298080.866 5  -8803691.050 5
        32.100          34.100
  22517127.716    22517127.191    22517127.139   -11298782.913 5  -8804243.117 5
        31.100          31.800
  24463247.463    24463247.051    24463246.454    -4015784.209 2  -3129180.732 2
        12.600          17.800
  23331657.416    23331656.002    23331654.494    -8960353.074 4  -6982091.599 4
        26.800          27.600
  22535321.956    22535321.281    22535320.818   -10422072.284 5  -8121091.645 5
        30.600          30.100
  20412011.804    20412010.921    20412009.817   -25914157.628 6 -20192840.524 7
        38.700          47.100
  21069662.530    21069662.062    21069659.093   -21361761.204 6 -16645521.005 7
        41.400          42.400
 09  1  7  0 18  0.0000000  0 11G21G26G24G 9G15G 6G14G19G 3G18G22
  21227669.316    21227668.446    21227666.671   -22801442.856 6 -17767350.641 5
        39.000          35.900
  24105040.612    24105040.266    24105038.588    -1054717.966 2   -821849.949 2
        15.100          16.100
  25038289.891    25038287.803    25038289.521     1586480.800     1236222.868 1
         3.000          11.000
  22730548.919    22730548.182    22730547.919   -11122303.353 4  -8666725.269 4
        25.600          27.900
  22695790.849    22695790.667    22695788.657   -11212954.183 5  -8737358.567 5
        31.800          33.600
  22524612.624    22524612.062    22524611.967   -11259450.080 5  -8773594.159 5
        30.600          31.600
  24441717.649    24441716.365    24441716.258    -4128927.256 2  -3217344.013 3
        15.100          18.600
  23322207.271    23322205.809    23322204.137    -9010013.428 4  -7020787.964 4
        26.500          27.600
  22541507.951    22541507.007    22541506.645   -10389565.027 5  -8095761.331 4
        30.200          29.700
  20412681.939    20412681.084    20412678.673   -25910636.453 6 -20190096.749 7
        38.700          47.300
  21059143.698    21059143.202    21059140.135   -21417038.953 6 -16688594.570 7
        41.500          42.600
 09  1  7  0 18 30.0000000  0 11G21G26G24G 9G15G 6G14G19G 3G18G22
  21240870.718    21240869.923    21240868.127   -22732068.762 6 -17713292.908 5
        38.700          35.600
  24127882.191    24127881.778    24127880.357     -934684.308 2   -728317.220 2
        13.900          17.000
  25058851.906    25058851.372    25058850.737     1694528.629     1320415.966 1
                         9.000
  22713541.215    22713540.565    22713540.217   -11211678.654 4  -8736368.331 4
        25.300          27.900
  22712050.381    22712050.391    22712048.549   -11127508.146 5  -8670777.241 5
        31.800          33.500
  22532194.975    22532194.348    22532193.796   -11219605.600 5  -8742546.525 5
        30.800          31.300
  24420207.033    24420206.589    24420206.141    -4241962.407 2  -3305423.260 3
        15.100          19.300
  23312856.017    23312854.482    23312852.474    -9059155.214 4  -7059080.250 4
        26.500          27.900
  22547801.433    22547800.575    22547800.190   -10356491.627 5  -8069989.860 4
        30.100          29.500
  20413425.835    20413425.019    20413423.857   -25906726.912 6 -20187050.350 7
        38.800          47.300
  21048685.879    21048685.306    21048682.385   -21471995.505 6 -16731417.846 7
        41.500          42.800
 09  1  7  0 19  0.0000000  0 11G21G26G24G 9G15G 6G14G19G 3G18G22
  21254154.604    21254153.848    21254152.268   -22662260.046 6 -17658896.511 5
        38.500          35.500
  24150756.464    24150756.066    24150754.575     -814482.194 2   -634653.253 3
        12.600          18.600
  25079423.598    25079423.575    25079423.712     1802637.881     1404656.930 1
                         6.500
  22696616.752    22696616.528    22696616.061   -11300615.020 4  -8805669.374 4
        25.600          28.400
  22728371.630    22728371.645    22728369.913   -11041740.095 5  -8603944.996 5
        31.800          33.500
  22539874.886    22539874.258    22539874.106   -11179246.459 5  -8711097.848 5
        31.000          31.300
  24398718.699    24398717.646    24398718.266    -4354883.356 2  -3393413.519 3
        16.100          19.900
  23303604.454    23303602.828    23303601.042    -9107771.821 4  -7096963.301 4
        27.400          27.900
  22554203.447    22554202.703    22554202.112   -10322849.655 5  -8043775.338 4
        30.800          29.500
  20414244.554    20414243.714    20414241.409   -25902424.606 6 -20183697.901 7
        38.800          47.400
  21038290.111    21038289.588    21038286.473   -21526625.745 6 -16773986.852 7
        41.500          42.700
 09  1  7  0 19 30.0000000  0 11G21G26G24G 9G15G 6G14G19G 3G18G22
  21267522.347    21267521.497    21267519.764   -22592013.946 6 -17604159.299 5
        38.800          35.700
  24173662.878    24173662.238    24173660.160     -694110.568 2   -540857.193 2
        12.600          17.800
  25100009.032    25100010.173    25100010.162     1910811.115     1488947.728 1
                         6.500
  22679778.160    22679777.386    22679777.220   -11389105.119 4  -8874622.671 4
        26.200          28.600
  22744754.438    22744754.288    22744752.412   -10955648.681 5  -8536860.766 5
        31.800          33.100
  22547653.521    22547653.000    22547652.500   -11138370.414 5  -8679246.398 5
        31.100          31.600
  24377253.005    24377252.399    24377252.587    -4467684.351 2  -3481310.333 3
        15.100          19.300
  23294454.452    23294452.790    23294450.875    -9155857.843 4  -7134432.931 4
        27.600          28.600
  22560713.740    22560712.967    22560712.752   -10288636.449 4  -8017115.721 4
        29.900          29.500
  20415138.825    20415137.975    20415136.802   -25897725.676 6 -20180036.392 7
        38.900          47.600
  21027957.205    21027956.776    21027953.654   -21580924.760 6 -16816297.767 7
        41.700          42.700
 09  1  7  0 20  0.0000000  0 11G21G22G26G24G 9G15G 6G14G19G 3G18
  21280973.763    21280972.914    21280971.140   -22521326.236 6 -17549077.967 5
        38.600          35.400
  21017688.478    21017688.004    21017685.033   -21634886.875 6 -16858346.160 7
        41.600          42.900
  24196600.775    24196600.054    24196598.951     -573566.492 1   -446926.745 2
        11.000          16.100
  25120607.468    25120605.255    25120606.116     2019052.366     1573291.578 1
                         6.500
  22663025.326    22663024.615    22663024.592   -11477140.215 4  -8943221.428 4
        26.200          28.800
  22761199.136    22761198.851    22761197.103   -10869231.345 5  -8469522.575 5
        31.300          32.800
  22555530.724    22555530.061    22555530.293   -11096973.624 5  -8646989.159 5
        30.800          31.800
  24355811.626    24355811.453    24355811.492    -4580357.723 2  -3569107.686 3
        15.100          19.300
  23285405.406    23285403.872    23285402.878    -9203405.839 4  -7171483.290 4
        26.800          29.200
  22567333.923    22567333.081    22567333.065   -10253847.777 4  -7990007.681 4
        29.700          29.900
  20416109.486    20416108.602    20416106.285   -25892624.825 6 -20176061.701 7
        38.900          47.600
 09  1  7  0 20 30.0000000  0 10G21G22G26G 9G15G 6G14G19G 3G18
  21294507.194    21294506.334    21294504.639   -22450207.143 6 -17493660.498 5
        38.400          35.200
  21007482.663    21007482.177    21007479.107   -21688519.574 6 -16900137.865 7
        41.800          42.900
  24219569.905    24219569.411    24219568.372     -452862.240 1   -352871.485 2
        11.000          16.100
  22646358.187    22646357.515    22646357.505   -11564725.958 4  -9011470.034 4
        26.500          28.800
  22777703.424    22777703.297    22777701.740   -10782499.320 5  -8401939.180 5
        31.000          33.200
  22563505.775    22563505.021    22563504.667   -11055066.892 5  -8614334.565 5
        30.800          31.300
  24334393.974    24334393.641    24334392.672    -4692910.629 2  -3656811.183 3
        15.100          19.300
  23276458.779    23276456.978    23276455.770    -9250423.678 4  -7208120.558 4
        28.100          29.700
  22574061.367    22574060.441    22574060.546   -10218494.626 4  -7962459.778 4
        29.200          29.700
  20417154.735    20417153.936    20417152.880   -25887131.168 6 -20171780.923 7
        38.900          47.400
 09  1  7  0 21  0.0000000  0 10G21G22G26G 9G15G 6G14G19G 3G18
  21308120.517    21308119.778    21308118.008   -22378668.536 6 -17437916.132 5
        38.400          34.900
  20997337.666    20997337.117    20997333.894   -21741832.423 6 -16941680.339 7
        41.900          43.000
  24242566.973    24242566.553    24242566.355     -332011.152 1   -258701.814 2
        11.000          16.100
  22629776.032    22629775.301    22629774.771   -11651868.936 4  -9079373.644 4
        27.100          28.800
  22794265.116    22794265.116    22794263.751   -10695465.225 5  -8334120.401 5
        30.800          33.200
  22571574.593    22571574.204    22571573.892   -11012662.197 5  -8581291.954 5
        30.400          31.100
  24312998.353    24312997.576    24312995.616    -4805351.386 2  -3744427.298 3
        16.100          19.300
  23267610.844    23267609.388    23267607.874    -9296919.654 4  -7244351.180 4
        28.600          29.900
  22580893.612    22580892.941    22580892.937   -10182589.057 4  -7934481.427 4
        29.500          29.700
  20418273.021    20418272.155    20418269.888   -25881254.989 6 -20167202.081 7
        38.900          47.600
 09  1  7  0 21 30.0000000  0 10G21G26G 9G15G 6G14G19G 3G18G22
  21321816.451    21321815.618    21321813.986   -22306695.392 6 -17381833.169 5
        38.100          34.800
  24265594.962    24265594.913    24265594.542     -210999.488 2   -164406.998 2
        12.600          16.100
  22613280.722    22613280.117    22613280.039   -11738549.692 4  -9146917.065 4
        27.400          29.200
  22810887.537    22810887.376    22810885.930   -10608115.420 5  -8266055.623 5
        30.800          33.200
  22579742.101    22579741.377    22579740.928   -10969744.977 5  -8547849.973 5
        30.800          31.500
  24291626.368    24291625.422    24291623.855    -4917661.842 2  -3831941.885 3
        16.100          19.300
  23258866.017    23258864.134    23258862.392    -9342876.379 4  -7280161.603 4
        28.100          29.900
  22587834.231    22587833.596    22587833.656   -10146116.269 4  -7906061.083 4
        29.200          29.900
  20419467.000    20419466.183    20419465.004   -25874980.339 6 -20162312.737 7
        39.100          47.600
  20987256.279    20987255.796    20987252.857   -21794808.640 6 -16982960.501 7
        41.500          43.000
 09  1  7  0 22  0.0000000  0 10G21G26G 9G15G 6G14G19G 3G18G22
  21335595.407    21335594.616    21335592.998   -22234287.022 6 -17325411.072 5
        38.100          34.800
  24288653.214    24288652.100    24288652.503      -89827.939 1    -69987.605 2
        11.000          17.000
  22596875.111    22596874.711    22596874.115   -11824762.874 4  -9214096.138 4
        27.100          29.000
  22827570.059    22827569.738    22827568.341   -10520449.831 5  -8197744.781 5
        31.000          33.200
  22588006.479    22588005.837    22588005.619   -10926314.729 5  -8514008.222 5
        31.000          31.500
  24270279.816    24270278.617    24270277.467    -5029837.450 2  -3919351.387 3
        16.100          19.300
  23250224.192    23250222.505    23250220.213    -9388290.000 4  -7315548.821 4
        28.600          29.500
  22594882.683    22594881.975    22594882.111   -10109076.022 4  -7877198.552 4
        28.800          29.700
  20420737.221    20420736.439    20420734.191   -25868305.148 6 -20157111.286 7
        39.100          47.700
  20977239.872    20977239.369    20977236.450   -21847445.336 6 -17023976.098 7
        41.500          43.100
