     2.11           OBSERVATION DATA    G (GPS)             RINEX VERSION / TYPE
teqc  2008Oct2      WCDA Operator       20090118 00:18:50UTCPGM / RUN BY / DATE
Solaris x86 5.10|AMD64|cc SC5.8 -xarch=amd64|=+|=+          COMMENT
teqc  2008Oct2      WCDA Operator       20090117 01:18:27UTCCOMMENT
flin  WCDA-ACP   965000   CFS Flin Flon SASK Canada         MARKER NAME
40135M001                                                   MARKER NUMBER
PGC-WCDA            GEOL. SURV. CANADA                      OBSERVER / AGENCY
1115                AOA BENCHMARK ACT   3.3.32.4            REC # / TYPE / VERS
231                 AOAD/M_T        SCIS                    ANT # / TYPE
  -766174.4630 -3611375.3160  5184056.2210                  APPROX POSITION XYZ
        0.1500        0.0000        0.0000                  ANTENNA: DELTA H/E/N
     1     1                                                WAVELENGTH FACT L1/2
     7    C1    P1    P2    L1    L2    S1    S2            # / TYPES OF OBSERV
STATION INFORMATION EFFECTIVE FROM: 2001/01/13 18:20:00     COMMENT
                                TO: CURRENT DATE (above)    COMMENT
BIT 2 OF LLI FLAGS (+4) DATA COLLECTED UNDER 'AS' CONDITION COMMENT
L1 PHASE CENTRE 0.110m ABOVE ARP                            COMMENT
L2 PHASE CENTRE 0.128m ABOVE ARP                            COMMENT
where ARP is the Antenna Reference Point for HI measurement COMMENT
CONTACT gps@pgc.nrcan.gc.ca FOR ADDITIONAL INFORMATION      COMMENT
    P1 =    P1  TurboRogue; =    Y1  Benchmark              COMMENT
    L1 = L1(CA)                                             COMMENT
    P2 =    P2  TurboRogue; =    Y2  Benchmark              COMMENT
    L2 = L2(P2) TurboRogue; = L2(Y2) Benchmark              COMMENT
 SNR is mapped to RINEX snr flag value [0-9]                COMMENT
  L1 & L2: min(max(int(snr_dBHz/6), 0), 9)                  COMMENT
  2009     1    17     0     0    0.0000000     GPS         TIME OF FIRST OBS
                                                            END OF HEADER
 09  1 17  0  0  0.0000000  0  9G 3G 9G15G 6G21G14G18G19G22
  22932016.562    22932016.031    22932016.160    -8131212.814 4  -6336006.891 4
        26.800          28.100
  22045067.033    22045066.395    22045065.641   -14838590.618 5 -11562533.654 5
        32.700          32.300
  23524569.389    23524569.259    23524567.290    -7102156.838 4  -5534139.353 4
        24.200          28.600
  22969716.155    22969715.681    22969715.490    -9006021.662 4  -7017677.117 4
        27.600          27.600
  21926209.743    21926209.143    21926207.484   -19067201.710 5 -14857552.509 4
        33.400          29.500
  23442120.499    23442119.546    23442119.036    -9515951.329 3  -7415023.220 3
        22.100          22.600
  20514844.820    20514844.062    20514842.416   -25559283.698 6 -19916315.728 8
        40.700          48.700
  23016076.196    23016074.696    23016072.894   -10524202.153 5  -8200674.401 5
        31.300          30.800
  20644426.289    20644425.774    20644422.610   -23604556.349 7 -18393151.710 7
        42.900          46.400
 09  1 17  0  0 30.0000000  0 10G 3G28G 9G15G 6G21G14G18G19G22
  22942866.909    22942866.435    22942866.547    -8074193.413 4  -6291576.204 4
        26.200          28.400
  25565031.619    25565031.271    25565028.513           -.6241          -.09211
         3.000           9.000
  22032564.393    22032563.770    22032562.944   -14904292.667 5 -11613730.041 5
        32.800          32.600
  23543236.327    23543236.252    23543234.226    -7004061.376 4  -5457701.344 4
        24.600          27.600
  22981397.303    22981396.693    22981396.543    -8944637.324 4  -6969845.173 4
        27.600          27.600
  21942960.980    21942960.126    21942958.394   -18979174.944 5 -14788960.230 4
        33.600          29.500
  23422056.903    23422056.829    23422056.322    -9621380.342 3  -7497175.650 3
        22.600          22.600
  20518860.576    20518859.813    20518858.148   -25538180.797 6 -19899871.906 8
        40.800          48.600
  23011434.319    23011432.816    23011430.978   -10548596.061 5  -8219682.634 5
        31.600          31.100
  20636982.083    20636981.617    20636978.608   -23643675.087 7 -18423633.837 7
        42.800          46.600
 09  1 17  0  1  0.0000000  0 10G 3G28G 9G15G 6G21G14G18G19G22
  22953808.393    22953807.561    22953807.447    -8016698.171 4  -6246774.730 4
        26.800          28.100
  25560267.927    25560268.483    25560265.290      -25029.331      -19502.984 1
                         6.500
  22020172.443    22020171.801    22020171.196   -14969413.052 5 -11664473.180 5
        33.000          32.800
  23561943.142    23561942.739    23561940.795    -6905758.294 4  -5381101.527 4
        25.300          27.400
  22993158.397    22993157.803    22993157.536    -8882832.565 4  -6921685.632 4
        27.400          27.600
  21959780.313    21959779.548    21959777.502   -18890789.725 5 -14720088.633 4
        33.900          29.200
  23402034.112    23402033.488    23402032.184    -9726605.976 3  -7579169.611 3
        23.000          22.100
  20522948.940    20522948.149    20522946.484   -25516696.408 6 -19883130.819 8
        40.800          48.500
  23006902.001    23006900.290    23006898.601   -10572413.105 5  -8238241.359 5
        31.100          31.000
  20629606.039    20629605.610    20629602.645   -23682436.240 7 -18453837.324 7
        42.900          46.700
 09  1 17  0  1 30.0000000  0 10G 3G28G 9G15G 6G21G14G18G19G22
  22964838.999    22964838.178    22964838.759    -7958730.347 4  -6201605.014 4
        26.200          28.400
  25555599.460    25555598.070    25555595.867      -49575.127      -38629.568 1
         3.000           9.000
  22007891.536    22007890.934    22007890.365   -15033949.419 5 -11714761.241 5
        33.000          33.000
  23580688.320    23580688.037    23580686.649    -6807250.383 4  -5304342.110 4
        24.600          27.100
  23004998.313    23004997.979    23004998.081    -8820610.596 4  -6873200.994 4
        27.100          27.900
  21976667.192    21976666.410    21976664.316   -18802048.507 5 -14650939.634 4
        33.400          29.000
  23382049.012    23382048.430    23382047.340    -9831627.026 3  -7661004.162 3
        23.000          22.600
  20527109.555    20527108.845    20527107.147   -25494831.851 6 -19866093.501 8
        40.900          48.500
  23002479.288    23002477.658    23002476.226   -10595653.650 5  -8256350.869 5
        31.300          31.300
  20622298.186    20622297.710    20622294.544   -23720840.088 7 -18483762.393 7
        43.000          46.600
 09  1 17  0  2  0.0000000  0 10G 3G28G 9G15G 6G21G14G18G19G22
  22975961.430    22975960.639    22975960.558    -7900283.992 4  -6156062.425 4
        26.200          28.100
  25551019.294    25551020.011    25551018.006      -73628.658      -57372.504 2
         3.000          12.600
  21995723.716    21995723.089    21995722.753   -15097890.557 5 -11764585.494 5
        32.800          33.200
  23599473.850    23599473.509    23599472.445    -6708531.776 4  -5227418.515 4
        24.600          27.900
  23016919.968    23016919.378    23016919.308    -8757965.263 4  -6824386.466 4
        27.100          27.900
  21993623.372    21993622.441    21993620.017   -18712945.025 5 -14581508.348 4
        33.100          29.000
  23362105.335    23362104.585    23362103.322    -9936433.199 3  -7742671.277 3
        23.400          23.000
  20531344.185    20531343.386    20531341.684   -25472579.305 6 -19848753.852 8
        41.000          48.400
  22998168.270    22998166.891    22998165.305   -10618308.442 5  -8274003.949 5
        31.300          31.300
  20615059.811    20615059.377    20615056.220   -23758877.558 7 -18513401.975 7
        43.000          46.700
 09  1 17  0  2 30.0000000  0 10G 3G28G 9G15G 6G21G14G18G19G22
  22987173.029    22987172.192    22987172.162    -7841365.033 4  -6110151.562 4
        26.200          27.900
  25546539.052    25546538.032    25546535.267      -97192.165 1    -75733.725 2
         9.000          15.100
  21983669.467    21983668.690    21983668.092   -15161237.530 5 -11813946.754 5
        33.000          33.200
  23618298.366    23618297.873    23618296.982    -6609608.278 4  -5150335.272 4
        24.200          28.100
  23028920.568    23028919.830    23028919.527    -8694902.655 4  -6775246.780 4
        26.500          27.600
  22010646.714    22010645.995    22010643.802   -18623484.690 5 -14511799.001 4
        33.100          28.800
  23342201.924    23342201.175    23342200.223   -10041026.415 3  -7824172.451 3
        23.000          23.400
  20535651.810    20535651.019    20535649.340   -25449942.684 6 -19831114.921 8
        41.000          48.400
  22993968.517    22993966.861    22993964.866   -10640380.359 5  -8291202.838 5
        31.500          31.000
  20607890.438    20607890.009    20607887.159   -23796551.597 7 -18542758.364 7
        42.800          46.800
 09  1 17  0  3  0.0000000  0 10G 3G28G 9G15G 6G21G14G18G19G22
  22998473.890    22998472.911    22998472.971    -7781979.918 4  -6063877.463 4
        26.500          27.900
  25542145.497    25542143.509    25542144.094     -120268.774      -93715.573 2
         3.000          13.900
  21971727.587    21971726.868    21971726.146   -15223991.249 5 -11862845.752 5
        33.000          32.800
  23637160.308    23637159.955    23637158.779    -6510486.015 3  -5073097.145 4
        23.800          27.400
  23040999.001    23040998.470    23040998.247    -8631428.880 4  -6725786.711 4
        25.900          28.400
  22027737.244    22027736.559    22027734.436   -18533673.032 5 -14441815.895 4
        33.100          28.600
  23322338.330    23322337.975    23322337.245   -10145408.556 3  -7905509.145 3
        23.400          23.800
  20540031.705    20540030.983    20540029.326   -25426925.764 6 -19813179.659 8
        41.100          48.400
  22989878.402    22989876.884    22989875.025   -10661872.512 5  -8307949.963 5
        31.600          30.400
  20600790.083    20600789.609    20600786.565   -23833865.289 7 -18571833.961 7
        42.900          46.800
 09  1 17  0  3 30.0000000  0 10G 3G28G 9G15G 6G21G14G18G19G22
  23009863.808    23009862.783    23009863.749    -7722123.101 4  -6017235.803 4
        25.900          28.400
  25537848.084    25537847.662    25537846.476     -142849.624     -111311.038 1
         3.000          11.000
  21959900.583    21959900.042    21959899.522   -15286141.281 5 -11911274.337 5
        33.000          33.100
  23656061.193    23656061.335    23656059.867    -6411159.502 4  -4995699.854 4
        24.200          27.100
  23053156.404    23053155.871    23053156.447    -8567538.480 4  -6676002.009 4
        25.600          28.400
  22044895.750    22044895.190    22044893.195   -18443504.090 5 -14371554.382 4
        33.100          28.400
  23302516.842    23302516.307    23302515.965   -10249569.969 3  -7986673.845 4
        23.800          24.600
  20544485.560    20544484.771    20544483.086   -25403521.005 6 -19794942.181 8
        41.100          48.300
  22985900.283    22985898.931    22985897.217   -10682776.063 5  -8324238.448 5
        31.500          30.600
  20593759.551    20593759.135    20593756.169   -23870810.320 7 -18600622.293 7
        43.000          47.000
 09  1 17  0  4  0.0000000  0 10G 3G28G 9G15G 6G21G14G18G19G22
  23021344.455    23021343.556    23021343.516    -7661796.156 4  -5970227.811 4
        26.500          27.900
  25533647.710    25533647.226    25533644.624     -164932.860 1   -128518.737 1
        11.000           9.000
  21948189.774    21948189.117    21948188.563   -15347684.136 5 -11959229.792 5
        33.200          33.500
  23675001.403    23675001.394    23674999.659    -6311630.068 3  -4918144.441 4
        23.800          27.400
  23065394.006    23065393.363    23065393.446    -8503233.024 4  -6625893.866 4
        26.800          28.600
  22062122.135    22062121.387    22062119.756   -18352978.894 5 -14301015.268 4
        32.600          29.000
  23282738.716    23282737.843    23282737.149   -10353507.767 3  -8067664.304 4
        23.800          24.600
  20549013.065    20549012.341    20549010.784   -25379727.909 6 -19776402.103 8
        41.100          48.300
  22982035.180    22982033.644    22982031.639   -10703089.852 5  -8340067.358 5
        31.500          30.800
  20586799.782    20586799.314    20586796.281   -23907384.984 7 -18629122.026 7
        43.000          47.100
 09  1 17  0  4 30.0000000  0 10G 3G28G 9G15G 6G21G14G18G19G22
  23032910.292    23032909.475    23032909.763    -7601013.772 4  -5922864.923 4
        25.900          27.400
  25529536.134    25529536.335    25529533.738     -186530.261 1   -145347.900 1
         9.000           9.000
  21936591.817    21936591.473    21936590.933   -15408629.406 5 -12006719.598 5
        33.200          33.200
  23693977.637    23693977.425    23693975.262    -6211911.908 3  -4840441.979 4
        23.000          27.400
  23077706.778    23077706.321    23077706.465    -8438527.343 4  -6575473.867 4
        25.900          28.100
  22079413.708    22079412.802    22079411.328   -18262111.448 5 -14230209.480 4
        32.000          29.200
  23263000.168    23262999.544    23262998.813   -10457232.697 3  -8148488.892 4
        23.400          24.200
  20553612.334    20553611.549    20553609.927   -25355559.409 6 -19757569.502 8
        41.100          48.200
  22978278.929    22978277.697    22978276.110   -10722825.327 5  -8355445.648 5
        31.000          31.000
  20579908.212    20579907.748    20579904.565   -23943600.863 7 -18657342.189 7
        43.100          47.000
 09  1 17  0  5  0.0000000  0 10G 3G28G 9G15G 6G21G14G18G19G22
  23044565.232    23044564.236    23044564.181    -7539769.179 4  -5875141.876 4
        26.500          27.100
  25525521.711    25525520.018    25525519.168     -207631.062     -161790.071 1
         3.000          11.000
  21925110.781    21925110.171    21925109.367   -15468964.860 5 -12053734.229 5
        33.500          33.400
  23712990.846    23712990.264    23712988.205    -6111998.138 3  -4762587.104 4
        22.100          27.100
  23090097.697    23090097.085    23090097.036    -8373414.121 4  -6524736.316 4
        26.200          28.100
  22096771.909    22096771.009    22096769.294   -18170894.094 5 -14159131.031 4
        32.000          29.000
  23243304.559    23243303.800    23243303.091   -10560733.113 3  -8229138.537 4
        23.400          24.600
  20558284.683    20558283.917    20558282.290   -25331005.941 6 -19738436.925 8
        41.200          48.100
  22974635.494    22974634.193    22974632.501   -10741972.824 5  -8370365.765 5
        31.000          31.500
  20573086.433    20573086.043    20573083.052   -23979447.874 7 -18685274.920 7
        43.000          47.100
 09  1 17  0  5 30.0000000  0 10G 3G28G 9G15G 6G21G14G18G19G22
  23056307.003    23056306.211    23056306.538    -7478064.914 4  -5827060.650 4
        26.800          27.900
  25521602.745    25521601.696    25521599.063     -228234.822 2   -177844.914 1
        13.900          11.000
  21913745.718    21913745.012    21913744.495   -15528688.271 5 -12100271.936 5
        33.500          33.500
  23732040.647    23732040.051    23732037.887    -6011891.109 3  -4684581.638 4
        22.100          26.200
  23102565.434    23102564.942    23102564.317    -8307896.286 4  -6473683.466 4
        26.200          27.100
  22114196.121    22114195.265    22114193.500   -18079329.127 5 -14087781.712 4
        32.100          28.600
  23223652.172    23223651.447    23223650.651   -10664007.570 4  -8309612.108 4
        24.200          24.600
  20563030.057    20563029.341    20563027.675   -25306068.232 6 -19719004.942 8
        41.200          48.000
  22971104.164    22971102.528    22971100.855   -10760531.793 5  -8384827.290 5
        31.500          31.500
  20566335.367    20566334.871    20566331.872   -24014926.029 7 -18712920.228 7
        43.000          47.100
 09  1 17  0  6  0.0000000  0 10G 3G28G 9G15G 6G21G14G18G19G22
  23068135.127    23068134.388    23068134.543    -7415907.467 4  -5778626.287 4
        26.500          28.100
  25517771.653    25517771.990    25517770.974     -248344.155 2   -193514.507 2
        12.600          12.600
  21902496.914    21902496.347    21902495.629   -15587800.646 5 -12146333.522 5
        33.600          33.200
  23751125.548    23751125.156    23751123.144    -5911596.697 3  -4606430.147 4
        21.600          25.300
  23115107.995    23115107.758    23115108.019    -8241979.830 4  -6422320.003 4
        25.300          27.100
  22131685.298    22131684.552    22131682.764   -17987422.162 5 -14016165.895 4
        32.000          28.400
  23204042.432    23204041.640    23204040.725   -10767057.813 3  -8389910.970 4
        23.800          24.900
  20567848.062    20567847.253    20567845.514   -25280750.129 6 -19699276.546 7
        41.300          47.800
  22967683.783    22967682.394    22967680.483   -10778505.269 5  -8398832.597 5
        32.000          31.100
  20559653.723    20559653.262    20559650.122   -24050038.089 7 -18740280.270 7
        43.000          47.100
 09  1 17  0  6 30.0000000  0 10G 3G28G 9G15G 6G21G14G18G19G22
  23080049.165    23080048.399    23080048.514    -7353299.045 4  -5729840.520 4
        26.500          27.600
  25514038.454    25514039.302    25514039.182     -267958.403 1   -208798.355 2
         9.000          13.900
  21891364.750    21891364.164    21891363.689   -15646299.150 5 -12191916.757 5
        33.400          33.500
  23770245.573    23770245.578    23770244.099    -5811117.050 3  -4528134.315 4
        21.600          25.300
  23127727.151    23127726.666    23127726.744    -8175667.031 4  -6370647.705 4
        24.900          26.500
  22149239.305    22149238.591    22149236.922   -17895174.730 5 -13944284.779 4
        31.800          28.400
  23184475.533    23184474.638    23184473.924   -10869881.868 3  -8470033.577 4
        23.800          24.900
  20572738.156    20572737.400    20572735.695   -25255052.182 6 -19679252.167 7
        41.300          47.800
  22964375.280    22964373.855    22964371.671   -10795892.304 5  -8412380.931 5
        32.400          30.800
  20553041.984    20553041.534    20553038.421   -24084783.043 7 -18767354.258 7
        43.100          47.300
 09  1 17  0  7  0.0000000  0 10G 3G28G 9G15G 6G21G14G18G19G22
  23092049.544    23092048.841    23092048.976    -7290236.394 4  -5680700.800 4
        26.200          27.400
  25510404.556    25510404.081    25510401.290     -287070.910 1   -223691.152 1
        11.000          11.000
  21880351.283    21880350.806    21880350.286   -15704175.346 5 -12237015.078 5
        33.500          33.500
  23789401.451    23789401.750    23789400.735    -5710448.782 3  -4449691.512 4
        21.100          24.900
  23140422.262    23140421.859    23140421.969    -8108954.725 4  -6318664.099 4
        25.300          27.100
  22166858.759    22166857.990    22166856.565   -17802583.195 5 -13872135.536 4
        31.500          28.100
  23164952.990    23164952.426    23164951.575   -10972472.254 3  -8549974.109 4
        23.800          24.900
  20577701.581    20577700.855    20577699.168   -25228968.909 6 -19658927.538 7
        41.300          47.700
  22961179.093    22961177.748    22961176.040   -10812687.279 5  -8425467.916 5
        32.000          31.000
  20546501.215    20546500.765    20546497.711   -24119154.716 7 -18794137.374 7
        43.100          47.400
 09  1 17  0  7 30.0000000  0 10G 3G28G 9G15G 6G21G14G18G19G22
  23104134.823    23104134.081    23104133.655    -7226729.489 4  -5631214.920 4
        26.200          26.800
  25506863.545    25506862.302    25506859.181     -305688.317 1   -238198.271 1
        11.000           9.000
  21869455.543    21869454.883    21869454.220   -15761434.315 5 -12281632.446 5
        33.800          33.600
  23808592.308    23808592.387    23808591.218    -5609601.573 3  -4371109.251 4
        22.100          25.600
  23153191.478    23153191.093    23153191.061    -8041853.128 4  -6266377.162 4
        24.600          27.100
  22184542.085    22184541.229    22184539.810   -17709657.046 5 -13799725.556 4
        31.000          28.100
  23145473.703    23145473.111    23145472.871   -11074834.742 4  -8629737.058 4
        24.200          25.300
  20582737.017    20582736.213    20582734.525   -25202508.187 6 -19638308.789 7
        41.300          47.700
  22958094.330    22958092.856    22958091.270   -10828896.785 5  -8438098.693 5
        31.300          31.100
  20540030.315    20540029.850    20540026.722   -24153159.934 7 -18820634.942 7
        43.100          47.500
 09  1 17  0  8  0.0000000  0 10G 3G28G 9G15G 6G21G14G18G19G22
  23116304.348    23116303.677    23116303.605    -7162776.694 4  -5581381.581 4
        25.900          26.800
  25503411.805    25503410.018    25503410.175     -323805.808     -252315.811 1
                         9.000
  21858678.098    21858677.697    21858677.320   -15818069.057 5 -12325763.409 5
        33.800          34.100
  23827818.179    23827817.717    23827816.624    -5508573.120 3  -4292385.778 4
        22.600          25.900
  23166035.366    23166034.532    23166034.284    -7974360.072 4  -6213785.178 4
        24.600          27.400
  22202289.599    22202288.802    22202287.178   -17616393.790 5 -13727052.900 4
        31.100          27.600
  23126039.605    23126039.122    23126038.350   -11176963.090 4  -8709317.561 4
        24.600          25.300
  20587844.913    20587844.136    20587842.467   -25175665.960 6 -19617392.764 7
        41.400          47.700
  22955122.504    22955120.857    22955119.032   -10844516.166 5  -8450269.630 5
        32.000          31.100
  20533629.898    20533629.418    20533626.366   -24186793.964 7 -18846843.275 7
        43.100          47.500
 09  1 17  0  8 30.0000000  0 10G 3G28G 9G15G 6G21G14G18G19G22
  23128558.552    23128557.772    23128557.962    -7098378.949 4  -5531201.543 4
        25.600          26.800
  25500062.654    25500062.578    25500059.902     -341420.790     -266041.721 1
                        11.000
  21848020.595    21848020.013    21848019.496   -15874075.247 5 -12369404.579 5
        34.000          34.000
  23847077.439    23847077.345    23847075.906    -5407363.763 3  -4213521.339 4
        22.100          25.900
  23178952.373    23178952.097    23178952.567    -7906476.027 4  -6160888.540 4
        24.600          27.600
  22220101.123    22220100.440    22220098.832   -17522792.994 5 -13654117.215 4
        31.100          27.900
  23106650.617    23106649.759    23106649.247   -11278853.450 4  -8788712.625 4
        24.900          25.600
  20593025.726    20593024.938    20593023.260   -25148440.545 6 -19596178.153 7
        41.400          47.600
  22952263.106    22952261.360    22952259.346   -10859543.084 5  -8461978.902 5
        32.700          31.000
  20527300.759    20527300.279    20527297.212   -24220053.977 7 -18872760.162 7
        43.100          47.600
 09  1 17  0  9  0.0000000  0 10G 3G28G 9G15G 6G21G14G18G19G22
  23140896.308    23140895.878    23140896.126    -7033541.945 4  -5480679.220 4
        25.300          27.400
  25496804.813    25496804.220    25496802.651     -358535.734 1   -279378.037 1
         6.500          11.000
  21837482.441    21837481.742    21837480.926   -15929454.045 5 -12412556.883 5
        33.900          33.500
  23866370.279    23866369.967    23866368.676    -5305979.276 3  -4134520.438 4
        21.600          26.200
  23191944.127    23191943.387    23191943.586    -7838207.372 4  -6107692.208 4
        24.900          27.600
  22237975.710    22237975.013    22237973.564   -17428860.653 5 -13580923.184 4
        30.800          27.600
  23087306.522    23087305.993    23087304.817   -11380507.679 4  -8867923.685 4
        24.900          25.600
  20598278.635    20598277.899    20598276.160   -25120835.740 6 -19574667.911 7
        41.400          47.400
  22949515.948    22949514.170    22949512.061   -10873980.573 5  -8473228.888 5
        32.800          31.000
  20521042.144    20521041.659    20521038.566   -24252943.198 7 -18898388.125 7
        43.200          47.700
 09  1 17  0  9 30.0000000  0 10G 3G28G 9G15G 6G21G14G18G19G22
  23153317.498    23153316.972    23153317.426    -6968269.038 4  -5429817.221 4
        25.300          27.400
  25493643.993    25493642.923    25493642.267     -375150.444     -292324.578 1
                         6.500
  21827063.767    21827063.262    21827062.771   -15984203.384 5 -12455218.689 5
        33.900          34.100
  23885696.141    23885695.937    23885693.963    -5204422.317 3  -4055385.159 4
        21.100          25.600
  23205007.841    23205007.414    23205007.596    -7769556.915 4  -6054198.363 4
        25.300          28.100
  22255913.046    22255912.378    22255910.882   -17334599.203 5 -13507472.712 4
        30.600          27.400
  23068007.634    23068006.838    23068005.810   -11481924.651 4  -8946949.876 4
        24.900          25.600
  20603603.597    20603602.884    20603601.136   -25092852.636 6 -19552862.890 7
        41.400          47.300
  22946880.454    22946878.650    22946876.866   -10887828.691 5  -8484019.624 5
        32.600          31.000
  20514854.164    20514853.662    20514850.673   -24285461.239 7 -18923726.854 7
        43.200          47.800
 09  1 17  0 10  0.0000000  0 10G 3G28G 9G15G 6G21G14G18G19G22
  23165822.422    23165821.725    23165821.846    -6902556.589 4  -5378612.737 4
        25.300          26.800
  25490577.165    25490577.424    25490577.085     -391257.945     -304875.817
         3.000           3.000
  21816766.837    21816766.241    21816765.816   -16038314.672 5 -12497383.319 5
        34.400          34.400
  23905055.637    23905055.098    23905053.101    -5102688.800 3  -3976112.278 4
        21.100          24.600
  23218144.898    23218144.505    23218144.437    -7700520.935 4  -6000404.107 4
        24.900          27.600
  22273914.187    22273913.364    22273911.527   -17240004.292 5 -13433762.396 4
        30.200          27.100
  23048755.113    23048754.699    23048753.449   -11583095.915 4  -9025784.604 4
        25.300          25.300
  20609001.659    20609000.948    20608999.323   -25064485.407 6 -19530758.552 7
        41.400          47.300
  22944358.485    22944356.919    22944355.230   -10901080.880 5  -8494345.996 5
        32.400          31.100
  20508738.082    20508737.599    20508734.582   -24317601.360 7 -18948771.103 7
        43.300          47.900
 09  1 17  0 10 30.0000000  0 10G 3G28G 9G15G 6G21G14G18G19G22
  23178408.548    23178407.777    23178407.976    -6836415.410 4  -5327074.156 4
        24.600          27.100
  25487608.807    25487607.447    25487607.295     -406866.330 1   -317038.333 1
         6.500           6.500
  21806590.268    21806589.575    21806588.871   -16091793.683 5 -12539055.265 5
        34.400          34.000
  23924447.028    23924446.457    23924444.210    -5000789.417 3  -3896710.151 4
        21.100          24.900
  23231352.498    23231352.254    23231352.780    -7631110.448 4  -5946318.022 4
        24.200          27.400
  22291976.662    22291975.646    22291973.986   -17145086.082 4 -13359800.162 4
        29.900          27.100
  23029548.536    23029547.625    23029546.545   -11684028.178 4  -9104433.105 4
        25.300          25.300
  20614471.414    20614470.579    20614468.877   -25035742.791 6 -19508361.706 7
        41.400          47.200
  22941948.610    22941946.862    22941944.794   -10913745.231 5  -8504214.315 5
        32.400          30.600
  20502692.252    20502691.896    20502688.905   -24349371.373 7 -18973526.953 8
        43.300          48.000
 09  1 17  0 11  0.0000000  0 10G 3G28G 9G15G 6G21G14G18G19G22
  23191075.760    23191075.418    23191075.402    -6769847.403 4  -5275203.005 4
        24.900          26.800
  25484733.048    25484732.920    25484731.130     -421974.058 1   -328810.595 1
         6.500          11.000
  21796534.247    21796533.707    21796533.010   -16144637.510 5 -12580232.260 5
        34.400          34.000
  23943869.026    23943868.539    23943866.504    -4898725.352 3  -3817179.709 4
        21.600          25.300
  23244632.441    23244631.943    23244632.164    -7561327.245 3  -5891941.520 4
        23.800          27.100
  22310100.107    22310099.400    22310097.570   -17049845.868 5 -13285587.017 4
        30.100          26.800
  23010387.822    23010386.876    23010386.059   -11784719.000 4  -9182893.464 4
        25.300          25.600
  20620012.402    20620011.640    20620009.970   -25006624.372 6 -19485672.025 7
        41.500          47.100
  22939650.495    22939649.020    22939647.037   -10925820.833 5  -8513623.872 5
        32.800          30.400
  20496717.571    20496717.087    20496714.014   -24380769.819 7 -18997993.272 8
        43.300          48.100
 09  1 17  0 11 30.0000000  0 10G 3G28G 9G15G 6G21G14G18G19G22
  23203824.036    23203823.661    23203824.644    -6702851.952 3  -5222998.764 4
        23.800          26.800
  25481953.572    25481953.428    25481952.759     -436577.078     -340189.588 2
         3.000          13.900
  21786600.544    21786599.849    21786599.272   -16196840.317 5 -12620909.767 5
        34.600          34.500
  23963322.669    23963322.283    23963320.361    -4796495.778 3  -3737520.311 4
        21.600          25.300
  23257982.438    23257982.111    23257982.525    -7491170.616 3  -5837274.024 4
        23.800          26.500
  22328285.031    22328284.221    22328282.666   -16954282.335 4 -13211121.934 4
        29.900          26.800
  22991273.700    22991272.987    22991272.179   -11885163.317 4  -9261161.736 4
        25.300          25.900
  20625625.537    20625624.764    20625623.036   -24977127.152 6 -19462687.177 7
        41.600          47.000
  22937465.332    22937463.955    22937461.965   -10937304.171 5  -8522571.916 5
        33.000          30.600
  20490814.072    20490813.557    20490810.475   -24411792.869 7 -19022167.074 8
        43.400          48.200
 09  1 17  0 12  0.0000000  0 10G 3G28G 9G15G 6G21G14G18G19G22
  23216653.937    23216653.528    23216654.024    -6635433.009 4  -5170464.530 4
        24.900          26.800
  25479272.518    25479269.870    25479270.171     -450676.193     -351175.895 1
                         9.000
  21776788.866    21776788.206    21776787.711   -16248400.894 5 -12661086.826 5
        34.600          34.500
  23982806.339    23982806.697    23982805.163    -4694103.976 3  -3657734.479 4
        20.500          25.300
  23271403.855    23271403.166    23271403.206    -7420644.277 4  -5782318.448 4
        24.200          26.200
  22346531.632    22346530.683    22346528.965   -16858398.566 5 -13136407.319 4
        30.100          27.100
  22972206.702    22972206.091    22972205.119   -11985360.397 4  -9339237.360 4
        26.200          25.300
  20631310.421    20631309.682    20631307.907   -24947252.590 6 -19439408.295 7
        41.600          46.800
  22935393.082    22935391.510    22935389.166   -10948195.657 5  -8531058.780 5
        32.800          30.200
  20484981.846    20484981.386    20484978.392   -24442441.124 7 -19046048.832 8
        43.400          48.300
 09  1 17  0 12 30.0000000  0 10G 3G28G 9G15G 6G21G14G18G19G22
  23229563.465    23229562.883    23229563.520    -6567592.725 4  -5117601.970 4
        24.200          26.200
  25476685.499    25476683.301    25476683.288     -464270.158 1   -361768.544
         6.500           3.000
  21767099.855    21767099.163    21767098.563   -16299316.645 5 -12700761.426 5
        34.600          34.100
  24002321.832    24002322.248    24002320.431    -4591551.472 3  -3577823.454 4
        21.100          25.900
  23284893.977    23284893.675    23284893.805    -7349750.395 4  -5727076.469 4
        24.600          26.200
  22364838.432    22364837.724    22364835.693   -16762196.345 5 -13061444.552 4
        30.200          27.100
  22953187.688    22953186.754    22953185.582   -12085308.069 4  -9417118.649 4
        26.200          25.600
  20637067.338    20637066.470    20637064.724   -24917000.874 6 -19415835.528 7
        41.600          46.900
  22933433.151    22933431.484    22933429.496   -10958494.754 5  -8539084.050 5
        32.400          30.800
  20479221.221    20479220.732    20479217.769   -24472713.624 7 -19069637.792 8
        43.400          48.400
 09  1 17  0 13  0.0000000  0 10G 3G28G 9G15G 6G21G14G18G19G22
  23242554.819    23242553.880    23242553.944    -6499327.781 4  -5064408.525 4
        24.900          26.200
  25474193.491    25474193.108    25474192.243     -477352.385     -371962.550
                         3.000
  21757535.193    21757534.638    21757534.024   -16349579.172 5 -12739927.023 5
        34.800          34.500
  24021868.416    24021868.362    24021866.760    -4488834.453 3  -3497784.218 4
        19.900          25.600
  23298455.347    23298454.817    23298455.159    -7278485.397 4  -5671545.308 4
        24.900          25.900
  22383206.273    22383205.464    22383203.820   -16665671.341 4 -12986230.274 4
        29.500          26.500
  22934216.992    22934216.242    22934215.326   -12184998.296 4  -9494799.326 4
        26.500          25.900
  20642896.640    20642895.906    20642894.269   -24886366.402 6 -19391964.510 7
        41.600          46.800
  22931587.308    22931585.434    22931583.517   -10968195.222 5  -8546642.854 5
        32.100          30.600
  20473533.433    20473532.898    20473529.831   -24502603.511 7 -19092928.613 8
        43.500          48.400
 09  1 17  0 13 30.0000000  0 10G 3G28G 9G15G 6G21G14G18G19G22
  23255624.304    23255623.406    23255623.952    -6430644.704 4  -5010889.235 4
        24.900          25.900
  25471801.411    25471802.320    25471800.453     -489926.365     -381760.509 1
         3.000           6.500
  21748094.510    21748093.913    21748093.009   -16399190.389 5 -12778585.100 5
        35.100          34.000
  24041445.132    24041444.872    24041443.067    -4385959.096 3  -3417621.613 4
        19.900          25.300
  23312086.070    23312085.677    23312085.905    -7206856.028 4  -5615730.222 4
        24.900          26.200
  22401634.368    22401633.681    22401632.027   -16568829.785 4 -12910769.320 4
        29.200          25.900
  22915295.194    22915294.657    22915293.445   -12284433.594 4  -9572281.360 4
        27.400          26.200
  20648798.299    20648797.497    20648795.824   -24855353.537 6 -19367798.636 7
        41.600          46.700
  22929854.161    22929852.393    22929850.623   -10977301.007 5  -8553738.260 5
        31.800          30.600
  20467917.599    20467917.170    20467914.064   -24532114.428 7 -19115924.132 8
        43.600          48.500
 09  1 17  0 14  0.0000000  0 10G 3G28G 9G15G 6G21G14G18G19G22
  23268772.459    23268771.637    23268771.583    -6361553.103 4  -4957051.638 4
        24.900          25.600
  25469506.236    25469505.025    25469503.350     -501998.991 1   -391167.638 1
         6.500           9.000
  21738776.874    21738776.232    21738775.345   -16448154.609 5 -12816739.036 5
        34.700          33.900
  24061050.101    24061049.999    24061048.196    -4282934.607 3  -3337342.787 4
        19.300          24.900
  23325784.305    23325783.920    23325784.371    -7134871.797 4  -5559638.632 4
        24.600          26.500
  22420121.352    22420120.501    22420118.935   -16471680.695 4 -12835068.736 4
        29.000          25.900
  22896420.733    22896419.836    22896418.884   -12383619.445 4  -9649569.023 4
        26.500          26.500
  20654770.422    20654769.688    20654768.004   -24823969.516 6 -19343343.554 7
        41.600          46.600
  22928233.204    22928231.512    22928230.047   -10985819.053 5  -8560375.702 5
        31.500          30.800
  20462372.717    20462372.305    20462369.156   -24561252.959 7 -19138629.480 8
        43.700          48.600
 09  1 17  0 14 30.0000000  0 10G 9G 3G28G15G 6G21G14G18G19G22
  21729583.904    21729583.247    21729582.737   -16496463.994 5 -12854382.697 5
        34.800          34.400
  23281997.896    23281996.976    23281997.439    -6292050.417 3  -4902893.710 4
        23.800          24.900
  25467303.448    25467303.066    25467301.871     -513563.469 1   -400178.897 1
         6.500           9.000
  24080683.654    24080683.713    24080682.166    -4179757.199 3  -3256944.809 4
        18.600          24.600
  23339550.241    23339549.927    23339550.605    -7062529.534 3  -5503268.045 4
        23.800          26.200
  22438667.671    22438666.802    22438665.184   -16374219.954 4 -12759125.311 4
        29.500          25.900
  22877594.932    22877594.279    22877593.453   -12482547.979 4  -9726656.164 4
        26.200          26.800
  20660814.259    20660813.427    20660811.690   -24792209.460 6 -19318595.455 7
        41.700          46.400
  22926725.399    22926723.699    22926722.161   -10993743.064 5  -8566550.250 5
        31.500          31.000
  20456900.030    20456899.569    20456896.469   -24590012.198 7 -19161039.275 8
        43.800          48.700
 09  1 17  0 15  0.0000000  0 10G 9G 3G28G15G 6G21G14G18G19G22
  21720515.415    21720514.848    21720514.117   -16544118.971 5 -12891516.439 5
        35.100          34.300
  23295300.860    23295300.292    23295300.647    -6222141.435 3  -4848419.179 4
        23.800          24.600
  25465198.757    25465197.694    25465199.709     -524621.821 1   -408795.725 1
         6.500           9.000
  24100345.843    24100345.497    24100343.869    -4076431.509 3  -3176431.287 4
        18.600          24.200
  23353384.163    23353383.466    23353383.858    -6989834.588 3  -5446622.651 4
        23.400          25.900
  22457272.147    22457271.396    22457269.633   -16276452.367 4 -12682942.782 4
        29.000          25.900
  22858818.080    22858817.453    22858816.658   -12581219.966 4  -9803543.410 4
        26.800          26.800
  20666929.028    20666928.226    20666926.590   -24760075.444 6 -19293555.956 7
        41.600          46.400
  22925330.082    22925328.283    22925326.544   -11001075.530 5  -8572263.848 5
        31.300          30.600
  20451499.090    20451498.635    20451495.521   -24618394.606 7 -19183155.438 8
        43.800          48.800
 09  1 17  0 15 30.0000000  0 10G 9G 3G28G15G 6G21G14G18G19G22
  21711572.367    21711571.760    21711571.195   -16591115.276 5 -12928136.926 5
        35.100          34.700
  23308681.103    23308680.847    23308681.010    -6151827.047 3  -4793628.752 4
        23.400          24.200
  25463192.940    25463192.632    25463191.637     -535171.323 1   -417016.185
         9.000           3.000
  24120036.041    24120035.881    24120034.342    -3972957.767 2  -3095802.402 3
        17.800          23.800
  23367284.338    23367283.883    23367284.684    -6916787.149 3  -5389702.573 4
        23.000          26.500
  22475935.162    22475934.346    22475932.874   -16178377.277 4 -12606520.636 4
        28.800          25.900
  22840091.473    22840090.681    22840089.534   -12679631.060 4  -9880227.367 4
        26.800          26.800
  20673115.336    20673114.576    20673112.931   -24727566.097 6 -19268223.994 7
        41.600          46.300
  22924047.388    22924046.109    22924044.407   -11007813.947 5  -8577514.560 5
        31.600          30.600
  20446170.424    20446169.949    20446166.804   -24646396.902 7 -19204975.406 8
        43.800          48.900
 09  1 17  0 16  0.0000000  0 10G 9G 3G28G15G 6G21G14G18G19G22
  21702755.680    21702755.173    21702754.501   -16637447.019 5 -12964239.559 5
        35.200          34.700
  23322139.430    23322138.645    23322138.961    -6081106.027 3  -4738521.457 4
        23.400          25.300
  25461282.076    25461281.118    25461281.281     -545208.004     -424837.088
         3.000           3.000
  24139755.188    24139755.524    24139753.146    -3869333.823 2  -3015056.482 3
        17.800          23.800
  23381252.323    23381251.506    23381252.426    -6843386.146 3  -5332507.009 4
        23.000          26.500
  22494656.931    22494655.951    22494654.598   -16079993.712 4 -12529858.139 4
        28.400          25.900
  22821414.945    22821414.342    22821413.130   -12777776.250 4  -9956704.126 4
        27.100          27.100
  20679373.735    20679372.910    20679371.214   -24694678.415 6 -19242597.225 7
        41.700          46.100
  22922878.836    22922877.621    22922875.666   -11013954.873 5  -8582299.690 5
        31.600          30.400
  20440914.712    20440914.298    20440911.246   -24674015.313 7 -19226496.245 8
        43.900          49.000
 09  1 17  0 16 30.0000000  0 10G 3G28G 9G15G 6G21G14G18G19G22
  23335672.792    23335671.947    23335672.239    -6009988.818 3  -4683105.457 4
        23.400          25.300
  25459467.790    25459467.546    25459466.853     -554739.253 1   -432264.037 1
         6.500           6.500
  21694064.279    21694063.707    21694063.099   -16683119.770 5 -12999828.712 5
        35.100          34.600
  24159500.384    24159500.548    24159498.522    -3765569.815 3  -2934201.402 3
        19.300          23.800
  23395285.171    23395284.498    23395284.982    -6769641.997 3  -5275044.056 4
        22.600          24.900
  22513435.776    22513434.942    22513433.008   -15981311.062 4 -12452962.574 4
        28.600          25.300
  22802787.940    22802787.418    22802786.507   -12875661.236 4 -10032978.123 4
        27.600          27.600
  20685702.473    20685701.720    20685700.013   -24661420.430 6 -19216681.907 7
        41.700          46.000
  22921823.095    22921821.470    22921819.332   -11019505.808 5  -8586625.092 5
        32.000          30.200
  20435731.061    20435730.573    20435727.369   -24701256.747 7 -19247723.337 8
        44.000          49.100
 09  1 17  0 17  0.0000000  0 10G 9G 3G28G15G 6G21G14G18G19G22
  21685498.525    21685497.871    21685497.468   -16728134.205 5 -13034904.879 5
        35.400          35.200
  23349280.117    23349279.114    23349279.419    -5938480.953 3  -4627385.063 4
        22.600          24.900
  25457751.457    25457750.885    25457750.513     -563767.465 1   -439298.943 1
         9.000           9.000
  24179272.034    24179271.479    24179269.788    -3661670.541 3  -2853240.922 3
        18.600          23.800
  23409382.200    23409381.811    23409382.205    -6695560.173 3  -5217317.967 4
        23.000          24.600
  22532270.281    22532269.632    22532267.785   -15882334.282 4 -12375837.813 4
        28.400          24.900
  22784210.459    22784209.784    22784208.586   -12973287.501 4 -10109050.519 4
        27.600          27.400
  20692101.096    20692100.353    20692098.602   -24627795.342 6 -19190480.537 7
        41.800          45.800
  22920878.525    22920876.850    22920874.786   -11024469.572 5  -8590492.952 5
        32.300          30.400
  20430618.345    20430617.908    20430614.739   -24728123.594 7 -19268658.538 8
        44.100          49.200
 09  1 17  0 17 30.0000000  0 10G 9G 3G28G15G 6G21G14G18G19G22
  21677062.054    21677061.395    21677060.610   -16772468.109 5 -13069450.769 5
        35.400          34.800
  23362964.619    23362964.252    23362964.233    -5866565.513 3  -4571347.051 4
        22.600          24.200
  25456132.117    25456131.524    25456130.728     -572272.191 1   -445926.026 1
         9.000           6.500
  24199072.477    24199072.346    24199069.960    -3557618.353 3  -2772161.287 3
        18.600          23.000
  23423547.572    23423546.688    23423546.986    -6621123.327 3  -5159315.228 4
        23.400          24.200
  22551164.150    22551163.439    22551161.908   -15783045.416 4 -12298469.867 4
        27.900          25.300
  22765686.383    22765685.503    22765684.291   -13070633.196 4 -10184904.306 4
        27.900          27.400
  20698573.525    20698572.726    20698570.907   -24593783.129 6 -19163977.510 7
        41.800          45.700
  22920049.268    22920047.792    22920046.048   -11028826.529 5  -8593887.977 5
        32.400          31.100
  20425580.956    20425580.485    20425577.404   -24754595.187 7 -19289285.749 8
        44.100          49.300
 09  1 17  0 18  0.0000000  0 10G 9G 3G28G15G 6G21G14G18G19G22
  21668752.110    21668751.427    21668750.824   -16816136.980 5 -13103478.449 5
        35.400          34.900
  23376723.844    23376723.581    23376723.427    -5794262.135 3  -4515006.775 4
        23.400          24.900
  25454609.839    25454610.556    25454607.688     -580270.102 1   -452158.063
         6.500           3.000
  24218898.176    24218898.325    24218896.169    -3453432.393 3  -2690977.413 3
        18.600          22.600
  23437776.214    23437775.801    23437775.580    -6546351.361 3  -5101051.366 4
        23.400          24.200
  22570113.921    22570113.352    22570111.635   -15683464.044 4 -12220874.005 4
        28.100          24.900
  22747211.984    22747211.465    22747210.593   -13167713.614 4 -10260551.358 4
        27.900          27.900
  20705115.927    20705115.169    20705113.427   -24559402.012 6 -19137187.025 7
        41.800          45.600
  22919332.627    22919331.088    22919329.107   -11032593.084 5  -8596822.946 5
        32.300          31.000
  20420615.700    20420615.193    20420611.964   -24780688.236 7 -19309617.991 8
        44.200          49.300
 09  1 17  0 18 30.0000000  0 10G 9G 3G28G15G 6G21G14G18G19G22
  21660569.017    21660568.240    21660567.447   -16859140.705 5 -13136987.840 5
        35.600          35.200
  23390555.518    23390554.835    23390555.464    -5721575.760 3  -4458368.041 4
        22.100          24.900
  25453183.208    25453183.951    25453181.505     -587762.973 1   -457996.653 1
         6.500           6.500
  24238749.528    24238748.555    24238746.837    -3349116.760 3  -2609692.499 3
        18.600          22.100
  23452067.810    23452067.394    23452067.276    -6471248.796 3  -5042529.901 4
        22.600          24.200
  22589118.599    22589117.834    22589116.109   -15583593.915 4 -12143053.130 4
        27.900          24.900
  22728788.614    22728788.139    22728787.342   -13264529.189 4 -10335992.052 4
        28.100          28.100
  20711728.377    20711727.596    20711725.729   -24524653.998 6 -19110110.648 7
        41.800          45.500
  22918727.661    22918726.053    22918724.051   -11035771.552 5  -8599299.672 5
        32.100          30.600
  20415722.074    20415721.622    20415718.445   -24806404.115 7 -19329656.333 8
        44.300          49.400
 09  1 17  0 19  0.0000000  0 10G 9G 3G28G15G 6G21G14G18G19G22
  21652513.454    21652512.783    21652512.118   -16901471.838 5 -13169973.126 5
        35.400          35.300
  23404460.904    23404460.224    23404460.379    -5648503.763 3  -4401428.837 4
        22.600          24.200
  25451854.150    25451855.044    25451853.736     -594745.224 1   -463437.378 1
         9.000           9.000
  24258625.191    24258624.657    24258622.754    -3244668.124 2  -2528303.935 3
        17.800          22.100
  23466422.385    23466421.929    23466422.232    -6395813.077 3  -4983748.828 3
        22.600          23.800
  22608178.650    22608178.038    22608176.499   -15483431.520 4 -12065004.521 4
        27.900          24.900
  22710417.170    22710416.682    22710415.716   -13361072.712 4 -10411220.760 4
        28.400          28.400
  20718411.432    20718410.641    20718408.781   -24489534.373 6 -19082744.703 7
        41.800          45.400
  22918235.392    22918233.801    22918232.079   -11038356.929 5  -8601314.241 5
        31.800          30.600
  20410901.457    20410900.987    20410897.767   -24831736.934 7 -19349396.187 8
        44.300          49.500
 09  1 17  0 19 30.0000000  0 10G 9G 3G28G15G 6G21G14G18G19G22
  21644587.392    21644586.670    21644586.186   -16943123.741 5 -13202429.144 5
        35.600          35.400
  23418439.839    23418439.201    23418439.619    -5575044.124 3  -4344187.565 4
        23.000          24.900
  25450623.722    25450623.101    25450621.077     -601211.648 1   -468476.174 1
         9.000          11.000
  24278526.285    24278526.603    24278524.438    -3140083.814 2  -2446809.665 3
        17.800          22.600
  23480841.037    23480840.517    23480840.913    -6320042.234 3  -4924706.603 3
        22.100          23.400
  22627295.290    22627294.448    22627292.940   -15382974.280 4 -11986726.159 4
        27.600          24.600
  22692098.741    22692098.097    22692096.922   -13457337.668 4 -10486232.398 4
        28.600          28.400
  20725165.800    20725165.081    20725163.372   -24454038.694 6 -19055085.729 7
        41.800          45.300
  22917857.413    22917855.928    22917853.986   -11040344.552 5  -8602863.026 5
        32.400          31.000
  20406154.628    20406154.157    20406150.948   -24856681.457 7 -19368833.475 8
        44.300          49.600
 09  1 17  0 20  0.0000000  0 10G 9G 3G28G15G 6G21G14G18G19G22
  21636788.450    21636787.792    21636787.385   -16984107.025 5 -13234364.162 5
        35.700          35.600
  23432489.440    23432488.429    23432489.145    -5501211.960 3  -4286656.017 4
        21.600          24.900
  25449491.135    25449490.237    25449489.645     -607174.821 2   -473122.793 2
        12.600          15.100
  24298451.528    24298451.232    24298449.221    -3035378.164 2  -2365220.835 3
        17.000          22.100
  23495321.477    23495320.699    23495320.449    -6243951.395 3  -4865415.060 3
        22.100          23.800
  22646465.573    22646464.531    22646462.695   -15282237.154 4 -11908229.702 4
        28.100          24.600
  22673831.030    22673830.333    22673829.158   -13553335.469 4 -10561035.869 4
        28.600          28.100
  20731989.535    20731988.726    20731986.973   -24418180.428 6 -19027144.220 7
        41.700          45.100
  22917590.749    22917589.228    22917587.316   -11041746.767 5  -8603955.660 5
        32.400          31.300
  20401479.445    20401478.985    20401475.879   -24881249.558 7 -19387977.446 8
        44.300          49.700
 09  1 17  0 20 30.0000000  0 10G 9G 3G28G15G 6G21G14G18G19G22
  21629118.799    21629118.088    21629117.330   -17024412.395 6 -13265770.931 5
        36.100          35.500
  23446610.757    23446609.968    23446610.832    -5427003.523 3  -4228831.278 4
        21.100          25.300
  25448451.763    25448451.125    25448450.763     -612627.098 1   -477371.235 1
         9.000           9.000
  24318401.052    24318400.111    24318397.886    -2930546.230 2  -2283533.619 3
        17.800          22.100
  23509862.314    23509862.031    23509861.763    -6167536.054 3  -4805870.641 3
        22.600          23.800
  22665689.482    22665688.387    22665686.691   -15181214.554 4 -11829510.795 4
        27.400          24.200
  22655615.453    22655615.174    22655614.234   -13649056.190 4 -10635623.433 4
        28.600          28.600
  20738883.393    20738882.672    20738880.887   -24381952.592 6 -18998914.734 7
        41.800          45.000
  22917436.274    22917434.835    22917433.128   -11042556.653 5  -8604586.738 5
        32.300          31.500
  20396877.181    20396876.748    20396873.772   -24905433.886 7 -19406822.373 8
        44.400          49.800
 09  1 17  0 21  0.0000000  0 10G 9G 3G28G15G 6G21G14G18G19G22
  21621579.918    21621579.300    21621578.595   -17064028.324 5 -13296640.480 5
        35.700          35.400
  23460804.998    23460804.463    23460804.641    -5352411.637 3  -4170707.740 4
        22.600          24.200
  25447514.809    25447514.110    25447512.033     -617558.238 1   -481213.688
         6.500           3.000
  24338375.193    24338374.731    24338372.258    -2825580.310 2  -2201741.986 3
        17.800          21.600
  23524467.086    23524466.538    23524466.100    -6090789.203 3  -4746067.913 4
        22.600          24.200
  22684968.965    22684968.047    22684966.273   -15079899.353 4 -11750563.894 4
        26.800          24.600
  22637455.327    22637454.976    22637453.912   -13744488.969 4 -10709986.620 4
        29.000          28.800
  20745849.494    20745848.680    20745846.907   -24345345.876 6 -18970390.017 7
        41.800          44.900
  22917396.874    22917395.337    22917393.567   -11042764.272 5  -8604748.518 5
        32.100          31.500
  20392350.212    20392349.754    20392346.639   -24929223.925 7 -19425360.061 8
        44.400          49.900
 09  1 17  0 21 30.0000000  0 10G 9G 3G28G15G 6G21G14G18G19G22
  21614169.846    21614169.227    21614168.644   -17102968.295 5 -13326983.304 5
        35.800          35.500
  23475068.709    23475068.341    23475068.473    -5277454.023 3  -4112299.211 3
        21.100          23.400
  25446673.296    25446672.179    25446671.370     -621983.147 1   -484661.730
         6.500           3.000
  24358371.734    24358371.473    24358368.761    -2720497.829 2  -2119859.533 3
        17.000          21.100
  23539131.011    23539130.208    23539130.598    -6013728.499 3  -4686020.629 4
        21.100          24.600
  22704300.846    22704300.144    22704298.459   -14978308.083 4 -11671401.877 4
        26.800          24.600
  22619347.559    22619346.927    22619345.889   -13839647.151 4 -10784135.842 4
        29.500          28.600
  20752884.568    20752883.801    20752882.091   -24308375.624 6 -18941582.025 7
        41.600          44.800
  22917469.134    22917467.650    22917465.927   -11042385.235 5  -8604453.165 5
        32.100          31.800
  20387895.384    20387894.949    20387891.843   -24952634.067 7 -19443601.725 8
        44.500          50.000
 09  1 17  0 22  0.0000000  0 10G 9G 3G28G15G 6G21G14G18G19G22
  21606890.322    21606889.749    21606889.087   -17141222.480 5 -13356791.754 5
        35.800          35.500
  23489404.040    23489403.186    23489402.793    -5202126.133 3  -4053602.167 3
        22.100          23.000
  25445928.889    25445927.279    25445929.298     -625893.838     -487709.058
         3.000           3.000
  24378392.226    24378392.240    24378388.962    -2615292.189 2  -2037881.105 3
        17.000          20.500
  23553855.873    23553855.467    23553855.767    -5936348.862 3  -4625724.837 4
        21.100          25.300
  22723686.944    22723686.045    22723684.286   -14876435.336 4 -11592020.523 4
        27.400          24.600
  22601293.358    22601292.849    22601291.979   -13934521.077 4 -10858063.565 4
        29.200          28.800
  20759990.326    20759989.530    20759987.802   -24271034.475 6 -18912485.023 7
        41.600          44.600
  22917654.458    22917652.815    22917650.963   -11041411.819 5  -8603694.656 5
        32.300          31.500
  20383514.612    20383514.156    20383510.903   -24975655.934 7 -19461540.836 8
        44.600          50.100
 09  1 17  0 22 30.0000000  0 10G 9G 3G28G15G 6G21G14G18G19G22
  21599742.317    21599741.753    21599741.194   -17178784.922 5 -13386061.179 5
        35.600          35.600
  23503808.160    23503807.442    23503808.230    -5126426.062 3  -3994615.094 3
        20.500          23.000
  25445281.667    25445281.104    25445280.793     -629286.229     -490352.433
         3.000           3.000
  24398435.950    24398435.717    24398432.823    -2509961.808 2  -1955805.489 3
        17.000          19.900
  23568641.909    23568641.241    23568641.654    -5858648.872 3  -4565179.406 4
        22.100          25.600
  22743126.774    22743125.567    22743124.018   -14774279.071 4 -11512418.251 4
        26.200          24.600
  22583294.912    22583294.205    22583293.253   -14029104.856 4 -10931765.191 4
        29.500          28.800
  20767167.594    20767166.772    20767164.969   -24233318.712 6 -18883096.117 7
        41.800          44.600
  22917953.603    22917951.941    22917949.724   -11039839.978 5  -8602469.831 5
        32.300          30.800
  20379208.350    20379207.873    20379204.733   -24998285.179 7 -19479174.010 8
        44.500          50.100
 09  1 17  0 23  0.0000000  0 10G 9G 3G28G15G 6G21G14G18G19G22
  21592725.250    21592724.604    21592723.854   -17215661.111 6 -13414795.862 5
        36.000          35.700
  23518283.413    23518282.567    23518282.943    -5050363.841 3  -3935345.840 3
        21.100          23.400
  25444735.295    25444734.556    25444732.867     -632167.108 1   -492597.282
         9.000
  24418501.911    24418501.197    24418498.293    -2404515.838 2  -1873639.810 3
        17.000          19.300
  23583486.484    23583485.932    23583486.262    -5780638.819 3  -4504392.370 4
        21.600          24.900
  22762618.205    22762617.443    22762615.700   -14671848.720 4 -11432602.404 3
        25.900          23.800
  22565350.084    22565349.457    22565348.666   -14123404.399 4 -11005245.338 4
        29.700          29.200
  20774414.285    20774413.592    20774411.825   -24195236.508 6 -18853421.669 7
        41.900          44.500
  22918364.984    22918363.209    22918361.435   -11037677.507 5  -8600784.792 5
        31.800          30.600
  20374975.603    20374975.101    20374972.051   -25020528.092 7 -19496506.147 8
        44.400          50.200
 09  1 17  0 23 30.0000000  0  9G 9G 3G15G 6G21G14G18G19G22
  21585837.322    21585836.771    21585835.981   -17251856.863 6 -13443000.336 5
        36.000          35.800
  23532824.130    23532823.130    23532823.577    -4973950.358 3  -3875802.875 3
        21.100          22.600
  24438587.108    24438587.410    24438583.169    -2298964.104 2  -1791391.701 2
        17.800          17.800
  23598388.415    23598388.123    23598388.291    -5702328.708 3  -4443371.519 4
        21.600          24.200
  22782160.253    22782159.436    22782157.765   -14569153.946 4 -11352580.519 3
        25.300          23.000
  22547458.271    22547457.696    22547456.920   -14217425.611 4 -11078508.610 4
        29.700          29.200
  20781729.505    20781728.686    20781726.874   -24156795.570 6 -18823467.689 7
        41.800          44.400
  22918887.362    22918885.918    22918883.841   -11034932.101 5  -8598645.525 5
        32.300          31.000
  20370814.911    20370814.450    20370811.369   -25042392.432 7 -19513543.290 8
        44.500          50.300
 09  1 17  0 24  0.0000000  0 10G 9G 3G28G15G 6G21G14G18G19G22
  21579082.381    21579081.773    21579081.119   -17287353.416 5 -13470659.972 5
        35.700          35.600
  23547434.505    23547433.813    23547434.201    -4897171.307 3  -3815975.039 3
        21.600          23.000
  25443929.207    25443928.093    25443927.003           -.65111         -.37511
         9.000          11.000
  24458695.262    24458695.466    24458692.177    -2193291.286 2  -1709049.216 2
        17.000          17.800
  23613349.994    23613349.350    23613349.917    -5623704.136 3  -4382105.629 4
        21.100          24.200
  22801755.757    22801754.823    22801752.838   -14466179.567 4 -11272340.749 3
        25.900          22.100
  22529622.937    22529622.536    22529621.879   -14311149.256 4 -11151539.998 4
        29.500          29.000
  20789115.850    20789115.056    20789113.314   -24117979.360 6 -18793221.289 7
        41.800          44.300
  22919524.014    22919522.390    22919520.626   -11031586.749 5  -8596038.751 5
        32.700          31.600
  20366729.763    20366729.273    20366726.195   -25063860.169 7 -19530271.389 8
        44.600          50.400
 09  1 17  0 24 30.0000000  0 10G 9G 3G28G15G 6G21G14G18G19G22
  21572459.806    21572459.244    21572458.836   -17322155.144 5 -13497778.200 5
        35.800          35.800
  23562113.198    23562112.607    23562112.659    -4820035.509 3  -3755869.231 3
