     2.11           OBSERVATION DATA    G (GPS)             RINEX VERSION / TYPE
teqc  2008Oct2      WCDA Operator       20090122 01:03:18UTCPGM / RUN BY / DATE
Solaris x86 5.10|AMD64|cc SC5.8 -xarch=amd64|=+|=+          COMMENT
teqc  2008Oct2      WCDA Operator       20090122 01:03:17UTCCOMMENT
teqc  2008Oct2      WCDA Operator       20090121 01:18:27UTCCOMMENT
flin  WCDA-ACP   965000   CFS Flin Flon SASK Canada         MARKER NAME
40135M001                                                   MARKER NUMBER
PGC-WCDA            GEOL. SURV. CANADA                      OBSERVER / AGENCY
1115                AOA BENCHMARK ACT   3.3.32.4            REC # / TYPE / VERS
231                 AOAD/M_T        SCIS                    ANT # / TYPE
  -766174.4630 -3611375.3160  5184056.2210                  APPROX POSITION XYZ
        0.1500        0.0000        0.0000                  ANTENNA: DELTA H/E/N
     1     1                                                WAVELENGTH FACT L1/2
     7    C1    P1    P2    L1    L2    S1    S2            # / TYPES OF OBSERV
STATION INFORMATION EFFECTIVE FROM: 2001/01/13 18:20:00     COMMENT
                                TO: CURRENT DATE (above)    COMMENT
BIT 2 OF LLI FLAGS (+4) DATA COLLECTED UNDER 'AS' CONDITION COMMENT
L1 PHASE CENTRE 0.110m ABOVE ARP                            COMMENT
L2 PHASE CENTRE 0.128m ABOVE ARP                            COMMENT
where ARP is the Antenna Reference Point for HI measurement COMMENT
CONTACT gps@pgc.nrcan.gc.ca FOR ADDITIONAL INFORMATION      COMMENT
    P1 =    P1  TurboRogue; =    Y1  Benchmark              COMMENT
    L1 = L1(CA)                                             COMMENT
    P2 =    P2  TurboRogue; =    Y2  Benchmark              COMMENT
    L2 = L2(P2) TurboRogue; = L2(Y2) Benchmark              COMMENT
 SNR is mapped to RINEX snr flag value [0-9]                COMMENT
  L1 & L2: min(max(int(snr_dBHz/6), 0), 9)                  COMMENT
  2009     1    21     0     0    0.0000000     GPS         TIME OF FIRST OBS
                                                            END OF HEADER
 09  1 21  0  0  0.0000000  0 10G 9G28G19G 3G 6G14G15G21G18G22
  21695709.801    21695709.482    21695709.325   -15545729.593 6 -12113547.457 6
        38.100          36.500
  25460339.918    25460340.248    25460339.357     -688821.359 1   -536743.928 1
         9.000          11.000
  22926752.872    22926751.144    22926748.750    -9865108.703 5  -7687093.672 5
        34.500          32.300
  23329713.071    23329712.333    23329712.874    -4079982.371 4  -3179203.140 4
        27.600          27.400
  23392039.131    23392038.930    23392039.775    -6257260.618 4  -4875783.586 4
        27.100          28.400
  22792332.256    22792331.804    22792330.771   -12753262.783 5  -9937602.428 4
        32.000          29.200
  24172778.900    24172778.717    24172776.919    -3883163.545 3  -3025832.941 4
        23.800          26.500
  22511976.169    22511975.237    22511973.426   -15600677.685 5 -12156365.942 4
        33.500          27.600
  20678827.684    20678827.074    20678825.496   -23610987.933 7 -18398164.103 7
        43.400          46.300
  20436585.036    20436584.730    20436581.577   -23872620.486 7 -18602032.649 8
        45.900          49.200
 09  1 21  0  0 30.0000000  0 10G 9G28G19G 3G 6G14G15G21G18G22
  21687118.669    21687117.957    21687117.322   -15590880.310 6 -12148729.819 6
        38.700          36.600
  25458615.860    25458614.735    25458612.969     -697890.189 1   -543810.504 2
         9.000          12.600
  22925713.861    22925712.498    22925710.882    -9870563.086 5  -7691343.834 5
        34.100          32.000
  23343282.763    23343282.338    23343282.831    -4008671.556 4  -3123636.284 4
        27.100          27.400
  23406108.978    23406108.454    23406109.234    -6183324.835 4  -4818171.314 4
        26.800          27.600
  22773776.941    22773776.234    22773775.041   -12850774.122 5 -10013585.271 4
        32.100          29.000
  24192570.985    24192571.206    24192568.878    -3779154.826 4  -2944787.175 4
        24.600          26.200
  22530802.339    22530801.674    22530799.853   -15501743.976 5 -12079274.747 4
        33.400          27.100
  20685156.526    20685155.892    20685154.153   -23577730.950 7 -18372249.565 7
        43.500          46.200
  20431458.077    20431457.684    20431454.498   -23899563.150 7 -18623026.929 8
        45.800          49.300
 09  1 21  0  1  0.0000000  0 10G 9G28G19G 3G 6G14G15G21G18G22
  21678653.928    21678653.434    21678652.734   -15635360.718 6 -12183389.861 6
        38.600          36.300
  25456986.924    25456986.198    25456986.449     -706445.622 1   -550477.079 2
         9.000          12.600
  22924790.468    22924788.890    22924786.462    -9875420.261 5  -7695128.653 5
        34.900          31.800
  23356928.527    23356927.687    23356928.407    -3936961.615 4  -3067758.438 4
        26.200          27.100
  23420245.055    23420244.017    23420243.631    -6109043.179 4  -4760289.513 4
        27.100          25.900
  22755272.483    22755272.014    22755270.946   -12948013.827 5 -10089356.460 4
        32.300          29.700
  24212390.842    24212390.486    24212387.775    -3675003.710 4  -2863630.464 4
        24.200          24.900
  22549685.577    22549685.291    22549683.937   -15402508.086 5 -12001948.088 4
        32.400          27.100
  20691556.881    20691556.221    20691554.451   -23544096.517 7 -18346040.914 7
        43.600          45.900
  20426404.374    20426404.063    20426400.801   -23926120.540 7 -18643720.990 8
        45.900          49.300
 09  1 21  0  1 30.0000000  0 10G 9G28G19G 3G 6G14G15G21G18G22
  21670316.790    21670316.297    21670315.879   -15679171.612 6 -12217528.205 6
        38.300          36.300
  25455456.089    25455456.583    25455453.431     -714489.689 2   -556745.157 1
        12.600          11.000
  22923978.895    22923977.515    22923975.617    -9879682.913 5  -7698450.198 5
        35.200          32.400
  23370649.001    23370648.929    23370648.981    -3864858.146 4  -3011573.920 4
        26.800          26.500
  23434444.603    23434444.236    23434444.243    -6034420.600 4  -4702142.046 4
        27.100          26.200
  22736819.727    22736819.163    22736818.317   -13044982.996 5 -10164916.820 4
        32.700          29.900
  24232236.004    24232236.027    24232232.996    -3570715.184 4  -2782366.677 3
        24.600          23.800
  22568626.825    22568626.213    22568624.477   -15302974.577 5 -11924389.530 4
        32.300          26.500
  20698028.387    20698027.848    20698026.107   -23510087.926 7 -18319540.708 7
        43.600          45.800
  20421423.467    20421423.127    20421419.964   -23952294.973 7 -18664116.646 8
        45.900          49.300
 09  1 21  0  2  0.0000000  0 10G 9G28G19G 3G 6G14G15G21G18G22
  21662106.633    21662106.245    21662105.894   -15722316.964 6 -12251147.946 6
        38.600          36.600
  25454021.203    25454021.243    25454019.698     -722028.251 1   -562619.404 2
        11.000          12.600
  22923279.436    22923278.542    22923276.643    -9883356.736 5  -7701312.915 5
        35.700          32.300
  23384444.058    23384443.582    23384443.819    -3792369.554 4  -2955089.302 4
        27.600          27.400
  23448708.402    23448707.528    23448708.247    -5959465.796 4  -4643735.705 4
        26.800          26.500
  22718417.507    22718417.330    22718416.386   -13141685.344 5 -10240269.277 4
        32.800          29.900
  24252105.391    24252106.120    24252103.117    -3466297.292 4  -2701002.066 3
        24.200          22.600
  22587623.381    22587622.420    22587619.819   -15203151.354 5 -11846605.209 4
        32.700          25.900
  20704570.134    20704569.460    20704567.805   -23475711.325 7 -18292753.740 7
        43.600          45.800
  20416514.572    20416514.195    20416510.932   -23978091.706 7 -18684217.991 8
        45.900          49.400
 09  1 21  0  2 30.0000000  0 10G 9G28G19G 3G 6G14G15G21G18G22
  21654023.819    21654023.539    21654022.637   -15764791.957 6 -12284245.330 6
        38.600          36.500
  25452683.529    25452683.116    25452682.495     -729058.348 2   -568097.430 2
        12.600          16.100
  22922692.910    22922691.397    22922689.726    -9886439.342 5  -7703714.937 5
        34.700          31.800
  23398311.519    23398310.739    23398310.866    -3719496.028 4  -2898304.749 4
        27.100          26.800
  23463033.707    23463033.640    23463034.973    -5884178.769 4  -4585070.509 4
        26.200          25.600
  22700067.435    22700067.029    22700065.758   -13238116.823 5 -10315410.666 4
        32.800          29.500
  24272000.458    24272000.388    24271998.256    -3361749.306 3  -2619536.088 3
        23.400          22.100
  22606673.845    22606673.056    22606670.973   -15103037.896 5 -11768594.730 4
        32.600          26.200
  20711182.200    20711181.584    20711179.942   -23440964.554 7 -18265678.334 7
        43.600          45.800
  20411677.884    20411677.617    20411674.455   -24003507.505 7 -18704022.503 8
        45.900          49.400
 09  1 21  0  3  0.0000000  0 10G 9G28G19G 3G 6G14G15G21G18G22
  21646070.039    21646069.798    21646069.955   -15806586.242 6 -12316812.290 6
        38.000          37.400
  25451443.589    25451443.538    25451443.119     -735571.117 2   -573172.298 2
        15.100          17.000
  22922220.477    22922219.025    22922217.137    -9888922.514 5  -7705649.866 5
        34.800          31.800
  23412253.691    23412252.733    23412252.284    -3646231.862 4  -2841215.796 4
        27.400          26.200
  23477425.136    23477425.034    23477425.425    -5808554.008 4  -4526142.125 4
        26.500          24.900
  22681770.960    22681770.237    22681768.713   -13334267.283 5 -10390333.080 4
        33.000          29.200
  24291920.581    24291920.684    24291919.271    -3257065.088 4  -2537963.962 3
        24.200          21.600
  22625780.840    22625780.259    22625778.361   -15002627.722 5 -11690353.040 4
        32.100          26.200
  20717866.306    20717865.697    20717863.800   -23405839.796 7 -18238308.388 7
        43.700          45.500
  20406915.594    20406915.318    20406912.253   -24028533.450 7 -18723523.236 8
        45.900          49.500
 09  1 21  0  3 30.0000000  0 10G 9G28G19G 3G 6G14G15G21G18G22
  21638245.866    21638245.472    21638245.099   -15847705.172 6 -12348852.997 6
        38.900          37.000
  25450300.899    25450301.074    25450302.023     -741573.854 2   -577849.734 2
        12.600          17.000
  22921860.731    22921859.340    22921857.288    -9890813.473 5  -7707123.334 5
        34.700          32.000
  23426267.086    23426266.179    23426266.668    -3572587.317 4  -2783830.439 4
        25.900          26.500
  23491878.910    23491878.576    23491878.321    -5732601.344 4  -4466958.235 4
        26.500          24.600
  22663526.235    22663525.796    22663524.230   -13430142.178 5 -10465040.772 4
        32.800          29.500
  24311864.792    24311865.679    24311864.469    -3152254.142 4  -2456293.069 3
        24.200          21.600
  22644942.842    22644942.220    22644940.616   -14901930.406 5 -11611887.612 4
        31.600          26.200
  20724620.711    20724620.144    20724618.224   -23370344.690 7 -18210649.858 7
        43.700          45.400
  20402226.229    20402225.910    20402222.881   -24053176.498 7 -18742725.601 8
        45.900          49.700
 09  1 21  0  4  0.0000000  0 10G 9G28G19G 3G 6G14G15G21G18G22
  21630550.781    21630550.080    21630549.115   -15888145.830 6 -12380365.182 6
        38.900          36.500
  25449255.787    25449255.427    25449255.507     -747064.600 1   -582128.248 2
        11.000          13.900
  22921613.729    22921612.213    22921610.569    -9892110.958 5  -7708134.364 5
        34.500          32.100
  23440353.344    23440352.824    23440352.547    -3498563.545 4  -2726149.592 4
        25.600          26.500
  23506394.217    23506393.739    23506393.303    -5656322.158 4  -4407519.921 4
        26.200          24.900
  22645335.101    22645334.487    22645332.828   -13525738.559 5 -10539531.436 4
        33.000          29.500
  24331834.268    24331834.639    24331833.626    -3047316.770 4  -2374523.682 3
        25.300          22.600
  22664158.966    22664158.700    22664157.388   -14800946.735 5 -11533199.051 4
        31.300          26.500
  20731445.935    20731445.249    20731443.478   -23334478.219 7 -18182701.954 7
        43.600          45.300
  20397610.057    20397609.718    20397606.704   -24077434.575 7 -18761627.994 8
        45.900          49.800
 09  1 21  0  4 30.0000000  0 10G 9G28G19G 3G 6G14G15G21G18G22
  21622983.539    21622983.059    21622982.664   -15927909.170 6 -12411349.590 6
        38.700          36.500
  25448310.955    25448309.424    25448306.443     -752046.322 2   -586010.116 1
        12.600           9.000
  22921479.559    22921478.170    22921476.096    -9892818.216 5  -7708685.476 5
        34.900          32.100
  23454509.820    23454509.632    23454510.120    -3424166.925 4  -2668178.220 4
        26.200          26.500
  23520970.442    23520970.028    23520969.679    -5579722.273 4  -4347831.701 4
        26.200          24.200
  22627196.250    22627195.662    22627194.244   -13621057.859 5 -10613806.197 4
        33.200          29.500
  24351826.813    24351826.901    24351826.066    -2942257.993 4  -2292659.696 3
        25.600          22.600
  22683429.523    22683428.720    22683427.699   -14699681.913 5 -11454291.419 4
        31.100          26.500
  20738340.841    20738340.224    20738338.495   -23298244.331 7 -18154467.750 7
        43.600          45.200
  20393066.736    20393066.401    20393063.358   -24101310.122 7 -18780232.311 8
        46.000          49.900
 09  1 21  0  5  0.0000000  0 10G 9G28G19G 3G 6G14G15G21G18G22
  21615547.411    21615546.924    21615546.306   -15966986.932 6 -12441799.779 6
        38.900          36.600
  25447458.726    25447459.407    25447456.610     -756512.687 1   -589490.484 1
         6.500           9.000
  22921458.733    22921457.225    22921455.092    -9892928.720 5  -7708771.579 5
        35.100          32.400
  23468739.863    23468739.426    23468739.121    -3349393.234 4  -2609913.003 4
        27.100          25.900
  23535608.790    23535608.762    23535608.725    -5502797.753 4  -4287890.532 4
        26.500          25.600
  22609111.975    22609111.323    22609109.918   -13716091.770 5 -10687858.582 4
        33.400          29.700
  24371842.764    24371842.827    24371841.833    -2837073.649 4  -2210697.866 3
        24.900          21.600
  22702754.079    22702753.307    22702751.962   -14598131.304 5 -11375161.080 4
        31.000          26.200
  20745307.163    20745306.508    20745304.805   -23261636.675 7 -18125942.301 7
        43.600          45.200
  20388597.550    20388597.225    20388594.185   -24124796.233 7 -18798533.171 8
        46.100          50.000
 09  1 21  0  5 30.0000000  0 10G 9G28G19G 3G 6G14G15G21G18G22
  21608241.352    21608240.793    21608240.753   -16005379.169 6 -12471715.791 6
        38.300          36.800
  25446706.799    25446707.806    25446705.370     -760464.790 1   -592570.014 1
         6.500           9.000
  22921550.594    22921548.838    22921547.313    -9892444.719 5  -7708394.452 5
        34.500          33.000
  23483039.329    23483038.510    23483038.603    -3274247.354 4  -2551357.792 4
        25.900          25.600
  23550308.331    23550308.058    23550308.418    -5425553.251 4  -4227700.035 4
        25.900          26.800
  22591082.138    22591081.443    22591079.939   -13810840.317 5 -10761688.603 4
        33.600          29.900
  24391882.069    24391882.029    24391880.535    -2731767.505 4  -2128641.138 3
        24.600          22.100
  22722132.272    22722131.313    22722130.048   -14496298.900 5 -11295811.171 4
        30.800          26.500
  20752343.985    20752343.394    20752341.730   -23224657.385 7 -18097127.265 7
        43.600          45.100
  20384202.033    20384201.729    20384198.659   -24147894.175 7 -18816531.562 8
        46.100          50.000
 09  1 21  0  6  0.0000000  0 10G 9G28G19G 3G 6G14G15G21G18G22
  21601065.362    21601065.112    21601065.213   -16043085.292 6 -12501097.170 6
        38.000          36.500
  25446055.143    25446053.707    25446051.703     -763903.919 2   -595249.862 1
        12.600          11.000
  22921755.139    22921753.645    22921752.265    -9891367.691 5  -7707555.193 5
        34.500          33.000
  23497409.868    23497408.740    23497408.696    -3198733.505 4  -2492515.841 4
        25.900          25.300
  23565067.935    23565067.369    23565067.819    -5347992.843 4  -4167263.366 4
        25.300          27.400
  22573106.105    22573105.613    22573104.336   -13905303.413 5 -10835296.187 5
        33.600          30.200
  24411943.543    24411943.676    24411942.312    -2626342.887 4  -2046492.084 3
        24.600          22.100
  22741563.089    22741562.231    22741561.154   -14394188.119 5 -11216244.356 4
        30.600          26.500
  20759451.069    20759450.603    20759448.759   -23187308.403 7 -18068024.157 7
        43.600          44.800
  20379880.583    20379880.209    20379877.084   -24170604.786 7 -18834228.135 8
        46.200          50.100
 09  1 21  0  6 30.0000000  0 10G 9G28G19G 3G 6G14G15G21G18G22
  21594021.821    21594021.359    21594020.620   -16080104.916 6 -12529943.607 6
        39.100          36.800
  25445498.605    25445497.047    25445494.269     -766831.021 2   -597530.755 2
        12.600          12.600
  22922072.572    22922071.655    22922069.324    -9889699.001 5  -7706254.919 5
        35.500          32.000
  23511848.303    23511847.522    23511847.551    -3122855.943 4  -2433390.467 4
        25.300          24.200
  23579885.988    23579885.713    23579886.259    -5270120.556 4  -4106583.690 4
        25.300          26.800
  22555184.595    22555184.197    22555182.818   -13999480.653 5 -10908681.023 5
        33.900          30.200
  24432026.713    24432027.624    24432025.712    -2520802.980 4  -1964253.202 3
        24.600          22.600
  22761046.074    22761045.752    22761044.047   -14291802.334 5 -11136463.234 4
        31.000          26.200
  20766628.484    20766627.871    20766625.953   -23149591.578 7 -18038634.418 7
        43.600          44.700
  20375632.225    20375631.979    20375628.975   -24192928.998 7 -18851623.618 8
        46.100          50.200
 09  1 21  0  7  0.0000000  0 10G 9G28G19G 3G 6G14G15G21G18G22
  21587108.155    21587107.786    21587107.271   -16116435.521 6 -12558253.165 6
        39.000          36.900
  25445036.949    25445036.477    25445033.756     -769245.373 1   -599412.054 2
        11.000          12.600
  22922502.769    22922501.556    22922499.562    -9887438.516 5  -7704493.505 5
        35.200          31.800
  23526355.759    23526355.094    23526355.653    -3046616.726 4  -2373983.309 4
        25.900          24.600
  23594764.306    23594763.805    23594763.349    -5191938.445 4  -4045662.574 4
        25.600          26.500
  22537318.280    22537317.685    22537316.014   -14093369.734 5 -10981841.322 4
        33.800          29.700
  24452132.787    24452132.809    24452131.014    -2415149.444 4  -1881925.765 3
        24.600          23.000
  22780582.163    22780581.399    22780579.626   -14189143.137 5 -11056469.077 4
        30.200          25.600
  20773875.991    20773875.375    20773873.575   -23111506.717 7 -18008957.897 7
        43.800          44.800
  20371457.863    20371457.574    20371454.448   -24214865.528 7 -18868717.009 8
        46.100          50.200
 09  1 21  0  7 30.0000000  0 10G 9G28G19G 3G 6G14G15G21G18G22
  21580325.916    21580325.527    21580324.957   -16152075.418 6 -12586024.494 6
        38.600          36.700
  25444673.433    25444674.143    25444671.618     -771147.451 2   -600894.122 2
        12.600          12.600
  22923045.709    22923044.182    22923042.167    -9884586.726 5  -7702271.334 5
        35.100          32.300
  23540931.532    23540930.755    23540931.228    -2970019.152 4  -2314296.899 3
        25.300          23.800
  23609700.044    23609699.657    23609699.268    -5113449.517 4  -3984502.373 4
        25.300          26.500
  22519506.040    22519505.804    22519504.453   -14186969.133 5 -11054775.906 4
        33.500          29.700
  24472259.093    24472259.030    24472257.532    -2309384.188 4  -1799511.277 4
        24.200          24.200
  22800169.566    22800168.885    22800166.333   -14086212.605 5 -10976263.487 4
        30.400          25.300
  20781193.259    20781192.500    20781190.867   -23073054.571 7 -17978995.182 7
        43.800          44.800
  20367357.168    20367356.861    20367354.007   -24236414.041 7 -18885508.055 8
        46.100          50.300
 09  1 21  0  8  0.0000000  0 10G 9G28G19G 3G 6G14G15G21G18G22
  21573675.793    21573675.263    21573674.711   -16187024.177 6 -12613257.287 6
        39.100          37.300
  25444410.596    25444410.024    25444407.446     -772538.083 2   -601977.776 1
        12.600          11.000
  22923701.042    22923699.121    22923697.161    -9881144.667 5  -7699589.198 5
        34.700          32.700
  23555576.092    23555575.017    23555575.135    -2893066.844 4  -2254334.067 4
        25.600          24.200
  23624693.863    23624693.083    23624693.403    -5034657.482 4  -3923106.006 4
        24.600          25.600
  22501750.183    22501749.825    22501748.306   -14280278.003 5 -11127484.105 4
        33.800          29.900
  24492404.548    24492406.183    24492405.134    -2203510.338 3  -1717012.178 4
        22.600          24.600
  22819807.397    22819806.915    22819804.276   -13983014.131 5 -10895849.094 4
        31.100          24.600
  20788580.133    20788579.418    20788577.665   -23034236.385 7 -17948747.240 7
        43.800          44.600
  20363330.366    20363330.057    20363326.956   -24257575.314 7 -18901997.353 8
        46.100          50.200
 09  1 21  0  8 30.0000000  0 10G 9G28G19G 3G 6G14G15G21G18G22
  21567156.749    21567156.247    21567156.043   -16221280.549 6 -12639950.550 6
        38.900          37.400
  25444243.421    25444243.181    25444241.122     -773416.737 2   -602662.481 1
        15.100          11.000
  22924467.606    22924466.167    22924464.427    -9877113.123 5  -7696447.729 5
        34.400          33.100
  23570285.872    23570285.194    23570285.553    -2815762.651 4  -2194097.040 4
        26.500          24.200
  23639744.243    23639743.675    23639744.207    -4955565.177 4  -3861475.656 4
        24.900          24.200
  22484050.059    22484049.470    22484047.809   -14373295.116 5 -11199964.960 5
        34.000          30.200
  24512571.977    24512573.082    24512572.522    -2097530.069 3  -1634430.148 4
        22.100          24.900
  22839496.176    22839495.304    22839492.845   -13879549.969 5 -10815227.673 4
        30.200          24.600
  20796036.270    20796035.669    20796033.960   -22995053.154 7 -17918214.846 7
        43.700          44.600
  20359377.550    20359377.180    20359373.841   -24278348.750 7 -18918184.439 8
        46.100          50.200
 09  1 21  0  9  0.0000000  0 10G 9G28G19G 3G 6G14G15G21G18G22
  21560770.404    21560770.118    21560769.067   -16254841.774 6 -12666102.136 6
        39.300          36.600
  25444172.924    25444171.886    25444172.361     -773782.786 1   -602947.653 1
        11.000          11.000
  22925347.155    22925346.034    22925344.027    -9872491.159 5  -7692846.201 5
        34.900          32.800
  23585063.857    23585062.883    23585062.769    -2738108.646 4  -2133587.431 4
        26.200          24.200
  23654851.347    23654851.288    23654852.044    -4876174.388 4  -3799612.698 3
        24.600          22.600
  22466405.665    22466404.993    22466403.236   -14466017.652 5 -11272216.275 5
        34.100          30.200
  24532761.327    24532760.706    24532759.853    -1991444.335 3  -1551765.946 4
        22.100          24.600
  22859234.775    22859234.038    22859231.758   -13775821.294 4 -10734400.153 4
        29.500          24.600
  20803562.091    20803561.540    20803559.908   -22955503.820 7 -17887397.179 7
        43.700          44.400
  20355498.343    20355498.036    20355494.963   -24298732.944 7 -18934068.220 8
        46.100          50.400
 09  1 21  0  9 30.0000000  0 10G 9G28G19G 3G 6G14G15G21G18G22
  21554516.853    21554516.072    21554515.352   -16287705.860 6 -12691710.513 6
        39.300          36.800
  25444201.298    25444199.231    25444198.573     -773636.003     -602833.258 1
         3.000          11.000
  22926339.418    22926338.088    22926335.815    -9867279.045 5  -7688784.808 5
        34.600          32.300
  23599907.251    23599906.051    23599905.213    -2660107.768 4  -2072807.553 4
        25.900          24.600
  23670015.545    23670015.165    23670015.396    -4796487.681 4  -3737519.158 3
        24.200          22.100
  22448817.719    22448817.134    22448815.708   -14558443.763 5 -11344236.604 5
        34.600          31.100
  24552968.750    24552967.897    24552966.912    -1885254.739 3  -1469020.813 4
        21.600          25.300
  22879023.304    22879022.876    22879020.505   -13671829.838 4 -10653367.864 4
        29.200          24.600
  20811157.805    20811157.231    20811155.248   -22915589.107 7 -17856294.804 7
        43.800          44.100
  20351693.559    20351693.227    20351690.076   -24318727.073 7 -18949648.056 8
        46.000          50.300
 09  1 21  0 10  0.0000000  0 10G 9G28G19G 3G 6G14G15G21G18G22
  21548397.081    21548396.589    21548395.919   -16319864.375 6 -12716769.089 6
        39.400          37.200
  25444328.654    25444327.150    25444324.866     -772969.403 1   -602313.864 1
         9.000          11.000
  22927444.190    22927443.057    22927441.243    -9861470.331 5  -7684258.543 5
        33.800          32.300
  23614814.904    23614814.598    23614815.278    -2581755.770 4  -2011754.056 3
        25.300          23.800
  23685236.908    23685236.421    23685235.887    -4716501.143 4  -3675192.010 3
        25.300          23.000
  22431287.383    22431286.563    22431285.772   -14650565.219 5 -11416019.536 5
        34.300          31.500
  24573195.362    24573195.604    24573194.813    -1778956.673 3  -1386191.149 4
        21.600          25.300
  22898862.975    22898862.491    22898860.152   -13567571.015 4 -10572127.243 4
        28.600          24.200
  20818823.934    20818823.294    20818821.625   -22875302.729 7 -17824902.817 7
        43.800          44.100
  20347964.506    20347964.206    20347961.121   -24338323.366 7 -18964917.894 8
        46.100          50.400
 09  1 21  0 10 30.0000000  0 10G 9G28G19G 3G 6G14G15G21G18G22
  21542410.158    21542409.748    21542409.404   -16351323.431 6 -12741282.629 6
        38.900          37.000
  25444553.931    25444553.483    25444550.392     -771790.243 1   -601394.990 1
        11.000          11.000
  22928661.779    22928660.517    22928658.784    -9855072.639 5  -7679273.322 5
        34.400          32.100
  23629789.962    23629789.686    23629790.065    -2503063.011 4  -1950435.024 3
        25.300          23.800
  23700514.605    23700513.631    23700511.946    -4636224.583 4  -3612638.868 3
        26.200          23.400
  22413813.908    22413813.427    22413812.482   -14742387.259 5 -11487569.154 5
        34.500          31.100
  24593442.483    24593442.602    24593441.163    -1672559.039 3  -1303283.897 4
        22.100          25.600
  22918751.467    22918751.026    22918748.967   -13463054.026 4 -10490685.439 3
        28.400          23.800
  20826559.468    20826558.913    20826557.176   -22834652.215 7 -17793227.086 7
        43.800          44.100
  20344309.607    20344309.324    20344306.469   -24357529.609 7 -18979883.787 8
        46.100          50.600
 09  1 21  0 11  0.0000000  0 10G 9G28G19G 3G 6G14G15G21G18G22
  21536557.108    21536556.567    21536555.793   -16382082.626 6 -12765250.817 6
        39.000          36.300
  25444874.374    25444873.662    25444871.601     -770100.249 1   -600078.078 1
         9.000           9.000
  22929990.802    22929989.624    22929987.648    -9848088.039 5  -7673830.772 5
        34.500          31.600
  23644829.465    23644828.733    23644829.475    -2424033.945 4  -1888853.960 4
        25.600          24.200
  23715843.694    23715843.124    23715842.181    -4555662.435 4  -3549863.172 3
        25.900          23.000
  22396397.990    22396397.406    22396396.327   -14833909.863 5 -11558885.459 5
        34.600          31.500
  24613708.248    24613707.774    24613705.975    -1566065.484 3  -1220301.893 4
        23.400          25.600
  22938689.491    22938688.395    22938686.653   -13358283.034 4 -10409045.730 3
        28.100          23.800
  20834363.894    20834363.204    20834361.514   -22793640.099 7 -17761269.592 7
        43.700          44.000
  20340728.852    20340728.530    20340725.585   -24376346.671 7 -18994546.430 8
        46.100          50.500
 09  1 21  0 11 30.0000000  0 10G 9G28G19G 3G 6G14G15G21G18G22
  21530837.269    21530836.838    21530836.130   -16412140.203 6 -12788672.302 6
        39.100          36.500
  25445293.534    25445293.493    25445291.755     -767899.195 1   -598362.913 2
         9.000          12.600
  22931431.670    22931430.121    22931428.393    -9840516.560 5  -7667930.919 5
        34.100          31.500
  23659932.370    23659931.627    23659931.581    -2344670.509 4  -1827012.351 4
        25.900          24.200
  23731228.446    23731227.499    23731226.767    -4474817.011 4  -3486866.753 3
        25.600          23.800
  22379038.926    22379038.427    22379037.623   -14925131.170 5 -11629966.974 5
        34.900          32.000
  24633990.250    24633990.484    24633988.977    -1459477.688 3  -1137246.475 4
        23.000          26.500
  22958674.690    22958674.024    22958671.847   -13253259.283 4 -10327209.056 3
        28.400          23.400
  20842236.980    20842236.391    20842234.753   -22752265.857 7 -17729029.917 7
        43.600          43.800
  20337222.677    20337222.265    20337219.108   -24394773.264 7 -19008904.809 8
        46.100          50.500
 09  1 21  0 12  0.0000000  0 10G 9G28G19G 3G 6G14G15G21G18G22
  21525252.012    21525251.500    21525250.859   -16441492.225 6 -12811543.987 6
        39.300          36.900
  25445808.159    25445808.674    25445809.464     -765184.078 2   -596247.287 2
        12.600          13.900
  22932984.807    22932983.277    22932981.574    -9832356.067 5  -7661572.081 5
        34.600          32.100
  23675096.935    23675096.920    23675097.619    -2264973.906 4  -1764911.119 4
        24.600          24.600
  23746666.229    23746665.838    23746665.912    -4393688.695 4  -3423649.901 4
        24.900          25.300
  22361738.141    22361737.671    22361736.909   -15016046.944 5 -11700810.413 5
        35.300          32.300
  24654290.161    24654291.494    24654290.395    -1352794.875 3  -1054117.008 4
        22.100          27.100
  22978707.928    22978707.487    22978705.489   -13147982.787 4 -10245175.424 3
        28.400          23.000
  20850179.409    20850178.764    20850177.189   -22710527.792 7 -17696506.748 7
        43.600          43.600
  20333790.713    20333790.469    20333787.370   -24412806.514 7 -19022956.686 8
        46.100          50.500
 09  1 21  0 12 30.0000000  0 10G 9G28G19G 3G 6G14G15G21G18G22
  21519801.390    21519800.880    21519799.919   -16470135.305 6 -12833863.260 6
        39.700          36.700
  25446424.153    25446423.240    25446422.667     -761953.458 1   -593729.970 1
         9.000          11.000
  22934650.131    22934648.878    22934646.744    -9823605.275 5  -7654753.289 5
        34.900          32.300
  23690327.315    23690326.430    23690326.654    -2184944.778 4  -1702550.779 4
        25.300          24.200
  23762156.750    23762156.860    23762157.427    -4312278.300 3  -3360213.254 4
        23.800          25.300
  22344496.001    22344495.821    22344494.635   -15106653.740 5 -11771413.095 5
        35.300          31.600
  24674609.013    24674610.299    24674609.615    -1246017.170 3   -970913.582 4
        21.100          27.600
  22998789.789    22998788.949    22998787.618   -13042453.724 4 -10162944.996 4
        27.900          24.200
  20858191.836    20858191.180    20858189.187   -22668424.356 7 -17663698.871 7
        44.000          43.500
  20330434.439    20330434.154    20330431.109   -24430444.116 7 -19036700.267 8
        46.100          50.500
 09  1 21  0 13  0.0000000  0 10G 9G28G19G 3G 6G14G15G21G18G22
  21514486.219    21514485.838    21514485.396   -16498064.836 6 -12855626.527 6
        39.300          36.900
  25447138.037    25447136.831    25447135.570     -758203.774 1   -590808.156 1
        11.000          11.000
  22936427.646    22936426.642    22936424.546    -9814261.193 5  -7647472.177 5
        34.400          32.300
  23705619.899    23705619.144    23705618.931    -2104582.459 4  -1639930.794 4
        25.900          24.200
  23777703.679    23777703.078    23777702.955    -4230585.070 4  -3296556.214 4
        24.600          24.600
  22327314.119    22327313.529    22327312.634   -15196946.489 5 -11841771.063 5
        35.400          32.100
  24694946.994    24694947.408    24694947.122    -1139142.939 3   -887634.944 4
        21.100          27.400
  23018919.660    23018918.969    23018917.461   -12936670.442 4 -10080516.498 3
        28.100          23.800
  20866273.605    20866272.977    20866271.389   -22625952.600 7 -17630603.991 7
        43.800          43.500
  20327154.395    20327154.015    20327150.718   -24447682.024 7 -19050132.398 8
        46.200          50.500
 09  1 21  0 13 30.0000000  0 10G 9G28G19G 3G 6G14G15G21G18G22
  21509305.870    21509305.602    21509304.880   -16525287.655 6 -12876839.094 6
        39.500          36.700
  25447950.152    25447949.388    25447946.916     -753943.275 2   -587488.281 1
        13.900           9.000
  22938317.254    22938316.114    22938314.006    -9804332.655 5  -7639735.673 5
        34.700          32.600
  23720973.083    23720972.616    23720972.666    -2023898.178 4  -1577059.934 4
        25.600          24.600
  23793301.283    23793300.696    23793300.353    -4148620.108 4  -3232687.411 3
        25.600          23.800
  22310190.084    22310189.808    22310189.197   -15286931.602 5 -11911889.303 5
        35.500          32.400
  24715301.518    24715301.621    24715300.316    -1032182.234 3   -804288.933 4
        19.900          26.800
  23039095.833    23039095.200    23039093.622   -12830643.744 4  -9997898.303 3
        27.900          23.400
  20874424.136    20874423.558    20874421.797   -22583121.470 7 -17597229.081 7
        43.800          43.400
  20323948.453    20323948.190    20323945.116   -24464528.093 7 -19063259.198 8
        46.300          50.600
 09  1 21  0 14  0.0000000  0 10G 9G28G19G 3G 6G14G15G21G18G22
  21504259.149    21504258.740    21504257.954   -16551809.140 6 -12897505.179 6
        39.500          36.500
  25448856.417    25448855.542    25448854.178     -749179.075 1   -583775.909 1
        11.000           9.000
  22940317.158    22940315.498    22940313.157    -9793827.054 5  -7631549.496 5
        35.500          32.400
  23736385.455    23736385.227    23736385.421    -1942901.860 4  -1513945.917 4
        24.600          24.600
  23808948.405    23808947.718    23808947.170    -4066392.923 4  -3168614.289 4
        25.300          24.600
  22293124.574    22293124.127    22293123.041   -15376614.384 5 -11981771.970 5
        35.900          32.400
  24735670.423    24735669.735    24735669.370     -925143.718 2   -720882.291 4
        17.800          26.200
  23059317.330    23059316.017    23059314.186   -12724382.869 4  -9915097.640 3
        27.600          22.600
  20882641.656    20882641.081    20882639.329   -22539938.181 7 -17563579.759 7
        43.800          43.300
  20320816.349    20320815.965    20320812.739   -24480988.485 7 -19076085.472 8
        46.200          50.600
 09  1 21  0 14 30.0000000  0 10G 9G28G19G 3G 6G14G15G21G18G22
  21499348.328    21499347.828    21499347.254   -16577615.508 6 -12917614.030 6
        39.300          36.700
  25449860.546    25449859.229    25449858.276     -743898.817 1   -579661.297 1
         6.500           9.000
  22942428.135    22942426.530    22942425.039    -9782732.341 5  -7622904.267 5
        35.600          33.400
  23751860.524    23751859.837    23751859.901    -1861583.881 4  -1450581.287 4
        24.900          24.900
  23824646.747    23824646.408    23824647.126    -3983893.972 3  -3104329.418 4
        23.400          25.900
  22276118.696    22276118.107    22276117.191   -15465981.069 5 -12051408.320 5
        35.800          32.600
  24756055.757    24756056.233    24756054.379     -818017.200 2   -637407.090 4
        17.800          25.600
  23079583.800    23079583.266    23079582.086   -12617876.654 4  -9832105.804 3
        28.100          22.100
  20890928.595    20890928.018    20890926.042   -22496390.776 7 -17529646.711 7
        44.000          43.200
  20317759.506    20317759.271    20317756.222   -24497050.615 7 -19088601.410 8
        46.300          50.600
 09  1 21  0 15  0.0000000  0 10G 9G28G19G 3G 6G14G15G21G18G22
  21494574.143    21494573.764    21494573.173   -16602703.675 6 -12937163.241 6
        39.300          36.800
  25450962.786    25450962.677    25450963.255     -738100.977 1   -575143.535 2
         6.500          12.600
  22944651.887    22944650.342    22944648.824    -9771047.992 6  -7613799.585 5
        36.000          33.900
  23767396.523    23767395.509    23767395.377    -1779945.450 4  -1386966.920 4
        25.600          25.300
  23840397.431    23840396.859    23840398.134    -3901124.171 3  -3039833.477 4
        22.100          25.900
  22259173.359    22259172.940    22259171.907   -15555027.925 6 -12120795.454 5
        36.000          32.300
  24776458.546    24776459.085    24776456.646     -710802.273 2   -553862.984 4
        17.000          24.900
  23099897.510    23099897.375    23099896.241   -12511126.027 4  -9748923.503 3
        28.100          22.600
  20899284.940    20899284.280    20899282.494   -22452477.809 7 -17495428.809 7
        43.900          43.100
  20314779.406    20314779.105    20314775.986   -24512712.036 7 -19100805.109 8
        46.400          50.700
 09  1 21  0 15 30.0000000  0 10G14G28G19G 3G 6G15G 9G21G18G22
  22242288.510    22242287.863    22242286.962   -15643759.180 6 -12189936.671 5
        36.000          32.400
  25452164.019    25452164.128    25452162.677     -731791.118 1   -570226.767 2
         9.000          13.900
  22946986.056    22946984.552    22946982.944    -9758779.393 5  -7604239.643 5
        35.500          33.800
  23782990.924    23782990.097    23782990.080    -1697994.978 4  -1323109.426 4
        24.900          25.600
  23856198.245    23856197.558    23856198.023    -3818092.058 3  -2975133.140 4
        21.100          24.900
  24796875.945    24796877.158    24796873.836     -603506.675 2   -470256.016 3
        16.100          23.800
  21489936.140    21489935.610    21489934.553   -16627078.181 6 -12956156.354 6
        39.300          36.900
  23120257.385    23120256.424    23120254.994   -12404138.721 4  -9665556.773 3
        27.100          21.600
  20907709.510    20907708.953    20907707.119   -22408205.775 7 -17460931.117 7
        44.000          42.900
  20311874.265    20311874.056    20311870.917   -24527978.057 7 -19112700.704 8
        46.400          50.700
 09  1 21  0 16  0.0000000  0 10G 9G28G19G 3G 6G14G15G21G18G22
  21485433.387    21485433.035    21485432.723   -16650738.478 6 -12974592.937 6
        39.300          37.300
  25453461.328    25453461.549    25453460.063     -724970.133 1   -564911.724 2
         9.000          12.600
  22949431.654    22949430.002    22949428.526    -9745928.126 5  -7594225.664 5
        35.300          33.900
  23798643.719    23798643.135    23798643.118    -1615735.849 4  -1259011.434 4
        24.200          24.900
  23872048.476    23872047.538    23872047.867    -3734800.919 3  -2910230.979 4
        22.100          24.600
  22225463.791    22225463.239    22225462.220   -15732173.639 6 -12258831.029 5
        36.300          33.000
  24817309.094    24817310.185    24817305.961     -496132.634 2   -386587.924 3
        17.000          22.600
  23140661.175    23140660.049    23140658.579   -12296917.569 4  -9582007.839 3
        26.200          21.600
  20916202.310    20916201.685    20916200.024   -22363575.488 7 -17426154.270 7
        43.900          43.000
  20309044.660    20309044.389    20309041.158   -24542848.742 7 -19124288.242 8
        46.500          50.600
 09  1 21  0 16 30.0000000  0 10G28G19G 3G 6G14G15G 9G21G18G22
  25454854.567    25454857.013    25454854.482     -717640.049     -559199.964 1
         3.000           9.000
  22951987.264    22951985.852    22951984.031    -9732496.614 5  -7583759.551 5
        35.500          33.600
  23814356.088    23814355.446    23814354.536    -1533172.600 4  -1194676.439 4
        24.600          25.300
  23887947.925    23887946.778    23887946.279    -3651255.175 3  -2845130.406 4
        23.400          24.200
  22208699.465    22208698.891    22208697.698   -15820271.588 6 -12327478.750 5
        36.500          33.100
  24837756.928    24837756.697    24837753.139     -388683.887 2   -302861.626 3
        16.100          21.600
  21481066.993    21481066.480    21481065.560   -16673684.598 6 -12992473.023 6
        39.300          36.600
  23161107.735    23161107.101    23161105.660   -12189466.191 4  -9498279.517 3
        26.200          21.600
  20924763.050    20924762.386    20924760.559   -22318589.362 7 -17391100.142 7
        44.000          42.700
  20306289.793    20306289.499    20306286.153   -24557325.433 7 -19135568.775 8
        46.400          50.600
 09  1 21  0 17  0.0000000  0 10G14G28G19G 3G 6G15G 9G21G18G22
  22191993.205    22191992.714    22191991.410   -15908063.342 6 -12395887.891 5
        36.500          33.000
  25456347.505    25456346.482    25456343.860     -709812.662 1   -553100.710 1
         9.000          11.000
  22954651.652    22954650.143    22954648.224    -9718497.093 6  -7572850.849 5
        36.000          33.500
  23830122.040    23830121.156    23830120.691    -1450320.492 4  -1130116.372 4
        24.600          25.300
  23903889.452    23903888.934    23903889.891    -3567469.511 3  -2779842.881 4
        23.000          24.600
  24858215.822    24858215.062    24858211.698     -281174.050 2   -219087.723 3
        16.100          21.100
  21476834.657    21476834.057    21476833.367   -16695927.526 6 -13009805.163 6
        39.700          37.000
  23181597.222    23181595.908    23181593.751   -12081798.444 4  -9414382.592 3
        26.200          22.100
  20933388.947    20933388.284    20933386.476   -22273259.586 7 -17355778.233 7
        44.000          42.700
  20303607.818    20303607.485    20303604.254   -24571419.371 7 -19146551.057 8
        46.300          50.600
 09  1 21  0 17 30.0000000  0 10G14G28G19G 3G 6G15G 9G21G18G22
  22175351.930    22175351.443    22175350.026   -15995514.287 6 -12464031.463 5
        37.000          33.400
  25457936.617    25457936.462    25457934.668     -701455.649 2   -546588.851 2
        12.600          12.600
  22957429.903    22957428.688    22957426.561    -9703897.847 5  -7561474.809 5
        35.900          33.900
  23845947.960    23845947.587    23845947.553    -1367149.553 4  -1065307.850 4
        24.600          24.900
  23919885.082    23919884.661    23919885.063    -3483414.154 4  -2714345.213 4
        24.200          24.200
  24878691.063    24878691.033    24878687.894     -173572.158 2   -135242.084 3
        15.100          21.100
  21472742.096    21472741.550    21472740.726   -16717433.400 6 -13026562.977 6
        39.700          36.800
  23202131.624    23202131.007    23202128.899   -11973884.224 4  -9330293.615 3
        26.200          21.100
  20942086.495    20942085.900    20942083.959   -22227553.995 7 -17320163.487 7
        44.100          42.600
  20301004.867    20301004.527    20301001.493   -24585097.306 7 -19157209.182 8
        46.300          50.700
 09  1 21  0 18  0.0000000  0 10G14G28G19G 3G 6G15G 9G21G18G22
  22158771.006    22158770.709    22158769.965   -16082643.551 6 -12531924.380 5
        36.600          33.500
  25459620.234    25459621.477    25459623.431     -692589.976     -539680.544 2
         3.000          13.900
  22960317.543    22960316.341    22960314.606    -9688720.227 5  -7549648.095 5
        35.400          33.600
  23861830.699    23861830.655    23861830.736    -1283683.060 3  -1000269.053 4
        23.400          24.600
  23935927.654    23935927.019    23935927.013    -3399112.250 4  -2648655.433 3
        24.200          23.800
  24899180.405    24899180.225    24899177.164      -65900.624 2    -51342.159 3
        15.100          20.500
  21468785.868    21468785.335    21468784.934   -16738221.585 6 -13042761.552 6
        39.300          37.100
  23222708.977    23222709.293    23222707.031   -11865746.005 4  -9246030.079 3
        26.500          20.500
  20950851.406    20950850.773    20950849.030   -22181493.859 7 -17284272.464 7
        44.000          42.600
  20298477.418    20298477.124    20298473.987   -24598379.323 7 -19167558.798 8
        46.600          50.700
 09  1 21  0 18 30.0000000  0 10G14G28G19G 3G 6G15G 9G21G18G22
  22142253.611    22142253.156    22142252.162   -16169442.648 6 -12599560.025 5
        36.500          33.200
  25461407.980    25461408.028    25461408.681     -683208.919     -532370.590 1
         3.000          11.000
  22963317.180    22963315.936    22963313.950    -9672958.037 6  -7537365.884 5
        36.000          33.400
  23877771.178    23877770.580    23877771.082    -1199917.412 3   -934997.144 4
        23.400          24.600
  23952016.900    23952016.394    23952016.937    -3314559.734 3  -2582770.373 3
        23.400          23.800
  24919683.447    24919683.253    24919680.517       41845.526 2     32615.884 3
        15.100          19.900
  21464968.107    21464967.762    21464967.139   -16758284.104 6 -13058394.679 6
        39.500          37.200
  23243330.716    23243330.739    23243328.777   -11757379.361 4  -9161588.538 3
        26.800          21.100
  20959684.908    20959684.282    20959682.490   -22135072.833 7 -17248100.237 7
        44.000          42.200
  20296026.789    20296026.381    20296023.183   -24611258.275 7 -19177594.342 8
        46.500          50.700
 09  1 21  0 19  0.0000000  0 10G14G28G19G 3G 6G15G 9G21G18G22
  22125798.250    22125797.719    22125796.372   -16255918.446 6 -12666943.742 5
        36.800          33.400
  25463291.717    25463291.473    25463289.425     -673320.921 1   -524665.649 1
        11.000           6.500
  22966426.462    22966424.955    22966423.131    -9656620.077 5  -7524635.006 5
        35.700          33.100
  23893766.434    23893765.530    23893766.202    -1115863.228 3   -869500.399 4
        22.600          24.900
  23968152.037    23968152.304    23968152.876    -3229767.805 3  -2516698.743 3
        23.000          23.800
  24940199.733    24940199.633    24940196.469      149656.672 2    116624.579 3
        16.100          20.500
  21461287.080    21461286.541    21461286.200   -16777628.442 6 -13073468.179 6
        39.500          37.300
  23263994.998    23263994.078    23263992.082   -11648794.420 4  -9076976.913 3
        26.500          21.100
  20968585.586    20968585.001    20968583.058   -22088299.383 7 -17211653.386 6
        43.900          41.900
  20293651.094    20293650.851    20293647.642   -24623741.879 7 -19187321.817 8
        46.600          50.800
 09  1 21  0 19 30.0000000  0 10G14G28G19G 3G 6G15G 9G21G18G22
  22109404.211    22109403.538    22109402.150   -16342071.290 6 -12734075.814 5
        36.900          33.800
  25465269.183    25465268.857    25465266.321     -662928.424 1   -516567.612 1
        11.000          11.000
  22969643.699    22969642.396    22969640.688    -9639709.732 5  -7511458.104 5
        34.400          32.300
  23909815.329    23909814.791    23909814.919    -1031526.272 3   -803783.332 3
        23.000          23.400
  23984331.653    23984331.866    23984332.200    -3144741.304 3  -2450444.361 3
        22.100          22.100
  24960727.557    24960727.231    24960723.772      257528.132 2    200680.268 3
        17.000          19.900
  21457742.516    21457742.071    21457741.390   -16796255.678 6 -13087982.901 6
        40.000          37.100
  23284697.681    23284697.716    23284695.645   -11539995.627 4  -8992198.653 3
        26.200          21.100
  20977553.132    20977552.510    20977550.381   -22041176.409 7 -17174934.177 7
        44.100          42.100
  20291350.410    20291350.089    20291346.953   -24635832.084 7 -19196742.752 8
        46.500          50.800
 09  1 21  0 20  0.0000000  0 10G28G19G 3G 6G14G15G 9G21G18G22
  25467343.108    25467342.835    25467343.002     -652027.085 1   -508073.097 2
         9.000          13.900
  22972970.638    22972969.790    22972968.188    -9622222.587 5  -7497831.763 5
        33.800          31.500
  23925917.631    23925917.858    23925917.533     -946904.405 3   -737844.220 3
        23.800          21.600
  24000557.420    24000556.610    24000557.405    -3059478.174 3  -2384005.581 3
        22.100          20.500
  22093072.432    22093071.813    22093070.550   -16427894.930 6 -12800951.353 5
        37.200          33.900
  24981266.123    24981266.348    24981263.249      365463.690 2    284785.898 3
        17.800          19.900
  21454335.497    21454334.977    21454334.321   -16814159.989 6 -13101934.302 6
        40.000          36.900
  23305443.620    23305442.886    23305440.874   -11430980.074 4  -8907251.479 3
        25.900          21.100
  20986587.534    20986586.964    20986584.989   -21993699.636 7 -17137939.290 7
        44.100          42.200
  20289125.634    20289125.324    20289122.058   -24647523.426 7 -19205852.881 8
        46.500          50.700
 09  1 21  0 20 30.0000000  0 10G28G19G 3G 6G14G15G 9G21G18G22
  25469512.690    25469511.812    25469511.839     -640617.395 1   -499182.436 1
         9.000          11.000
  22976409.272    22976407.791    22976405.432    -9604159.856 5  -7483756.901 5
        34.700          31.600
  23942074.720    23942074.370    23942073.995     -862000.841 3   -671685.596 3
        23.800          20.500
  24016826.320    24016826.412    24016826.557    -2973981.565 3  -2317384.851 3
        22.100          20.500
  22076803.129    22076802.757    22076801.737   -16513388.129 6 -12867569.417 5
        37.100          33.900
  25001816.913    25001817.115    25001814.538      473461.234 2    368939.843 3
        17.800          18.600
  21451066.252    21451065.711    21451064.779   -16831340.467 6 -13115321.674 6
        40.100          36.500
  23326229.467    23326228.885    23326226.649   -11321750.263 4  -8822137.356 3
        26.500          21.100
  20995689.199    20995688.650    20995686.511   -21945869.906 7 -17100669.367 7
        44.100          42.000
  20286976.804    20286976.466    20286973.341   -24658815.569 7 -19214651.948 8
        46.600          50.900
 09  1 21  0 21  0.0000000  0 10G28G19G 3G 6G14G15G 9G21G18G22
  25471780.384    25471779.805    25471778.001     -628699.436 1   -489895.705 1
        11.000           9.000
  22979955.506    22979954.085    22979952.151    -9585522.045 5  -7469233.928 5
        34.400          32.000
  23958284.670    23958284.003    23958283.930     -776817.774 3   -605309.191 3
        23.000          19.900
  24033138.893    24033139.691    24033139.718    -2888253.889 3  -2250584.085 3
        21.600          20.500
  22060597.296    22060597.011    22060596.163   -16598548.964 6 -12933928.489 5
        37.200          34.100
  25022380.756    25022380.137    25022376.829      581519.275 2    453140.923 3
        17.800          18.600
  21447934.622    21447934.354    21447933.421   -16847796.123 6 -13128144.258 6
        40.000          36.500
  23347055.766    23347054.935    23347052.609   -11212308.385 4  -8736857.990 3
        26.200          21.600
  21004857.877    21004857.271    21004855.454   -21897687.432 7 -17063124.573 6
        44.000          41.900
  20284904.017    20284903.725    20284900.551   -24669708.003 7 -19223139.553 8
        46.600          50.900
 09  1 21  0 21 30.0000000  0 10G28G19G 3G 6G14G15G 9G21G18G22
  25474146.856    25474146.526    25474143.157     -616274.954 2   -480214.293 1
        16.100          11.000
  22983611.274    22983609.623    22983608.060    -9566311.376 5  -7454264.582 5
        33.400          32.600
  23974546.438    23974545.957    23974545.900     -691360.158 3   -538718.830 3
        22.600          19.900
  24049497.251    24049497.028    24049497.245    -2802299.037 3  -2183606.301 3
        22.100          21.100
  22044455.461    22044454.982    22044453.814   -16683376.977 6 -13000028.227 5
        37.500          34.100
  25042955.614    25042954.794    25042950.489      689635.083 2    537387.000 2
        16.100          17.800
  21444941.058    21444940.735    21444939.936   -16863527.070 6 -13140402.131 6
        39.800          36.800
  23367921.268    23367920.807    23367918.802   -11102657.503 4  -8651415.761 3
        26.200          22.100
  21014093.275    21014092.810    21014091.275   -21849153.676 7 -17025306.056 7
        43.900          42.000
  20282907.245    20282906.956    20282903.731   -24680201.332 7 -19231316.167 8
        46.600          50.900
 09  1 21  0 22  0.0000000  0 10G28G19G 3G 6G14G15G 9G21G18G22
  25476608.803    25476607.630    25476605.235     -603339.678 2   -470134.832 1
        12.600          11.000
  22987377.272    22987375.807    22987373.887    -9546524.067 5  -7438845.893 5
        34.400          33.400
  23990861.291    23990860.555    23990860.566     -605625.632 3   -471912.716 3
        23.000          19.900
  24065897.302    24065897.038    24065897.920    -2716115.464 3  -2116450.271 3
        23.000          21.600
  22028377.923    22028377.358    22028376.197   -16767866.055 6 -13065863.855 5
        37.600          34.400
  25063539.723    25063539.229    25063535.829      797810.983 2    621679.909 2
        15.100          17.000
  21442086.497    21442086.111    21442085.285   -16878527.979 6 -13152091.138 6
        39.800          37.000
  23388827.091    23388826.516    23388824.965   -10992795.377 4  -8565808.922 3
        24.600          22.100
  21023396.740    21023396.184    21023394.462   -21800264.859 7 -16987210.872 6
        43.900          41.900
  20280987.412    20280987.053    20280983.842   -24690290.574 7 -19239177.906 8
        46.500          51.000
 09  1 21  0 22 30.0000000  0 10G28G19G 3G 6G14G15G 9G21G18G22
  25479168.263    25479166.064    25479165.630     -589891.079 1   -459655.399 2
         6.500          13.900
  22991252.393    22991250.994    22991249.378    -9526158.317 5  -7422976.483 5
        34.700          33.400
  24007228.678    24007228.176    24007227.412     -519614.859 3   -404891.362 3
        23.400          20.500
  24082340.871    24082341.172    24082341.370    -2629703.219 3  -2049116.052 3
        22.100          21.600
  22012365.200    22012364.788    22012363.935   -16852011.962 6 -13131432.081 5
        37.700          34.600
  25084134.500    25084136.092    25084132.470      906048.224 2    706020.627 2
        13.900          16.100
  21439371.467    21439371.026    21439370.491   -16892795.519 6 -13163208.692 6
        39.700          37.000
  23409773.324    23409772.621    23409771.117   -10882721.618 3  -8480037.189 3
        23.400          21.100
  21032767.947    21032767.324    21032765.699   -21751018.690 7 -16948837.233 6
        43.700          41.800
  20279144.507    20279144.360    20279141.230   -24699972.767 7 -19246722.467 8
        46.500          50.900
 09  1 21  0 23  0.0000000  0 10G28G19G 3G 6G14G15G 9G21G18G22
  25481823.431    25481821.796    25481820.497     -575937.805 2   -448782.737 2
        12.600          12.600
  22995236.159    22995234.911    22995233.143    -9505222.800 5  -7406663.101 5
        34.500          32.800
  24023646.403    24023646.221    24023646.013     -433338.476 3   -337663.035 3
        23.000          21.100
  24098826.775    24098825.764    24098826.212    -2543072.710 3  -1981611.782 3
        22.100          21.600
  21996417.039    21996416.368    21996415.503   -16935821.125 6 -13196737.904 5
        37.700          34.700
  25104740.440    25104740.965    25104739.083     1014337.258 2    790401.719 2
        12.600          15.100
  21436794.881    21436794.424    21436793.845   -16906336.363 6 -13173759.992 6
        40.200          37.200
  23430757.988    23430757.414    23430756.286   -10772445.883 3  -8394108.069 3
        23.400          21.600
  21042205.666    21042205.080    21042203.356   -21701423.507 7 -16910191.634 6
        43.800          41.600
  20277378.320    20277378.027    20277374.972   -24709255.396 7 -19253955.678 8
        46.600          51.000
 09  1 21  0 23 30.0000000  0 10G28G19G 3G 6G14G15G 9G21G18G22
  25484575.524    25484573.251    25484572.151     -561480.402 2   -437517.282 2
        12.600          12.600
  22999328.322    22999326.848    22999325.070    -9483718.987 5  -7389906.877 5
        34.500          32.300
  24040114.004    24040113.209    24040114.260     -346799.596 3   -270230.152 3
        21.600          20.500
  24115352.044    24115352.140    24115352.869    -2456227.220 3  -1913939.984 3
        21.100          21.100
  21980532.509    21980532.204    21980531.199   -17019292.432 6 -13261780.462 5
        37.800          34.700
  25125356.108    25125357.004    25125354.534     1122676.114 1    874821.622 2
         6.500          12.600
  21434356.541    21434356.019    21434355.383   -16919150.094 6 -13183744.712 6
        40.100          37.200
  23451780.161    23451780.140    23451779.083   -10661970.972 3  -8308023.760 3
        23.400          21.100
  21051709.703    21051709.100    21051707.314   -21651480.266 7 -16871274.819 6
        44.000          41.600
  20275688.029    20275687.754    20275684.622   -24718138.109 7 -19260877.269 8
        46.600          51.000
 09  1 21  0 24  0.0000000  0 10G28G19G 3G 6G14G15G 9G21G18G22
  25487422.583    25487419.110    25487418.895     -546516.531 1   -425857.217 2
         6.500          12.600
  23003529.089    23003527.500    23003526.054    -9461644.775 5  -7372706.193 5
        35.200          33.000
  24056632.802    24056631.691    24056632.243     -259998.144 3   -202592.679 3
        22.100          21.100
  24131919.979    24131919.572    24131919.228    -2369166.601 3  -1846100.540 3
        20.500          20.500
  21964713.829    21964713.581    21964712.236   -17102421.117 6 -13326556.049 5
        38.300          34.700
  25145980.254    25145982.142    25145980.387     1231066.224      959281.444 1
         3.000          11.000
  21432056.914    21432056.627    21432055.911   -16931233.052 6 -13193159.991 6
        40.000          36.900
  23472841.615    23472840.999    23472839.785   -10551295.837 4  -8221783.400 3
        24.600          19.900
  21061279.912    21061279.365    21061277.739   -21601186.673 7 -16832084.998 6
        43.600          41.300
