     2.11           OBSERVATION DATA    G (GPS)             RINEX VERSION / TYPE
teqc  2008Oct2      WCDA Operator       20090106 00:18:57UTCPGM / RUN BY / DATE
Solaris x86 5.10|AMD64|cc SC5.8 -xarch=amd64|=+|=+          COMMENT
teqc  2008Oct2      WCDA Operator       20090105 01:18:36UTCCOMMENT
flin  WCDA-ACP   965000   CFS Flin Flon SASK Canada         MARKER NAME
40135M001                                                   MARKER NUMBER
PGC-WCDA            GEOL. SURV. CANADA                      OBSERVER / AGENCY
1115                AOA BENCHMARK ACT   3.3.32.4            REC # / TYPE / VERS
231                 AOAD/M_T        SCIS                    ANT # / TYPE
  -766174.4630 -3611375.3160  5184056.2210                  APPROX POSITION XYZ
        0.1500        0.0000        0.0000                  ANTENNA: DELTA H/E/N
     1     1                                                WAVELENGTH FACT L1/2
     7    C1    P1    P2    L1    L2    S1    S2            # / TYPES OF OBSERV
STATION INFORMATION EFFECTIVE FROM: 2001/01/13 18:20:00     COMMENT
                                TO: CURRENT DATE (above)    COMMENT
BIT 2 OF LLI FLAGS (+4) DATA COLLECTED UNDER 'AS' CONDITION COMMENT
L1 PHASE CENTRE 0.110m ABOVE ARP                            COMMENT
L2 PHASE CENTRE 0.128m ABOVE ARP                            COMMENT
where ARP is the Antenna Reference Point for HI measurement COMMENT
CONTACT gps@pgc.nrcan.gc.ca FOR ADDITIONAL INFORMATION      COMMENT
    P1 =    P1  TurboRogue; =    Y1  Benchmark              COMMENT
    L1 = L1(CA)                                             COMMENT
    P2 =    P2  TurboRogue; =    Y2  Benchmark              COMMENT
    L2 = L2(P2) TurboRogue; = L2(Y2) Benchmark              COMMENT
 SNR is mapped to RINEX snr flag value [0-9]                COMMENT
  L1 & L2: min(max(int(snr_dBHz/6), 0), 9)                  COMMENT
  2009     1     5     0     0    0.0000000     GPS         TIME OF FIRST OBS
                                                            END OF HEADER
 09  1  5  0  0  0.0000000  0 10G24G 9G26G15G21G22G 3G 6G18G19
  23984780.541    23984779.799    23984779.801    -3991692.726 3  -3110402.490 3
        18.600          18.600
  23721367.485    23721366.495    23721366.573    -5960082.748 3  -4644217.009 3
        19.900          20.500
  22966783.077    22966782.581    22966782.374    -7087090.132 3  -5522396.514 4
        21.600          25.300
  21946102.365    21946102.139    21946100.541   -15167620.183 6 -11818911.233 6
        36.700          38.400
  20656745.637    20656744.773    20656743.110   -25748058.165 6 -20063410.964 7
        40.700          42.300
  21689899.143    21689898.596    21689895.678   -18249320.743 6 -14220241.413 6
        37.700          38.000
  22368536.796    22368535.853    22368535.749   -11420248.832 5  -8898891.663 5
        30.600          31.100
  22269498.489    22269497.795    22269497.335   -12523849.285 5  -9758839.999 5
        33.100          32.600
  20477421.167    20477420.304    20477419.229   -25469766.121 6 -19846563.075 7
        38.200          46.700
  23936754.755    23936753.570    23936752.708    -5779308.814 3  -4503355.008 3
        21.100          23.800
 09  1  5  0  0 30.0000000  0 10G24G 9G26G15G21G22G 3G 6G18G19
  24004334.955    24004333.996    24004334.449    -3888936.579 2  -3030332.761 3
        17.800          19.900
  23700926.218    23700925.430    23700924.720    -6067502.420 3  -4727920.619 3
        19.300          19.300
  22987125.445    22987125.201    22987124.381    -6980190.044 3  -5439097.741 4
        22.100          24.900
  21958542.783    21958542.641    21958541.289   -15102244.853 6 -11767969.416 6
        36.800          38.400
  20665316.759    20665315.899    20665314.332   -25703016.099 6 -20028313.248 7
        40.600          42.000
  21676406.452    21676405.878    21676403.050   -18320224.494 6 -14275491.075 6
        37.700          38.000
  22368862.206    22368861.492    22368861.528   -11418536.869 5  -8897557.654 5
        30.400          31.500
  22271617.235    22271616.609    22271616.485   -12512713.791 5  -9750162.988 5
        32.800          33.000
  20474272.787    20474271.947    20474269.679   -25486310.632 6 -19859454.898 7
        38.100          46.700
  23922695.807    23922694.066    23922691.897    -5853196.260 3  -4560929.620 3
        22.100          23.400
 09  1  5  0  1  0.0000000  0 10G24G 9G26G15G21G22G 3G 6G18G19
  24023914.131    24023912.947    24023913.721    -3786046.486 2  -2950158.710 3
        15.100          20.500
  23680532.833    23680531.257    23680530.997    -6174673.648 2  -4811430.632 3
        17.800          19.300
  23007530.795    23007530.217    23007529.338    -6872961.965 3  -5355543.382 4
        22.100          24.600
  21971067.097    21971067.149    21971065.565   -15036428.167 6 -11716683.673 6
        36.500          38.100
  20673979.877    20673979.020    20673977.224   -25657492.065 6 -19992839.968 6
        40.900          41.900
  21662966.947    21662966.384    21662963.472   -18390849.923 6 -14330523.865 6
        37.900          38.100
  22369305.210    22369304.336    22369304.602   -11416209.612 5  -8895744.197 5
        30.200          31.500
  22273844.528    22273843.839    22273843.847   -12501009.673 5  -9741042.892 5
        32.700          33.000
  20471198.148    20471197.318    20471196.327   -25502467.309 6 -19872044.508 7
        38.100          46.300
  23908714.137    23908713.376    23908710.786    -5926666.870 3  -4618179.449 3
        22.600          22.100
 09  1  5  0  1 30.0000000  0 10G24G 9G26G15G21G22G 3G 6G18G19
  24043519.621    24043518.804    24043519.678    -3683018.690 2  -2869877.342 3
        16.100          21.600
  23660186.529    23660185.878    23660185.983    -6281587.785 2  -4894740.318 3
        17.800          19.300
  23027998.288    23027997.654    23027996.661    -6765404.357 3  -5271732.263 3
        21.600          23.400
  21983676.213    21983676.106    21983674.629   -14970167.624 6 -11665052.076 6
        36.400          38.300
  20682735.478    20682734.576    20682732.797   -25611481.496 6 -19956987.572 6
        40.900          41.900
  21649581.225    21649580.675    21649577.923   -18461191.434 6 -14385335.415 6
        37.800          38.400
  22369865.708    22369865.028    22369865.005   -11413262.792 5  -8893447.968 5
        30.600          31.300
  22276180.769    22276180.139    22276179.904   -12488732.330 5  -9731476.136 5
        32.700          32.800
  20468198.468    20468197.635    20468195.303   -25518231.134 6 -19884328.005 7
        38.100          46.600
  23894813.292    23894811.995    23894810.962    -5999713.571 3  -4675098.936 3
        20.500          22.600
 09  1  5  0  2  0.0000000  0 10G24G 9G26G15G21G22G 3G 6G18G19
  24063150.822    24063149.624    24063151.309    -3579852.009 2  -2789487.751 3
        15.100          21.100
  23639892.116    23639891.281    23639890.556    -6388238.590 2  -4977844.827 3
        17.800          19.900
  23048528.303    23048527.972    23048526.861    -6657517.537 3  -5187664.598 3
        22.100          23.000
  21996369.705    21996369.517    21996368.113   -14903462.707 6 -11613074.217 6
        36.300          38.100
  20691583.826    20691582.985    20691581.267   -25564982.184 6 -19920754.337 6
        40.800          41.800
  21636250.452    21636249.935    21636247.148   -18531244.995 6 -14439922.589 6
        37.700          38.400
  22370545.472    22370544.623    22370544.382   -11409693.283 5  -8890666.528 5
        31.100          31.300
  22278626.686    22278626.111    22278625.793   -12475879.639 5  -9721461.049 5
        32.700          33.000
  20465273.924    20465273.158    20465272.046   -25533599.298 6 -19896303.188 7
        38.100          46.400
  23880995.459    23880993.377    23880991.852    -6072331.361 3  -4731684.204 3
        19.900          22.600
 09  1  5  0  2 30.0000000  0 10G24G 9G26G15G21G22G 3G 6G18G19
  24082808.294    24082806.639    24082807.989    -3476555.450 2  -2708996.948 3
        13.900          21.100
  23619646.343    23619645.193    23619645.486    -6494629.340 2  -5060746.682 3
        17.000          21.600
  23069119.345    23069119.088    23069117.794    -6549312.098 3  -5103348.643 3
        22.600          23.400
  22009146.025    22009145.888    22009144.468   -14836322.859 6 -11560757.445 6
        36.100          38.100
  20700523.924    20700523.064    20700521.282   -25518002.429 6 -19884146.736 6
        41.000          41.800
  21622973.311    21622972.809    21622969.958   -18601017.006 6 -14494290.374 6
        37.800          38.500
  22371341.383    22371340.531    22371340.507   -11405508.777 5  -8887405.864 5
        30.400          31.100
  22281180.575    22281179.883    22281179.610   -12462459.269 5  -9711003.619 5
        32.700          32.800
  20462423.424    20462422.606    20462420.233   -25548578.753 6 -19907975.486 7
        38.000          46.300
  23867257.449    23867256.287    23867254.237    -6144524.997 3  -4787938.983 3
        22.100          23.400
 09  1  5  0  3  0.0000000  0 10G24G 9G26G15G21G22G 3G 6G18G19
  24102489.276    24102488.562    24102489.763    -3373126.080 2  -2628402.678 3
        13.900          21.600
  23599451.544    23599450.320    23599451.351    -6600752.256 2  -5143439.800 3
        15.100          23.400
  23089770.755    23089770.461    23089769.285    -6440786.925 3  -5018783.562 3
        22.100          23.800
  22022005.498    22022005.326    22022003.800   -14768746.292 6 -11508100.371 6
        36.100          38.000
  20709556.079    20709555.182    20709553.430   -25470538.239 6 -19847161.657 6
        41.000          41.600
  21609750.663    21609750.085    21609747.363   -18670502.447 6 -14548434.851 6
        37.700          38.700
  22372255.594    22372254.770    22372254.613   -11400705.587 5  -8883663.107 5
        30.600          31.100
  22283842.568    22283842.147    22283842.212   -12448467.789 5  -9700101.168 5
        32.600          32.800
  20459647.833    20459646.929    20459645.897   -25563165.111 6 -19919341.473 7
        38.100          46.400
  23853601.626    23853600.035    23853598.209    -6216288.061 3  -4843858.250 3
        22.100          23.800
 09  1  5  0  3 30.0000000  0 10G24G 9G26G15G21G22G 3G 6G18G19
  24122196.961    24122196.021    24122197.408    -3269562.474 2  -2547703.794 3
        12.600          21.600
  23579309.182    23579308.546    23579308.797    -6706601.292 2  -5225919.503 3
        17.000          23.000
  23110482.636    23110482.685    23110481.933    -6331942.680 3  -4933969.851 4
        21.600          24.200
  22034947.875    22034947.798    22034946.465   -14700732.399 5 -11455102.524 6
        35.900          38.000
  20718680.692    20718679.815    20718678.103   -25422587.455 6 -19809797.406 6
        40.900          41.500
  21596583.287    21596582.685    21596579.778   -18739697.844 6 -14602353.321 6
        37.900          38.600
  22373287.572    22373286.847    22373286.851   -11395281.603 5  -8879436.618 5
        30.400          31.300
  22286614.296    22286613.702    22286613.686   -12433903.125 5  -9688752.076 5
        32.400          32.800
  20456947.497    20456946.635    20456944.280   -25577355.437 6 -19930398.866 7
        38.000          46.500
  23840028.929    23840027.135    23840025.054    -6287615.445 3  -4899438.007 4
        23.000          24.600
 09  1  5  0  4  0.0000000  0 10G24G 9G26G15G21G22G 3G 6G18G19
  24141929.711    24141928.792    24141929.120    -3165870.882 2  -2466905.203 3
        12.600          21.100
  23559219.002    23559218.424    23559217.666    -6812177.899 3  -5308186.973 3
        18.600          23.000
  23131254.519    23131254.092    23131253.131    -6222787.484 3  -4848913.854 3
        21.100          23.800
  22047972.198    22047972.233    22047970.803   -14632288.601 5 -11401769.694 6
        35.800          37.700
  20727896.827    20727896.012    20727894.310   -25374156.269 6 -19772058.820 6
        40.900          41.400
  21583470.158    21583469.728    21583466.792   -18808606.906 6 -14656048.681 6
        38.100          38.700
  22374436.593    22374435.871    22374436.228   -11389242.100 5  -8874730.504 5
        30.200          31.300
  22289493.909    22289493.326    22289493.250   -12418770.844 5  -9676960.690 5
        32.600          32.800
  20454321.456    20454320.686    20454319.543   -25591154.768 6 -19941151.582 7
        38.000          46.200
  23826537.842    23826536.325    23826534.271    -6358509.923 3  -4954680.449 4
        23.000          24.200
 09  1  5  0  4 30.0000000  0 10G24G 9G26G15G21G22G 3G 6G18G19
  24161684.639    24161684.075    24161684.884    -3062052.774 2  -2386007.982 3
        13.900          20.500
  23539180.666    23539179.732    23539179.554    -6917478.470 3  -5390239.341 3
        19.300          23.000
  23152085.093    23152084.682    23152082.696    -6113324.846 3  -4763618.286 3
        21.100          23.400
  22061078.071    22061077.960    22061076.596   -14563417.295 5 -11348103.728 6
        35.600          37.700
  20737204.266    20737203.410    20737201.725   -25325245.324 6 -19733946.396 6
        40.800          41.300
  21570411.807    21570411.285    21570408.368   -18877229.048 6 -14709520.458 6
        38.100          38.800
  22375703.018    22375702.283    22375702.216   -11382587.845 5  -8869545.362 5
        30.400          31.000
  22292481.681    22292481.076    22292480.640   -12403071.861 5  -9664727.717 5
        32.800          33.000
  20451770.077    20451769.261    20451766.843   -25604562.732 6 -19951599.344 7
        38.000          46.400
  23813128.403    23813127.672    23813126.078    -6428969.484 3  -5009583.988 4
        21.600          24.900
 09  1  5  0  5  0.0000000  0 10G24G 9G26G15G21G22G 3G 6G18G19
  24181465.363    24181463.743    24181464.669    -2958110.219 2  -2305013.827 3
        12.600          19.300
  23519195.847    23519195.005    23519194.907    -7022499.809 3  -5472074.129 3
        19.300          23.000
  23172973.031    23172972.240    23172970.894    -6003558.296 3  -4678085.886 3
        20.500          23.000
  22074264.690    22074264.559    22074263.259   -14494121.272 5 -11294106.821 6
        35.400          37.800
  20746602.946    20746602.049    20746600.198   -25275855.816 6 -19695461.065 6
        40.900          41.100
  21557408.235    21557407.648    21557404.641   -18945563.942 6 -14762768.410 6
        38.300          38.800
  22377086.095    22377085.368    22377085.296   -11375319.990 5  -8863882.088 5
        30.800          31.000
  22295576.574    22295575.875    22295575.724   -12386807.345 5  -9652054.070 5
        32.600          33.000
  20449293.012    20449292.136    20449291.083   -25617579.945 6 -19961742.619 7
        37.900          46.400
  23799804.229    23799802.783    23799801.542    -6498992.235 3  -5064147.158 4
        21.600          25.300
 09  1  5  0  5 30.0000000  0 10G24G 9G26G15G21G22G 3G 6G18G19
  24201270.130    24201268.688    24201268.717    -2854039.550 2  -2223919.891 3
        13.900          18.600
  23499265.622    23499265.327    23499264.863    -7127233.186 3  -5553684.513 3
        19.900          23.400
  23193918.403    23193917.820    23193917.241    -5893486.182 3  -4592315.393 3
        19.900          23.400
  22087532.902    22087532.680    22087531.325   -14424397.335 5 -11239776.478 6
        35.500          37.700
  20756093.277    20756092.403    20756090.688   -25225983.174 6 -19656599.266 6
        40.800          41.100
  21544460.054    21544459.687    21544456.683   -19013605.643 6 -14815787.900 6
        38.500          38.800
  22378586.961    22378586.360    22378586.166   -11367433.343 5  -8857736.651 5
        31.500          31.000
  22298779.827    22298779.211    22298779.182   -12369972.874 5  -9638936.307 5
        32.100          32.800
  20446891.089    20446890.252    20446887.782   -25630201.558 6 -19971577.635 7
        37.900          46.200
  23786563.814    23786562.324    23786561.126    -6568570.991 3  -5118364.357 4
        21.600          24.900
 09  1  5  0  6  0.0000000  0 10G24G 9G26G15G21G22G 3G 6G18G19
  24221095.821    24221094.577    24221095.650    -2749848.435 2  -2142732.078 2
        15.100          17.800
  23479390.255    23479389.308    23479389.344    -7231681.219 3  -5635072.544 4
        19.300          24.600
  23214920.774    23214920.702    23214919.765    -5783117.661 3  -4506313.953 3
        19.900          23.800
  22100880.685    22100880.458    22100878.952   -14354254.412 5 -11185119.647 6
        35.600          37.300
  20765674.136    20765673.347    20765671.631   -25175634.489 6 -19617366.526 6
        40.700          40.900
  21531567.033    21531566.543    21531563.535   -19081359.903 6 -14868583.408 6
        38.600          38.900
  22380204.217    22380203.269    22380203.176   -11358935.016 5  -8851114.573 5
        31.300          30.600
  22302090.634    22302089.970    22302089.823   -12352575.383 5  -9625379.821 5
        32.300          32.700
  20444563.455    20444562.608    20444561.601   -25642433.574 6 -19981109.072 7
        37.900          46.200
  23773407.280    23773405.654    23773404.047    -6637709.412 3  -5172238.435 4
        21.100          24.600
 09  1  5  0  6 30.0000000  0 10G24G 9G26G15G21G22G 3G 6G18G19
  24240945.283    24240944.124    24240945.254    -2645537.918 2  -2061451.197 2
        16.100          16.100
  23459569.089    23459568.482    23459568.628    -7335840.302 3  -5716235.420 4
        20.500          24.200
  23235978.894    23235978.721    23235978.145    -5672455.911 3  -4420084.010 3
        19.900          23.400
  22114307.363    22114307.280    22114305.901   -14283694.489 5 -11130137.881 6
        35.200          37.200
  20775345.830    20775344.997    20775343.274   -25124810.130 6 -19577763.130 6
        40.800          40.900
  21518729.125    21518728.518    21518725.383   -19148824.565 6 -14921153.261 6
        38.600          39.000
  22381937.711    22381936.845    22381936.708   -11349825.364 5  -8844016.135 5
        31.100          30.400
  22305508.115    22305507.614    22305507.416   -12334615.351 5  -9611384.990 5
        32.100          32.700
  20442309.951    20442309.170    20442306.774   -25654275.337 6 -19990336.413 7
        37.900          46.200
  23760335.385    23760333.341    23760331.387    -6706405.485 3  -5225767.816 4
        21.100          24.600
 09  1  5  0  7  0.0000000  0 10G24G 9G26G15G21G22G 3G 6G18G19
  24260820.104    24260818.955    24260819.718    -2541095.783 2  -1980067.745 2
        15.100          15.100
  23439806.718    23439805.901    23439805.760    -7439692.648 3  -5797159.300 3
        20.500          22.600
  23257095.254    23257095.325    23257094.237    -5561490.353 3  -4333617.331 3
        19.900          23.800
  22127816.308    22127816.252    22127814.776   -14212706.020 5 -11074822.188 6
        35.400          37.300
  20785110.302    20785109.469    20785107.869   -25073497.077 6 -19537778.936 6
        40.600          40.700
  21505948.581    21505948.084    21505945.284   -19215985.257 6 -14973486.252 6
        38.500          39.300
  22383789.957    22383789.291    22383788.944   -11340091.348 5  -8836431.184 5
        31.500          30.200
  22309035.660    22309034.956    22309034.664   -12316079.905 5  -9596941.789 5
        32.000          32.800
  20440133.486    20440132.677    20440131.415   -25665713.040 6 -19999248.901 7
        37.900          46.200
  23747349.610    23747348.012    23747346.033    -6774642.955 3  -5278939.854 4
        21.600          24.900
 09  1  5  0  7 30.0000000  0 10G24G 9G26G15G21G22G 3G 6G18G19
  24280717.739    24280716.990    24280717.188    -2436531.691 2  -1898589.236 2
        12.600          13.900
  23420100.764    23420100.568    23420100.617    -7543243.304 3  -5877848.105 3
        19.300          21.600
  23278267.609    23278267.153    23278265.737    -5450232.635 3  -4246923.015 3
        19.900          22.600
  22141404.266    22141404.397    22141402.916   -14141299.946 5 -11019181.092 6
        35.500          37.200
  20794966.210    20794965.315    20794963.623   -25021704.666 6 -19497421.214 6
        40.700          40.600
  21493224.537    21493224.054    21493221.396   -19282849.810 6 -15025588.485 6
        38.400          39.400
  22385759.421    22385758.668    22385758.254   -11329741.785 5  -8828366.583 5
        31.500          30.200
  22312670.367    22312669.729    22312669.684   -12296978.331 5  -9582057.449 5
        32.100          33.000
  20438032.307    20438031.454    20438028.893   -25676754.910 6 -20007852.952 7
        37.900          46.300
  23734450.209    23734448.855    23734447.673    -6842428.215 3  -5331759.527 4
        21.600          25.600
 09  1  5  0  8  0.0000000  0 10G24G 9G26G15G21G22G 3G 6G18G19
  24300637.527    24300636.354    24300636.948    -2331850.746 2  -1817019.688 2
        12.600          13.900
  23400453.612    23400452.921    23400452.696    -7646492.474 3  -5958301.985 3
        19.300          21.600
  23299493.667    23299493.009    23299491.380    -5338689.518 3  -4160006.308 3
        19.300          21.600
  22155070.912    22155070.892    22155069.277   -14069482.243 5 -10963219.240 6
        35.400          37.200
  20804912.311    20804911.401    20804909.677   -24969437.452 6 -19456693.518 6
        40.600          40.500
  21480556.672    21480556.101    21480553.099   -19349421.229 6 -15077462.302 6
        38.700          39.400
  22387845.356    22387844.561    22387844.156   -11318780.910 5  -8819825.637 5
        31.300          30.400
  22316412.232    22316411.488    22316411.342   -12277314.892 5  -9566735.282 5
        32.100          32.800
  20436005.679    20436004.933    20436003.805   -25687404.719 6 -20016151.497 7
        37.900          46.200
  23721637.382    23721635.997    23721634.201    -6909762.558 3  -5384227.831 4
        23.400          25.300
 09  1  5  0  8 30.0000000  0 11G24G 9G26G15G21G22G 3G 6G18G19G14
  24320578.206    24320577.661    24320579.205    -2227060.032 1  -1735364.606 2
        11.000          13.900
  23380862.646    23380862.244    23380862.135    -7749441.718 3  -6038522.163 3
        18.600          22.600
  23320771.532    23320770.892    23320769.928    -5226869.832 3  -4072874.087 3
        18.600          22.100
  22168814.137    22168814.118    22168812.615   -13997260.486 5 -10906942.546 6
        35.200          36.900
  20814947.400    20814946.628    20814944.969   -24916701.576 6 -19415600.626 6
        40.500          40.300
  21467943.457    21467942.948    21467940.101   -19415703.288 6 -15129110.644 6
        39.000          39.500
  22390045.891    22390045.200    22390045.125   -11307215.021 5  -8810813.252 5
        31.000          30.600
  22320259.554    22320258.810    22320258.901   -12257096.166 5  -9550980.434 5
        32.000          33.000
  20434052.744    20434051.938    20434049.325   -25697667.389 6 -20024148.382 7
        37.900          46.200
  23708909.737    23708907.796    23708906.014    -6976649.303 3  -5436347.370 4
        23.400          25.300
  25222754.182    25222754.058    25222752.931           -.52812          .23512
        13.900          16.100
 09  1  5  0  9  0.0000000  0 11G22G24G 9G26G15G21G 3G 6G18G19G14
  21455386.249    21455385.762    21455382.896   -19481691.768 6 -15180530.226 6
        39.100          39.600
  24340542.157    24340540.599    24340540.698    -2122156.962 1  -1653622.007 2
         9.000          13.900
  23361330.985    23361330.308    23361330.592    -7852083.650 3  -6118502.844 4
        19.300          24.200
  23342102.693    23342102.430    23342101.572    -5114772.519 3  -3985525.535 3
        19.300          22.100
  22182634.681    22182634.479    22182633.094   -13924633.096 5 -10850349.770 6
        34.800          36.800
  20825072.752    20825071.803    20825070.179   -24863493.775 6 -19374140.007 6
        40.400          40.300
  22392362.831    22392362.017    22392361.943   -11295040.848 5  -8801326.878 5
        31.000          30.600
  22324213.645    22324213.007    22324212.534   -12236318.993 5  -9534790.441 5
        32.300          32.700
  20432174.141    20432173.351    20432172.249   -25707539.345 6 -20031840.807 7
        37.800          46.100
  23696267.733    23696265.907    23696264.057    -7043082.511 4  -5488113.489 4
        24.200          25.600
  25200711.613    25200710.709    25200711.845     -115829.519 2    -90256.007 2
        12.600          16.100
 09  1  5  0  9 30.0000000  0 11G22G24G 9G26G15G21G 3G 6G18G19G14
  21442886.514    21442885.966    21442883.047   -19547378.512 6 -15231714.686 6
        39.100          39.600
  24360527.436    24360526.318    24360525.198    -2017136.030 2  -1571787.575 2
        12.600          12.600
  23341859.734    23341859.172    23341859.131    -7954407.608 3  -6198235.762 4
        21.100          24.600
  23363487.464    23363487.107    23363486.362    -5002394.030 3  -3897957.854 3
        18.600          21.600
  22196533.240    22196533.241    22196531.685   -13851595.423 5 -10793437.297 6
        34.900          36.600
  20835288.551    20835287.749    20835286.181   -24809808.243 6 -19332307.130 6
        40.300          40.300
  22394796.551    22394795.585    22394795.354   -11282252.035 5  -8791361.563 5
        30.800          30.400
  22328274.794    22328274.074    22328273.837   -12214977.306 5  -9518160.558 5
        32.300          32.600
  20430371.362    20430370.481    20430367.850   -25717013.672 6 -20039223.394 7
        37.900          46.200
  23683714.378    23683712.228    23683709.992    -7109052.732 3  -5539518.834 4
        23.400          25.300
  25178676.149    25178676.664    25178679.335     -231610.145 1   -180474.576 2
         9.000          13.900
 09  1  5  0 10  0.0000000  0 11G22G24G 9G26G15G21G 3G 6G18G19G14
  21430443.905    21430443.355    21430440.245   -19612765.719 6 -15282665.742 6
        39.400          39.700
  24380533.788    24380532.357    24380531.992    -1912001.410 2  -1489864.526 2
        12.600          12.600
  23322447.997    23322447.568    23322447.402    -8056412.951 3  -6277720.417 4
        20.500          24.200
  23384925.041    23384924.521    23384923.598    -4889739.939 2  -3810175.449 3
        17.800          22.100
  22210508.965    22210508.803    22210507.412   -13778152.592 5 -10736209.116 6
        34.800          36.500
  20845594.964    20845594.159    20845592.549   -24755648.128 6 -19290104.447 6
        40.400          40.200
  22397346.475    22397345.490    22397345.364   -11268852.257 5  -8780920.176 5
        30.800          30.800
  22332442.497    22332441.950    22332441.872   -12193074.621 5  -9501093.531 5
        32.100          32.800
  20428643.632    20428642.775    20428641.428   -25726092.699 6 -20046297.953 7
        37.900          46.200
  23671248.292    23671246.319    23671244.258    -7174560.830 3  -5590564.099 4
        23.400          24.600
  25156652.328    25156651.801    25156655.869     -347343.168 1   -270656.086 1
         6.500          11.000
 09  1  5  0 10 30.0000000  0 11G22G24G 9G26G15G21G 3G 6G18G19G14
  21418057.449    21418056.875    21418053.998   -19677856.075 6 -15333385.488 6
        39.300          39.800
  24400560.175    24400559.690    24400559.783    -1806758.038 1  -1407856.745 2
        11.000          13.900
  23303098.017    23303097.304    23303097.238    -8158099.639 3  -6356956.782 3
        21.100          23.400
  23406413.437    23406413.408    23406412.226    -4776817.274 2  -3722183.748 3
        17.000          22.100
  22224560.754    22224560.595    22224558.914   -13704310.746 5 -10678670.011 6
        34.900          36.400
  20855990.744    20855989.907    20855988.247   -24701017.952 6 -19247535.489 6
        40.300          40.000
  22400011.556    22400010.794    22400010.818   -11254845.930 5  -8770006.145 5
        30.800          31.100
  22336716.180    22336715.760    22336715.686   -12170615.442 5  -9483592.875 5
        32.000          32.600
  20426990.439    20426989.609    20426986.873   -25734780.004 6 -20053067.278 7
        37.800          46.200
  23658869.627    23658867.993    23658866.608    -7239608.244 3  -5641250.391 4
        23.000          25.600
  25134640.317    25134638.305    25134640.014     -463030.476 1   -360801.988 1
         9.000          11.000
 09  1  5  0 11  0.0000000  0 11G22G24G 9G26G15G21G 3G 6G18G19G14
  21405727.317    21405726.832    21405723.884   -19742651.008 6 -15383875.029 6
        39.300          39.900
  24420607.166    24420606.214    24420606.191    -1701409.934 1  -1325767.378 2
         9.000          15.100
  23283808.533    23283807.604    23283807.784    -8259466.314 3  -6435943.794 4
        21.100          24.900
  23427952.793    23427952.018    23427950.719    -4663631.560 2  -3633987.105 3
        17.800          21.600
  22238687.583    22238687.462    22238685.841   -13630074.383 5 -10620823.492 6
        34.900          36.500
  20866475.459    20866474.516    20866472.697   -24645921.494 6 -19204603.185 6
        40.300          39.700
  22402791.562    22402790.964    22402790.991   -11240236.144 5  -8758621.891 5
        30.800          31.100
  22341095.767    22341094.978    22341094.653   -12147603.353 5  -9465661.379 5
        32.100          32.700
  20425411.350    20425410.542    20425409.318   -25743078.018 6 -20059533.254 7
        37.900          46.100
  23646579.202    23646577.334    23646576.227    -7304195.264 3  -5691577.931 4
        23.800          26.500
  25112633.224    25112631.810    25112633.205     -578672.498 1   -450912.619 1
         6.500           9.000
 09  1  5  0 11 30.0000000  0 11G22G24G 9G26G15G21G 3G 6G18G19G14
  21393454.561    21393454.069    21393451.095   -19807145.001 6 -15434130.075 6
        39.500          39.900
  24440674.548    24440674.340    24440674.452    -1595953.731 1  -1243593.785 2
         6.500          16.100
  23264581.548    23264581.136    23264580.797    -8360504.551 3  -6514674.862 4
        21.600          25.900
  23449540.892    23449540.493    23449539.201    -4550181.471 3  -3545584.416 3
        18.600          21.100
  22252889.844    22252889.670    22252887.928   -13555441.223 5 -10562667.778 6
        34.800          36.200
  20877049.260    20877048.442    20877046.683   -24590354.908 6 -19161304.554 6
        40.300          39.500
  22405687.784    22405686.837    22405686.555   -11225019.118 5  -8746764.459 5
        31.100          31.000
  22345580.370    22345579.790    22345579.586   -12124034.574 5  -9447296.098 5
        32.100          32.400
  20423907.130    20423906.376    20423903.624   -25750982.081 6 -20065692.260 7
        37.900          46.000
  23634378.146    23634376.308    23634374.461    -7368315.187 4  -5741541.497 4
        24.600          26.200
  25090637.567    25090637.553    25090636.438     -694262.257 1   -540982.512 1
         6.500          11.000
 09  1  5  0 12  0.0000000  0 11G22G24G 9G26G15G21G 3G 6G18G19G14
  21381239.574    21381238.952    21381235.833   -19871336.100 6 -15484149.103 6
        39.500          39.900
  24460763.365    24460762.755    24460762.557    -1490389.455    -1161335.974 2
                        16.100
  23245418.363    23245417.865    23245417.424    -8461209.495 3  -6593146.212 4
        22.100          25.600
  23471179.473    23471179.266    23471178.270    -4436468.531 3  -3456976.926 3
        18.600          22.100
  22267167.335    22267167.291    22267165.486   -13480412.295 5 -10504203.672 6
        34.700          36.200
  20887712.757    20887711.916    20887710.296   -24534317.421 6 -19117638.985 6
        40.100          39.400
  22408699.026    22408698.043    22408697.936   -11209193.837 5  -8734433.067 5
        30.600          30.600
  22350171.625    22350171.027    22350170.503   -12099908.849 5  -9428496.841 5
        32.300          32.400
  20422478.524    20422477.647    20422476.508   -25758490.573 6 -20071543.025 7
        37.900          46.200
  23622265.601    23622264.163    23622262.375    -7431964.075 4  -5791138.025 4
        24.600          25.900
  25068653.005    25068652.826    25068652.170     -809796.403 1   -631009.098 1
         9.000           9.000
 09  1  5  0 12 30.0000000  0 11G22G24G 9G26G15G21G 3G 6G18G19G14
  21369082.060    21369081.545    21369078.560   -19935223.316 6 -15533931.336 6
        39.500          40.100
  24480871.904    24480871.640    24480871.487    -1384718.789    -1078995.242 2
         3.000          16.100
  23226317.785    23226317.334    23226317.670    -8561577.832 3  -6671355.285 4
        21.100          25.300
  23492867.577    23492867.544    23492866.762    -4322496.181 2  -3368167.291 3
        17.800          23.000
  22281519.555    22281519.412    22281517.958   -13404990.172 5 -10445433.190 6
        34.400          36.400
  20898465.821    20898465.041    20898463.286   -24477810.046 6 -19073607.262 6
        40.300          39.300
  22411825.641    22411824.841    22411824.852   -11192761.787 5  -8721628.870 5
        30.200          30.800
  22354868.015    22354867.614    22354867.399   -12075227.289 5  -9409264.456 5
        32.100          32.700
  20421124.910    20421124.066    20421121.407   -25765603.810 6 -20077085.807 7
        37.900          46.300
  23610243.336    23610241.909    23610240.008    -7495140.568 4  -5840366.450 4
        24.200          25.900
  25046678.137    25046678.019    25046679.014     -925273.145 1   -720990.998 1
         6.500           9.000
 09  1  5  0 13  0.0000000  0 11G22G24G 9G26G15G21G 3G 6G18G19G14
  21356981.759    21356981.224    21356978.359   -19998810.627 6 -15583479.873 6
        39.500          40.300
  24500997.621    24500997.036    24500998.330    -1278948.048     -996577.017 2
                        12.600
  23207282.809    23207282.195    23207282.055    -8661610.952 3  -6749303.142 4
        21.600          24.900
  23514604.299    23514603.557    23514602.617    -4208272.695 2  -3279161.991 3
        17.000          23.000
  22295945.198    22295945.053    22295943.408   -13329182.462 5 -10386362.247 5
        34.100          35.900
  20909307.108    20909306.289    20909304.499   -24420838.749 6 -19029214.041 6
        40.200          39.100
  22415067.011    22415066.097    22415066.082   -11175729.255 5  -8708356.772 5
        30.600          31.000
  22359669.428    22359668.994    22359668.900   -12049996.115 5  -9389603.812 5
        31.800          33.100
  20419845.529    20419844.695    20419843.509   -25772326.703 6 -20082324.419 7
        38.000          46.200
  23598310.306    23598308.861    23598307.202    -7557847.650 3  -5889229.099 4
        23.800          26.200
  25024714.626    25024714.739    25024714.581    -1040695.822     -810930.729 2
         3.000          12.600
 09  1  5  0 13 30.0000000  0 11G22G24G 9G26G15G21G 3G 6G18G19G14
  21344940.185    21344939.621    21344936.670   -20062089.626 6 -15632788.169 6
        39.700          40.300
  24521143.926    24521145.735    24521148.979    -1173071.004     -914076.015 2
                        12.600
  23188313.387    23188312.587    23188312.637    -8761297.590 3  -6826981.011 4
        21.600          25.600
  23536389.261    23536388.717    23536387.436    -4093793.261 2  -3189957.241 3
        17.800          21.600
  22310444.872    22310445.032    22310443.591   -13252983.495 5 -10326986.424 5
        34.000          35.700
  20920237.894    20920237.046    20920235.299   -24363397.060 6 -18984454.276 6
        40.200          38.900
  22418423.912    22418423.208    22418423.017   -11158088.832 5  -8694610.974 5
        31.000          31.100
  22364576.714    22364576.060    22364576.060   -12024208.579 5  -9369509.636 5
        31.500          32.800
  20418641.912    20418641.062    20418638.500   -25778651.463 6 -20087252.799 7
        37.900          46.200
  23586469.316    23586467.598    23586465.398    -7620075.520 3  -5937718.337 4
        23.400          26.200
  25002761.921    25002762.481    25002761.518    -1156054.786     -900820.756 1
         3.000          11.000
 09  1  5  0 14  0.0000000  0 11G22G24G 9G26G15G21G 3G 6G18G19G14
  21332957.103    21332956.581    21332953.573   -20125061.211 6 -15681856.922 6
        39.800          40.500
  24541314.537    24541314.768    24541314.366    -1067090.800     -831494.071 2
                        15.100
  23169409.825    23169409.102    23169409.076    -8860635.498 3  -6904387.147 4
        22.600          25.600
  23558222.252    23558221.716    23558219.895    -3979062.565 2  -3100556.687 3
        17.800          21.100
  22325019.207    22325019.328    22325017.571   -13176397.145 5 -10267308.746 5
        34.300          35.900
  20931257.768    20931256.957    20931255.219   -24305487.304 6 -18939329.789 6
        40.300          38.900
  22421896.032    22421895.083    22421895.109   -11139843.006 5  -8680393.442 5
        30.600          31.100
  22369589.511    22369588.850    22369588.815   -11997867.118 5  -9348983.829 5
        31.600          33.000
  20417513.754    20417513.013    20417511.751   -25784579.696 6 -20091872.196 7
        38.000          46.100
  23574719.103    23574717.212    23574715.586    -7681823.390 4  -5985833.554 4
        24.200          26.500
  24980821.795    24980821.690    24980820.719    -1271349.509     -990660.785 1
         3.000           9.000
 09  1  5  0 14 30.0000000  0 11G22G24G 9G26G15G21G 3G 6G18G19G14
  21321031.653    21321031.113    21321028.389   -20187729.039 6 -15730688.983 6
        39.600          40.600
  24561500.389    24561498.996    24561500.782     -961013.868     -748836.735 2
         3.000          17.000
  23150571.881    23150571.628    23150571.640    -8959626.292 3  -6981522.803 4
        22.100          26.200
  23580100.311    23580100.246    23580098.552    -3864088.844 2  -3010966.772 3
        17.000          21.100
  22339665.645    22339665.434    22339663.828   -13099431.197 5 -10207335.277 5
        34.100          35.900
  20942365.625    20942364.718    20942362.933   -24247115.551 6 -18893845.305 6
        40.200          38.600
  22425481.454    22425480.833    22425480.915   -11120998.311 5  -8665709.263 5
        30.100          30.600
  22374706.253    22374705.559    22374705.544   -11970978.205 5  -9328031.435 5
        31.600          32.800
  20416460.460    20416459.601    20416456.885   -25790115.863 6 -20096186.089 7
        38.100          46.500
  23563059.532    23563058.080    23563056.176    -7743094.484 4  -6033577.254 4
        24.600          26.800
  24958894.084    24958894.047    24958890.896    -1386582.666    -1080452.819 1
         3.000           9.000
 09  1  5  0 15  0.0000000  0 11G22G24G 9G26G15G21G 3G 6G18G19G14
  21309164.260    21309163.775    21309160.789   -20250092.892 6 -15779284.176 6
        39.800          40.500
  24581704.003    24581703.747    24581704.758     -854842.229 1   -666105.604 2
         6.500          17.000
  23131801.835    23131801.111    23131801.273    -9058267.144 3  -7058385.748 4
        21.600          26.500
  23602024.268    23602023.953    23602023.260    -3748875.516 2  -2921190.144 3
        16.100          21.100
  22354383.376    22354383.269    22354381.739   -13022088.042 5 -10147067.880 5
        34.000          35.900
  20953560.968    20953560.138    20953558.341   -24188282.983 6 -18848001.744 6
        40.100          38.500
  22429181.534    22429180.684    22429180.677   -11101555.819 5  -8650559.266 5
        30.200          30.600
  22379927.217    22379926.412    22379926.260   -11943543.212 5  -9306653.527 5
        31.600          32.800
  20415481.313    20415480.468    20415479.296   -25795260.999 6 -20100195.275 7
        38.100          46.400
  23551491.772    23551489.721    23551487.800    -7803887.101 4  -6080948.116 4
        24.200          27.100
  24936978.349    24936977.528    24936975.276    -1501752.740    -1170195.689 1
         3.000          11.000
 09  1  5  0 15 30.0000000  0 11G22G24G 9G26G15G21G 3G 6G18G19G14
  21297356.306    21297355.697    21297352.607   -20312144.697 6 -15827636.220 6
        39.800          40.600
  24601927.954    24601927.264    24601927.199     -748569.553 1   -583295.777 2
         9.000          16.100
  23113099.738    23113099.322    23113098.956    -9156546.381 3  -7134966.935 4
        23.400          25.900
  23623994.692    23623994.528    23623993.627    -3633418.139 2  -2831223.351 3
        16.100          21.600
  22369174.351    22369174.085    22369172.505   -12944362.619 5 -10086502.612 6
        33.900          36.200
  20964845.337    20964844.570    20964842.954   -24128982.962 6 -18801793.934 6
        40.000          38.600
  22432996.688    22432995.802    22432995.636   -11081508.905 5  -8634938.292 5
        30.600          30.800
  22385252.888    22385252.301    22385252.091   -11915555.657 5  -9284845.054 5
        31.800          32.700
  20414578.016    20414577.199    20414574.587   -25800007.362 6 -20103893.740 7
        38.100          46.300
  23540015.332    23540013.613    23540012.346    -7864191.448 3  -6127938.487 4
        23.000          27.100
  24915074.688    24915074.556    24915073.176    -1616850.341    -1259882.090 2
                        12.600
 09  1  5  0 16  0.0000000  0 11G22G24G 9G26G15G21G 3G 6G18G19G14
  21285605.980    21285605.509    21285602.625   -20373891.838 6 -15875750.862 6
        39.700          40.800
  24622166.952    24622166.611    24622167.840     -642205.646 1   -500414.827 2
         9.000          15.100
  23094465.713    23094465.039    23094464.734    -9254469.039 3  -7211270.286 4
        23.400          25.300
  23646010.567    23646009.674    23646008.539    -3517728.346 2  -2741075.462 3
        15.100          21.600
  22384035.609    22384035.275    22384033.798   -12866265.894 5 -10025648.023 6
        33.600          36.100
  20976216.969    20976216.133    20976214.330   -24069225.376 6 -18755229.585 6
        40.100          38.300
  22436924.621    22436923.744    22436923.571   -11060866.825 5  -8618853.550 5
        30.600          30.600
  22390681.839    22390681.171    22390681.226   -11887025.292 5  -9262613.605 5
        31.500          32.700
  20413749.208    20413748.365    20413747.197   -25804363.281 6 -20107287.954 7
        38.100          46.500
  23528630.928    23528629.553    23528628.526    -7924014.307 3  -6174553.680 4
        23.400          27.400
  24893184.897    24893186.049    24893184.279    -1731882.027    -1349517.086 2
         3.000          13.900
 09  1  5  0 16 30.0000000  0 11G21G24G 9G26G15G22G 3G 6G18G19G14
  20987675.978    20987675.094    20987673.260   -24009007.962 6 -18708306.930 6
        40.000          38.000
  24642425.495    24642424.222    24642425.205     -535748.987 1   -417461.580 2
         6.500          13.900
  23075900.637    23075900.123    23075900.038    -9352028.268 3  -7287290.437 4
        23.000          25.900
  23668069.627    23668069.580    23668068.064    -3401806.079 2  -2650746.420 3
        17.000          21.600
  22398967.492    22398967.340    22398965.913   -12787796.925 5  -9964503.371 5
        33.400          35.700
  21273914.709    21273914.204    21273911.360   -20435330.061 6 -15923624.792 6
        39.700          41.000
  22440966.329    22440965.535    22440965.386   -11039627.649 5  -8602303.540 5
        30.400          30.400
  22396214.568    22396213.834    22396214.120   -11857949.930 5  -9239957.486 5
        31.100          32.700
  20412995.145    20412994.330    20412991.662   -25808325.737 6 -20110375.575 7
        38.300          46.500
  23517340.307    23517338.865    23517336.867    -7983350.332 4  -6220789.517 4
        24.600          26.500
  24871311.050    24871308.720    24871309.069    -1846842.555    -1439096.689 2
         3.000          16.100
 09  1  5  0 17  0.0000000  0 11G21G24G 9G26G15G22G 3G 6G18G19G14
  20999222.125    20999221.268    20999219.453   -23948332.982 6 -18661027.726 6
        40.100          38.000
  24662700.146    24662698.088    24662700.093     -429202.282     -334438.163 2
         3.000          12.600
  23057405.287    23057404.593    23057404.542    -9449221.944 3  -7363025.742 4
        22.600          26.200
  23690172.566    23690172.148    23690171.122    -3285655.589 2  -2560239.546 3
        16.100          21.600
  22413969.922    22413969.594    22413968.258   -12708959.294 5  -9903071.445 5
        33.200          35.300
  21262282.069    21262281.585    21262278.696   -20496459.756 6 -15971258.306 6
        39.700          41.000
  22445120.836    22445120.235    22445119.842   -11017794.237 5  -8585290.497 5
        30.400          30.200
  22401850.943    22401850.203    22401850.075   -11828332.373 5  -9216878.878 5
        31.600          32.600
  20412315.739    20412314.907    20412313.629   -25811896.002 6 -20113157.591 7
        38.200          46.500
  23506141.724    23506140.114    23506137.903    -8042199.032 4  -6266645.633 4
        24.900          26.500
  24849447.821    24849446.313    24849445.990    -1961731.279 1  -1528620.305 2
         6.500          16.100
 09  1  5  0 17 30.0000000  0 11G24G 9G26G15G21G22G 3G 6G18G19G14
  24682993.552    24682991.595    24682994.871     -322559.359     -251339.830 2
                        13.900
  23038982.031    23038981.234    23038980.925    -9546038.702 3  -7438467.330 4
        23.000          25.900
  23712319.485    23712318.957    23712318.113    -3169272.337 2  -2469551.288 3
        16.100          20.500
  22429043.333    22429043.023    22429041.566   -12629747.738 5  -9841348.149 5
        33.100          35.100
  21010856.569    21010855.687    21010853.760   -23887193.806 6 -18613386.812 6
        40.100          37.800
  21250709.781    21250709.204    21250706.311   -20557272.775 6 -16018645.062 6
        39.800          41.100
  22449390.152    22449389.223    22449389.191   -10995359.859 5  -8567809.173 5
        30.200          30.400
  22407591.394    22407590.705    22407590.781   -11798166.017 5  -9193372.631 5
        31.600          32.700
  20411712.534    20411711.697    20411709.112   -25815066.094 6 -20115627.791 7
        38.200          46.600
  23495037.719    23495036.361    23495034.490    -8100550.843 4  -6312114.559 4
        25.300          27.100
  24827600.990    24827599.821    24827599.309    -2076538.541 1  -1618080.449 2
         9.000          17.800
 09  1  5  0 18  0.0000000  0 11G21G24G 9G26G15G22G 3G 6G18G19G14
  21022577.944    21022577.046    21022575.211   -23825597.281 6 -18565389.515 6
        39.900          37.800
  24703303.960    24703303.528    24703306.223     -215827.248     -168171.995 2
                        13.900
  23020629.225    23020628.477    23020628.514    -9642480.799 3  -7513616.995 4
        23.400          25.300
  23734508.373    23734507.941    23734507.819    -3052665.070 2  -2378688.483 3
        15.100          19.900
  22444186.183    22444186.010    22444184.563   -12550170.848 5  -9779340.179 5
        33.100          34.800
  21239196.809    21239196.304    21239193.484   -20617773.538 6 -16065788.501 6
        39.800          41.300
  22453772.157    22453771.465    22453771.585   -10972331.351 5  -8549864.883 5
        30.400          31.000
  22413434.972    22413434.306    22413433.986   -11767458.009 5  -9169444.318 5
        31.300          32.100
  20411184.228    20411183.434    20411182.269   -25817841.872 6 -20117790.728 7
        38.300          46.500
  23484027.908    23484026.170    23484024.658    -8158409.264 4  -6357199.003 4
        25.600          27.400
  24805766.608    24805766.162    24805766.514    -2191268.241 1  -1707480.170 2
         6.500          17.000
 09  1  5  0 18 30.0000000  0 11G21G24G 9G26G15G22G 3G 6G18G19G14
  21034386.200    21034385.287    21034383.450   -23763544.622 6 -18517036.790 6
        39.900          37.500
  24723631.958    24723633.229    24723633.087     -109008.104      -84936.405 2
                        13.900
  23002348.651    23002347.866    23002347.783    -9738545.377 3  -7588472.475 4
        22.600          24.900
  23756739.273    23756739.655    23756739.612    -2935837.566 2  -2287654.060 3
        13.900          20.500
  22459398.020    22459397.984    22459396.634   -12470231.374 5  -9717049.667 5
        33.400          35.100
  21227743.283    21227742.837    21227739.963   -20677962.224 6 -16112688.764 6
        40.000          41.400
  22458267.627    22458266.657    22458266.510   -10948710.525 5  -8531459.048 5
        30.400          31.100
  22419381.111    22419380.400    22419380.402   -11736210.213 5  -9145095.392 5
        31.300          32.300
  20410730.815    20410730.038    20410727.398   -25820224.159 6 -20119647.054 7
        38.300          46.400
  23473112.168    23473110.477    23473108.192    -8215773.162 4  -6401898.130 4
        26.200          26.200
  24783948.660    24783949.270    24783948.087    -2305918.991 1  -1796818.320 2
         9.000          16.100
 09  1  5  0 19  0.0000000  0 11G21G24G 9G26G15G22G 3G 6G18G19G14
  21046281.144    21046280.224    21046278.259   -23701036.333 6 -18468329.025 6
        39.800          37.200
  24743977.707    24743976.847    24743976.868       -2102.299       -1633.226 2
         3.000          13.900
  22984141.604    22984140.534    22984140.050    -9834227.623 3  -7663030.043 4
        23.400          24.900
  23779012.143    23779012.890    23779012.436    -2818791.742 2  -2196449.511 3
        15.100          19.900
  22474678.744    22474678.797    22474677.460   -12389930.384 5  -9654477.460 5
        33.000          34.900
  21216349.433    21216348.980    21216346.067   -20737837.076 6 -16159344.479 6
        39.900          41.400
  22462875.005    22462874.141    22462873.968   -10924496.914 5  -8512591.295 5
        30.200          30.600
  22425430.032    22425429.474    22425429.361   -11704422.681 5  -9120325.895 5
        31.300          32.300
  20410352.683    20410351.870    20410350.668   -25822211.823 6 -20121195.877 7
        38.300          46.500
  23462290.520    23462289.184    23462286.861    -8272639.755 4  -6446209.751 4
        27.100          26.500
  24762147.435    24762147.261    24762146.816    -2420487.360 1  -1886092.340 2
        11.000          16.100
 09  1  5  0 19 30.0000000  0 11G21G24G 9G26G15G22G 3G 6G18G19G14
  21058262.514    21058261.702    21058259.940   -23638072.908 6 -18419266.612 6
        39.700          37.400
  24764336.926    24764335.532    24764335.652      104889.558       81736.974 2
         3.000          12.600
  22966006.963    22966006.248    22966005.873    -9929523.339 3  -7737286.417 4
        23.800          25.300
  23801327.676    23801327.487    23801326.539    -2701529.787 2  -2105076.564 3
        15.100          19.900
  22490028.011    22490027.968    22490026.492   -12309269.755 5  -9591625.026 5
        32.600          34.800
  21205015.749    21205015.262    21205012.262   -20797396.348 6 -16205754.290 6
        40.000          41.400
  22467595.518    22467594.652    22467594.190   -10899691.330 5  -8493262.269 5
        30.600          30.600
  22431581.650    22431581.119    22431580.769   -11672096.002 5  -9095136.286 5
        31.100          32.000
  20410049.653    20410048.868    20410046.147   -25823804.034 6 -20122436.560 7
        38.300          46.600
  23451564.164    23451562.397    23451560.569    -8329006.011 4  -6490131.490 4
        27.400          26.500
  24740362.726    24740362.753    24740361.812    -2534970.743 2  -1975300.152 2
        12.600          17.000
 09  1  5  0 20  0.0000000  0 11G24G 9G26G15G21G22G 3G 6G18G19G14
  24784711.065    24784710.698    24784710.734      211966.456 1    165173.472 1
         6.500          11.000
  22947947.145    22947946.531    22947945.993   -10024428.198 3  -7811238.237 4
        23.400          25.300
  23823683.648    23823682.908    23823680.954    -2584054.058 2  -2013537.018 3
        15.100          18.600
  22505445.200    22505445.219    22505443.610   -12228251.081 5  -9528493.584 5
        32.300          34.400
  21070330.491    21070329.781    21070328.065   -23574654.575 6 -18369849.728 6
        39.500          37.300
  21193742.468    21193741.895    21193738.977   -20856638.461 6 -16251916.964 6
        40.000          41.600
  22472428.383    22472427.454    22472427.326   -10874294.092 5  -8473472.212 5
        30.400          30.400
  22437835.511    22437834.975    22437834.870   -11639230.960 5  -9069527.168 5
        30.800          31.800
  20409822.117    20409821.241    20409820.055   -25825000.181 6 -20123368.615 7
        38.400          46.700
  23440933.493    23440931.899    23440930.043    -8384869.402 4  -6533661.380 4
        27.400          26.500
  24718593.889    24718593.304    24718593.040    -2649366.420 2  -2064439.579 2
        12.600          16.100
 09  1  5  0 20 30.0000000  0 11G24G 9G26G15G21G22G 3G 6G18G19G14
  24805101.922    24805101.482    24805102.399      319120.997 1    248670.455 1
         6.500          11.000
  22929960.808    22929960.442    22929959.980   -10118944.422 3  -7884887.209 4
        22.100          25.600
  23846077.164    23846076.590    23846074.912    -2466373.596 2  -1921837.965 3
        12.600          19.300
  22520929.081    22520928.975    22520927.531   -12146882.901 5  -9465089.801 5
        32.100          34.400
  21082483.855    21082483.113    21082481.563   -23510788.392 6 -18320083.868 6
        39.600          37.400
  21182528.502    21182527.966    21182524.898   -20915568.322 6 -16297836.325 6
        40.200          41.800
  22477372.281    22477371.360    22477371.230   -10848312.860 4  -8453227.094 5
        29.900          30.100
  22444190.604    22444190.184    22444189.971   -11605834.799 5  -9043504.187 5
        30.800          32.100
  20409668.613    20409667.836    20409665.240   -25825806.395 6 -20123996.834 7
        38.400          46.700
  23430398.660    23430396.877    23430394.792    -8440234.252 4  -6576802.810 4
        27.600          26.800
  24696840.974    24696839.553    24696839.499    -2763678.845 1  -2153514.132 2
        11.000          13.900
 09  1  5  0 21  0.0000000  0 11G24G 9G26G15G21G22G 3G 6G18G19G14
  24825508.594    24825506.965    24825510.096      426358.739      332232.286 2
         3.000          12.600
  22912051.451    22912050.785    22912049.840   -10213061.738 3  -7958225.340 4
        23.400          25.600
  23868509.963    23868509.261    23868508.270    -2348484.449 1  -1829976.318 3
        11.000          19.300
  22536480.755    22536480.513    22536478.869   -12065160.534 5  -9401410.035 5
        32.600          34.500
  21094723.563    21094722.734    21094721.013   -23446468.807 6 -18269964.711 6
        39.300          37.200
  21171375.257    21171374.784    21171371.724   -20974178.463 6 -16343506.553 6
        40.200          41.800
  22482428.170    22482427.445    22482427.618   -10821742.095 4  -8432522.607 5
        29.700          30.200
  22450647.811    22450647.218    22450647.243   -11571901.850 5  -9017062.931 5
        30.600          32.300
  20409590.764    20409589.902    20409588.744   -25826215.690 6 -20124315.759 7
        38.400          46.600
  23419959.087    23419957.129    23419955.750    -8495091.633 4  -6619548.817 4
        26.200          26.800
  24675106.300    24675105.347    24675104.284    -2877898.675 1  -2242516.570 2
        11.000          12.600
 09  1  5  0 21 30.0000000  0 11G24G 9G26G15G21G22G 3G 6G18G19G14
  24845930.081    24845929.157    24845931.298      533675.274 1    415855.476 1
         6.500          11.000
  22894217.490    22894216.643    22894216.215   -10306780.100 3  -8031252.612 4
        23.800          26.200
  23890981.736    23890981.347    23890980.450    -2230392.767 1  -1737956.825 3
        11.000          19.300
  22552097.785    22552097.970    22552096.466   -11983089.793 5  -9337458.806 5
        32.300          34.500
  21107048.706    21107047.813    21107046.183   -23381699.797 6 -18219495.355 6
        39.300          37.000
  21160282.355    21160281.897    21160279.063   -21032471.244 6 -16388929.490 7
        40.200          42.000
  22487596.283    22487595.382    22487595.309   -10794585.831 4  -8411361.885 5
        29.500          30.200
  22457206.589    22457206.018    22457205.803   -11537436.926 5  -8990207.159 5
        31.000          32.300
  20409587.960    20409587.116    20409584.545   -25826231.093 6 -20124327.758 7
        38.500          46.900
  23409616.168    23409614.476    23409613.045    -8549442.834 4  -6661900.392 4
        26.500          27.100
  24653388.385    24653387.557    24653386.409    -2992027.306 1  -2331447.913 1
         6.500          11.000
 09  1  5  0 22  0.0000000  0 11G24G 9G26G15G21G22G 3G 6G18G19G14
  24866366.096    24866366.786    24866367.040      641069.115      499538.906 1
                        11.000
  22876459.748    22876458.854    22876459.240   -10400095.697 4  -8103966.036 4
        24.200          27.100
  23913491.223    23913490.512    23913491.091    -2112101.416 1  -1645781.751 3
         9.000          19.300
  22567781.283    22567781.305    22567779.904   -11900672.465 5  -9273237.509 5
        31.800          34.300
  21119459.022    21119458.233    21119456.549   -23316482.413 6 -18168676.604 6
        39.100          37.000
  21149250.142    21149249.626    21149246.919   -21090445.451 6 -16434104.182 7
        40.000          42.000
  22492875.174    22492874.257    22492873.846   -10766845.031 4  -8389745.680 4
        29.500          29.900
  22463865.813    22463865.116    22463865.069   -11502441.141 5  -8962937.727 5
        30.200          31.800
  20409659.817    20409659.052    20409657.741   -25825852.762 6 -20124032.946 7
        38.600          46.800
  23399370.259    23399368.627    23399366.720    -8603285.903 4  -6703856.025 4
        27.100          27.100
  24631687.796    24631686.793    24631686.262    -3106062.418    -2420306.354 1
         3.000           9.000
 09  1  5  0 22 30.0000000  0 11G24G 9G26G15G21G22G 3G 6G18G19G14
  24886815.425    24886815.658    24886818.048      748536.486      583279.641 1
                         9.000
  22858779.206    22858778.696    22858778.375   -10493006.733 4  -8176364.224 4
        25.300          27.100
  23936037.668    23936037.861    23936038.375    -1993615.628 1  -1553455.176 3
        11.000          18.600
  22583529.993    22583529.987    22583528.416   -11817913.519 5  -9208750.022 5
        32.000          34.300
  21131954.267    21131953.396    21131951.640   -23250820.208 6 -18117511.249 6
        39.100          36.700
  21138278.520    21138278.016    21138275.066   -21148102.751 6 -16479031.941 7
        40.300          42.000
  22498264.241    22498263.599    22498263.431   -10738523.728 4  -8367677.139 4
        29.900          29.900
  22470625.756    22470625.195    22470625.030   -11466918.182 5  -8935257.504 5
        30.800          32.000
  20409806.447    20409805.628    20409803.115   -25825082.572 6 -20123432.800 7
        38.500          47.000
  23389220.842    23389219.057    23389217.686    -8656621.531 4  -6745416.244 4
        27.100          27.900
  24610004.295    24610003.321    24610003.033    -3220004.307 1  -2509092.194 1
         6.500           6.500
 09  1  5  0 23  0.0000000  0 11G21G24G 9G26G15G22G 3G 6G18G19G14
  21144534.717    21144533.923    21144532.149   -23184709.710 6 -18065996.567 6
        39.100          36.800
