     2.11           OBSERVATION DATA    G (GPS)             RINEX VERSION / TYPE
teqc  2008Oct2      WCDA Operator       20090107 00:18:55UTCPGM / RUN BY / DATE
Solaris x86 5.10|AMD64|cc SC5.8 -xarch=amd64|=+|=+          COMMENT
teqc  2008Oct2      WCDA Operator       20090106 01:18:41UTCCOMMENT
flin  WCDA-ACP   965000   CFS Flin Flon SASK Canada         MARKER NAME
40135M001                                                   MARKER NUMBER
PGC-WCDA            GEOL. SURV. CANADA                      OBSERVER / AGENCY
1115                AOA BENCHMARK ACT   3.3.32.4            REC # / TYPE / VERS
231                 AOAD/M_T        SCIS                    ANT # / TYPE
  -766174.4630 -3611375.3160  5184056.2210                  APPROX POSITION XYZ
        0.1500        0.0000        0.0000                  ANTENNA: DELTA H/E/N
     1     1                                                WAVELENGTH FACT L1/2
     7    C1    P1    P2    L1    L2    S1    S2            # / TYPES OF OBSERV
STATION INFORMATION EFFECTIVE FROM: 2001/01/13 18:20:00     COMMENT
                                TO: CURRENT DATE (above)    COMMENT
BIT 2 OF LLI FLAGS (+4) DATA COLLECTED UNDER 'AS' CONDITION COMMENT
L1 PHASE CENTRE 0.110m ABOVE ARP                            COMMENT
L2 PHASE CENTRE 0.128m ABOVE ARP                            COMMENT
where ARP is the Antenna Reference Point for HI measurement COMMENT
CONTACT gps@pgc.nrcan.gc.ca FOR ADDITIONAL INFORMATION      COMMENT
    P1 =    P1  TurboRogue; =    Y1  Benchmark              COMMENT
    L1 = L1(CA)                                             COMMENT
    P2 =    P2  TurboRogue; =    Y2  Benchmark              COMMENT
    L2 = L2(P2) TurboRogue; = L2(Y2) Benchmark              COMMENT
 SNR is mapped to RINEX snr flag value [0-9]                COMMENT
  L1 & L2: min(max(int(snr_dBHz/6), 0), 9)                  COMMENT
  2009     1     6     0     0    0.0000000     GPS         TIME OF FIRST OBS
                                                            END OF HEADER
 09  1  6  0  0  0.0000000  0 10G 6G26G 9G15G21G 3G22G19G18G24
  22290777.438    22290776.910    22290776.724   -12401778.258 5  -9663719.273 5
        32.800          32.800
  23135874.199    23135873.721    23135872.589    -6052457.687 3  -4716189.658 3
        21.100          23.400
  23555289.443    23555289.099    23555288.233    -7621701.053 3  -5938979.286 3
        19.300          22.600
  22047972.621    22047972.673    22047971.174   -14624959.076 5 -11396059.618 6
        35.900          37.700
  20730029.976    20730029.155    20730027.401   -25438742.099 6 -19822385.500 6
        41.000          41.400
  22375029.181    22375028.459    22375028.698   -11475836.177 5  -8942206.094 5
        30.400          31.100
  21580952.634    21580952.189    21580949.257   -18801196.854 6 -14650274.805 6
        38.200          38.700
  23827017.991    23827016.416    23827014.439    -6357028.595 3  -4953527.179 4
        23.400          24.600
  20454210.455    20454209.635    20454207.220   -25587966.597 6 -19938663.526 7
        38.100          46.600
  24145753.066    24145752.271    24145752.524    -3233806.374 2  -2519843.822 3
        12.600          21.100
 09  1  6  0  0 30.0000000  0 10G 6G26G 9G15G21G 3G22G19G18G24
  22293780.040    22293779.401    22293778.929   -12386001.617 5  -9651425.789 5
        33.100          33.000
  23156718.019    23156717.485    23156715.722    -5942925.295 3  -4630839.745 3
        21.600          23.000
  23535260.342    23535259.521    23535259.701    -7726952.994 3  -6020993.754 3
        19.300          22.600
  22061081.669    22061081.553    22061080.116   -14556071.080 5 -11342380.650 6
        35.800          37.700
  20739356.579    20739355.703    20739353.928   -25389730.645 6 -19784194.755 6
        41.000          41.200
  22376309.777    22376309.015    22376308.972   -11469108.028 5  -8936963.380 5
        30.800          31.000
  21567904.185    21567903.695    21567900.716   -18869766.934 6 -14703706.008 6
        38.300          38.800
  23813612.426    23813611.762    23813610.120    -6427467.717 3  -5008414.779 4
        22.100          24.900
  20451658.487    20451657.696    20451656.559   -25601377.265 6 -19949113.393 7
        38.100          46.500
  24165513.407    24165512.470    24165513.641    -3129961.881 2  -2438926.051 3
        12.600          19.900
 09  1  6  0  1  0.0000000  0 10G 6G26G 9G15G21G 3G22G19G18G24
  22296890.564    22296889.960    22296889.737   -12369654.688 5  -9638687.927 5
        32.700          32.800
  23177619.660    23177619.210    23177617.635    -5833084.921 3  -4545249.826 3
        20.500          23.000
  23515285.936    23515284.977    23515284.854    -7831920.381 3  -6102786.499 3
        19.900          23.400
  22074272.327    22074272.208    22074270.938   -14486753.480 5 -11288366.934 6
        35.600          37.800
  20748775.214    20748774.318    20748772.464   -25340235.874 6 -19745627.396 6
        41.100          41.100
  22377707.770    22377707.106    22377707.111   -11461760.863 5  -8931238.311 5
        31.100          30.800
  21554911.438    21554910.879    21554907.849   -18938044.795 6 -14756909.517 6
        38.600          38.700
  23800293.123    23800291.331    23800290.436    -6497465.288 3  -5062958.316 4
        21.600          25.300
  20449181.819    20449180.928    20449178.509   -25614392.504 6 -19959255.133 7
        38.100          46.600
  24185300.126    24185298.831    24185299.326    -3025988.321 2  -2357907.709 3
        12.600          19.900
 09  1  6  0  1 30.0000000  0 10G 6G26G 9G15G21G 3G22G19G18G24
  22300108.991    22300108.448    22300108.173   -12352740.695 5  -9625508.202 5
        32.400          32.700
  23198578.773    23198578.238    23198577.370    -5722942.428 3  -4459424.507 3
        20.500          23.400
  23495365.812    23495365.234    23495364.686    -7936601.853 3  -6184356.452 3
        20.500          23.800
  22087544.149    22087543.855    22087542.505   -14417011.110 5 -11234022.228 6
        35.700          37.700
  20758285.037    20758284.171    20758282.403   -25290260.897 6 -19706685.854 6
        41.000          41.000
  22379223.392    22379222.643    22379222.411   -11453797.805 5  -8925033.340 5
        31.600          30.800
  21541973.727    21541973.310    21541970.280   -19006031.951 6 -14809886.510 6
        38.700          38.800
  23787056.978    23787055.418    23787054.212    -6567021.540 3  -5117157.978 4
        21.100          24.900
  20446779.895    20446778.990    20446777.880   -25627014.368 6 -19969090.344 7
        38.100          46.500
  24205109.750    24205108.366    24205108.737    -2921889.570 2  -2276791.846 3
        15.100          18.600
 09  1  6  0  2  0.0000000  0 10G 6G26G 9G15G21G 3G22G19G18G24
  22303436.036    22303435.328    22303435.183   -12335257.836 5  -9611885.199 5
        32.600          32.800
  23219595.482    23219595.299    23219594.331    -5612498.161 3  -4373364.052 3
        19.900          23.400
  23475501.635    23475500.539    23475500.850    -8040991.225 3  -6265698.773 4
        19.300          24.600
  22100896.622    22100896.405    22100894.823   -14346843.481 5 -11179346.150 6
        35.800          37.400
  20767886.450    20767885.687    20767883.933   -25239803.928 6 -19667368.732 6
        40.900          40.800
  22380856.075    22380855.195    22380855.078   -11445217.396 5  -8918347.308 5
        31.500          30.600
  21529092.442    21529091.930    21529088.816   -19073724.801 6 -14862634.169 6
        38.900          38.900
  23773905.755    23773903.887    23773902.198    -6636131.298 3  -5171009.726 4
        20.500          24.200
  20444453.370    20444452.535    20444450.018   -25639240.414 6 -19978617.130 7
        38.100          46.600
  24224942.099    24224941.393    24224941.455    -2817664.428 2  -2195577.470 2
        16.100          17.800
 09  1  6  0  2 30.0000000  0 10G 6G26G 9G15G21G 3G22G19G18G24
  22306869.823    22306869.328    22306868.977   -12317212.579 5  -9597823.958 5
        32.400          32.700
  23240667.888    23240667.727    23240667.269    -5501761.220 3  -4287075.531 3
        20.500          23.800
  23455691.564    23455690.928    23455691.157    -8145090.634 3  -6346815.167 3
        21.100          23.800
  22114328.001    22114327.873    22114326.499   -14276258.828 5 -11124345.114 6
        35.400          37.200
  20777578.741    20777577.893    20777576.153   -25188871.574 6 -19627681.177 6
        41.000          40.900
  22382605.264    22382604.369    22382604.179   -11436025.655 5  -8911184.919 5
        31.300          30.400
  21516266.033    21516265.441    21516262.361   -19141128.351 6 -14915156.398 6
        38.900          39.100
  23760839.508    23760837.414    23760835.405    -6704798.280 3  -5224516.430 4
        21.600          24.600
  20442200.964    20442200.186    20442199.152   -25651076.268 6 -19987839.872 7
        38.100          46.300
  24244797.965    24244797.117    24244797.272    -2713320.220 2  -2114270.288 2
        16.100          16.100
 09  1  6  0  3  0.0000000  0 10G 6G26G 9G15G21G 3G22G19G18G24
  22310411.700    22310410.981    22310410.694   -12298601.548 5  -9583321.863 5
        32.300          32.800
  23261796.818    23261796.298    23261795.717    -5390730.711 3  -4200558.249 3
        20.500          23.000
  23435938.824    23435938.191    23435938.047    -8248892.463 3  -6427699.689 3
        20.500          22.600
  22127839.737    22127839.564    22127838.135   -14205255.634 5 -11069017.944 6
        35.600          37.400
  20787362.002    20787361.049    20787359.374   -25137460.482 6 -19587620.583 6
        40.800          40.700
  22384471.308    22384470.620    22384470.269   -11426219.153 5  -8903543.496 5
        31.800          30.400
  21503495.291    21503494.795    21503492.008   -19208237.654 6 -14967449.337 6
        38.800          39.300
  23747857.409    23747855.779    23747853.945    -6773016.466 3  -5277673.433 4
        21.600          24.600
  20440023.760    20440022.950    20440020.464   -25662517.769 6 -19996755.323 7
        38.100          46.400
  24264677.196    24264676.019    24264676.717    -2608854.216 2  -2032868.201 2
        15.100          13.900
 09  1  6  0  3 30.0000000  0 10G 6G26G 9G15G21G 3G22G19G18G24
  22314061.180    22314060.629    22314060.471   -12279421.916 5  -9568376.705 5
        32.300          33.000
  23282981.716    23282981.361    23282979.657    -5279405.991 3  -4113811.733 3
        19.900          22.600
  23416243.157    23416242.909    23416242.962    -8352389.363 3  -6508346.599 3
        19.300          21.600
  22141431.033    22141431.063    22141429.643   -14133832.133 5 -11013363.266 6
        35.600          37.300
  20797236.829    20797235.904    20797234.206   -25085567.740 6 -19547184.670 6
        40.900          40.600
  22386455.146    22386454.328    22386453.880   -11415794.407 5  -8895420.325 5
        31.800          30.200
  21490781.636    21490781.104    21490778.377   -19275047.977 6 -15019509.305 6
        38.700          39.400
  23734962.082    23734960.962    23734959.464    -6840779.731 3  -5330475.961 4
        21.600          25.300
  20437922.410    20437921.567    20437920.431   -25673560.619 6 -20005360.136 7
        38.100          46.400
  24284579.781    24284578.973    24284579.588    -2504264.133 2  -1951369.438 2
        12.600          13.900
 09  1  6  0  4  0.0000000  0 10G 6G26G 9G15G21G 3G22G19G18G24
  22317815.067    22317814.366    22317814.171   -12259695.343 5  -9553005.348 5
        32.300          32.800
  23304217.517    23304216.900    23304215.459    -5167811.204 3  -4026854.764 3
        19.300          22.100
  23396603.620    23396603.256    23396602.910    -8455598.483 3  -6588769.267 3
        19.300          21.600
  22155098.157    22155098.145    22155096.511   -14062011.672 5 -10957399.267 6
        35.600          37.100
  20807199.277    20807198.434    20807196.641   -25033214.626 6 -19506390.031 6
        40.800          40.500
  22388552.532    22388551.730    22388551.187   -11404773.322 5  -8886832.473 5
        31.500          30.600
  21478121.408    21478120.798    21478117.789   -19341579.120 6 -15071351.740 6
        39.000          39.400
  23722150.801    23722149.226    23722147.722    -6908106.384 3  -5382938.257 4
        23.400          25.300
  20435892.847    20435892.050    20435889.587   -25684226.020 6 -20013670.833 7
        38.100          46.400
  24304501.720    24304500.852    24304501.328    -2399571.993 1  -1869791.151 2
        11.000          13.900
 09  1  6  0  4 30.0000000  0 11G22G 6G26G 9G15G21G 3G14G19G18G24
  21465518.138    21465517.656    21465514.733   -19407808.832 6 -15122959.285 6
        39.200          39.500
  22321676.902    22321676.234    22321676.151   -12239401.055 5  -9537191.620 5
        32.100          33.000
  23325507.449    23325507.271    23325506.371    -5055927.906 3  -3939672.981 3
        18.600          22.100
  23377022.719    23377022.393    23377022.565    -8558494.602 3  -6668948.032 3
        19.300          23.000
  22168844.241    22168844.258    22168842.684   -13989774.851 5 -10901110.833 6
        35.400          36.900
  20817253.131    20817252.297    20817250.619   -24980380.510 6 -19465220.580 6
        40.600          40.300
  22390766.926    22390766.133    22390766.188   -11393134.866 5  -8877763.552 5
        31.300          30.600
  25214090.943    25214089.827    25214088.678           -.21912          .12112
        13.900          15.100
  23709427.054    23709424.829    23709423.103    -6974973.101 3  -5435042.186 4
        23.400          25.300
  20433939.177    20433938.377    20433937.193   -25694492.544 6 -20021670.717 7
        38.100          46.400
  24324446.839    24324446.270    24324446.996    -2294757.882 1  -1788117.844 2
         9.000          13.900
 09  1  6  0  5  0.0000000  0 11G22G 6G26G 9G15G21G 3G14G19G18G24
  21452971.702    21452971.203    21452968.254   -19473740.755 6 -15174334.791 6
        39.300          39.600
  22325645.942    22325645.321    22325644.776   -12218544.597 5  -9520939.840 5
        32.600          32.600
  23346851.362    23346850.930    23346850.439    -4943763.917 3  -3852272.462 3
        19.300          22.100
  23357502.233    23357501.656    23357501.903    -8661078.929 3  -6748883.813 4
        20.500          24.600
  22182668.392    22182668.172    22182666.777   -13917128.476 5 -10844503.265 6
        35.100          36.700
  20827397.735    20827396.826    20827395.167   -24927071.072 6 -19423680.756 6
        40.600          40.400
  22393098.380    22393097.642    22393097.409   -11380884.267 5  -8868217.634 5
        31.300          30.600
  25192050.407    25192050.056    25192048.924     -115815.943 2    -90245.803 2
        12.600          15.100
  23696789.498    23696787.645    23696785.604    -7041382.278 4  -5486789.574 4
        24.200          25.600
  20432060.607    20432059.725    20432057.286   -25704364.508 6 -20029363.154 7
        38.000          46.400
  24344416.091    24344415.050    24344414.864    -2189827.713 1  -1706354.113 2
        11.000          12.600
 09  1  6  0  5 30.0000000  0 11G22G 6G26G 9G15G21G 3G14G19G18G24
  21440480.850    21440480.296    21440477.256   -19539380.904 6 -15225482.942 6
        39.300          39.600
  22329720.362    22329719.672    22329719.450   -12197133.343 5  -9504255.753 5
        32.600          32.600
  23368246.805    23368246.142    23368246.009    -4831328.870 3  -3764660.720 3
        18.600          22.100
  23338039.977    23338039.414    23338039.506    -8763353.980 3  -6828578.618 4
        21.600          24.600
  22196568.698    22196568.704    22196567.102   -13844081.792 5 -10787583.769 6
        35.100          36.600
  20837631.043    20837630.307    20837628.639   -24873293.560 6 -19381776.202 6
        40.600          40.200
  22395544.747    22395543.785    22395543.616   -11368028.714 5  -8858200.320 5
        31.000          30.600
  25170015.249    25170015.447    25170018.867     -231592.217 1   -180461.030 2
         9.000          13.900
  23684238.925    23684236.814    23684234.585    -7107338.177 3  -5538183.766 4
        23.800          25.300
  20430255.969    20430255.098    20430253.870   -25713848.206 6 -20036753.042 7
        38.100          46.400
  24364404.198    24364403.646    24364402.347    -2084789.604 1  -1624506.239 2
        11.000          12.600
 09  1  6  0  6  0.0000000  0 11G22G 6G26G 9G15G21G 3G14G19G18G24
  21428046.968    21428046.434    21428043.274   -19604722.064 6 -15276398.114 6
        39.700          39.700
  22333901.134    22333900.587    22333900.389   -12175162.329 5  -9487135.491 5
        32.400          32.700
  23389695.165    23389694.798    23389693.647    -4718620.039 2  -3676835.674 3
        17.000          21.600
  23318637.855    23318637.437    23318637.360    -8865310.189 3  -6908024.986 3
        20.500          23.800
  22210545.841    22210545.763    22210544.246   -13770631.205 5 -10730349.540 6
        34.900          36.500
  20847954.789    20847953.935    20847952.266   -24819042.823 6 -19339502.904 6
        40.500          40.200
  22398107.181    22398106.281    22398106.093   -11354563.381 5  -8847707.860 5
        31.000          30.800
  25147992.202    25147992.247    25147995.637     -347321.141 1   -270639.400 1
         9.000          11.000
  23671775.285    23671773.568    23671771.345    -7172832.651 3  -5589218.417 4
        23.800          24.900
  20428526.314    20428525.448    20428522.768   -25722937.601 6 -20043835.686 7
        38.100          46.400
  24384413.854    24384412.622    24384412.361    -1979638.980 1  -1542570.688 2
        11.000          12.600
 09  1  6  0  6 30.0000000  0 11G22G 6G26G 9G15G21G 3G14G19G18G24
  21415670.445    21415669.926    21415667.010   -19669759.612 6 -15327076.702 6
        39.500          39.800
  22338188.842    22338188.437    22338188.322   -12152628.949 5  -9469577.021 5
        32.100          32.600
  23411194.872    23411194.325    23411193.848    -4605637.216 2  -3588797.104 3
        17.000          22.100
  23299298.501    23299298.011    23299297.653    -8966940.629 3  -6987217.508 3
        21.100          23.800
  22224600.353    22224600.143    22224598.463   -13696775.310 5 -10672799.487 6
        35.200          36.400
  20858368.883    20858368.012    20858366.317   -24764316.093 6 -19296858.707 6
        40.500          39.900
  22400785.882    22400785.124    22400785.073   -11340485.266 5  -8836737.903 5
        31.100          31.100
  25125982.271    25125980.423    25125981.869     -462997.041 1   -360776.457 1
         6.500          11.000
  23659400.521    23659398.521    23659397.361    -7237860.096 3  -5639889.148 4
        23.400          25.600
  20426872.321    20426871.470    20426870.313   -25731629.024 6 -20050608.218 7
        38.100          46.400
  24404444.596    24404444.047    24404443.842    -1874373.618 1  -1460545.731 2
        11.000          13.900
 09  1  6  0  7  0.0000000  0 11G22G 6G26G 9G15G21G 3G14G19G18G24
  21403352.172    21403351.673    21403348.681   -19734492.823 6 -15377518.146 6
        39.500          39.900
  22342584.267    22342583.475    22342583.103   -12129534.063 5  -9451581.006 5
        32.400          32.600
  23432747.247    23432746.441    23432744.987    -4492383.280 2  -3500547.296 3
        17.800          20.500
  23280021.228    23280020.356    23280020.627    -9068241.817 3  -7066153.477 4
        21.100          24.900
  22238731.560    22238731.345    22238729.731   -13622516.299 5 -10614935.315 6
        35.200          36.500
  20868873.682    20868872.733    20868870.842   -24709114.173 6 -19253844.215 6
        40.500          39.700
  22403581.301    22403580.476    22403580.690   -11325795.083 5  -8825291.017 5
        31.000          31.100
  25103979.412    25103978.401    25103979.128     -578618.113 1   -450870.756 1
         6.500           9.000
  23647115.653    23647113.875    23647112.521    -7302418.180 3  -5690194.131 4
        23.800          26.500
  20425294.114    20425293.275    20425290.714   -25739922.407 6 -20057070.589 7
        38.100          46.400
  24424496.903    24424495.989    24424495.994    -1768994.878 1  -1378432.449 2
         6.500          13.900
 09  1  6  0  7 30.0000000  0 11G22G 6G26G 9G15G21G 3G14G19G18G24
  21391090.929    21391090.373    21391087.297   -19798926.742 6 -15427726.370 6
        39.700          39.900
  22347084.132    22347083.605    22347083.329   -12105885.039 5  -9433153.196 5
        32.100          32.400
  23454347.615    23454347.310    23454346.171    -4378867.721 3  -3412093.592 3
        18.600          21.100
  23260806.660    23260806.133    23260805.806    -9169216.492 3  -7144834.987 4
        22.100          26.200
  22252937.684    22252937.395    22252935.647   -13547862.935 5 -10556763.856 6
        35.100          36.300
  20879467.037    20879466.228    20879464.442   -24653444.514 6 -19210465.259 6
        40.500          39.500
  22406492.333    22406491.438    22406491.143   -11310499.928 5  -8813372.715 5
        31.300          31.000
  25081987.031    25081986.365    25081986.293     -694188.640 1   -540925.648 1
         6.500           9.000
  23634919.605    23634917.819    23634915.735    -7366511.512 4  -5740136.968 4
        24.600          26.200
  20423790.349    20423789.542    20423788.329   -25747824.250 6 -20063227.865 7
        38.000          46.100
  24444569.670    24444570.001    24444569.704    -1663510.827 1  -1296237.112 2
         6.500          16.100
 09  1  6  0  8  0.0000000  0 11G22G 6G26G 9G15G21G 3G14G19G18G24
  21378886.586    21378886.064    21378882.858   -19863060.828 6 -15477700.972 6
        39.700          39.900
  22351690.020    22351689.424    22351688.922   -12081682.125 5  -9414293.790 5
        32.600          32.600
  23475997.792    23475997.791    23475996.716    -4265093.069 3  -3323438.002 3
        18.600          22.100
  23241654.777    23241654.149    23241653.868    -9269860.275 3  -7223258.666 4
        22.100          25.600
  22267218.388    22267218.208    22267216.457   -13472817.032 5 -10498286.523 6
        34.800          36.300
  20890149.571    20890148.736    20890147.010   -24597307.168 6 -19166721.870 6
        40.300          39.500
  22409517.855    22409516.789    22409516.667   -11294600.271 5  -8800983.375 5
        30.800          30.800
  25060005.916    25060004.872    25060004.843     -809706.088 1   -630939.226 1
         9.000           9.000
  23622811.385    23622809.866    23622808.230    -7430137.158 4  -5789715.378 4
        24.900          26.200
  20422361.524    20422360.676    20422358.165   -25755333.648 6 -20069079.340 7
        38.100          46.600
  24464663.357    24464662.358    24464662.118    -1557921.892    -1213960.052 2
         3.000          16.100
 09  1  6  0  8 30.0000000  0 11G22G 6G26G 9G15G21G 3G14G19G18G24
  21366738.580    21366738.074    21366735.065   -19926898.570 6 -15527444.651 6
        39.700          40.200
  22356399.701    22356399.196    22356399.102   -12056931.227 5  -9395007.372 5
        32.300          33.000
  23497696.615    23497696.636    23497695.768    -4151067.447 2  -3234586.846 3
        17.000          23.000
  23222564.720    23222564.256    23222564.587    -9370174.206 3  -7301425.337 4
        21.100          24.900
  22281572.177    22281572.051    22281570.568   -13397386.232 5 -10439509.279 6
        34.500          36.500
  20900920.012    20900919.222    20900917.425   -24540708.226 6 -19122618.792 6
        40.500          39.200
  22412656.992    22412656.165    22412656.254   -11278101.726 5  -8788127.380 5
        30.600          31.000
  25038033.502    25038033.039    25038032.339     -925173.296     -720913.646 1
         3.000          11.000
  23610792.148    23610790.881    23610788.775    -7493297.910 4  -5838931.529 4
        24.600          25.900
  20421006.282    20421005.441    20421004.262   -25762455.407 6 -20074628.762 7
        38.100          46.400
  24484774.900    24484774.510    24484774.788    -1452234.484    -1131606.244 2
                        16.100
 09  1  6  0  9  0.0000000  0 11G22G 6G26G 9G15G21G 3G14G19G18G24
  21354648.697    21354648.105    21354645.117   -19990431.572 6 -15576950.861 6
        39.800          40.300
  22361215.157    22361214.612    22361214.590   -12031626.040 5  -9375289.052 5
        32.000          33.100
  23519444.104    23519443.660    23519442.217    -4036786.361 2  -3145536.657 3
        17.000          22.600
  23203541.339    23203540.860    23203540.542    -9470147.438 3  -7379326.519 4
        21.600          25.300
  22296000.379    22296000.289    22295998.633   -13321564.651 5 -10380427.528 5
        34.400          35.900
  20911779.705    20911778.821    20911776.919   -24483640.855 6 -19078150.709 6
        40.500          39.000
  22415911.938    22415911.030    22415911.091   -11260997.808 5  -8774799.667 5
        30.600          31.000
  25016073.342    25016071.814    25016071.738    -1040580.741     -810841.436 2
         3.000          12.600
  23598863.127    23598861.668    23598859.972    -7555984.127 3  -5887777.912 4
        23.800          26.200
  20419726.180    20419725.367    20419722.801   -25769182.139 6 -20079870.369 7
        38.100          46.500
  24504903.835    24504902.810    24504907.513    -1346442.812    -1049171.221 1
                        11.000
 09  1  6  0  9 30.0000000  0 11G22G 6G26G 9G15G21G 3G14G19G18G24
  21342616.570    21342616.101    21342613.085   -20053660.125 6 -15626219.851 6
        40.000          40.400
  22366135.737    22366135.064    22366135.002   -12005768.747 5  -9355140.516 5
        31.800          32.800
  23541239.069    23541238.300    23541237.088    -3922253.888 2  -3056290.566 3
        17.000          21.600
  23184582.369    23184581.450    23184581.671    -9569777.342 3  -7456960.168 4
        21.600          25.600
  22310502.061    22310502.261    22310500.711   -13245355.597 5 -10321043.843 5
        34.100          35.700
  20922727.892    20922727.067    20922725.298   -24426107.020 6 -19033319.143 6
        40.400          38.900
  22419281.788    22419281.079    22419280.832   -11243290.037 5  -8761001.400 5
        31.100          31.300
  24994122.518    24994121.889    24994120.987    -1155927.270 1   -900721.748 1
         6.500          11.000
  23587025.393    23587023.562    23587021.581    -7618194.835 3  -5936253.775 4
        23.800          26.500
  20418521.106    20418520.280    20418519.152   -25775514.519 6 -20084804.684 7
        38.100          46.400
  24525054.643    24525053.913    24525053.870    -1240549.211     -966656.759 2
                        13.900
 09  1  6  0 10  0.0000000  0 11G22G 6G26G 9G15G21G 3G14G19G18G24
  21330643.197    21330642.643    21330639.691   -20116580.979 6 -15675249.077 6
        39.900          40.500
  22371161.616    22371161.032    22371160.938   -11979357.782 5  -9334560.548 5
        32.000          33.000
  23563081.894    23563081.117    23563079.494    -3807471.011 2  -2966849.340 3
        17.800          21.600
  23165689.596    23165688.885    23165688.948    -9669058.082 3  -7534321.750 4
        22.600          25.900
  22325078.142    22325078.275    22325076.609   -13168759.639 5 -10261358.679 5
        34.500          35.900
  20933765.282    20933764.466    20933762.657   -24368105.433 6 -18988123.100 6
        40.500          38.800
  22422766.515    22422765.663    22422765.678   -11224977.280 5  -8746731.724 5
        30.800          31.100
  24972183.574    24972184.666    24972183.026    -1271208.896     -990551.497 1
         3.000           9.000
  23575278.417    23575276.291    23575274.639    -7679925.733 4  -5984355.752 4
        24.200          26.500
  20417391.488    20417390.729    20417388.072   -25781450.461 6 -20089430.095 7
        38.100          46.400
  24545227.319    24545226.681    24545227.998    -1134552.844     -884062.281 2
                        15.100
 09  1  6  0 10 30.0000000  0 11G22G 6G26G 9G15G21G 3G14G19G18G24
  21318728.320    21318727.824    21318725.038   -20179193.085 6 -15724037.716 6
        39.800          40.700
  22376292.819    22376291.910    22376291.852   -11952394.201 5  -9313549.968 5
        31.800          32.800
  23584970.738    23584970.138    23584969.185    -3692440.517 2  -2877215.191 3
        17.000          21.100
  23146863.929    23146863.320    23146863.703    -9767985.750 3  -7611408.209 4
        22.100          26.500
  22339727.477    22339727.288    22339725.672   -13091778.738 5 -10201373.558 5
        34.500          35.900
  20944891.629    20944890.678    20944888.810   -24309636.621 6 -18942562.987 6
        40.300          38.500
  22426365.809    22426365.140    22426365.270   -11206060.103 5  -8731991.072 5
        30.400          30.600
  24950259.725    24950259.083    24950256.960    -1386423.065 1  -1080328.677 1
         6.500          11.000
  23563623.186    23563621.523    23563619.662    -7741174.159 4  -6032081.782 4
        24.900          27.100
  20416337.712    20416336.812    20416335.612   -25786989.427 6 -20093746.169 7
        38.200          46.600
  24565417.774    24565416.851    24565418.501    -1028454.664 1   -801388.396 2
         6.500          17.000
 09  1  6  0 11  0.0000000  0 11G22G 6G26G 9G15G21G 3G14G19G18G24
  21306873.077    21306872.562    21306869.466   -20241493.779 6 -15772583.703 6
        40.100          40.500
  22381529.110    22381528.418    22381528.131   -11924877.214 5  -9292108.163 5
        32.000          32.800
  23606906.664    23606906.572    23606905.405    -3577163.651 2  -2787389.049 3
        17.000          21.600
  23128107.492    23128106.835    23128106.873    -9866555.076 3  -7688215.410 4
        22.100          26.500
  22354449.563    22354449.405    22354447.847   -13014413.175 5 -10141088.700 5
        34.300          35.900
  20956106.702    20956105.882    20956104.143   -24250699.955 6 -18896638.310 6
        40.300          38.500
  22430081.084    22430080.296    22430080.258   -11186537.979 5  -8716779.031 5
        30.600          30.800
  24928349.120    24928348.385    24928346.589    -1501566.083    -1170050.394 2
         3.000          12.600
  23552061.119    23552059.376    23552057.110    -7801936.662 4  -6079429.171 4
        24.600          27.100
  20415359.462    20415358.678    20415356.060   -25792129.566 6 -20097751.470 7
        38.200          46.600
  24585627.056    24585626.488    24585627.697     -922254.317 1   -718634.877 2
         9.000          16.100
 09  1  6  0 11 30.0000000  0 11G22G 6G26G 9G15G21G 3G14G19G18G24
  21295076.753    21295076.124    21295073.021   -20303484.080 6 -15820887.827 6
        40.000          40.600
  22386869.989    22386869.342    22386869.078   -11896810.329 5  -9270237.862 5
        32.100          32.700
  23628889.375    23628888.965    23628887.595    -3461645.595 2  -2697374.982 3
        15.100          21.600
  23109418.556    23109418.251    23109417.874    -9964764.378 3  -7764742.113 4
        23.400          25.900
  22369244.198    22369243.986    22369242.418   -12936667.895 5 -10080507.959 6
        34.100          36.200
  20967410.506    20967409.637    20967407.981   -24191298.509 6 -18850351.469 6
        40.200          38.500
  22433911.014    22433910.234    22433909.987   -11166413.405 5  -8701097.557 5
        31.000          30.600
  24906450.145    24906450.782    24906449.377    -1616638.288    -1259716.930 2
         3.000          12.600
  23540589.886    23540588.163    23540586.752    -7862213.457 3  -6126398.086 4
        23.000          27.100
  20414456.686    20414455.883    20414454.670   -25796873.242 6 -20101447.836 7
        38.200          46.400
  24605855.469    24605854.718    24605854.857     -815955.557 1   -635804.700 2
         9.000          16.100
 09  1  6  0 12  0.0000000  0 11G22G 6G26G 9G15G21G 3G14G19G18G24
  21283337.450    21283336.958    21283334.012   -20365173.543 6 -15868957.528 6
        40.000          40.900
  22392313.091    22392312.525    22392312.563   -11868205.065 5  -9247948.044 5
        31.600          32.600
  23650915.456    23650914.705    23650913.329    -3345899.982 2  -2607183.608 3
        15.100          21.100
  23090797.200    23090796.872    23090796.298   -10062620.457 3  -7840993.586 4
        23.400          25.600
  22384108.426    22384108.134    22384106.599   -12858555.582 5 -10019641.224 6
        33.800          36.100
  20978800.545    20978799.678    20978797.821   -24131443.792 6 -18803711.428 6
        40.300          38.200
  22437852.756    22437851.901    22437851.723   -11145698.574 5  -8684956.134 5
        30.600          30.400
  24884564.804    24884564.497    24884564.431    -1731648.172    -1349334.937 2
         3.000          15.100
  23529210.057    23529208.540    23529207.329    -7922012.805 3  -6172994.956 4
        23.400          27.400
  20413627.534    20413626.768    20413624.148   -25801230.828 6 -20104843.356 7
        38.300          46.700
  24626098.675    24626097.618    24626099.219     -709570.153 1   -552907.014 2
         9.000          13.900
 09  1  6  0 12 30.0000000  0 11G 6G26G 9G15G21G 3G22G14G19G18G24
  22397858.939    22397858.365    22397858.357   -11839061.239 5  -9225238.575 5
        31.500          32.600
  23672983.612    23672983.659    23672981.951    -3229928.493 2  -2516816.217 3
        16.100          21.600
  23072243.916    23072243.531    23072243.292   -10160118.350 3  -7916965.942 4
        23.400          25.900
  22399042.152    22399042.024    22399040.576   -12780077.100 5  -9958489.164 5
        33.600          35.700
  20990276.856    20990275.994    20990274.122   -24071135.432 6 -18756717.900 6
        40.200          38.100
  22441907.092    22441906.217    22441906.130   -11124393.179 5  -8668354.532 5
        30.600          30.400
  21271655.885    21271655.408    21271652.528   -20426560.216 6 -15916791.291 6
        40.000          41.000
  24862694.293    24862692.996    24862691.252    -1846592.138    -1438901.609 2
         3.000          16.100
  23517922.570    23517921.287    23517919.057    -7981331.415 4  -6219217.230 4
        24.200          26.800
  20412872.002    20412871.236    20412869.954   -25805201.072 6 -20107937.047 7
        38.400          46.700
  24646360.156    24646358.630    24646359.776     -603098.190 1   -469941.862 2
         6.500          13.900
 09  1  6  0 13  0.0000000  0 11G21G 6G26G 9G15G 3G22G14G19G18G24
  21001841.108    21001840.210    21001838.347   -24010365.424 6 -18709364.642 6
        40.300          38.000
  22403509.075    22403508.430    22403508.307   -11809371.136 5  -9202103.434 5
        31.600          32.600
  23695096.852    23695096.057    23695095.082    -3113725.358 2  -2426268.310 3
        17.000          21.100
  23053761.046    23053760.372    23053760.355   -10257245.936 3  -7992649.735 4
        22.600          26.200
  22414047.131    22414046.903    22414045.450   -12701225.950 5  -9897046.710 5
        33.400          35.300
  22446075.011    22446074.431    22446074.139   -11102489.083 5  -8651286.417 5
        30.600          30.200
  21260033.842    21260033.381    21260030.403   -20487634.360 6 -15964381.527 6
        40.000          41.000
  24840835.286    24840834.486    24840833.270    -1961459.462 1  -1528408.518 2
         6.500          16.100
  23506728.205    23506726.708    23506724.596    -8040158.170 4  -6265056.260 4
        24.900          26.200
  20412192.006    20412191.199    20412188.504   -25808774.726 6 -20110721.712 7
        38.400          46.800
  24666639.167    24666636.484    24666638.862     -496532.305     -386903.518 2
                        12.600
 09  1  6  0 13 30.0000000  0 11G21G 6G26G 9G15G 3G22G14G19G18G24
  21013493.198    21013492.309    21013490.299   -23949133.443 6 -18661651.410 6
        40.300          37.900
  22409262.910    22409262.359    22409262.342   -11779134.485 5  -9178542.407 5
        31.800          32.600
  23717253.203    23717252.808    23717251.891    -2997292.035 2  -2335541.041 3
        16.100          20.500
  23035350.255    23035349.397    23035349.039   -10353997.837 3  -8068040.781 4
        23.000          25.600
  22429122.708    22429122.324    22429120.973   -12622003.285 5  -9835314.761 5
        33.100          34.900
  22450357.520    22450356.568    22450356.514   -11079986.007 5  -8633751.567 5
        30.600          30.400
  21248471.880    21248471.313    21248468.332   -20548393.599 6 -16011726.383 6
        40.000          41.100
  24818991.940    24818990.599    24818989.771    -2076246.517 1  -1617852.919 2
         6.500          17.000
  23495628.182    23495626.314    23495624.811    -8098489.925 4  -6310509.574 4
        25.300          27.400
  20411587.740    20411586.896    20411585.677   -25811950.215 6 -20113196.113 7
        38.400          46.800
  24686934.723    24686933.844    24686937.524     -389872.419     -303791.953 2
                        12.600
 09  1  6  0 14  0.0000000  0 11G 6G26G 9G15G21G 3G22G14G19G18G24
  22415120.580    22415119.889    22415119.500   -11748352.641 5  -9154556.555 5
        31.500          32.100
  23739451.991    23739451.577    23739451.876    -2880631.658 2  -2244636.849 3
        15.100          19.900
  23017010.442    23017010.169    23017009.963   -10450370.604 3  -8143136.432 4
        23.000          24.900
  22444268.365    22444268.169    22444266.727   -12542411.513 5  -9773295.197 5
        33.200          34.900
  21025232.921    21025231.995    21025230.106   -23887440.524 6 -18613579.007 6
        40.000          37.700
  22454753.193    22454752.424    22454752.555   -11056885.212 5  -8615750.953 5
        30.400          30.800
  21236969.721    21236969.268    21236966.395   -20608836.979 6 -16058825.116 6
        40.000          41.300
  24797162.264    24797161.973    24797161.842    -2190951.338 1  -1707233.234 2
         6.500          17.800
  23484622.760    23484621.141    23484619.638    -8156324.569 4  -6355575.510 4
        25.600          27.400
  20411059.085    20411058.298    20411055.765   -25814727.974 6 -20115360.600 7
        38.400          46.700
  24707249.937    24707250.062    24707251.287     -283120.136     -220608.407 2
                        12.600
 09  1  6  0 14 30.0000000  0 11G21G 6G26G 9G15G 3G22G14G19G18G24
  21037059.526    21037058.614    21037056.653   -23825291.517 6 -18565151.210 6
        40.100          37.500
  22421080.886    22421080.297    22421080.047   -11717030.421 5  -9130149.627 5
        31.600          32.300
  23761693.309    23761693.643    23761692.815    -2763750.856 2  -2153560.889 3
        15.100          19.900
  22998743.721    22998743.108    22998742.846   -10546364.270 3  -8217936.679 4
        22.600          24.900
  22459483.139    22459483.234    22459481.839   -12462456.327 5  -9710992.445 5
        33.500          35.200
  22459262.520    22459261.571    22459261.486   -11033190.954 5  -8597287.901 5
        30.400          31.000
  21225527.418    21225526.938    21225524.026   -20668967.253 6 -16105679.871 6
        40.200          41.400
  24775349.913    24775349.787    24775348.910    -2305575.842 1  -1796550.961 2
        11.000          16.100
  23473711.800    23473710.029    23473707.768    -8213663.750 4  -6400255.395 4
        26.500          26.500
  20410605.428    20410604.691    20410603.446   -25817111.510 6 -20117217.896 7
        38.400          46.500
  24727580.982    24727581.362    24727582.623     -176280.362     -137356.695 2
                        13.900
 09  1  6  0 15  0.0000000  0 11G21G 6G26G 9G15G 3G22G14G19G18G24
  21048972.353    21048971.366    21048969.378   -23762689.471 6 -18516370.388 6
        40.000          37.300
  22427143.472    22427142.801    22427142.653   -11685171.098 5  -9105324.176 5
        31.300          32.100
  23783975.699    23783976.206    23783976.286    -2646654.826 2  -2062317.206 3
        15.100          19.900
  22980549.351    22980548.619    22980548.068   -10641977.314 3  -8292440.342 4
        23.800          25.300
  22474766.431    22474766.313    22474765.117   -12382142.438 5  -9648410.191 5
        33.100          35.100
  22463883.529    22463882.591    22463882.368   -11008907.019 5  -8578365.359 5
        30.800          30.800
  21214144.134    21214143.678    21214140.693   -20728786.325 6 -16152292.129 6
        40.100          41.300
  24753553.210    24753552.677    24753552.040    -2420120.110 2  -1885806.230 2
        12.600          16.100
  23462894.612    23462892.977    23462890.701    -8270507.880 4  -6444549.524 4
        27.100          26.500
  20410226.557    20410225.770    20410223.263   -25819102.846 6 -20118769.582 7
        38.400          46.800
  24747931.064    24747929.740    24747930.070      -69356.623      -54039.526 2
                        13.900
 09  1  6  0 15 30.0000000  0 11G21G 6G26G 9G15G 3G22G14G19G18G24
  21060972.240    21060971.447    21060969.687   -23699627.907 6 -18467231.505 6
        39.700          37.500
  22433309.559    22433308.908    22433308.501   -11652768.651 5  -9080075.515 5
        31.300          31.800
  23806301.916    23806301.818    23806300.210    -2529339.013 2  -1970902.276 3
        16.100          19.900
  22962429.278    22962428.497    22962428.019   -10737198.621 4  -8366638.745 4
        24.200          25.600
  22490118.936    22490118.806    22490117.420   -12301464.540 5  -9585544.302 5
        32.800          35.100
  22468618.087    22468617.206    22468616.889   -10984027.078 5  -8558978.395 5
        30.800          30.600
  21202822.154    21202821.618    21202818.493   -20788285.000 6 -16198654.729 6
        40.200          41.500
  24731773.698    24731773.167    24731772.602    -2534574.103 2  -1974991.134 2
        12.600          17.000
  23452173.223    23452171.480    23452169.563    -8326847.242 4  -6488450.314 4
        27.400          26.500
  20409923.699    20409922.923    20409921.627   -25820694.249 6 -20120009.633 7
        38.500          46.600
  24768293.537    24768292.754    24768292.301       37657.270       29347.879 1
         3.000          11.000
 09  1  6  0 16  0.0000000  0 11G 6G26G 9G15G21G 3G22G14G19G18G24
  22439576.574    22439575.970    22439575.825   -11619834.188 5  -9054412.292 5
        31.000          32.000
  23828666.492    23828665.513    23828663.517    -2411816.210 2  -1879326.048 3
        15.100          19.300
  22944382.275    22944381.799    22944381.291   -10832034.454 3  -8440536.781 4
        23.400          25.300
  22505538.258    22505538.251    22505536.673   -12220434.846 5  -9522404.277 5
        32.400          34.500
  21073057.801    21073056.981    21073055.272   -23636118.104 6 -18417743.346 6
        39.700          37.400
  22473463.952    22473463.009    22473462.789   -10958561.980 5  -8539135.460 5
        30.600          30.400
  21191559.120    21191558.563    21191555.611   -20847472.260 6 -16244774.665 6
        40.200          41.700
  24710009.585    24710009.227    24710008.204    -2648945.867 1  -2064111.960 2
        11.000          15.100
  23441546.463    23441544.811    23441542.939    -8382690.014 4  -6531964.145 4
        27.600          26.500
  20409695.250    20409694.357    20409691.865   -25821895.489 6 -20120945.663 7
        38.500          47.000
  24788671.061    24788670.397    24788671.022      144750.078 1    112796.781 1
         6.500          11.000
 09  1  6  0 16 30.0000000  0 11G 6G26G 9G15G21G 3G22G14G19G18G24
  22445945.251    22445944.647    22445944.473   -11586366.778 5  -9028333.785 5
        31.000          32.100
  23851068.886    23851068.175    23851066.830    -2294087.074 2  -1787589.064 3
        12.600          19.300
  22926409.796    22926409.071    22926409.003   -10926478.933 3  -8514129.845 4
        22.100          25.300
  22521024.604    22521024.489    22521023.049   -12139053.626 5  -9458990.334 5
        32.400          34.500
  21085228.926    21085228.130    21085226.519   -23572158.336 6 -18367904.565 6
        39.700          37.400
  22478421.003    22478420.198    22478420.049   -10932510.530 4  -8518835.628 5
        29.900          30.100
  21180355.983    21180355.483    21180352.385   -20906345.305 6 -16290649.763 6
        40.300          41.800
  24688261.511    24688260.861    24688260.287    -2763231.451 1  -2153165.636 2
        11.000          13.900
  23431015.863    23431014.185    23431012.132    -8438031.985 4  -6575087.753 4
        27.600          26.800
  20409541.105    20409540.339    20409539.098   -25822704.843 6 -20121576.327 7
        38.500          46.800
  24809065.338    24809064.962    24809065.959      251922.419 1    196307.651 1
         6.500          11.000
 09  1  6  0 17  0.0000000  0 11G 6G26G 9G15G21G 3G22G14G19G18G24
  22452413.664    22452413.057    22452413.072   -11552374.580 5  -9001846.354 5
        30.800          32.300
  23873508.748    23873508.396    23873507.134    -2176161.750 1  -1695699.226 3
        11.000          19.300
  22908512.008    22908511.313    22908510.482   -11020535.735 3  -8587420.830 4
        23.800          25.600
  22536576.394    22536576.196    22536574.632   -12057330.222 5  -9395309.763 5
        32.700          34.500
  21097484.122    21097483.320    21097481.528   -23507756.862 6 -18317721.600 6
        39.500          37.200
  22483488.123    22483487.348    22483487.558   -10905881.314 4  -8498085.597 5
        29.700          30.200
  21169211.380    21169210.952    21169207.844   -20964910.162 6 -16336284.710 6
        40.500          41.800
  24666528.943    24666528.667    24666526.805    -2877435.651 1  -2242155.960 2
         9.000          12.600
  23420578.649    23420576.529    23420575.113    -8492878.371 4  -6617825.194 4
        26.200          26.800
  20409460.346    20409459.594    20409457.131   -25823129.137 6 -20121906.943 7
        38.600          47.000
  24829472.697    24829472.103    24829474.233      359165.659 1    279873.810 1
         6.500          11.000
 09  1  6  0 17 30.0000000  0 11G21G 6G26G 9G15G 3G22G14G19G18G24
  21109827.795    21109826.929    21109825.165   -23442890.757 6 -18267176.586 6
        39.500          37.100
  22458986.840    22458986.095    22458985.773   -11517834.574 5  -8974932.067 5
        31.000          32.100
  23895990.093    23895989.860    23895989.580    -2058018.676 1  -1603639.693 3
        11.000          19.900
  22890692.624    22890691.837    22890691.645   -11114176.723 3  -8660387.822 4
        23.800          26.500
  22552196.890    22552196.900    22552195.519   -11975242.279 5  -9331345.131 5
        32.300          34.500
  22488670.185    22488669.318    22488669.359   -10878651.184 4  -8476867.331 5
        29.700          30.200
  21158130.147    21158129.672    21158126.848   -21023141.515 6 -16381659.789 7
        40.200          42.000
  24644817.930    24644817.135    24644815.495    -2991531.773 1  -2331061.989 1
         6.500          11.000
  23410240.811    23410238.954    23410237.490    -8547202.651 4  -6660155.793 4
        26.500          27.100
  20409457.692    20409456.869    20409455.669   -25823143.716 6 -20121918.300 7
        38.600          47.100
  24849898.736    24849897.126    24849898.796      466502.973      363513.227 1
                        11.000
 09  1  6  0 18  0.0000000  0 11G 6G26G 9G15G21G 3G22G14G19G18G24
  22465660.932    22465660.353    22465660.130   -11482760.070 5  -8947601.290 5
        30.400          31.800
  23918509.778    23918509.038    23918509.628    -1939672.536 1  -1511421.940 3
        11.000          18.600
  22872950.625    22872950.070    22872950.167   -11207409.972 4  -8733037.078 4
        24.900          27.400
  22567884.324    22567884.271    22567882.788   -11892804.186 5  -9267107.657 5
        32.100          34.300
  21122257.321    21122256.470    21122254.740   -23377572.635 6 -18216279.348 6
        39.300          36.900
  22493963.974    22493963.050    22493962.620   -10850832.927 4  -8455190.766 4
        29.700          29.900
  21147110.426    21147109.917    21147107.111   -21081050.402 6 -16426783.587 7
        40.200          42.000
  24623124.955    24623124.322    24623122.298    -3105529.627 1  -2419891.467 1
         6.500           6.500
  23400000.833    23399998.971    23399997.221    -8601014.705 4  -6702087.275 4
        27.400          27.100
  20409530.679    20409529.836    20409527.134   -25822760.290 6 -20121619.523 7
        38.700          47.100
  24870339.123    24870337.929    24870339.552      573921.196      447215.671 1
                        11.000
 09  1  6  0 18 30.0000000  0 11G 6G26G 9G15G21G 3G22G14G19G18G24
  22472435.082    22472434.364    22472434.270   -11447162.558 5  -8919862.967 5
        31.000          32.100
  23941065.707    23941066.818    23941067.192    -1821136.459 1  -1419056.164 3
         9.000          18.600
  22855285.227    22855284.878    22855284.420   -11300242.195 4  -8805373.859 4
        25.300          27.400
  22583636.207    22583636.082    22583634.645   -11810028.131 5  -9202606.841 5
        32.100          34.300
  21134771.031    21134770.169    21134768.246   -23311813.604 6 -18165038.549 6
        39.300          36.800
  22499367.038    22499366.387    22499366.282   -10822438.069 5  -8433064.908 5
        30.100          30.100
  21136150.589    21136150.061    21136147.066   -21138645.924 6 -16471663.212 7
        40.500          42.100
  24601447.345    24601446.501    24601445.628    -3219437.416    -2508650.796 1
         3.000           6.500
  23389856.515    23389854.785    23389853.322    -8654322.624 4  -6743625.903 4
        27.400          27.600
  20409677.413    20409676.599    20409675.322   -25821989.014 6 -20121018.525 7
        38.600          47.100
  24890792.634    24890790.959    24890793.481      681408.934      530972.303 1
                         9.000
 09  1  6  0 19  0.0000000  0 11G 6G26G 9G15G21G 3G22G14G19G18G24
  22479309.176    22479308.435    22479308.336   -11411039.913 5  -8891715.457 5
        30.600          32.300
  23963659.086    23963659.530    23963660.338    -1702410.174 1  -1326542.187 3
        11.000          19.900
  22837697.182    22837697.010    22837696.444   -11392666.611 4  -8877392.851 4
        24.600          27.400
  22599452.680    22599452.470    22599450.740   -11726913.716 5  -9137842.356 5
        32.600          34.100
  21147368.787    21147367.958    21147366.146   -23245611.776 6 -18113452.708 6
        39.200          36.700
  22504880.982    22504880.010    22504879.708   -10793464.733 5  -8410488.292 5
        30.200          30.100
  21125250.883    21125250.322    21125247.383   -21195924.038 6 -16516295.500 7
        40.500          42.100
  24579790.350    24579789.597    24579788.246    -3333250.013 1  -2597335.937 1
         6.500           6.500
  23379809.417    23379807.711    23379806.006    -8707121.612 4  -6784767.957 4
        27.100          27.900
  20409898.565    20409897.768    20409895.195   -25820826.933 6 -20120113.006 7
        38.600          47.200
  24911263.298    24911261.583    24911261.821      788968.056      614784.556 1
                         9.000
 09  1  6  0 19 30.0000000  0 11G21G 6G26G 9G15G 3G22G14G19G18G24
  21160051.656    21160050.887    21160049.159   -23178962.119 6 -18061517.913 6
        39.000          36.700
  22486284.031    22486283.266    22486282.782   -11374387.607 5  -8863155.224 5
        31.000          31.800
  23986290.071    23986290.374    23986290.035    -1583490.196 1  -1233877.260 3
        11.000          19.300
  22820189.261    22820188.523    22820188.410   -11484673.259 4  -8949086.315 4
        24.200          27.400
  22615334.101    22615333.844    22615332.126   -11643456.762 5  -9072810.957 5
        32.400          34.400
  22510505.030    22510504.139    22510504.276   -10763907.683 4  -8387456.835 5
        29.500          30.100
  21114413.042    21114412.563    21114409.492   -21252877.341 6 -16560674.692 7
        40.700          42.200
  24558152.681    24558151.678    24558151.298    -3446958.997 1  -2685940.347 1
         9.000           9.000
  23369860.040    23369858.728    23369857.200    -8759403.745 4  -6825507.289 4
        27.400          28.100
  20410195.350    20410194.491    20410193.227   -25819267.417 6 -20118897.792 7
        38.700          47.200
  24931746.318    24931744.218    24931743.856      896603.418      698656.262 1
         3.000           9.000
 09  1  6  0 20  0.0000000  0 11G21G 6G26G 9G15G 3G22G14G19G18G24
  21172820.136    21172819.271    21172817.505   -23111863.958 6 -18009233.641 6
        39.100          36.500
  22493359.013    22493358.469    22493358.182   -11337205.439 5  -8834182.108 5
        30.600          31.300
  24008956.853    24008956.823    24008955.979    -1464377.985 1  -1141062.554 2
        11.000          17.800
  22802761.301    22802760.494    22802760.027   -11576257.238 4  -9020450.425 4
        24.900          26.800
  22631280.317    22631280.083    22631278.582   -11559658.101 5  -9007513.302 5
        31.800          34.500
  22516240.603    22516239.656    22516239.784   -10733767.412 4  -8363970.913 5
        29.500          30.100
  21103637.278    21103636.821    21103633.846   -21309503.886 6 -16604799.271 7
        40.700          42.300
  24536535.129    24536534.738    24536533.684    -3560560.804 1  -2774461.259 1
        11.000          11.000
  23360010.841    23360009.179    23360006.996    -8811165.577 4  -6865841.189 4
        27.600          27.600
  20410567.954    20410567.117    20410564.620   -25817309.189 6 -20117371.899 7
        38.700          47.300
  24952241.616    24952241.500    24952239.359     1004314.941 1    782587.290 1
         6.500           6.500
 09  1  6  0 20 30.0000000  0 11G21G 6G26G 9G15G 3G22G14G19G18G24
  21185671.746    21185670.870    21185668.834   -23044329.003 6 -17956609.004 6
        39.100          36.300
  22500533.273    22500532.626    22500532.422   -11299505.147 5  -8804805.257 5
        30.600          31.500
  24031656.755    24031657.001    24031655.593    -1345086.475 1  -1048108.141 2
        11.000          16.100
  22785412.845    22785412.153    22785411.364   -11667425.050 4  -9091490.259 4
        26.200          26.200
  22647289.535    22647289.141    22647287.741   -11475530.162 5  -8941959.068 5
        31.800          34.500
  22522085.141    22522084.259    22522084.140   -10703054.625 4  -8340038.879 5
        29.700          30.100
  21092922.217    21092921.707    21092918.735   -21365812.670 6 -16648676.238 7
        40.900          42.400
  24514936.279    24514935.785    24514935.118    -3674063.434 1  -2862904.886 2
        11.000          15.100
  23350257.937    23350256.221    23350254.191    -8862415.268 4  -6905775.999 4
        26.500          27.100
  20411014.587    20411013.700    20411012.457   -25814962.476 6 -20115543.289 7
        38.700          47.200
  24972749.962    24972750.128    24972750.760     1112091.045      866568.683 1
                         9.000
 09  1  6  0 21  0.0000000  0 11G21G 6G26G 9G15G 3G22G14G19G18G24
  21198606.504    21198605.683    21198603.847   -22976355.130 6 -17903642.354 6
        38.900          36.100
  22507806.062    22507805.671    22507805.327   -11261285.248 5  -8775023.515 5
        30.400          31.500
  24054391.888    24054391.634    24054390.459    -1225615.554 2   -955013.908 2
        12.600          16.100
  22768144.821    22768144.008    22768143.254   -11758170.041 4  -9162200.631 4
        25.900          26.800
  22663361.065    22663360.930    22663359.327   -11391072.481 5  -8876147.886 5
        32.000          34.300
  22528038.701    22528037.957    22528037.927   -10671768.021 5  -8315659.699 5
        30.100          30.100
  21082268.241    21082267.712    21082264.730   -21421799.586 6 -16692302.400 7
        40.900          42.500
  24493356.726    24493355.059    24493355.927    -3787461.848 1  -2951267.255 2
        11.000          16.100
  23340603.317    23340602.074    23340600.301    -8913148.070 4  -6945308.036 4
        27.100          27.600
  20411535.604    20411534.744    20411532.262   -25812223.955 6 -20113409.376 7
        38.600          47.200
  24993271.823    24993270.496    24993273.123     1219933.478      950601.696 1
                        11.000
 09  1  6  0 21 30.0000000  0 11G21G 6G26G 9G15G 3G22G14G19G18G24
  21211624.802    21211623.984    21211622.226   -22907943.648 6 -17850334.706 6
        38.800          36.100
  22515177.760    22515177.277    22515177.146   -11222546.732 5  -8744837.664 5
        30.200          31.500
  24077160.125    24077159.825    24077157.832    -1105968.086 2   -861782.103 2
        13.900          16.100
  22750957.610    22750956.939    22750956.324   -11848488.579 4  -9232578.693 4
        25.300          27.400
  22679495.299    22679495.138    22679493.333   -11306287.071 5  -8810081.328 5
        31.800          34.000
  22534101.420    22534100.623    22534100.545   -10639908.979 5  -8290834.472 4
        30.100          29.900
  21071675.542    21071675.052    21071672.088   -21477463.750 6 -16735677.069 7
        40.900          42.500
  24471797.803    24471797.160    24471796.570    -3900754.000 1  -3039546.836 2
        11.000          17.000
  23331048.221    23331046.777    23331045.330    -8963362.096 4  -6984435.833 4
        26.800          28.100
  20412131.176    20412130.342    20412129.210   -25809093.677 6 -20110970.192 7
        38.600          47.000
  25013807.079    25013805.452    25013807.705     1327840.865     1034685.326 1
         3.000          11.000
 09  1  6  0 22  0.0000000  0 11G21G 6G26G 9G15G 3G22G14G19G18G24
  21224728.229    21224727.352    21224725.599   -22839085.190 6 -17796678.771 6
        38.700          36.100
  22522649.831    22522649.364    22522649.162   -11183280.961 5  -8714240.953 5
        30.100          31.500
  24099963.174    24099962.826    24099961.304     -986136.558 2   -768406.886 2
        15.100          16.100
  22733854.163    22733853.587    22733853.241   -11938366.734 4  -9302613.592 4
        24.900          27.600
  22695693.323    22695693.185    22695691.092   -11221165.869 5  -8743753.122 5
        31.600          33.600
  22540274.757    22540273.853    22540273.434   -10607468.680 4  -8265556.320 4
        29.700          29.700
  21061146.548    21061146.029    21061142.968   -21532794.497 6 -16778791.929 7
        41.100          42.600
  24450262.478    24450261.797    24450260.809    -4013927.348 2  -3127733.812 3
        13.900          18.600
  23321593.742    23321592.337    23321590.548    -9013045.348 4  -7023150.039 4
        26.200          27.900
  20412803.470    20412802.612    20412800.122   -25805561.370 6 -20108217.745 7
        38.700          47.100
  25034354.521    25034353.379    25034355.150     1435822.317     1118826.658 1
         3.000          11.000
 09  1  6  0 22 30.0000000  0 11G21G 6G26G 9G15G 3G22G14G19G18G24
  21237913.739    21237912.831    21237910.977   -22769795.464 6 -17742686.779 5
        38.600          35.900
  22530219.354    22530218.618    22530218.237   -11143503.802 5  -8683245.769 5
        30.100          31.300
  24122798.135    24122797.959    24122796.432     -866137.947 2   -674901.468 2
        12.600          17.000
  22716832.846    22716832.033    22716831.674   -12027815.114 4  -9372313.601 4
        24.600          27.900
