     2.11           OBSERVATION DATA    G (GPS)             RINEX VERSION / TYPE
teqc  2008Oct2      WCDA Operator       20090114 00:18:52UTCPGM / RUN BY / DATE
Solaris x86 5.10|AMD64|cc SC5.8 -xarch=amd64|=+|=+          COMMENT
teqc  2008Oct2      WCDA Operator       20090113 01:18:28UTCCOMMENT
flin  WCDA-ACP   965000   CFS Flin Flon SASK Canada         MARKER NAME
40135M001                                                   MARKER NUMBER
PGC-WCDA            GEOL. SURV. CANADA                      OBSERVER / AGENCY
1115                AOA BENCHMARK ACT   3.3.32.4            REC # / TYPE / VERS
231                 AOAD/M_T        SCIS                    ANT # / TYPE
  -766174.4630 -3611375.3160  5184056.2210                  APPROX POSITION XYZ
        0.1500        0.0000        0.0000                  ANTENNA: DELTA H/E/N
     1     1                                                WAVELENGTH FACT L1/2
     7    C1    P1    P2    L1    L2    S1    S2            # / TYPES OF OBSERV
STATION INFORMATION EFFECTIVE FROM: 2001/01/13 18:20:00     COMMENT
                                TO: CURRENT DATE (above)    COMMENT
BIT 2 OF LLI FLAGS (+4) DATA COLLECTED UNDER 'AS' CONDITION COMMENT
L1 PHASE CENTRE 0.110m ABOVE ARP                            COMMENT
L2 PHASE CENTRE 0.128m ABOVE ARP                            COMMENT
where ARP is the Antenna Reference Point for HI measurement COMMENT
CONTACT gps@pgc.nrcan.gc.ca FOR ADDITIONAL INFORMATION      COMMENT
    P1 =    P1  TurboRogue; =    Y1  Benchmark              COMMENT
    L1 = L1(CA)                                             COMMENT
    P2 =    P2  TurboRogue; =    Y2  Benchmark              COMMENT
    L2 = L2(P2) TurboRogue; = L2(Y2) Benchmark              COMMENT
 SNR is mapped to RINEX snr flag value [0-9]                COMMENT
  L1 & L2: min(max(int(snr_dBHz/6), 0), 9)                  COMMENT
  2009     1    13     0     0    0.0000000     GPS         TIME OF FIRST OBS
                                                            END OF HEADER
 09  1 13  0  0  0.0000000  0 10G21G26G 9G22G 6G14G15G18G19G 3
  21413791.279    21413790.465    21413788.640   -21863971.617 6 -17036854.566 5
        37.700          33.900
  24412540.841    24412540.366    24412538.924      477301.045 2    371931.719 3
        15.100          19.900
  22513731.404    22513730.700    22513730.045   -12356949.516 4  -9628787.841 4
        28.100          29.900
  20926401.183    20926400.584    20926397.580   -22210993.902 6 -17307260.110 7
        41.800          43.800
  22633483.461    22633482.740    22633482.652   -11497535.689 4  -8959115.713 5
        29.700          31.300
  24134830.374    24134829.955    24134828.926    -5932711.143 2  -4622887.621 2
        16.100          17.000
  22922895.715    22922895.282    22922893.793   -10183035.922 4  -7934823.846 5
        29.200          32.300
  20425592.667    20425591.796    20425589.668   -25939236.537 6 -20212382.741 8
        39.500          48.200
  23218562.396    23218560.565    23218559.112    -9545207.927 4  -7437822.010 5
        28.100          30.600
  22630885.814    22630884.884    22630884.541   -10044992.943 4  -7827263.555 4
        29.200          29.500
 09  1 13  0  0 30.0000000  0 10G21G26G 9G22G 6G14G15G18G19G 3
  21428081.576    21428080.639    21428078.743   -21788877.092 6 -16978339.358 5
        37.900          33.800
  24435767.946    24435767.319    24435766.477      599361.626 2    467043.849 3
        13.900          19.300
  22497878.922    22497878.147    22497877.707   -12440254.623 4  -9693700.893 4
        28.400          29.900
  20916769.186    20916768.650    20916765.589   -22261610.232 6 -17346701.404 7
        41.800          43.900
  22642310.523    22642309.969    22642309.566   -11451149.693 4  -8922970.785 5
        29.900          31.000
  24113660.099    24113659.067    24113657.473    -6043963.993 2  -4709578.100 2
        16.100          15.100
  22939946.840    22939946.651    22939945.320   -10093429.680 4  -7865000.764 5
        29.000          32.600
  20427229.330    20427228.468    20427227.326   -25930636.087 6 -20205681.091 8
        39.500          48.300
  23210468.217    23210466.583    23210465.076    -9587742.590 4  -7470965.887 5
        28.400          30.200
  22638545.076    22638544.083    22638543.963   -10004743.215 4  -7795900.129 4
        28.800          29.700
 09  1 13  0  1  0.0000000  0 10G21G26G 9G22G 6G14G15G18G19G 3
  21442452.000    21442451.024    21442449.275   -21713359.662 6 -16919494.613 5
        37.700          33.800
  24459021.617    24459021.042    24459020.199      721560.157 2    562263.471 2
        12.600          17.800
  22482119.926    22482119.055    22482118.628   -12523069.107 4  -9758231.641 5
        28.600          30.200
  20907202.523    20907201.998    20907199.064   -22311882.944 6 -17385874.942 7
        41.600          44.000
  22651232.444    22651231.972    22651231.587   -11404264.423 4  -8886436.811 5
        29.900          31.100
  24092517.572    24092516.427    24092515.194    -6155067.457 2  -4796152.180 2
        17.000          16.100
  22957054.958    22957054.799    22957053.068   -10003527.029 4  -7794946.747 5
        29.200          32.100
  20428941.727    20428940.852    20428938.744   -25921637.343 6 -20198669.083 8
        39.500          48.400
  23202479.248    23202477.415    23202475.978    -9629725.834 4  -7503680.095 5
        28.100          30.400
  22646309.622    22646308.825    22646308.724    -9963938.963 4  -7764104.604 4
        29.000          29.700
 09  1 13  0  1 30.0000000  0 10G21G26G 9G22G 6G14G15G18G19G 3
  21456903.781    21456902.807    21456901.010   -21637415.274 6 -16860317.169 5
        37.400          33.500
  24482301.728    24482300.708    24482300.920      843899.590 1    657592.896 2
         9.000          16.100
  22466455.813    22466455.065    22466454.594   -12605384.294 4  -9822373.324 5
        28.800          30.200
  20897702.685    20897702.151    20897699.307   -22361804.947 6 -17424775.201 7
        41.600          44.200
  22660249.879    22660249.308    22660249.383   -11356876.173 4  -8849510.906 5
        29.200          31.500
  24071404.802    24071404.081    24071402.820    -6266013.584 2  -4882603.676 2
        17.800          15.100
  22974220.050    22974219.657    22974218.119    -9913324.945 4  -7724659.406 5
        28.800          31.800
  20430731.016    20430730.122    20430728.990   -25912234.639 6 -20191342.298 8
        39.600          48.400
  23194596.866    23194594.817    23194593.118    -9671150.571 4  -7535959.109 5
        28.100          30.600
  22654180.916    22654180.020    22654179.742    -9922576.347 4  -7731873.999 4
        28.800          29.500
 09  1 13  0  2  0.0000000  0 10G21G26G 9G22G 6G14G15G18G19G 3
  21471435.200    21471434.412    21471432.662   -21561051.054 6 -16800812.588 5
        37.300          33.500
  24505607.326    24505606.209    24505607.255      966371.110 1    753025.247 2
         9.000          13.900
  22450886.027    22450885.176    22450884.895   -12687202.824 4  -9886128.006 4
        27.900          29.900
  20888268.565    20888268.000    20888265.115   -22411382.032 6 -17463406.688 7
        41.800          44.300
  22669361.638    22669360.981    22669361.174   -11308992.936 4  -8812199.297 5
        28.800          31.100
  24050322.210    24050321.565    24050319.376    -6376806.673 2  -4968935.915 2
        17.800          16.100
  22991440.241    22991440.030    22991438.401    -9822831.868 4  -7654145.309 5
        29.900          31.600
  20432595.904    20432595.067    20432593.025   -25902434.323 6 -20183705.687 8
        39.600          48.500
  23186819.031    23186817.216    23186815.495    -9712021.388 4  -7567806.503 5
        28.400          30.400
  22662156.769    22662155.860    22662155.512    -9880662.987 4  -7699214.230 4
        28.800          29.500
 09  1 13  0  2 30.0000000  0 10G21G26G 9G22G 6G14G15G18G19G 3
  21486043.586    21486042.858    21486041.090   -21484282.797 6 -16740993.173 5
        37.200          33.400
  24528934.985    24528935.008    24528933.420     1088958.186 1    848547.658 1
         6.500          11.000
  22435409.166    22435408.202    22435407.781   -12768535.013 4  -9949503.715 4
        28.100          29.900
  20878897.642    20878897.048    20878894.024   -22460627.080 6 -17501779.450 7
        41.900          44.300
  22678564.975    22678564.341    22678564.353   -11260630.189 4  -8774514.043 5
        28.800          30.800
  24029265.070    24029264.381    24029263.100    -6487458.675 2  -5055158.202 2
        17.000          16.100
  23008713.061    23008712.728    23008711.123    -9732063.822 5  -7583416.950 5
        30.100          31.600
  20434533.934    20434533.032    20434531.845   -25892250.338 6 -20175770.112 8
        39.700          48.600
  23179144.429    23179142.294    23179141.003    -9752351.039 4  -7599232.193 5
        28.100          30.400
  22670234.150    22670233.344    22670233.215    -9838214.617 4  -7666137.589 4
        28.600          29.500
 09  1 13  0  3  0.0000000  0 10G21G26G 9G22G 6G14G15G18G19G 3
  21500731.044    21500730.125    21500728.488   -21407100.281 6 -16680850.964 5
        36.800          33.200
  24552286.224    24552286.247    24552284.832     1211669.671 1    944167.007 1
         6.500           6.500
  22420027.478    22420026.782    22420026.224   -12849366.427 4 -10012489.209 5
        29.000          30.200
  20869592.108    20869591.568    20869588.501   -22509527.338 6 -17539883.545 7
        41.800          44.300
  22687861.272    22687860.542    22687860.396   -11211778.528 4  -8736447.819 5
        28.800          30.600
  24008237.477    24008237.378    24008236.380    -6597956.132 2  -5141260.064 2
        16.100          17.800
  23026039.810    23026039.373    23026037.671    -9641011.826 4  -7512467.341 5
        29.200          32.000
  20436547.053    20436546.233    20436544.125   -25881671.121 6 -20167526.565 8
        39.700          48.700
  23171575.654    23171573.674    23171572.095    -9792126.333 4  -7630225.924 5
        28.400          30.400
  22678415.694    22678414.646    22678414.703    -9795221.536 4  -7632636.487 4
        28.800          29.500
 09  1 13  0  3 30.0000000  0 10G21G26G 9G22G 6G14G15G18G19G 3
  21515496.128    21515495.224    21515493.156   -21329510.813 6 -16620391.646 5
        37.000          32.800
  24575659.773    24575659.071    24575657.004     1334496.682 1   1039876.419
         9.000           3.000
  22404740.135    22404739.611    22404739.353   -12929699.443 4 -10075086.347 5
        29.000          30.400
  20860351.231    20860350.662    20860347.713   -22558088.563 6 -17577723.455 7
        41.900          44.500
  22697249.109    22697248.384    22697248.275   -11162445.784 4  -8698006.721 5
        28.800          30.800
  23987239.304    23987238.427    23987238.411    -6708303.002 2  -5227244.591 3
        17.000          19.300
  23043419.178    23043418.662    23043416.899    -9549684.037 4  -7441302.834 5
        28.800          32.100
  20438634.231    20438633.379    20438632.178   -25870702.794 6 -20158979.813 8
        39.700          48.700
  23164111.429    23164109.513    23164107.688    -9831352.058 4  -7660791.415 4
        29.000          29.700
  22686699.092    22686698.299    22686698.053    -9751692.118 4  -7598717.460 4
        28.800          29.700
 09  1 13  0  4  0.0000000  0 10G21G26G 9G22G 6G14G15G18G19G 3
  21530338.353    21530337.404    21530335.661   -21251513.230 6 -16559614.310 5
        36.600          32.700
  24599055.310    24599054.334    24599054.241     1457439.248 1   1135675.854 1
         6.500           6.500
  22389549.540    22389548.902    22389548.548   -13009528.020 4 -10137290.412 5
        29.200          30.600
  20851175.684    20851175.075    20851171.949   -22606307.182 6 -17615296.399 7
        41.900          44.600
  22706728.375    22706727.805    22706727.596   -11112631.204 4  -8659190.161 5
        28.800          30.600
  23966270.460    23966269.962    23966269.826    -6818494.406 2  -5313107.993 3
        17.800          19.900
  23060850.138    23060849.847    23060848.535    -9458080.299 4  -7369923.292 5
        28.400          32.000
  20440795.956    20440795.072    20440793.135   -25859342.720 6 -20150127.809 8
        39.800          48.600
  23156751.542    23156750.172    23156748.542    -9870024.063 4  -7690925.444 4
        29.200          29.200
  22695084.365    22695083.579    22695083.774    -9707625.375 4  -7564379.745 4
        28.100          29.700
 09  1 13  0  4 30.0000000  0 10G21G26G 9G22G 6G14G15G18G19G 3
  21545258.227    21545257.223    21545255.333   -21173109.966 6 -16498520.872 5
        36.600          32.800
  24622472.029    24622470.886    24622471.088     1580494.371 1   1231562.955 1
         9.000           9.000
  22374455.177    22374454.332    22374454.098   -13088849.623 4 -10199099.435 5
        29.000          30.800
  20842065.002    20842064.460    20842061.473   -22654183.025 6 -17652602.244 7
        41.900          44.700
  22716298.796    22716298.173    22716298.154   -11062337.225 4  -8620000.059 5
        28.600          30.600
  23945332.103    23945331.061    23945330.705    -6928529.267 2  -5398849.394 3
        17.000          20.500
  23078333.622    23078333.251    23078331.921    -9366203.580 4  -7298331.054 5
        28.100          31.300
  20443032.060    20443031.182    20443030.025   -25847592.011 6 -20140971.409 8
        39.800          48.700
  23149498.080    23149496.735    23149494.884    -9908141.707 4  -7720627.504 4
        29.000          29.000
  22703572.085    22703571.230    22703570.830    -9663023.849 4  -7529625.307 4
        28.400          29.500
 09  1 13  0  5  0.0000000  0 10G21G26G 9G22G 6G14G15G18G19G 3
  21560255.148    21560254.114    21560252.173   -21094300.575 6 -16437110.964 5
        36.500          32.600
  24645910.193    24645909.227    24645909.089     1703660.772 1   1327536.768 1
        11.000           9.000
  22359458.015    22359457.303    22359456.913   -13167659.469 4 -10260509.681 5
        28.800          30.400
  20833020.328    20833019.765    20833016.706   -22701713.685 7 -17689639.119 7
        42.000          44.900
  22725960.675    22725960.048    22725960.010   -11011564.396 4  -8580436.806 5
        28.800          30.600
  23924423.745    23924422.789    23924422.302    -7038403.947 3  -5484465.993 3
        18.600          21.100
  23095868.950    23095868.586    23095867.307    -9274054.621 4  -7226526.669 5
        28.100          31.100
  20445342.763    20445341.911    20445339.931   -25835449.304 6 -20131509.555 8
        39.900          48.900
  23142350.853    23142349.147    23142347.441    -9945702.137 4  -7749895.363 4
        29.000          29.200
  22712160.822    22712160.094    22712160.218    -9617887.828 4  -7494454.392 4
        28.100          29.700
 09  1 13  0  5 30.0000000  0 10G21G26G 9G22G 6G14G15G18G19G 3
  21575327.246    21575326.388    21575324.612   -21015095.003 6 -16375392.342 5
        36.400          32.600
  24669367.180    24669366.249    24669366.558     1826927.777 1   1423588.995 1
         9.000           9.000
  22344557.251    22344556.551    22344556.471   -13245962.501 4 -10321525.010 5
        28.600          30.600
  20824039.813    20824039.253    20824036.333   -22748906.414 7 -17726412.668 7
        42.000          45.100
  22735711.665    22735711.099    22735710.791   -10960322.572 4  -8540508.119 5
        28.800          30.600
  23903544.441    23903543.645    23903542.613    -7148124.435 2  -5569962.436 3
        17.800          20.500
  23113454.490    23113454.094    23113452.096    -9181643.370 4  -7154517.908 5
        28.600          30.600
  20447726.638    20447725.734    20447724.469   -25822922.152 6 -20121748.135 8
        39.900          49.100
  23135308.233    23135306.586    23135304.320    -9982712.099 4  -7778734.286 4
        29.000          28.800
  22720849.888    22720849.122    22720849.158    -9572227.405 4  -7458874.843 4
        28.100          29.700
 09  1 13  0  6  0.0000000  0 10G21G26G 9G22G 6G14G15G18G19G 3
  21590476.283    21590475.181    21590473.449   -20935486.859 6 -16313360.030 5
        36.300          32.400
  24692843.262    24692842.226    24692843.819     1950300.516 1   1519723.609 1
         9.000          11.000
  22329755.444    22329754.788    22329754.385   -13323747.405 4 -10382136.605 5
        29.500          31.000
  20815125.257    20815124.692    20815121.762   -22795752.808 7 -17762916.346 7
        42.000          45.100
  22745553.123    22745552.361    22745552.504   -10908605.899 4  -8500209.420 5
        28.800          31.000
  23882696.573    23882695.620    23882694.684    -7257680.960 3  -5655331.126 3
        18.600          20.500
  23131090.652    23131090.188    23131088.293    -9088964.897 4  -7082300.901 5
        28.600          30.600
  20450184.904    20450184.073    20450182.106   -25810003.530 6 -20111681.674 8
        40.000          49.000
  23128371.856    23128370.440    23128368.445   -10019162.335 4  -7807137.067 4
        29.500          29.000
  22729639.724    22729638.619    22729639.248    -9526036.275 4  -7422881.756 4
        27.900          29.900
 09  1 13  0  6 30.0000000  0 10G26G 9G22G21G 6G14G15G18G19G 3
  24716339.081    24716337.510    24716339.914     2073773.330 1   1615936.187 1
         6.500          11.000
  22315052.344    22315051.465    22315050.941   -13401014.258 4 -10442344.524 5
        29.700          30.600
  20806276.095    20806275.495    20806272.563   -22842255.281 7 -17799152.037 7
        42.000          45.200
  21605700.767    21605699.956    21605698.209   -20855480.660 6 -16251017.543 5
        36.100          32.400
  22755483.972    22755483.174    22755483.053   -10856419.513 4  -8459544.706 5
        28.800          30.800
  23861879.294    23861878.541    23861878.072    -7367074.689 2  -5740572.964 3
        17.800          21.600
  23148776.141    23148775.910    23148774.185    -8996024.480 4  -7009879.791 5
        27.900          30.200
  20452717.305    20452716.439    20452715.088   -25796696.367 6 -20101312.450 8
        40.100          49.200
  23121541.701    23121540.032    23121538.116   -10055054.758 4  -7835105.191 4
        29.000          29.000
  22738529.713    22738529.077    22738528.932    -9479319.849 4  -7386479.351 4
        28.600          29.500
 09  1 13  0  7  0.0000000  0 10G26G 9G22G21G 6G14G15G18G19G 3
  24739855.180    24739853.455    24739853.565     2197347.370     1712227.638 1
         3.000          11.000
  22300448.863    22300448.079    22300447.599   -13477755.718 4 -10502143.049 5
        29.900          30.800
  20797493.387    20797492.835    20797489.866   -22888409.042 7 -17835116.001 7
        42.100          45.400
  21621001.548    21621000.754    21620999.095   -20775074.414 5 -16188363.335 5
        35.900          32.400
  22765504.688    22765503.771    22765503.630   -10803761.593 4  -8418512.565 5
        28.800          30.800
  23841094.549    23841093.491    23841092.954    -7476300.044 3  -5825683.595 3
        18.600          21.600
  23166511.953    23166511.869    23166510.342    -8902820.629 4  -6937253.414 5
        26.800          30.400
  20455324.098    20455323.225    20455321.326   -25782997.264 6 -20090637.824 8
        40.000          49.400
  23114818.376    23114817.034    23114815.497   -10090384.288 4  -7862634.692 4
        28.800          29.700
  22747519.727    22747518.866    22747518.896    -9432076.205 4  -7349666.119 4
        28.400          29.200
 09  1 13  0  7 30.0000000  0 10G26G 9G22G21G 6G14G15G18G19G 3
  24763389.360    24763387.890    24763387.814     2321018.728     1808594.909 2
         3.000          12.600
  22285945.575    22285944.873    22285944.308   -13553969.997 4 -10561530.779 5
        29.900          30.400
  20788776.844    20788776.291    20788773.299   -22934214.469 7 -17870808.536 7
        42.200          45.500
  21636378.085    21636377.230    21636375.368   -20694270.797 5 -16125399.489 5
        35.900          32.100
  22775614.249    22775613.264    22775613.079   -10750635.576 4  -8377115.670 5
        28.800          30.600
  23820341.526    23820340.834    23820340.365    -7585356.618 3  -5910662.724 3
        18.600          21.600
  23184297.854    23184297.557    23184296.297    -8809357.082 4  -6864424.677 5
        27.400          30.800
  20458005.335    20458004.450    20458003.020   -25768907.314 6 -20079658.640 8
        40.000          49.200
  23108202.814    23108201.295    23108199.735   -10125150.943 4  -7889725.592 4
        29.200          29.900
  22756609.703    22756608.843    22756608.633    -9384309.259 4  -7312445.120 4
        28.400          29.200
 09  1 13  0  8  0.0000000  0 10G26G 9G22G21G 6G14G15G18G19G 3
  24786942.013    24786940.052    24786939.845     2444785.972     1905036.911 2
         3.000          13.900
  22271543.712    22271542.874    22271542.143   -13629652.965 4 -10620504.507 5
        29.900          30.400
  20780127.113    20780126.542    20780123.412   -22979669.829 7 -17906228.289 7
        42.400          45.500
  21651830.059    21651829.163    21651827.341   -20613070.209 5 -16062126.305 5
        35.700          32.000
  22785812.404    22785811.758    22785811.648   -10697042.254 4  -8335354.640 5
        28.600          30.600
  23799621.370    23799620.860    23799620.064    -7694240.592 3  -5995507.352 3
        19.300          21.600
  23202132.739    23202132.539    23202131.136    -8715634.709 4  -6791394.257 5
        27.900          31.100
  20460761.107    20460760.213    20460758.271   -25754425.730 6 -20068374.285 8
        40.000          49.300
  23101694.742    23101693.170    23101690.950   -10159352.422 4  -7916376.096 4
        29.500          29.200
  22765798.919    22765797.970    22765797.766    -9336019.305 4  -7274816.595 4
        27.600          28.800
 09  1 13  0  8 30.0000000  0 10G26G 9G22G21G 6G14G15G18G19G 3
  24810510.900    24810510.285    24810509.174     2568646.420 1   2001551.535 2
         6.500          13.900
  22257243.181    22257242.510    22257241.966   -13704801.727 4 -10679061.963 5
        29.900          30.600
  20771543.929    20771543.341    20771540.266   -23024774.596 7 -17941374.857 7
        42.400          45.600
  21667357.166    21667356.299    21667354.544   -20531474.602 5 -15998545.323 5
        35.600          32.300
  22796099.590    22796098.778    22796098.758   -10642983.954 4  -8293231.291 5
        28.800          30.600
  23778934.900    23778934.311    23778933.373    -7802950.625 3  -6080216.435 3
        19.300          21.100
  23220016.691    23220016.476    23220014.669    -8621656.220 4  -6718164.264 5
        28.600          31.100
  20463591.192    20463590.237    20463588.947   -25739553.350 6 -20056785.414 8
        40.000          49.300
  23095294.201    23095292.363    23095290.695   -10192987.847 4  -7942585.529 4
        29.000          29.500
  22775087.424    22775086.562    22775086.390    -9287208.566 4  -7236782.252 4
        27.900          29.200
 09  1 13  0  9  0.0000000  0 10G26G 9G22G21G 6G14G15G18G19G 3
  24834095.850    24834095.582    24834096.838     2692595.427     2098135.160 2
         3.000          12.600
  22243044.661    22243043.802    22243043.682   -13779414.927 4 -10737202.106 5
        29.500          30.800
  20763027.177    20763026.611    20763023.547   -23069530.061 7 -17976249.239 7
        42.400          45.700
  21682958.963    21682958.073    21682956.317   -20449487.322 5 -15934659.143 5
        35.500          32.100
  22806474.010    22806473.261    22806473.267   -10588464.719 4  -8250748.772 5
        28.400          30.200
  23758281.261    23758280.526    23758279.836    -7911486.596 3  -6164789.891 3
        19.900          21.100
  23237948.296    23237947.812    23237945.997    -8527425.868 4  -6644738.013 5
        27.900          30.600
  20466495.261    20466494.413    20466492.620   -25724291.747 6 -20044893.255 8
        40.000          49.200
  23089001.277    23088999.627    23088997.367   -10226058.038 4  -7968354.505 4
        29.000          29.700
  22784474.044    22784473.168    22784472.996    -9237881.531 4  -7198345.604 4
        28.400          29.200
 09  1 13  0  9 30.0000000  0 10G26G 9G22G21G 6G14G15G18G19G 3
  24857698.624    24857698.896    24857700.567     2816628.665     2194784.418 2
         3.000          13.900
  22228948.508    22228947.905    22228947.517   -13853491.187 5 -10794923.851 5
        30.100          31.500
  20754576.884    20754576.269    20754573.167   -23113937.002 7 -18010852.045 7
        42.400          45.700
  21698634.375    21698633.532    21698631.699   -20367111.893 5 -15870470.506 5
        35.300          31.800
  22816935.495    22816934.933    22816934.779   -10533488.184 4  -8207909.917 5
        27.900          30.200
  23737660.938    23737660.177    23737659.415    -8019848.014 3  -6249227.333 3
        19.900          21.600
  23255926.642    23255926.521    23255924.620    -8432947.672 4  -6571118.636 5
        27.600          30.200
  20469473.151    20469472.312    20469470.912   -25708643.012 6 -20032699.434 8
        40.200          49.300
  23082815.182    23082813.487    23082811.744   -10258563.562 4  -7993683.487 5
        28.400          30.100
  22793958.291    22793957.311    22793957.154    -9188041.759 4  -7159509.424 4
        27.900          29.500
 09  1 13  0 10  0.0000000  0 10G26G 9G22G21G 6G14G15G18G19G 3
  24881318.395    24881318.326    24881319.742     2940747.929     2291500.699 2
                        13.900
  22214955.933    22214955.141    22214954.976   -13927023.127 5 -10852221.443 5
        30.100          31.800
  20746193.690    20746193.143    20746190.215   -23157990.157 7 -18045179.174 7
        42.400          45.900
  21714384.187    21714383.356    21714381.761   -20284345.585 5 -15805977.289 5
        35.100          31.600
  22827484.545    22827483.981    22827483.795   -10478052.410 4  -8164713.217 4
        28.100          29.700
  23717075.011    23717073.837    23717073.358    -8128028.938 3  -6333524.127 3
        19.300          21.100
  23273952.777    23273952.374    23273950.989    -8338219.822 4  -6497304.723 5
        26.800          30.400
  20472525.457    20472524.583    20472522.787   -25692603.260 6 -20020200.923 8
        40.200          49.400
  23076738.101    23076736.378    23076734.579   -10290498.968 4  -8018568.226 5
        28.800          30.100
  22803540.368    22803539.413    22803539.313    -9137686.940 4  -7120271.905 4
        27.600          29.200
 09  1 13  0 10 30.0000000  0 11G28G26G 9G22G21G 6G14G15G18G19G 3
  25633549.114    25633547.566    25633547.665           -.0251          -.4441
                         3.000
  24904953.284    24904953.868    24904953.524     3064950.007     2388281.521 2
                        13.900
  22201067.529    22201066.554    22201066.177   -14000008.188 5 -10909092.897 5
        30.100          31.600
  20737877.943    20737877.407    20737874.396   -23201689.932 7 -18079230.942 7
        42.300          45.900
  21730207.959    21730207.248    21730205.541   -20201190.751 5 -15741181.323 5
        35.100          31.500
  22838120.548    22838119.878    22838119.758   -10422159.996 4  -8121160.678 4
        27.600          29.500
  23696522.892    23696522.288    23696521.193    -8236028.095 3  -6417679.284 3
        18.600          20.500
  23292025.447    23292025.311    23292023.657    -8243245.223 4  -6423298.544 4
        25.900          29.900
  20475651.988    20475651.098    20475649.681   -25676173.099 6 -20007398.199 8
        40.000          49.300
  23070769.982    23070768.307    23070766.162   -10321863.768 5  -8043008.334 5
        30.100          30.200
  22813220.051    22813219.307    22813218.971    -9086820.181 4  -7080635.480 4
        27.600          29.200
 09  1 13  0 11  0.0000000  0 11G28G26G 9G22G21G 6G14G15G18G19G 3
  25627606.887    25627605.442    25627604.009      -31236.658      -24340.680
         3.000
  24928600.763    24928600.366    24928600.485     3189222.093     2485116.885 2
                        12.600
  22187281.323    22187280.560    22187280.135   -14072453.640 5 -10965543.880 5
        30.400          31.600
  20729627.867    20729627.236    20729624.143   -23245045.214 7 -18113014.275 7
        42.500          46.000
  21746103.448    21746102.606    21746101.066   -20117659.367 5 -15676091.946 5
        34.700          31.300
  22848841.381    22848840.578    22848840.405   -10365823.513 4  -8077262.121 4
        27.900          29.500
  23676004.193    23676003.572    23676002.665    -8343854.192 3  -6501699.588 3
        18.600          21.600
  23310142.760    23310142.813    23310141.484    -8148036.484 4  -6349109.916 5
        25.600          30.100
  20478850.871    20478850.001    20478848.233   -25659363.168 6 -19994299.551 8
        40.200          49.400
  23064908.030    23064906.555    23064904.647   -10352667.250 5  -8067011.051 5
        30.200          30.600
  22822994.553    22822993.767    22822993.793    -9035453.834 4  -7040609.763 4
        27.600          29.200
 09  1 13  0 11 30.0000000  0 10G26G 9G22G21G 6G14G15G18G19G 3
  24952264.428    24952266.988    24952263.722     3313571.158     2582012.263 2
                        12.600
  22173600.537    22173599.695    22173598.975   -14144346.922 5 -11021564.612 5
        30.400          31.300
  20721444.754    20721444.219    20721441.161   -23288047.057 7 -18146522.203 7
        42.500          46.100
  21762072.432    21762071.482    21762069.688   -20033743.705 5 -15610703.126 5
        34.900          31.300
  22859647.588    22859646.983    22859646.827   -10309035.604 4  -8033011.794 4
        27.600          29.700
  23655520.885    23655520.038    23655519.223    -8451495.296 3  -6585575.738 3
        19.900          21.600
  23328306.215    23328306.234    23328305.192    -8052586.244 4  -6274733.107 4
        25.300          29.900
  20482123.807    20482122.880    20482121.277   -25642164.083 6 -19980897.664 8
        40.200          49.500
  23059155.371    23059153.526    23059151.719   -10382899.027 5  -8090568.277 5
        30.100          30.800
  22832865.821    22832864.959    22832864.766    -8983580.547 4  -7000189.024 4
        27.600          28.800
 09  1 13  0 12  0.0000000  0 10G26G 9G22G21G 6G14G15G18G19G 3
  24975940.925    24975939.986    24975938.307     3437982.620     2678956.226 2
                        12.600
  22160022.717    22160022.023    22160021.496   -14215697.302 5 -11077162.291 5
        30.400          31.300
  20713326.965    20713326.435    20713323.416   -23330705.985 7 -18179762.921 7
        42.500          46.100
  21778111.594    21778110.762    21778109.043   -19949457.222 5 -15545025.354 5
        34.700          31.100
  22870537.505    22870536.722    22870536.306   -10251810.506 4  -7988420.816 4
        27.600          29.500
  23635070.420    23635069.362    23635068.837    -8558961.801 3  -6669315.848 3
        19.300          21.600
  23346513.401    23346513.062    23346511.467    -7956909.076 4  -6200179.470 4
        25.600          29.500
  20485468.240    20485467.423    20485465.725   -25624588.340 6 -19967202.281 8
        40.300          49.400
  23053509.072    23053507.127    23053505.445   -10412569.909 4  -8113688.446 5
        29.900          30.800
  22842830.737    22842829.955    22842829.734    -8931214.657 4  -6959384.440 4
        27.900          28.800
 09  1 13  0 12 30.0000000  0 10G26G 9G22G21G 6G14G15G18G19G 3
  24999632.940    24999631.032    24999628.133     3562471.115     2775960.222 2
                        12.600
  22146552.792    22146551.905    22146551.376   -14286484.229 5 -11132320.919 5
        30.800          31.500
  20705277.995    20705277.393    20705274.380   -23373003.782 7 -18212722.237 7
        42.400          46.100
  21794224.242    21794223.307    21794221.579   -19864784.773 5 -15479046.832 5
        34.400          31.000
  22881512.505    22881511.800    22881512.078   -10194133.116 4  -7943477.399 4
        27.100          29.700
  23614656.844    23614655.995    23614655.527    -8666234.487 3  -6752904.916 3
        19.900          22.100
  23364765.906    23364765.693    23364764.296    -7860990.101 4  -6125437.415 4
        25.900          29.200
  20488887.760    20488886.864    20488885.218   -25606618.917 6 -19953200.130 8
        40.200          49.400
  23047972.841    23047971.124    23047969.566   -10441661.898 4  -8136357.537 5
        29.900          31.100
  22852892.565    22852891.497    22852891.279    -8878340.924 4  -6918184.130 4
        27.600          28.400
 09  1 13  0 13  0.0000000  0 10G26G 9G22G21G 6G14G15G18G19G 3
  25023338.769    25023337.151    25023331.757     3687035.550     2873023.382 1
                        11.000
  22133190.303    22133189.781    22133188.933   -14356703.690 5 -11187037.365 5
        31.300          31.300
  20697298.149    20697297.540    20697294.414   -23414938.802 7 -18245398.873 7
        42.500          46.200
  21810410.146    21810409.241    21810407.660   -19779726.556 5 -15412767.716 5
        34.100          30.800
  22892574.155    22892573.480    22892573.537   -10136004.563 4  -7898182.417 4
        26.800          29.500
  23594281.160    23594280.273    23594279.707    -8773310.179 3  -6836340.487 3
        20.500          22.100
  23383064.210    23383064.074    23383062.886    -7764830.286 4  -6050507.682 4
        25.600          28.800
  20492382.268    20492381.407    20492379.847   -25588254.660 6 -19938890.319 8
        40.200          49.400
  23042547.516    23042545.827    23042544.255   -10470172.866 5  -8158573.873 5
        30.600          31.300
  22863050.068    22863049.321    22863048.959    -8824960.687 4  -6876589.150 4
        27.400          27.900
 09  1 13  0 13 30.0000000  0 10G26G 9G22G21G 6G14G15G18G19G 3
  25047053.107    25047050.967    25047047.566     3811668.994     2970140.295 1
                         9.000
  22119935.736    22119934.979    22119934.409   -14426356.752 5 -11241312.471 5
        30.800          31.600
  20689386.315    20689385.791    20689382.728   -23456514.762 7 -18277795.722 7
        42.400          46.300
  21826668.478    21826667.587    21826665.816   -19694288.413 5 -15346192.546 5
        34.000          30.600
  22903720.175    22903719.455    22903719.619   -10077431.171 4  -7852540.824 4
        26.500          29.500
  23573942.210    23573941.786    23573941.024    -8880190.986 3  -6919624.202 3
        20.500          22.600
  23401407.301    23401407.695    23401405.723    -7668436.221 4  -5975395.425 4
        25.300          28.100
  20495951.218    20495950.354    20495948.687   -25569500.035 6 -19924276.322 8
        40.200          49.200
  23037232.195    23037230.454    23037228.333   -10498105.869 5  -8180339.858 5
        30.600          30.800
  22873303.365    22873302.422    22873302.247    -8771079.974 4  -6834604.186 4
        27.400          28.100
 09  1 13  0 14  0.0000000  0 10G26G 9G22G21G 6G14G15G18G19G 3
  25070778.743    25070778.360    25070775.378     3936362.999     3067304.410 1
                         6.500
  22106788.387    22106787.640    22106787.203   -14495446.932 5 -11295148.950 5
        31.300          32.400
  20681542.095    20681541.515    20681538.490   -23497736.948 7 -18309916.902 7
        42.500          46.500
  21842997.663    21842996.814    21842995.116   -19608478.418 5 -15279327.624 5
        34.300          31.000
  22914949.641    22914948.988    22914948.877   -10018421.313 4  -7806559.118 4
        26.800          29.200
  23553639.868    23553638.802    23553638.681    -8986881.665 3  -7002759.764 3
        20.500          23.400
  23419793.280    23419793.677    23419791.863    -7571816.344 4  -5900107.206 4
        24.600          27.400
  20499593.186    20499592.329    20499590.662   -25550361.480 6 -19909363.160 8
        40.400          49.200
  23032026.049    23032024.060    23032022.038   -10525466.134 5  -8201659.548 5
        30.800          31.100
  22883650.191    22883649.309    22883649.318    -8716707.859 4  -6792236.310 4
        27.900          28.400
 09  1 13  0 14 30.0000000  0 11G28G26G 9G22G21G 6G14G15G18G19G 3
  25588532.512    25588529.814    25588530.726          -1.1401          -.6801
                         3.000
  25094518.019    25094520.402    25094515.909     4061121.376     3164518.738 1
         3.000           6.500
  22093750.119    22093749.296    22093748.581   -14563964.787 5 -11348539.476 5
        31.500          32.600
  20673766.538    20673765.901    20673762.863   -23538598.170 7 -18341756.814 7
        42.600          46.500
  21859398.425    21859397.610    21859395.752   -19522292.288 5 -15212169.616 5
        34.000          30.600
  22926262.225    22926261.845    22926262.052    -9958971.019 4  -7760234.220 4
        26.800          29.500
  23533375.570    23533374.272    23533373.566    -9093373.792 3  -7085740.608 3
        20.500          22.600
  23438223.979    23438223.873    23438222.112    -7474966.586 4  -5824639.847 4
        25.300          28.100
  20503309.313    20503308.442    20503306.806   -25530833.000 6 -19894146.160 8
        40.400          49.200
  23026929.564    23026927.603    23026926.141   -10552246.441 5  -8222527.315 5
        30.400          31.500
  22894091.239    22894090.329    22894089.880    -8661839.856 4  -6749482.022 4
        27.100          27.900
 09  1 13  0 15  0.0000000  0 11G28G26G 9G22G21G 6G14G15G18G19G 3
  25583318.916    25583319.192    25583316.160      -27412.902 1    -21360.527 1
         9.000           9.000
  25118269.557    25118272.687    25118268.188     4185933.606     3261774.994
                         3.000
  22080819.293    22080818.692    22080817.959   -14631914.998 5 -11401487.679 5
        31.300          32.400
  20666057.975    20666057.397    20666054.469   -23579106.028 7 -18373321.376 7
        42.500          46.600
  21875868.711    21875867.863    21875866.174   -19435739.190 5 -15144725.651 5
        33.600          30.100
  22937657.575    22937656.799    22937656.804    -9899090.429 4  -7713574.019 4
        26.800          29.000
  23513146.869    23513145.799    23513145.296    -9199673.277 3  -7168571.345 3
        20.500          22.100
  23456695.908    23456695.570    23456693.744    -7377897.696 4  -5749001.755 4
        25.600          28.100
  20507098.061    20507097.248    20507095.523   -25510922.833 6 -19878631.741 8
        40.400          49.200
  23021942.575    23021940.628    23021938.962   -10578453.865 5  -8242948.690 5
        30.600          31.300
  22904624.393    22904623.452    22904623.674    -8606486.262 4  -6706349.364 4
        26.500          28.400
 09  1 13  0 15 30.0000000  0 10G28G 9G22G21G 6G14G15G18G19G 3
  25578192.430    25578191.184    25578190.463      -54352.827 1    -42352.661 2
         9.000          12.600
  22067995.860    22067995.392    22067994.753   -14699301.706 5 -11453996.782 5
        31.600          32.700
  20658415.850    20658415.252    20658412.140   -23619266.182 7 -18404615.000 7
        42.500          46.600
  21892407.359    21892406.526    21892405.038   -19348827.751 5 -15077002.457 5
        33.500          30.100
  22949132.540    22949132.076    22949131.954    -9838788.492 4  -7666585.494 4
        27.600          28.600
  23492954.590    23492954.117    23492953.036    -9305785.048 3  -7251255.811 3
        21.600          21.600
  23475207.497    23475207.224    23475205.464    -7280617.997 4  -5673199.381 4
        25.600          27.900
  20510958.169    20510957.306    20510955.698   -25490637.864 6 -19862825.269 8
        40.400          49.100
  23017063.349    23017061.430    23017059.451   -10604094.433 5  -8262928.350 5
        30.600          31.100
  22915248.604    22915247.726    22915248.017    -8550656.137 4  -6662845.372 4
        26.200          28.400
 09  1 13  0 16  0.0000000  0 10G28G 9G22G21G 6G14G15G18G19G 3
  25573153.472    25573152.492    25573153.519      -80810.774      -62969.210
                         3.000
  22055282.235    22055281.525    22055280.922   -14766112.623 5 -11506057.217 5
        32.000          32.600
  20650841.596    20650841.034    20650837.912   -23659068.950 7 -18435630.139 7
        42.500          46.600
  21909015.748    21909014.928    21909013.284   -19261550.423 5 -15008994.157 5
        33.200          30.100
  22960689.391    22960688.757    22960688.326    -9778058.217 4  -7619263.201 4
        27.600          27.900
  23472800.020    23472799.332    23472798.258    -9411697.924 3  -7333785.313 3
        21.100          22.100
  23493760.226    23493760.187    23493758.807    -7183120.433 4  -5597227.249 4
        24.600          28.400
  20514891.336    20514890.477    20514888.808   -25469969.126 6 -19846719.758 8
        40.500          49.100
  23012293.826    23012292.194    23012290.472   -10629157.754 5  -8282458.214 5
        31.000          31.500
  22925964.692    22925963.848    22925963.884    -8494342.244 4  -6618964.428 4
        26.500          28.100
 09  1 13  0 16 30.0000000  0 10G28G 9G22G21G 6G14G15G18G19G 3
  25568218.067    25568216.950    25568215.857     -106769.728      -83196.930 1
         3.000           6.500
  22042681.902    22042681.082    22042680.326   -14832328.927 5 -11557654.333 5
        32.300          32.600
  20643338.586    20643338.023    20643334.902   -23698497.667 7 -18466353.813 7
        42.500          46.700
  21925696.141    21925695.451    21925693.906   -19173893.272 5 -14940689.899 4
        33.100          29.700
  22972329.990    22972329.448    22972328.868    -9716885.947 4  -7571596.498 4
        27.600          27.600
  23452686.630    23452685.796    23452684.556    -9517394.009 3  -7416145.869 3
        21.100          21.600
  23512357.048    23512357.183    23512356.036    -7085391.644 3  -5521074.956 4
        23.400          28.800
  20518900.384    20518899.516    20518897.898   -25448901.072 6 -19830303.089 8
        40.400          49.000
  23007637.492    23007635.848    23007633.929   -10653626.993 5  -8301525.156 5
        31.000          31.500
  22936775.319    22936774.489    22936774.507    -8437531.607 4  -6574696.400 4
        25.900          28.400
 09  1 13  0 17  0.0000000  0 10G28G 9G22G21G 6G14G15G18G19G 3
  25563367.855    25563368.084    25563367.068     -132242.965     -103046.207 1
                         9.000
  22030192.336    22030191.657    22030190.895   -14897962.017 5 -11608796.988 5
        32.400          33.100
  20635904.160    20635903.570    20635900.519   -23737565.922 7 -18496796.604 7
        42.500          46.900
  21942446.341    21942445.423    21942443.767   -19085872.037 5 -14872101.932 4
        33.400          29.700
  22984051.716    22984050.931    22984050.577    -9655288.388 4  -7523598.395 4
        27.400          27.600
  23432611.939    23432611.477    23432610.370    -9622885.855 3  -7498347.275 3
        21.600          22.100
  23530995.663    23530995.337    23530993.811    -6987448.191 3  -5444755.383 4
        23.800          28.400
  20522982.799    20522981.914    20522980.270   -25427447.949 6 -19813586.369 8
        40.500          48.900
  23003091.355    23003089.719    23003087.989   -10677515.964 5  -8320139.932 5
        30.800          31.300
  22947677.840    22947677.053    22947676.556    -8380240.159 4  -6530053.726 4
        26.500          28.100
 09  1 13  0 17 30.0000000  0 10G28G 9G22G21G 6G14G15G18G19G 3
  25558615.824    25558614.719    25558613.619     -157216.573     -122506.164 1
         3.000           9.000
  22017816.773    22017816.017    22017815.324   -14962996.662 5 -11659473.319 5
        32.600          33.400
  20628540.743    20628540.230    20628537.252   -23776260.314 7 -18526948.072 7
        42.600          47.000
  21959267.856    21959266.855    21959264.960   -18997475.809 5 -14803221.767 4
        33.500          29.500
  22995856.254    22995855.379    22995855.224    -9593254.986 4  -7475260.678 4
        27.100          27.600
  23412579.724    23412578.878    23412577.730    -9728158.585 3  -7580377.948 3
        22.600          22.600
  23549676.884    23549676.461    23549674.590    -6889279.496 4  -5368260.298 4
        24.900          27.600
  20527140.840    20527139.952    20527138.250   -25405597.677 6 -19796560.184 8
        40.500          48.900
  22998658.543    22998656.829    22998655.098   -10700811.219 5  -8338292.079 5
        30.800          31.600
  22958673.051    22958672.230    22958672.490    -8322458.044 4  -6485028.703 4
        25.900          28.400
 09  1 13  0 18  0.0000000  0 10G28G 9G22G21G 6G14G15G18G19G 3
  25553959.251    25553957.112    25553955.302     -181702.168     -141585.844 1
         3.000           9.000
  22005552.932    22005552.236    22005551.819   -15027442.386 5 -11709690.750 5
        32.600          33.400
  20621246.536    20621245.947    20621242.777   -23814592.504 7 -18556817.307 7
        42.600          47.000
  21976157.636    21976156.687    21976154.735   -18908719.165 5 -14734060.756 4
        33.000          29.500
  23007740.672    23007740.154    23007740.004    -9530800.650 4  -7426594.958 4
        26.500          28.100
  23392586.745    23392585.846    23392584.480    -9833223.123 3  -7662246.399 3
        22.600          22.600
  23568398.294    23568397.732    23568395.494    -6790900.516 4  -5291601.343 4
        24.900          27.100
  20531371.964    20531371.102    20531369.390   -25383362.832 6 -19779234.327 8
        40.600          48.800
  22994336.565    22994334.798    22994333.207   -10723524.240 5  -8355990.534 5
        31.000          31.600
  22969759.496    22969758.630    22969758.742    -8264199.897 4  -6439632.768 4
        26.200          28.600
 09  1 13  0 18 30.0000000  0 10G28G 9G22G21G 6G14G15G18G19G 3
  25549387.251    25549388.986    25549386.218     -205705.971     -160290.046 1
                        11.000
  21993400.478    21993399.716    21993399.431   -15091303.455 5 -11759452.609 5
        32.400          33.400
  20614019.697    20614019.141    20614016.041   -23852569.138 7 -18586409.484 7
        42.600          47.000
  21993114.453    21993113.408    21993111.404   -18819611.071 5 -14664625.884 4
        32.800          29.000
  23019703.849    23019703.196    23019702.751    -9467935.082 4  -7377608.798 4
        26.500          27.900
  23372632.600    23372631.454    23372630.111    -9938084.603 3  -7743956.628 3
        23.000          23.000
  23587157.537    23587156.808    23587155.050    -6692320.581 4  -5214785.805 4
        24.600          27.600
  20535674.889    20535674.036    20535672.312   -25360750.972 6 -19761614.694 8
        40.700          48.800
  22990123.931    22990122.180    22990120.243   -10745661.700 5  -8373240.501 5
        31.000          31.100
  22980934.335    22980933.354    22980933.379    -8205475.292 4  -6393873.340 4
        25.900          28.400
 09  1 13  0 19  0.0000000  0 10G28G 9G22G21G 6G14G15G18G19G 3
  25544915.667    25544914.391    25544911.713     -229228.102 1   -178618.972 2
         6.500          16.100
  21981359.792    21981359.058    21981358.581   -15154578.298 5 -11808757.665 5
        32.700          33.600
  20606860.375    20606859.821    20606856.959   -23890190.753 7 -18615725.023 7
        42.500          47.100
  22010137.278    22010136.399    22010134.497   -18730154.339 5 -14594919.353 4
        32.700          29.000
  23031744.203    23031743.588    23031743.342    -9404661.784 4  -7328304.926 4
        25.600          28.400
  23352716.859    23352715.817    23352714.709   -10042742.407 3  -7825508.144 3
        23.000          23.400
  23605953.815    23605953.402    23605951.977    -6593543.266 3  -5137816.473 4
        23.800          28.100
  20540049.224    20540048.379    20540046.663   -25337763.840 6 -19743702.643 8
        40.700          48.700
  22986020.802    22986018.969    22986016.999   -10767224.022 5  -8390042.306 5
        31.100          30.800
  22992197.593    22992196.487    22992196.476    -8146288.119 4  -6347753.476 4
        25.600          28.400
 09  1 13  0 19 30.0000000  0 10G28G 9G22G21G 6G14G15G18G19G 3
  25540530.616    25540529.134    25540529.097     -252259.500     -196565.588 2
         3.000          16.100
  21969432.476    21969431.685    21969431.000   -15217256.058 5 -11857597.469 5
        32.600          33.200
  20599770.602    20599770.059    20599767.004   -23927448.365 7 -18644756.921 7
        42.600          47.200
  22027227.789    22027226.973    22027225.036   -18640342.803 5 -14524936.345 4
        32.700          28.800
  23043863.309    23043862.588    23043862.560    -9340974.875 4  -7278678.777 4
        25.300          28.400
  23332841.017    23332840.730    23332839.495   -10147186.726 3  -7906893.304 3
        22.600          23.800
  23624789.185    23624789.092    23624787.260    -6494562.557 4  -5060688.666 4
        24.600          27.900
  20544496.480    20544495.622    20544493.948   -25314393.129 6 -19725491.697 8
        40.800          48.700
  22982028.735    22982026.893    22982024.942   -10788202.218 5  -8406388.953 5
        31.000          31.000
  23003549.013    23003548.047    23003548.666    -8086632.763 4  -6301268.788 4
        25.600          28.800
 09  1 13  0 20  0.0000000  0 10G28G 9G22G21G 6G14G15G18G19G 3
  25536241.563    25536240.617    25536240.033     -274796.733     -214127.048 2
                        13.900
  21957619.826    21957619.230    21957618.566   -15279331.290 5 -11905967.766 5
        32.600          33.500
  20592750.482    20592749.929    20592746.957   -23964339.049 7 -18673502.904 7
        42.600          47.300
  22044386.240    22044385.333    22044383.427   -18550175.676 5 -14454676.251 4
        32.700          29.000
  23056061.610    23056060.864    23056060.767    -9276874.182 4  -7228730.191 4
        26.200          28.800
  23313007.425    23313006.896    23313006.075   -10251412.588 3  -7988108.245 4
        23.400          24.600
  23643663.009    23643662.910    23643660.879    -6395378.286 3  -4983402.216 4
        23.800          27.100
  20549017.134    20549016.286    20549014.683   -25290636.640 6 -19706980.146 8
        40.700          48.600
  22978148.607    22978146.595    22978144.780   -10808593.325 5  -8422278.114 5
        31.000          31.000
  23014990.642    23014989.822    23014989.812    -8026508.812 4  -6254418.970 4
        26.200          28.400
 09  1 13  0 20 30.0000000  0 10G28G 9G22G21G 6G14G15G18G19G 3
  25532049.135    25532046.934    25532045.501     -296841.926 1   -231305.138 2
        11.000          12.600
  21945922.000    21945921.232    21945920.727   -15340804.914 5 -11953869.275 5
        32.800          33.900
  20585799.899    20585799.341    20585796.251   -24000865.391 7 -18701964.982 7
        42.700          47.400
  22061611.081    22061610.157    22061608.630   -18459658.107 5 -14384143.090 4
        32.000          29.500
  23068337.113    23068336.432    23068336.166    -9212365.381 4  -7178463.596 4
        26.200          28.600
  23293215.377    23293214.786    23293213.945   -10355422.031 3  -8069154.543 4
        23.800          25.300
  23662575.152    23662574.885    23662572.725    -6295995.789 4  -4905961.297 4
        24.200          27.100
  20553610.596    20553609.742    20553608.071   -25266498.233 6 -19688170.997 8
        40.800          48.500
  22974379.138    22974377.628    22974375.779   -10828399.809 5  -8437711.733 5
        30.400          31.500
  23026519.863    23026519.051    23026519.072    -7965922.042 4  -6207208.506 4
        26.200          27.900
 09  1 13  0 21  0.0000000  0 10G28G 9G22G21G 6G14G15G18G19G 3
  25527945.452    25527946.442    25527942.245     -318392.264 1   -248097.599 1
         6.500           9.000
  21934338.953    21934338.458    21934338.061   -15401672.190 5 -12001298.303 5
        32.800          33.800
  20578919.065    20578918.453    20578915.302   -24037024.829 7 -18730141.165 7
        42.700          47.400
  22078902.706    22078901.787    22078900.260   -18368789.843 5 -14313336.675 4
        31.600          29.500
  23080690.301    23080689.662    23080689.598    -9147449.050 4  -7127879.452 4
        26.200          28.400
  23273464.700    23273464.234    23273463.603   -10459210.848 3  -8150028.923 4
        23.400          24.900
  23681524.352    23681524.472    23681522.325    -6196415.167 3  -4828366.004 4
        23.000          27.100
  20558276.977    20558276.134    20558274.522   -25241976.035 6 -19669062.787 8
        40.800          48.500
  22970721.865    22970720.342    22970718.500   -10847619.174 5  -8452687.856 5
        30.800          31.600
  23038137.393    23038136.370    23038136.196    -7904873.017 4  -6159637.838 4
        26.500          27.900
 09  1 13  0 21 30.0000000  0 10G28G 9G22G21G 6G14G15G18G19G 3
  25523940.031    25523939.318    25523939.703     -339440.273 1   -264498.652 1
         6.500          11.000
  21922873.930    21922873.268    21922872.555   -15461923.286 5 -12048247.202 5
        33.100          33.600
  20572109.236    20572108.692    20572105.649   -24072809.541 7 -18758025.351 7
        42.600          47.400
  22096262.063    22096261.222    22096259.538   -18277565.995 5 -14242253.174 4
        31.600          29.200
  23093121.913    23093121.271    23093120.762    -9082120.552 4  -7076974.136 4
        26.200          27.600
  23253758.462    23253757.654    23253756.452   -10562770.640 3  -8230724.843 4
        23.000          24.600
  23700513.144    23700512.788    23700510.239    -6096632.226 3  -4750613.064 4
        22.600          27.100
  20563017.623    20563016.800    20563015.087   -25217063.621 6 -19649650.518 8
        40.900          48.300
  22967177.824    22967176.120    22967174.253   -10866244.097 5  -8467200.772 5
        31.100          31.600
  23049843.356    23049842.356    23049842.488    -7843357.291 4  -6111703.514 4
        26.200          28.100
 09  1 13  0 22  0.0000000  0 10G28G 9G22G21G 6G14G15G18G19G 3
  25520032.115    25520030.580    25520027.274     -359994.230 2   -280514.703 2
        13.900          12.600
  21911524.379    21911523.643    21911523.296   -15521564.987 5 -12094721.236 5
        33.000          33.800
  20565369.356    20565368.806    20565365.768   -24108228.068 7 -18785624.196 7
        42.700          47.500
  22113686.804    22113686.030    22113684.383   -18185997.722 5 -14170901.289 4
        31.600          29.000
  23105629.515    23105629.056    23105628.735    -9016391.647 4  -7025756.810 4
        25.900          27.400
  23234094.054    23234093.109    23234091.923   -10666108.215 3  -8311247.605 4
        23.400          24.900
  23719537.714    23719537.290    23719534.581    -5996658.139 3  -4672711.189 4
        21.600          26.500
  20567830.817    20567829.887    20567828.197   -25191770.582 6 -19629941.653 8
        40.900          48.200
  22963745.097    22963743.289    22963741.429   -10884282.745 5  -8481256.861 5
        31.300          31.300
  23061636.018    23061635.185    23061635.110    -7781386.700 4  -6063414.748 4
        26.200          28.100
 09  1 13  0 22 30.0000000  0 10G28G 9G22G21G 6G14G15G18G19G 3
  25516210.721    25516209.835    25516209.495     -380060.877 1   -296151.047 2
        11.000          12.600
  21900289.848    21900289.237    21900288.652   -15580602.377 5 -12140724.385 5
        33.100          33.800
  20558697.703    20558697.155    20558694.046   -24143287.616 7 -18812943.320 7
        42.700          47.500
  22131175.314    22131174.594    22131172.981   -18094094.470 5 -14099288.374 4
        31.600          28.600
  23118211.630    23118210.903    23118210.469    -8950272.331 4  -6974235.271 4
        25.300          26.800
  23214470.786    23214469.839    23214468.617   -10769229.637 4  -8391601.949 4
        24.600          25.600
  23738596.551    23738595.828    23738593.659    -5896502.929 3  -4594668.173 4
        21.600          25.900
  20572714.807    20572713.931    20572712.170   -25166104.905 6 -19609942.420 8
        40.900          48.200
  22960422.670    22960421.052    22960418.901   -10901742.588 5  -8494861.924 5
        31.600          31.100
  23073513.189    23073512.463    23073512.313    -7718970.982 4  -6014779.132 4
        26.200          27.900
 09  1 13  0 23  0.0000000  0 10G28G 9G22G21G 6G14G15G18G19G 3
  25512484.877    25512486.159    25512485.433     -399627.276 1   -311397.625 2
         9.000          12.600
  21889173.203    21889172.531    21889172.024   -15639020.686 5 -12186245.137 5
        33.000          34.000
  20552096.960    20552096.349    20552093.236   -24177975.316 7 -18839972.694 7
        42.700          47.600
  22148729.819    22148728.910    22148727.064   -18001846.269 5 -14027406.659 4
        31.500          28.400
  23130869.561    23130869.048    23130869.090    -8883753.078 4  -6922402.085 4
        24.900          27.400
  23194891.251    23194890.254    23194888.926   -10872121.157 4  -8471777.146 4
        24.200          25.300
  23757691.742    23757691.050    23757688.851    -5796156.605 3  -4516476.225 4
        21.100          24.900
  20577671.850    20577670.992    20577669.350   -25140054.837 6 -19589643.665 8
        40.900          48.100
  22957212.504    22957210.826    22957209.190   -10918611.043 5  -8508006.171 5
        31.300          31.500
  23085477.068    23085476.297    23085475.996    -7656101.210 4  -5965789.697 4
        26.200          27.600
 09  1 13  0 23 30.0000000  0 10G28G 9G22G21G 6G14G15G18G19G 3
  25508860.187    25508859.442    25508858.198     -418689.730 1   -326251.366 2
        11.000          13.900
  21878175.454    21878174.727    21878174.286   -15696814.194 5 -12231279.025 5
        33.100          33.800
  20545567.466    20545566.920    20545563.833   -24212287.587 7 -18866709.524 7
        42.700          47.700
  22166350.019    22166348.980    22166347.447   -17909251.720 5 -13955255.077 4
        31.000          28.400
  23143604.557    23143603.794    23143603.668    -8816833.418 4  -6870256.909 4
        24.900          27.400
  23175355.677    23175354.923    23175354.014   -10974778.029 3  -8551769.497 4
        23.400          25.300
  23776823.342    23776822.983    23776820.724    -5695618.473 3  -4438134.833 4
        21.600          24.900
  20582702.847    20582701.958    20582700.248   -25113617.546 6 -19569043.175 8
        41.000          48.100
  22954115.926    22954114.110    22954112.242   -10934884.581 5  -8520686.836 5
        30.800          31.500
  23097527.305    23097526.399    23097526.374    -7592776.501 4  -5916445.769 4
        26.200          27.600
 09  1 13  0 24  0.0000000  0 10G28G 9G22G21G 6G14G15G18G19G 3
  25505329.745    25505328.497    25505325.057     -437255.238 1   -340718.017 1
        11.000          11.000
  21867295.644    21867294.997    21867294.242   -15753988.463 5 -12275830.395 5
        33.400          33.800
  20539108.057    20539107.453    20539104.347   -24246232.289 7 -18893159.937 7
        42.700          47.800
  22184033.896    22184033.102    22184031.581   -17816320.768 5 -13882841.362 4
        30.800          28.600
  23156413.099    23156412.288    23156411.851    -8749523.818 4  -6817807.863 4
        24.600          27.400
  23155863.857    23155863.242    23155862.683   -11077206.222 3  -8631583.651 4
        23.800          25.600
