     2.11           OBSERVATION DATA    G (GPS)             RINEX VERSION / TYPE
teqc  2008Oct2      WCDA Operator       20090104 00:19:08UTCPGM / RUN BY / DATE
Solaris x86 5.10|AMD64|cc SC5.8 -xarch=amd64|=+|=+          COMMENT
teqc  2008Oct2      WCDA Operator       20090103 01:18:33UTCCOMMENT
flin  WCDA-ACP   965000   CFS Flin Flon SASK Canada         MARKER NAME
40135M001                                                   MARKER NUMBER
PGC-WCDA            GEOL. SURV. CANADA                      OBSERVER / AGENCY
1115                AOA BENCHMARK ACT   3.3.32.4            REC # / TYPE / VERS
231                 AOAD/M_T        SCIS                    ANT # / TYPE
  -766174.4630 -3611375.3160  5184056.2210                  APPROX POSITION XYZ
        0.1500        0.0000        0.0000                  ANTENNA: DELTA H/E/N
     1     1                                                WAVELENGTH FACT L1/2
     7    C1    P1    P2    L1    L2    S1    S2            # / TYPES OF OBSERV
STATION INFORMATION EFFECTIVE FROM: 2001/01/13 18:20:00     COMMENT
                                TO: CURRENT DATE (above)    COMMENT
BIT 2 OF LLI FLAGS (+4) DATA COLLECTED UNDER 'AS' CONDITION COMMENT
L1 PHASE CENTRE 0.110m ABOVE ARP                            COMMENT
L2 PHASE CENTRE 0.128m ABOVE ARP                            COMMENT
where ARP is the Antenna Reference Point for HI measurement COMMENT
CONTACT gps@pgc.nrcan.gc.ca FOR ADDITIONAL INFORMATION      COMMENT
    P1 =    P1  TurboRogue; =    Y1  Benchmark              COMMENT
    L1 = L1(CA)                                             COMMENT
    P2 =    P2  TurboRogue; =    Y2  Benchmark              COMMENT
    L2 = L2(P2) TurboRogue; = L2(Y2) Benchmark              COMMENT
 SNR is mapped to RINEX snr flag value [0-9]                COMMENT
  L1 & L2: min(max(int(snr_dBHz/6), 0), 9)                  COMMENT
  2009     1     3     0     0    0.0000000     GPS         TIME OF FIRST OBS
                                                            END OF HEADER
 09  1  3  0  0  0.0000000  0 10G21G26G 9G15G 6G18G 3G19G24G22
  20528859.381    20528858.552    20528857.103   -26466219.583 6 -20623018.632 7
        40.600          44.100
  22641850.809    22641850.308    22641849.707    -8724480.648 4  -6798284.782 4
        24.600          26.800
  24062981.558    24062981.801    24062981.046    -4211555.657 1  -3281729.101 2
        11.000          12.600
  21759043.362    21759043.146    21759041.908   -16274419.712 6 -12681353.549 6
        37.900          39.900
  22248852.110    22248851.632    22248851.340   -12651047.669 5  -9857953.826 5
        33.500          33.000
  20538293.022    20538292.254    20538290.464   -25050554.407 6 -19519903.357 7
        38.200          46.800
  22379066.559    22379065.748    22379066.066   -11484524.981 5  -8948975.055 5
        30.600          30.800
  24171436.104    24171434.946    24171434.206    -4543174.000 3  -3540134.990 4
        19.900          24.600
  23668071.022    23668070.346    23668072.304    -5700772.469 2  -4442154.589 3
        17.000          22.100
  21918645.756    21918645.233    21918642.693   -16983102.448 5 -13233578.076 6
        35.800          36.500
 09  1  3  0  0 30.0000000  0 10G21G26G 9G15G 6G18G 3G19G24G22
  20535899.669    20535898.817    20535897.389   -26429222.796 6 -20594189.967 7
        40.600          44.000
  22661067.702    22661067.277    22661066.865    -8623495.250 4  -6719594.870 4
        24.600          27.100
  24041854.733    24041854.445    24041854.714    -4322580.431 2  -3368241.864 2
        15.100          16.100
  21770066.588    21770066.587    21770065.351   -16216490.723 6 -12636214.063 6
        37.700          39.800
  22249190.453    22249189.852    22249190.136   -12649268.035 5  -9856567.080 5
        33.000          33.000
  20533959.460    20533958.629    20533957.816   -25073328.011 6 -19537649.006 7
        38.200          47.100
  22377478.720    22377477.772    22377478.071   -11492870.052 5  -8955477.667 5
        30.800          30.800
  24156154.216    24156152.802    24156152.053    -4623483.491 3  -3602713.828 4
        20.500          24.600
  23687159.036    23687158.556    23687160.162    -5600465.252 2  -4363993.176 3
        17.800          22.100
  21904302.095    21904301.742    21904299.270   -17058477.922 6 -13292312.186 6
        36.000          36.500
 09  1  3  0  1  0.0000000  0 10G21G26G 9G15G 6G18G 3G19G24G22
  20543033.409    20543032.632    20543031.030   -26391735.033 6 -20564978.721 7
        40.700          43.800
  22680357.945    22680357.545    22680356.596    -8522127.120 4  -6640606.726 4
        24.600          27.100
  24020763.986    24020763.245    24020764.253    -4433414.590 2  -3454606.074 2
        17.000          17.800
  21781180.987    21781180.913    21781179.634   -16158084.586 6 -12590702.774 6
        37.500          39.700
  22249638.689    22249638.252    22249638.439   -12646912.870 5  -9854731.873 5
        33.200          33.400
  20529699.072    20529698.249    20529696.310   -25095715.970 6 -19555094.156 7
        38.100          46.900
  22376008.268    22376007.333    22376007.427   -11500597.260 5  -8961498.832 5
        31.100          30.800
  24140944.878    24140942.941    24140941.639    -4703413.394 3  -3664996.872 3
        21.100          23.800
  23706277.106    23706276.572    23706277.879    -5500000.356 2  -4285708.889 3
        17.800          21.600
  21890008.908    21890008.467    21890005.981   -17133589.267 6 -13350840.488 6
        36.200          36.600
 09  1  3  0  1 30.0000000  0 10G21G26G 9G15G 6G18G 3G19G24G22
  20550261.543    20550260.652    20550258.980   -26353751.734 6 -20535381.345 7
        40.700          43.700
  22699720.852    22699720.298    22699719.318    -8420374.695 4  -6561319.112 4
        24.600          26.800
  23999711.012    23999710.390    23999711.227    -4544049.364 3  -3540814.972 3
        18.600          18.600
  21792386.807    21792386.604    21792385.397   -16099198.427 6 -12544817.446 6
        37.500          39.700
  22250197.309    22250196.676    22250196.931   -12643977.633 5  -9852444.657 5
        33.100          33.200
  20525513.077    20525512.342    20525511.518   -25117713.100 6 -19572234.759 7
        38.100          46.600
  22374656.316    22374655.585    22374655.582   -11507701.614 5  -8967034.668 5
        31.300          30.600
  24125808.635    24125807.145    24125804.338    -4782956.673 3  -3726978.633 3
        21.100          23.400
  23725426.355    23725425.244    23725426.403    -5399374.194 2  -4207298.931 3
        17.800          20.500
  21875767.111    21875766.601    21875764.245   -17208430.613 6 -13409158.399 6
        36.200          36.800
 09  1  3  0  2  0.0000000  0 10G21G26G 9G15G 6G18G 3G19G24G22
  20557582.065    20557581.266    20557579.605   -26315281.199 6 -20505404.308 7
        40.700          43.500
  22719154.430    22719154.037    22719153.172    -8318249.065 4  -6481740.711 4
        24.600          27.100
  23978695.148    23978694.275    23978695.126    -4654489.127 2  -3626871.884 3
        17.800          19.900
  21803681.818    21803681.751    21803680.584   -16039842.055 6 -12498565.717 6
        37.300          39.700
  22250864.760    22250864.188    22250864.280   -12640470.111 5  -9849711.504 5
        33.200          33.200
  20521400.173    20521399.282    20521397.354   -25139327.294 6 -19589076.993 7
        38.100          46.800
  22373421.478    22373420.645    22373420.904   -11514190.598 5  -8972090.988 5
        31.300          30.800
  24110743.044    24110741.508    24110740.108    -4862118.530 3  -3788663.206 3
        19.900          23.800
  23744604.507    23744602.941    23744603.059    -5298596.142 3  -4128770.616 3
        18.600          19.300
  21861575.330    21861574.865    21861572.397   -17283008.700 6 -13467271.177 6
        36.200          36.700
 09  1  3  0  2 30.0000000  0 10G21G26G 9G15G 6G18G 3G19G24G22
  20564996.849    20564996.005    20564994.521   -26276315.957 6 -20475041.780 7
        40.600          43.500
  22738659.981    22738659.786    22738658.986    -8215745.772 4  -6401868.034 4
        24.200          27.600
  23957717.207    23957716.636    23957717.916    -4764722.634 2  -3712768.072 3
        16.100          20.500
  21815067.295    21815067.231    21815066.035   -15980010.084 6 -12451943.378 6
        37.200          39.400
  22251642.835    22251642.092    22251641.889   -12636382.999 5  -9846526.737 5
        33.500          33.100
  20517361.531    20517360.753    20517359.893   -25160550.190 6 -19605614.306 7
        38.100          46.700
  22372305.183    22372304.289    22372304.443   -11520056.736 5  -8976661.967 5
        31.500          31.100
  24095753.650    24095751.868    24095751.600    -4940888.947 3  -3850042.769 4
        19.300          24.200
  23763811.331    23763810.569    23763811.140    -5197659.999 3  -4050119.095 3
        19.900          19.300
  21847435.375    21847434.883    21847432.421   -17357314.745 6 -13525171.971 6
        36.400          36.800
 09  1  3  0  3  0.0000000  0 10G21G26G 9G15G 6G18G 3G19G24G22
  20572505.987    20572505.149    20572503.498   -26236855.599 6 -20444293.449 7
        40.600          43.300
  22758237.801    22758237.228    22758236.197    -8112867.089 4  -6321702.867 4
        24.200          27.600
  23936781.630    23936780.937    23936781.305    -4874745.445 2  -3798500.051 3
        17.000          22.600
  21826543.247    21826543.192    21826542.059   -15919703.648 6 -12404951.331 6
        37.200          39.500
  22252530.777    22252530.225    22252529.982   -12631715.440 5  -9842889.669 5
        33.600          33.100
  20513397.570    20513396.742    20513394.704   -25181380.990 6 -19621846.090 7
        38.100          46.600
  22371307.707    22371306.835    22371306.858   -11525298.869 5  -8980746.718 5
        31.600          31.100
  24080841.285    24080839.034    24080837.380    -5019264.450 3  -3911114.601 4
        20.500          24.200
  23783048.192    23783047.833    23783048.875    -5096565.908 3  -3971344.496 3
        18.600          19.300
  21833347.746    21833347.110    21833344.550   -17431347.061 6 -13582859.467 6
        36.700          36.900
 09  1  3  0  3 30.0000000  0 10G21G26G 9G15G 6G18G 3G19G24G22
  20580107.208    20580106.373    20580104.684   -26196910.919 6 -20413167.717 7
        40.600          43.100
  22777883.494    22777883.250    22777882.373    -8009626.846 4  -6241255.957 4
        24.600          26.800
  23915883.599    23915883.224    23915883.831    -4984564.033 2  -3884072.894 3
        16.100          23.400
  21838107.154    21838107.026    21838105.769   -15858935.395 6 -12357599.430 6
        37.100          39.300
  22253527.508    22253526.892    22253526.948   -12626478.219 5  -9838808.714 5
        33.600          33.400
  20509506.275    20509505.497    20509504.584   -25201829.892 6 -19637780.290 7
        38.100          46.700
  22370426.874    22370426.121    22370426.119   -11529927.331 5  -8984353.288 5
        32.000          31.100
  24065999.828    24065998.182    24065996.535    -5097252.890 3  -3971884.825 4
        21.100          24.200
  23802313.647    23802312.977    23802314.217    -4995325.679 3  -3892456.031 3
        18.600          19.900
  21819309.748    21819309.364    21819306.886   -17505115.365 6 -13640341.244 6
        36.700          37.000
 09  1  3  0  4  0.0000000  0 10G21G26G 9G15G 6G18G 3G19G24G22
  20587801.585    20587800.789    20587799.294   -26156475.614 6 -20381659.688 7
        40.600          43.000
  22797598.882    22797598.614    22797597.706    -7906021.400 3  -6160524.454 4
        23.800          26.200
  23895025.938    23895025.361    23895026.402    -5094168.538 2  -3969478.922 3
        15.100          23.000
  21849759.816    21849759.611    21849758.285   -15797700.699 6 -12309884.065 6
        37.100          39.200
  22254633.713    22254633.094    22254633.184   -12620664.851 5  -9834278.814 5
        33.600          33.100
  20505689.068    20505688.217    20505686.110   -25221889.677 6 -19653411.278 7
        38.100          46.600
  22369664.320    22369663.380    22369663.205   -11533935.784 5  -8987476.738 5
        31.800          31.300
  24051234.034    24051232.595    24051230.298    -5174845.481 3  -4032346.617 3
        21.100          23.800
  23821608.429    23821607.317    23821608.520    -4893933.924 2  -3813449.528 3
        17.000          20.500
  21805324.095    21805323.598    21805320.824   -17578611.993 6 -13697611.325 6
        37.000          36.900
 09  1  3  0  4 30.0000000  0 10G21G26G 9G15G 6G18G 3G19G24G22
  20595589.598    20595588.870    20595587.311   -26115549.603 6 -20349769.287 7
        40.700          43.000
  22817382.825    22817382.670    22817382.168    -7802053.482 3  -6079510.509 4
        22.600          25.600
  23874211.793    23874210.905    23874210.464    -5203554.337 2  -4054714.551 3
        15.100          23.000
  21861500.833    21861500.781    21861499.386   -15736000.906 6 -12261806.289 6
        37.200          39.100
  22255849.674    22255849.005    22255849.022   -12614275.026 5  -9829299.737 5
        33.200          33.100
  20501945.927    20501945.152    20501944.296   -25241559.204 6 -19668738.171 7
        38.100          46.500
  22369019.254    22369018.516    22369018.768   -11537323.149 5  -8990116.215 5
        31.300          31.300
  24036543.781    24036542.329    24036540.875    -5252038.943 3  -4092497.358 3
        18.600          23.000
  23840931.428    23840930.365    23840931.993    -4792391.316 2  -3734325.475 3
        16.100          21.100
  21791390.300    21791389.690    21791386.916   -17651835.301 6 -13754668.428 6
        37.000          37.200
 09  1  3  0  5  0.0000000  0 10G21G26G 9G15G 6G18G 3G19G24G22
  20603471.947    20603471.137    20603469.529   -26074128.470 6 -20317493.086 7
        40.800          42.900
  22837236.749    22837236.449    22837235.552    -7697721.474 3  -5998212.842 4
        22.600          25.300
  23853439.092    23853438.874    23853438.854    -5312713.106 2  -4139773.258 3
        17.000          23.800
  21873330.857    21873330.774    21873329.511   -15673833.599 6 -12213364.221 6
        37.200          39.100
  22257176.112    22257175.514    22257175.530   -12607304.071 5  -9823867.818 5
        33.400          33.100
  20498278.139    20498277.373    20498275.168   -25260833.955 6 -19683757.444 7
        38.000          46.600
  22368494.085    22368493.224    22368493.114   -11540084.861 5  -8992268.190 5
        31.600          31.300
  24021932.823    24021931.196    24021928.747    -5328826.062 3  -4152331.472 3
        19.900          23.000
  23860283.331    23860282.864    23860284.286    -4690694.419 2  -3655081.189 3
        17.000          21.100
  21777509.170    21777508.620    21777506.191   -17724779.587 6 -13811508.105 6
        37.100          37.400
 09  1  3  0  5 30.0000000  0 10G21G26G 9G15G 6G18G 3G19G24G22
  20611447.266    20611446.460    20611444.805   -26032218.045 6 -20284835.611 7
        40.700          42.800
  22857158.275    22857158.077    22857157.109    -7593034.215 3  -5916638.365 4
        23.400          25.900
  23832710.120    23832709.278    23832709.418    -5421646.797 2  -4224656.592 3
        16.100          23.000
  21885248.579    21885248.464    21885247.002   -15611206.253 6 -12164563.690 6
        37.100          39.000
  22258612.233    22258611.645    22258611.538   -12599757.870 5  -9817987.663 5
        33.400          33.200
  20494684.170    20494683.438    20494682.582   -25279719.294 6 -19698473.281 7
        38.000          46.200
  22368086.108    22368085.353    22368085.404   -11542226.867 5  -8993937.280 5
        31.300          31.000
  24007397.273    24007395.281    24007394.208    -5405209.580 3  -4211851.084 3
        21.100          23.800
  23879663.902    23879663.184    23879664.813    -4588850.138 2  -3575722.054 3
        16.100          21.600
  21763680.348    21763679.931    21763677.422   -17797449.844 6 -13868134.258 6
        37.400          37.300
 09  1  3  0  6  0.0000000  0 10G21G26G 9G15G 6G18G 3G19G24G22
  20619515.634    20619514.744    20619513.184   -25989818.978 6 -20251797.377 7
        40.700          42.800
  22877146.902    22877146.298    22877145.546    -7487995.157 3  -5834789.762 4
        23.400          25.600
  23812022.704    23812022.159    23812023.209    -5530352.041 2  -4309361.902 3
        13.900          21.600
  21897253.293    21897253.065    21897251.736   -15548121.242 6 -12115406.538 6
        36.900          39.000
  22260157.484    22260156.941    22260156.898   -12591637.189 5  -9811659.854 5
        33.400          33.200
  20491164.692    20491163.888    20491161.677   -25298215.318 6 -19712885.762 7
        38.000          46.400
  22367796.551    22367795.657    22367795.908   -11543749.008 5  -8995123.351 5
        31.300          31.100
  23992939.318    23992937.623    23992935.909    -5481187.915 3  -4271054.967 4
        22.100          24.200
  23899072.814    23899072.115    23899072.636    -4486860.192 2  -3496249.401 3
        16.100          21.100
  21749904.272    21749903.807    21749901.081   -17869844.066 6 -13924545.323 6
        37.400          37.300
 09  1  3  0  6 30.0000000  0 10G21G26G 9G15G 6G18G 3G19G24G22
  20627676.997    20627676.185    20627674.705   -25946929.874 6 -20218377.301 7
        40.700          42.700
  22897201.962    22897201.581    22897200.803    -7382605.351 3  -5752667.842 4
        23.400          25.900
  23791381.489    23791380.407    23791381.432    -5638823.316 1  -4393884.905 3
        11.000          20.500
  21909344.908    21909344.811    21909343.496   -15484578.931 6 -12065893.049 6
        37.000          39.000
  22261812.397    22261811.835    22261811.741   -12582940.278 5  -9804883.034 5
        33.100          33.000
  20487719.564    20487718.748    20487717.761   -25316319.399 6 -19726992.829 7
        38.000          46.400
  22367625.052    22367624.371    22367624.312   -11544650.115 5  -8995825.508 5
        31.600          31.100
  23978558.524    23978557.049    23978555.704    -5556756.592 3  -4329939.620 4
        22.100          24.200
  23918507.879    23918507.075    23918508.665    -4384723.920 2  -3416662.737 3
        13.900          20.500
  21736180.997    21736180.453    21736177.892   -17941960.168 6 -13980739.664 6
        37.400          37.600
 09  1  3  0  7  0.0000000  0 10G21G26G 9G15G 6G18G 3G19G24G22
  20635931.033    20635930.202    20635928.610   -25903554.836 6 -20184578.570 7
        40.800          42.600
  22917321.913    22917321.565    22917320.937    -7276872.037 3  -5670278.256 4
        22.600          25.900
  23770785.403    23770784.688    23770785.095    -5747060.744 2  -4478225.672 3
        15.100          22.100
  21921522.573    21921522.503    21921520.976   -15420584.977 6 -12016027.625 6
        37.100          38.600
  22263576.099    22263575.492    22263575.562   -12573671.271 5  -9797660.430 5
        33.100          33.000
  20484348.403    20484347.567    20484345.481   -25334035.078 6 -19740797.251 7
        37.800          46.400
  22367571.312    22367570.470    22367570.643   -11544933.395 5  -8996046.236 5
        31.300          31.300
  23964256.735    23964255.073    23964252.930    -5631916.991 3  -4388506.163 3
        23.000          23.800
  23937970.876    23937969.862    23937970.966    -4282446.318 2  -3336965.954 3
        15.100          19.900
  21722510.082    21722509.625    21722507.005   -18013800.794 6 -14036719.352 6
        37.300          37.700
 09  1  3  0  7 30.0000000  0 10G21G26G 9G15G 6G18G 3G19G24G22
  20644276.435    20644275.587    20644274.020   -25859699.317 6 -20150405.442 7
        40.700          42.400
  22937505.884    22937505.595    22937505.198    -7170803.205 3  -5587627.207 4
        21.600          26.200
  23750232.126    23750231.453    23750232.670    -5855065.255 2  -4562384.975 3
        17.800          22.600
  21933784.700    21933784.639    21933782.999   -15356146.444 6 -11965815.770 6
        36.800          38.400
  22265448.084    22265447.494    22265447.311   -12563835.405 5  -9789996.122 5
        33.500          32.800
  20481050.239    20481049.472    20481048.549   -25351366.984 6 -19754302.624 7
        37.800          46.400
  22367633.407    22367632.727    22367633.307   -11544604.087 5  -8995789.621 5
        30.600          31.500
  23950030.895    23950029.318    23950027.935    -5706671.122 3  -4446756.138 4
        22.600          24.600
  23957459.381    23957458.440    23957459.640    -4180033.757 2  -3257163.988 3
        17.000          19.300
  21708891.110    21708890.501    21708887.944   -18085369.719 6 -14092487.326 6
        37.300          37.800
 09  1  3  0  8  0.0000000  0 10G21G26G 9G15G 6G18G 3G19G24G22
  20652714.688    20652713.829    20652712.292   -25815355.962 6 -20115852.176 7
        40.700          42.300
  22957755.038    22957754.370    22957754.143    -7064394.060 3  -5504711.012 4
        21.100          25.900
  23729726.642    23729725.783    23729725.983    -5962825.523 3  -4646353.955 3
        19.900          21.100
  21946132.759    21946132.572    21946130.979   -15291257.693 6 -11915253.099 6
        36.800          38.300
  22267429.096    22267428.478    22267428.295   -12553424.970 5  -9781884.112 5
        33.400          32.800
  20477826.761    20477825.931    20477823.758   -25368306.524 6 -19767502.257 7
        37.900          46.400
  22367814.626    22367813.780    22367813.784   -11543654.277 5  -8995049.504 5
        31.000          31.100
  23935884.007    23935883.221    23935881.854    -5781008.934 3  -4504681.701 4
        21.600          24.200
  23976975.042    23976974.100    23976974.758    -4077479.321 3  -3177251.447 3
        18.600          18.600
  21695325.409    21695324.832    21695322.155   -18156658.590 6 -14148037.076 6
        37.700          37.900
 09  1  3  0  8 30.0000000  0 10G21G26G 9G15G 6G18G 3G19G24G22
  20661245.339    20661244.514    20661243.091   -25770526.500 6 -20080920.130 7
        40.600          42.200
  22978067.711    22978067.490    22978066.994    -6957649.105 3  -5421533.142 4
        21.600          25.300
  23709266.737    23709266.058    23709266.348    -6070339.051 3  -4730130.687 3
        19.300          19.300
  21958565.602    21958565.528    21958564.065   -15225922.137 6 -11864342.273 6
        36.900          38.400
  22269519.278    22269518.442    22269518.402   -12542441.950 5  -9773325.921 5
        33.200          33.000
  20474677.618    20474676.790    20474675.864   -25384855.352 6 -19780397.438 7
        37.800          46.300
  22368112.756    22368112.156    22368112.333   -11542085.561 5  -8993827.121 5
        30.800          31.300
  23921818.590    23921816.841    23921814.843    -5854929.453 3  -4562282.098 3
        23.000          23.400
  23996517.450    23996516.273    23996516.997    -3974785.867 3  -3097230.586 3
        18.600          19.300
  21681812.828    21681812.338    21681809.658   -18227667.329 6 -14203368.545 6
        38.100          38.000
 09  1  3  0  9  0.0000000  0 10G21G26G 9G15G 6G18G 3G19G24G22
  20669868.724    20669867.879    20669866.347   -25725210.931 6 -20045609.300 7
        40.700          42.000
  22998444.475    22998444.058    22998443.026    -6850571.040 3  -5338095.693 4
        21.600          24.600
  23688856.654    23688855.162    23688854.615    -6177601.666 3  -4813711.886 3
        18.600          18.600
  21971083.112    21971083.097    21971081.514   -15160141.665 6 -11813084.747 6
        36.700          38.100
  22271717.956    22271717.236    22271717.548   -12530886.308 5  -9764321.536 5
        33.000          33.200
  20471602.774    20471601.988    20471599.730   -25401013.043 6 -19792987.833 7
        37.800          46.100
  22368529.316    22368528.442    22368528.862   -11539897.803 5  -8992122.369 5
        30.600          31.600
  23907831.344    23907830.126    23907828.159    -5928429.728 3  -4619555.066 3
        22.600          22.600
  24016085.616    24016084.414    24016085.693    -3871954.311 2  -3017102.109 3
        16.100          20.500
  21668353.983    21668353.431    21668350.645   -18298394.262 6 -14258480.422 6
        38.100          37.900
 09  1  3  0  9 30.0000000  0 10G21G26G 9G15G 6G18G 3G19G24G22
  20678584.415    20678583.544    20678582.028   -25679409.938 6 -20009920.217 6
        40.800          41.900
  23018883.267    23018882.690    23018881.898    -6743163.330 3  -5254401.375 4
        21.600          24.200
  23668492.479    23668491.165    23668492.104    -6284610.188 2  -4897095.085 3
        17.000          18.600
  21983685.066    21983685.036    21983683.529   -15093918.288 6 -11761482.112 6
        36.500          38.200
  22274025.686    22274025.004    22274025.110   -12518758.766 5  -9754871.514 5
        32.800          33.000
  20468602.704    20468601.827    20468601.000   -25416779.154 6 -19805273.105 7
        37.800          46.200
  22369063.009    22369062.296    22369062.633   -11537091.593 5  -8989935.708 5
        31.000          31.500
  23893924.724    23893923.195    23893922.001    -6001507.610 3  -4676498.872 3
        20.500          22.600
  24035679.820    24035678.377    24035680.093    -3768986.085 2  -2936867.176 3
        16.100          21.600
  21654948.728    21654948.269    21654945.555   -18368838.678 6 -14313372.161 6
        38.200          38.300
 09  1  3  0 10  0.0000000  0 10G21G26G 9G15G 6G18G 3G19G24G22
  20687392.277    20687391.534    20687389.849   -25633124.204 6 -19973853.417 6
        40.800          41.800
  23039384.429    23039384.151    23039382.943    -6635429.325 3  -5170452.818 3
        21.600          23.400
  23648178.061    23648177.467    23648177.549    -6391361.148 2  -4980277.583 3
        17.800          19.300
  21996370.758    21996370.603    21996369.210   -15027254.379 6 -11709536.208 6
        36.300          38.100
  22276442.477    22276441.837    22276441.895   -12506059.747 5  -9744976.185 5
        33.000          33.100
  20465676.997    20465676.184    20465673.804   -25432153.627 6 -19817253.209 7
        37.700          46.100
  22369715.356    22369714.608    22369714.306   -11533666.912 5  -8987267.125 5
        31.500          31.300
  23880099.926    23880097.702    23880096.468    -6074160.754 3  -4733111.699 3
        21.100          23.000
  24055299.044    24055298.424    24055300.181    -3665882.467 2  -2856526.729 3
        15.100          21.600
  21641597.528    21641597.030    21641594.368   -18438999.558 6 -14368042.952 6
        38.100          38.400
 09  1  3  0 10 30.0000000  0 10G21G26G 9G15G 6G18G 3G19G24G22
  20696292.618    20696291.800    20696290.221   -25586352.551 6 -19937407.977 6
        40.800          41.700
  23059947.821    23059947.266    23059946.120    -6527370.277 3  -5086250.969 3
        23.000          23.400
  23627914.426    23627913.646    23627913.576    -6497848.624 2  -5063254.779 3
        17.800          21.100
  22009140.348    22009140.332    22009138.807   -14960150.082 6 -11657247.147 6
        36.300          38.000
  22278968.149    22278967.389    22278967.297   -12492787.820 5  -9734634.428 5
        33.100          33.000
  20462826.258    20462825.430    20462824.566   -25447133.986 6 -19828926.205 7
        37.700          46.000
  22370484.647    22370483.827    22370484.043   -11529622.080 5  -8984115.303 5
        30.800          31.300
  23866355.902    23866354.773    23866353.042    -6146384.832 3  -4789390.202 3
        22.600          23.400
  24074945.353    24074944.169    24074945.752    -3562642.999 2  -2776080.430 3
        13.900          21.100
  21628300.754    21628300.261    21628297.607   -18508874.448 6 -14422490.898 6
        38.100          38.500
 09  1  3  0 11  0.0000000  0 10G21G26G 9G15G 6G18G 3G19G24G22
  20705285.454    20705284.515    20705282.982   -25539095.875 6 -19900584.593 6
        40.900          41.800
  23080571.817    23080571.422    23080570.263    -6418989.768 3  -5001798.631 3
        22.600          23.800
  23607700.853    23607699.814    23607700.940    -6604069.542 2  -5146024.265 3
        15.100          23.000
  22021993.267    22021993.032    22021991.490   -14892608.513 6 -11604617.350 6
        36.100          38.000
  22281601.987    22281601.589    22281601.724   -12478944.254 5  -9723847.232 5
        32.800          33.000
  20460050.494    20460049.692    20460047.355   -25461721.032 6 -19840292.731 7
        37.700          46.000
  22371372.185    22371371.341    22371371.570   -11524958.183 5  -8980481.092 5
        30.800          31.100
  23852694.517    23852692.918    23852691.207    -6218177.979 3  -4845332.927 3
        22.600          23.800
  24094616.152    24094615.370    24094617.183    -3459269.535 2  -2695529.734 3
        12.600          21.600
  21615058.526    21615058.025    21615055.506   -18578462.433 6 -14476715.280 6
        38.100          38.600
 09  1  3  0 11 30.0000000  0 10G21G26G 9G15G 6G18G 3G19G24G22
  20714369.823    20714368.918    20714367.259   -25491357.075 6 -19863385.532 6
        40.900          41.500
  23101255.512    23101255.429    23101254.525    -6310293.221 3  -4917100.037 4
        22.100          24.200
  23587538.369    23587538.055    23587539.093    -6710022.688 2  -5228585.043 3
        16.100          23.800
  22034928.205    22034927.978    22034926.610   -14824634.073 5 -11551650.251 6
        35.900          38.000
  22284344.695    22284344.155    22284344.330   -12464531.755 5  -9712616.716 5
        32.700          33.000
  20457349.187    20457348.371    20457347.381   -25475916.708 6 -19851354.287 7
        37.700          46.200
  22372376.909    22372376.075    22372376.420   -11519678.267 5  -8976366.874 5
        30.800          31.500
  23839115.009    23839113.291    23839111.542    -6289540.421 3  -4900940.006 4
        23.400          24.600
  24114311.919    24114311.693    24114313.173    -3355765.870 2  -2614877.582 3
        12.600          21.600
  21601870.780    21601870.215    21601867.600   -18647764.991 6 -14530717.250 6
        38.100          38.600
 09  1  3  0 12  0.0000000  0 10G21G26G 9G15G 6G18G 3G19G24G22
  20723545.915    20723545.136    20723543.609   -25443135.401 6 -19825810.206 6
        40.900          41.500
  23121999.706    23121999.412    23121998.684    -6201282.575 3  -4832156.704 3
        21.100          23.800
  23567428.774    23567427.965    23567428.010    -6815703.059 2  -5310933.331 3
        17.800          23.000
  22047945.348    22047945.292    22047943.851   -14756227.863 5 -11498346.713 6
        35.900          37.800
  22287195.842    22287195.319    22287195.291   -12449549.538 5  -9700942.262 5
        32.800          33.000
  20454722.550    20454721.747    20454719.298   -25489719.362 6 -19862109.597 7
        37.700          46.000
  22373499.115    22373498.328    22373498.857   -11513780.346 5  -8971771.100 5
        30.400          31.300
  23825617.384    23825615.942    23825614.433    -6360468.234 3  -4956208.441 4
        23.800          24.600
  24134033.335    24134032.476    24134033.986    -3252131.765 1  -2534123.791 3
        11.000          21.600
  21588737.731    21588737.262    21588734.372   -18716779.768 6 -14584494.980 6
        38.400          38.600
 09  1  3  0 12 30.0000000  0 10G21G26G 9G15G 6G18G 3G19G24G22
  20732813.575    20732812.753    20732811.214   -25394433.810 6 -19787860.921 6
        40.800          41.300
  23142802.660    23142802.311    23142800.922    -6091963.539 3  -4746973.064 3
        21.600          23.000
  23547370.097    23547369.715    23547369.611    -6921109.422 3  -5393068.114 3
        18.600          23.000
  22061044.069    22061043.902    22061042.505   -14687393.854 5 -11444709.816 6
        35.700          37.700
  22290154.825    22290154.349    22290154.141   -12434000.768 5  -9688826.346 5
        33.100          33.000
  20452170.376    20452169.560    20452168.573   -25503131.160 6 -19872560.340 7
        37.700          46.000
  22374738.354    22374737.496    22374737.830   -11507268.288 5  -8966696.779 5
        30.400          31.100
  23812201.924    23812201.295    23812199.850    -6430961.885 3  -5011138.554 4
        22.600          24.900
  24153778.199    24153777.835    24153779.131    -3148371.342 2  -2453271.562 3
        12.600          20.500
  21575658.931    21575658.440    21575655.734   -18785508.526 6 -14638049.832 6
        38.300          38.800
 09  1  3  0 13  0.0000000  0 10G21G26G 9G15G 6G18G 3G19G24G22
  20742171.395    20742170.521    20742168.875   -25345258.764 6 -19749542.708 6
        40.900          41.200
  23163663.028    23163662.186    23163660.527    -5982344.526 3  -4661555.654 3
        21.600          23.000
  23527363.622    23527363.245    23527363.347    -7026243.123 3  -5474990.422 3
        18.600          23.000
  22074222.578    22074222.437    22074221.174   -14618140.077 5 -11390745.827 6
        35.600          37.800
  22293220.348    22293219.827    22293219.689   -12417891.579 5  -9676273.732 5
        32.800          33.100
  20449691.518    20449690.716    20449688.252   -25516157.686 6 -19882710.876 7
        37.700          46.100
  22376093.350    22376092.625    22376092.822   -11500147.737 5  -8961148.299 5
        31.000          31.000
  23798870.460    23798869.090    23798867.582    -6501024.206 3  -5065732.573 4
        22.100          25.300
  24173546.593    24173545.347    24173546.376    -3044491.369 2  -2372326.158 3
        12.600          19.900
  21562634.040    21562633.497    21562630.598   -18853955.315 6 -14691384.970 6
        38.500          38.800
 09  1  3  0 13 30.0000000  0 10G21G26G 9G15G 6G18G 3G19G24G22
  20751620.376    20751619.539    20751617.936   -25295603.789 6 -19710850.521 6
        40.900          41.100
  23184580.384    23184579.704    23184578.394    -5872422.009 3  -4575901.763 3
        20.500          23.400
  23507411.492    23507410.846    23507410.744    -7131093.795 3  -5556692.193 3
        19.900          23.400
  22087482.101    22087481.844    22087480.537   -14548461.725 5 -11336450.993 6
        35.600          37.700
  22296393.488    22296392.813    22296393.068   -12401215.536 5  -9663279.420 5
        32.400          33.100
  20447287.219    20447286.398    20447285.474   -25528791.886 6 -19892555.692 7
        37.600          45.800
  22377565.524    22377564.748    22377565.027   -11492411.776 5  -8955120.291 5
        31.300          31.100
  23785621.789    23785620.077    23785618.873    -6570645.975 3  -5119983.306 4
        21.600          25.300
  24193339.197    24193337.347    24193338.457    -2940486.102 2  -2291283.153 3
        12.600          19.300
  21549664.017    21549663.568    21549660.722   -18922112.382 6 -14744494.358 6
        38.700          38.700
 09  1  3  0 14  0.0000000  0 10G21G26G 9G15G 6G18G 3G19G24G22
  20761161.392    20761160.573    20761159.036   -25245464.831 6 -19671781.206 6
        40.700          40.900
  23205555.621    23205555.096    23205554.314    -5762194.363 3  -4490010.125 3
        20.500          23.400
  23487514.766    23487513.945    23487514.102    -7235653.397 3  -5638167.152 4
        19.900          24.200
  22100822.555    22100822.467    22100820.833   -14478356.834 5 -11281823.790 6
        35.600          37.300
  22299675.484    22299674.858    22299674.895   -12383968.908 5  -9649840.495 5
        32.600          32.800
  20444958.641    20444957.814    20444955.351   -25541028.946 6 -19902091.056 7
        37.600          46.000
  22379155.607    22379154.835    22379154.995   -11484056.398 5  -8948609.618 5
        31.600          30.800
  23772458.177    23772456.739    23772454.832    -6639820.503 3  -5173885.527 4
        21.600          24.600
  24213154.053    24213153.335    24213153.921    -2836352.376 2  -2210140.058 3
        16.100          18.600
  21536750.244    21536749.805    21536746.916   -18989974.924 6 -14797374.249 6
        38.800          38.900
 09  1  3  0 14 30.0000000  0 10G21G26G 9G15G 6G18G 3G19G24G22
  20770793.841    20770793.075    20770791.526   -25194845.566 6 -19632337.624 6
        40.700          40.800
  23226587.852    23226587.903    23226587.043    -5651667.449 3  -4403885.280 3
        20.500          23.400
  23467673.378    23467672.331    23467672.873    -7339920.644 3  -5719414.290 4
        20.500          24.200
  22114243.040    22114242.964    22114241.592   -14407830.094 5 -11226867.875 6
        35.300          37.200
  22303065.309    22303064.773    22303064.775   -12366154.923 5  -9635959.469 5
        32.400          32.800
  20442705.108    20442704.309    20442703.340   -25552871.035 6 -19911318.644 7
        37.700          45.800
  22380862.753    22380861.995    22380862.073   -11475084.931 5  -8941618.869 5
        31.100          30.400
  23759380.254    23759378.208    23759376.591    -6708548.059 3  -5227439.434 4
        22.100          24.900
  24232993.538    24232993.104    24232993.818    -2732093.911 2  -2128899.735 2
        16.100          17.800
  21523892.522    21523891.951    21523888.992   -19057544.124 6 -14850025.559 6
        38.900          39.000
 09  1  3  0 15  0.0000000  0 10G21G26G 9G15G 6G18G 3G19G24G22
  20780517.970    20780517.091    20780515.610   -25143745.583 6 -19592519.458 6
        40.700          40.900
  23247677.214    23247677.385    23247676.570    -5540843.494 3  -4317528.984 3
        20.500          23.000
  23447888.338    23447887.342    23447887.810    -7443891.109 3  -5800430.197 3
        21.600          23.400
  22127744.131    22127744.054    22127742.559   -14336882.893 5 -11171584.328 6
        35.500          37.400
  22306563.452    22306562.715    22306562.603   -12347773.417 5  -9621636.212 5
        32.300          32.800
  20440526.989    20440526.135    20440523.654   -25564317.340 6 -19920237.836 7
        37.600          45.900
  22382687.295    22382686.582    22382686.550   -11465497.179 5  -8934147.909 5
        31.600          30.400
  23746387.026    23746385.345    23746383.798    -6776825.344 3  -5280642.488 4
        22.100          24.900
  24252856.923    24252855.823    24252856.930    -2627711.504 2  -2047562.804 2
        15.100          16.100
  21511090.420    21511089.939    21511087.225   -19124818.338 6 -14902447.009 6
        38.700          39.200
 09  1  3  0 15 30.0000000  0 10G21G26G 9G15G 6G18G 3G19G24G22
  20790335.325    20790334.384    20790332.826   -25092155.761 6 -19552319.602 6
        40.600          40.700
  23268824.632    23268823.831    23268823.337    -5429716.039 3  -4230936.178 3
        19.900          23.400
  23428161.595    23428161.225    23428161.426    -7547551.499 3  -5881204.487 3
        19.900          21.600
  22141326.194    22141326.161    22141324.783   -14265507.855 5 -11115967.398 6
        35.600          37.200
  22310170.668    22310170.111    22310170.350   -12328815.566 5  -9606863.867 5
        32.300          33.100
  20438426.004    20438425.214    20438424.065   -25575357.887 6 -19928840.845 7
        37.600          45.800
  22384630.740    22384630.007    22384629.790   -11455284.395 5  -8926189.901 5
        31.600          30.100
  23733481.918    23733480.490    23733479.601    -6844640.613 3  -5333485.539 4
        22.100          25.600
  24272745.179    24272743.909    24272745.665    -2523196.879 2  -1966122.857 2
        13.900          15.100
  21498346.599    21498346.125    21498343.586   -19191786.775 6 -14954630.186 6
        38.800          39.300
 09  1  3  0 16  0.0000000  0 11G21G26G 9G15G 6G14G18G 3G19G24G22
  20800240.405    20800239.551    20800238.091   -25040103.366 6 -19511759.297 6
        40.600          40.600
  23290023.868    23290023.555    23290021.969    -5318314.436 3  -4144129.753 3
        19.900          22.100
  23408490.521    23408489.738    23408490.342    -7650924.378 3  -5961754.736 3
        19.300          21.600
  22154984.593    22154984.554    22154982.931   -14193733.394 5 -11060039.229 6
        35.600          37.100
  22313882.995    22313882.348    22313882.282   -12309308.333 5  -9591663.408 5
        32.300          32.800
  25262082.067    25262081.570    25262080.020           -.3971          -.41512
         3.000          12.600
  20436397.366    20436396.553    20436393.918   -25586018.828 6 -19937148.063 7
        37.600          46.000
  22386688.321    22386687.525    22386687.360   -11444472.894 5  -8917765.367 5
        31.600          30.600
  23720661.045    23720659.477    23720657.816    -6912017.984 3  -5385987.363 4
        23.800          25.600
  24292653.348    24292652.758    24292653.445    -2418577.402 2  -1884601.222 2
        12.600          13.900
  21485656.349    21485655.834    21485653.220   -19258474.859 6 -15006594.905 6
        38.800          39.400
 09  1  3  0 16 30.0000000  0 11G21G26G 9G15G 6G14G18G 3G19G24G22
  20810234.452    20810233.665    20810232.088   -24987584.129 6 -19470835.218 6
        40.500          40.500
  23311275.304    23311274.754    23311273.219    -5206636.923 3  -4057108.326 3
        19.300          22.100
  23388875.682    23388875.546    23388875.115    -7754001.364 3  -6042074.422 3
        19.900          22.100
  22168719.173    22168719.228    22168717.641   -14121556.668 5 -11003797.614 6
        35.300          37.000
  22317700.180    22317699.631    22317699.779   -12289247.571 5  -9576031.640 5
        32.300          33.000
  25240026.684    25240026.600    25240025.926     -115899.041 1    -90310.952 2
        11.000          13.900
  20434441.809    20434441.018    20434439.802   -25596295.064 6 -19945155.510 7
        37.600          45.900
  22388860.076    22388859.383    22388859.503   -11433058.016 5  -8908870.657 5
        31.300          30.600
  23707924.673    23707922.577    23707921.141    -6978949.915 3  -5438142.100 4
        23.400          25.600
  24312582.131    24312580.670    24312582.676    -2313849.764 1  -1802995.291 2
        11.000          13.900
  21473020.628    21473020.113    21473017.305   -19324876.525 6 -15058336.446 6
        39.100          39.400
 09  1  3  0 17  0.0000000  0 11G21G26G 9G15G 6G14G18G 3G19G24G22
  20820318.009    20820317.142    20820315.691   -24934594.683 6 -19429544.738 6
        40.300          40.400
  23332578.954    23332578.577    23332578.130    -5094682.770 3  -3969871.336 3
        18.600          22.100
  23369318.400    23369318.090    23369318.451    -7856774.645 3  -6122157.456 3
        19.300          23.400
  22182530.771    22182530.666    22182529.208   -14048976.283 5 -10947241.456 6
        35.100          36.700
  22321623.907    22321623.317    22321623.204   -12268629.988 5  -9559965.983 5
        32.400          32.800
  25217977.869    25217977.853    25217978.155     -231761.775 1   -180593.513 2
        11.000          16.100
  20432560.230    20432559.409    20432556.789   -25606182.614 6 -19952860.085 7
        37.500          45.900
  22391147.933    22391147.094    22391147.309   -11421036.533 5  -8899503.272 5
        31.300          30.800
  23695273.597    23695271.684    23695269.993    -7045430.481 4  -5489945.112 4
        24.600          25.900
  24332532.386    24332531.850    24332532.937    -2209011.198 1  -1721302.943 2
         9.000          15.100
  21460440.170    21460439.663    21460436.953   -19390986.854 6 -15109850.971 6
        39.300          39.500
 09  1  3  0 17 30.0000000  0 11G22G21G26G 9G15G 6G14G18G 3G19G24
  21447918.362    21447917.966    21447915.186   -19456788.855 6 -15161125.240 6
        39.300          39.600
  20830494.003    20830493.103    20830491.655   -24881119.891 6 -19387876.071 6
        40.300          40.300
  23353938.127    23353938.020    23353937.166    -4982438.750 3  -3882408.470 3
        19.300          21.600
  23349823.498    23349822.809    23349823.123    -7959224.280 3  -6201988.278 4
        21.100          24.600
  22196421.867    22196421.808    22196420.225   -13975978.246 5 -10890359.853 6
        35.100          36.600
  22325656.069    22325655.379    22325655.265   -12247440.455 5  -9543454.641 5
        32.600          32.600
  25195937.377    25195939.022    25195940.523     -347570.389 1   -270833.918 2
         6.500          15.100
  20430755.837    20430754.956    20430753.917   -25615665.059 6 -19960248.988 7
        37.600          45.800
  22393553.925    22393553.039    22393553.106   -11408393.015 5  -8889651.178 5
        31.000          30.600
  23682712.475    23682710.442    23682708.229    -7111441.327 3  -5541382.107 4
        23.800          25.300
  24352508.171    24352506.934    24352506.241    -2104046.821 1  -1639512.552 2
         9.000          12.600
 09  1  3  0 18  0.0000000  0 11G22G21G26G 9G15G 6G14G18G 3G19G24
  21435452.701    21435452.133    21435449.218   -19522297.288 6 -15212170.749 6
        39.500          39.600
  20840758.916    20840758.175    20840756.741   -24827176.373 6 -19345842.161 6
        40.400          40.200
  23375348.877    23375348.156    23375348.105    -4869923.931 2  -3794734.584 3
        17.800          21.600
  23330386.864    23330386.221    23330386.340    -8061362.549 3  -6281576.489 4
        20.500          24.200
  22210388.794    22210388.757    22210387.208   -13902580.902 5 -10833167.103 6
        34.900          36.500
  22329793.849    22329793.189    22329793.304   -12225695.795 5  -9526510.737 5
        32.600          32.800
  25173905.996    25173908.060    25173910.500     -463338.850     -361043.065 2
         3.000          12.600
  20429025.383    20429024.548    20429021.876   -25624758.586 6 -19967334.839 7
        37.600          45.900
  22396075.244    22396074.293    22396074.465   -11395144.208 5  -8879327.434 5
        31.000          30.800
  23670237.301    23670235.619    23670233.477    -7176996.190 3  -5592463.800 4
        23.800          24.900
  24372502.655    24372500.976    24372501.099    -1998974.081 1  -1557637.688 2
        11.000          12.600
 09  1  3  0 18 30.0000000  0 11G22G21G26G 9G15G 6G14G18G 3G19G24
  21423043.192    21423042.676    21423039.886   -19587509.558 6 -15262985.487 6
        39.600          39.800
  20851113.586    20851112.693    20851111.282   -24772763.199 6 -19303442.285 6
        40.300          40.200
  23396811.421    23396811.280    23396810.119    -4757139.682 2  -3706850.769 3
        17.800          21.600
  23311010.883    23311010.280    23311010.342    -8163184.055 3  -6360917.873 3
        20.500          23.400
  22224432.009    22224431.799    22224430.046   -13828784.809 5 -10775663.638 6
        35.100          36.500
  22334037.376    22334036.931    22334036.877   -12203395.056 5  -9509133.528 5
        32.400          32.700
  25151887.292    25151885.265    25151887.929     -579063.399 1   -451218.023 1
         6.500          11.000
  20427369.265    20427368.438    20427367.269   -25633461.094 6 -19974115.997 7
        37.600          45.800
  22398711.671    22398710.907    22398711.054   -11381289.146 5  -8868531.281 5
        31.000          31.100
  23657849.564    23657847.896    23657846.722    -7242091.280 3  -5643187.245 4
        23.400          25.900
  24392517.660    24392516.722    24392517.188    -1893792.769 1  -1475678.245 2
        11.000          13.900
 09  1  3  0 19  0.0000000  0 11G22G21G26G 9G15G 6G14G18G 3G19G24
  21410690.839    21410690.327    21410687.572   -19652420.604 6 -15313565.496 6
        39.500          39.800
  20861558.083    20861557.220    20861555.624   -24717876.831 6 -19260673.685 6
        40.300          39.800
  23418325.246    23418324.708    23418323.789    -4644085.117 2  -3618756.339 3
        17.000          22.100
  23291696.620    23291695.829    23291696.073    -8264681.250 3  -6440006.569 4
        20.500          24.200
  22238551.252    22238551.058    22238549.487   -13754587.957 5 -10717847.901 6
        35.100          36.500
  22338387.718    22338387.038    22338386.958   -12180534.977 5  -9491320.463 5
        32.600          32.600
  25129874.769    25129873.942    25129874.433     -694738.003     -541354.105 1
         3.000           9.000
  20425788.533    20425787.738    20425785.038   -25641767.905 6 -19980588.822 7
        37.500          45.900
  22401463.859    22401463.179    22401463.555   -11366824.679 5  -8857260.262 5
        31.000          31.300
  23645551.555    23645549.902    23645548.353    -7306719.989 4  -5693547.273 4
        24.600          26.500
  24412553.697    24412553.162    24412553.492    -1788500.105 1  -1393632.023 2
         9.000          15.100
 09  1  3  0 19 30.0000000  0 11G22G21G26G 9G15G 6G14G18G 3G19G24
  21398396.497    21398395.912    21398393.150   -19717028.566 6 -15363909.343 6
        39.600          40.000
  20872092.670    20872091.893    20872090.246   -24662517.364 6 -19217536.438 6
        40.300          39.700
  23439890.085    23439889.917    23439888.057    -4530762.190 3  -3530452.767 3
        18.600          21.100
  23272444.541    23272443.653    23272444.589    -8365849.287 3  -6518838.761 4
        21.100          25.900
  22252746.510    22252746.326    22252744.576   -13679991.638 5 -10659720.892 6
        34.900          36.300
  22342844.111    22342843.476    22342843.428   -12157115.619 5  -9473071.591 5
        32.400          32.600
  25107874.209    25107872.833    25107872.861     -810359.599 1   -631448.829 1
         9.000          11.000
  20424283.174    20424282.405    20424281.228   -25649677.990 6 -19986752.509 7
        37.500          45.600
  22404332.914    22404332.121    22404331.924   -11351750.266 5  -8845513.958 5
        31.100          31.000
  23633342.894    23633341.212    23633339.082    -7370879.179 4  -5743541.442 4
        24.900          26.200
  24432611.168    24432610.218    24432611.078    -1683096.432 1  -1311499.333 2
         6.500          15.100
 09  1  3  0 20  0.0000000  0 11G22G21G26G 9G15G 6G14G18G 3G19G24
  21386159.263    21386158.726    21386155.809   -19781335.894 6 -15414018.923 6
        39.800          39.800
  20882716.437    20882715.585    20882714.015   -24606688.939 6 -19174033.770 6
        40.200          39.500
  23461503.887    23461503.448    23461502.432    -4417177.545 2  -3441945.250 3
        17.800          21.600
  23253256.286    23253255.899    23253255.576    -8466687.745 3  -6597414.113 4
        22.100          26.200
  22267016.655    22267016.521    22267014.721   -13605001.597 5 -10601287.083 6
        34.800          36.300
  22347406.514    22347405.885    22347405.685   -12133141.055 5  -9454390.106 5
        32.600          32.400
  25085882.693    25085881.725    25085881.397     -925929.370 1   -721503.228 1
         9.000          11.000
  20422852.944    20422852.061    20422849.471   -25657194.980 6 -19992609.897 7
        37.600          45.900
  22407316.609    22407315.695    22407315.628   -11336070.367 5  -8833295.845 5
        31.000          30.800
  23621222.245    23621220.875    23621219.169    -7434570.353 4  -5793170.914 4
        24.900          26.500
  24452688.486    24452688.155    24452688.601    -1577586.381    -1229283.764 2
         3.000          16.100
 09  1  3  0 20 30.0000000  0 11G22G21G26G 9G15G 6G14G18G 3G19G24
  21373978.131    21373977.630    21373974.740   -19845347.234 6 -15463897.875 6
        39.700          39.900
  20893428.187    20893427.397    20893425.821   -24550398.144 6 -19130170.820 6
        40.200          39.400
  23483166.381    23483166.381    23483165.406    -4303339.830 2  -3353240.547 3
        17.800          22.600
  23234128.652    23234128.684    23234128.806    -8567198.818 3  -6675734.382 4
        21.600          25.600
  22281359.957    22281359.871    22281358.338   -13529625.818 5 -10542552.713 6
        34.600          36.400
  22352072.802    22352072.325    22352072.179   -12108618.258 5  -9435281.428 5
        32.600          32.700
  25063899.267    25063898.158    25063898.814    -1041451.113 1   -811520.224 1
         9.000           9.000
  20421496.120    20421495.225    20421494.067   -25664324.731 6 -19998165.537 7
        37.600          45.900
  22410414.133    22410413.386    22410413.553   -11319791.047 5  -8820610.655 5
        30.400          31.000
  23609190.596    23609188.942    23609187.208    -7497796.872 4  -5842438.305 4
        24.200          25.900
  24472785.935    24472785.500    24472786.444    -1471977.246    -1146990.992 2
                        15.100
 09  1  3  0 21  0.0000000  0 11G22G21G26G 9G15G 6G14G18G 3G19G24
  21361854.956    21361854.465    21361851.729   -19909055.040 6 -15513540.300 6
        39.700          40.200
  20904229.063    20904228.291    20904226.762   -24493638.668 6 -19085942.659 6
        40.300          39.200
  23504878.340    23504878.095    23504877.255    -4189245.003 2  -3264335.501 3
        17.000          23.000
  23215066.391    23215066.087    23215066.662    -8667371.653 3  -6753791.094 4
        21.100          25.300
  22295777.711    22295777.597    22295775.905   -13453859.645 5 -10483514.141 5
        34.400          35.900
  22356844.891    22356844.409    22356844.488   -12083540.892 5  -9415740.619 5
        32.300          33.100
  25041926.859    25041926.375    25041927.053    -1156915.747     -901492.729 1
         3.000          11.000
  20420214.511    20420213.691    20420211.101   -25671059.520 6 -20003413.418 7
        37.600          45.900
  22413627.394    22413626.605    22413626.804   -11302905.891 5  -8807453.391 5
        30.600          31.000
  23597248.698    23597247.575    23597245.663    -7560549.691 3  -5891336.592 4
        23.800          26.200
  24492902.096    24492900.146    24492903.250    -1366263.194    -1064616.450 2
                        13.900
 09  1  3  0 21 30.0000000  0 11G22G21G26G 9G15G 6G14G18G 3G19G24
  21349790.257    21349789.699    21349786.855   -19972455.927 6 -15562943.562 6
        39.800          40.300
  20915119.664    20915118.851    20915117.186   -24436409.105 6 -19041348.199 6
        40.300          39.100
  23526638.898    23526638.659    23526637.175    -4074893.761 2  -3175230.662 3
        17.800          22.600
  23196070.347    23196069.685    23196069.939    -8767200.673 3  -6831579.896 4
        21.600          25.600
  22310269.375    22310269.523    22310267.970   -13377702.978 5 -10424171.281 5
        34.100          35.700
  22361722.604    22361722.186    22361722.235   -12057907.720 5  -9395766.719 5
        31.800          33.000
  25019966.695    25019966.395    25019966.596    -1272318.660     -991417.070 1
         3.000          11.000
  20419008.529    20419007.703    20419006.524   -25677396.900 6 -20008351.626 7
        37.700          45.800
  22416956.028    22416955.268    22416955.373   -11285414.292 5  -8793823.561 5
        31.300          31.300
  23585398.766    23585397.084    23585395.106    -7622823.960 3  -5939861.986 4
        23.800          26.200
  24513035.597    24513036.479    24513034.717    -1260443.246     -982158.280 2
                        12.600
 09  1  3  0 22  0.0000000  0 11G22G21G26G 9G15G 6G14G18G 3G19G24
  21337785.217    21337784.739    21337781.920   -20035542.042 6 -15612101.555 6
        40.000          40.400
  20926100.504    20926099.749    20926098.214   -24378703.703 6 -18996382.956 6
        40.300          38.900
  23548449.206    23548448.698    23548446.749    -3960282.722 3  -3085923.373 3
        18.600          21.600
  23177140.906    23177140.156    23177140.409    -8866675.319 3  -6909092.568 4
        22.600          25.900
  22324837.068    22324837.205    22324835.433   -13301151.466 5 -10364520.747 5
        34.400          35.900
  22366707.541    22366706.946    22366706.998   -12031713.204 5  -9375355.405 5
        32.100          32.800
  24998018.813    24998017.912    24998019.410    -1387651.108    -1081286.501 1
                         9.000
  20417879.284    20417878.535    20417875.768   -25683330.443 6 -20012975.161 7
        37.600          45.700
  22420401.050    22420400.211    22420400.539   -11267310.061 5  -8779716.355 5
        30.800          31.100
  23573641.168    23573639.426    23573637.854    -7684611.233 4  -5988007.910 4
        24.200          26.800
  24533196.743    24533195.762    24533196.225    -1154511.945     -899615.613 2
                        13.900
 09  1  3  0 22 30.0000000  0 11G22G21G26G 9G15G 6G14G18G 3G19G24
  21325837.700    21325837.197    21325834.509   -20098326.681 6 -15661024.633 6
        39.900          40.600
  20937169.360    20937168.486    20937166.891   -24320537.334 6 -18951058.520 6
        40.200          38.800
  23570305.201    23570304.402    23570302.900    -3845428.793 2  -2996426.817 3
        17.800          21.600
  23158276.449    23158275.940    23158276.187    -8965805.916 3  -6986337.154 4
        22.600          26.200
  22339476.686    22339476.479    22339474.861   -13224221.142 5 -10304575.032 5
        34.400          35.800
  22371796.127    22371795.440    22371795.534   -12004972.143 5  -9354518.214 5
        32.000          33.000
  24976084.096    24976083.848    24976081.407    -1502925.201    -1171110.459 1
                         9.000
  20416824.639    20416823.826    20416822.552   -25688873.894 6 -20017294.724 7
        37.700          46.000
  22423959.699    22423958.974    22423959.285   -11248607.746 5  -8765143.111 5
        30.600          30.800
  23561973.826    23561972.397    23561970.718    -7745923.479 4  -6035783.682 4
        25.300          27.100
  24553374.198    24553373.576    24553374.636    -1048484.949     -816997.222 2
         3.000          17.000
 09  1  3  0 23  0.0000000  0 11G22G21G26G 9G15G 6G14G18G 3G19G24
  21313947.428    21313946.959    21313944.293   -20160809.693 6 -15709712.670 6
        39.900          40.600
  20948325.421    20948324.506    20948322.845   -24261911.866 6 -18905376.343 6
        40.100          38.500
  23592206.035    23592205.308    23592204.566    -3730335.786 2  -2906743.977 3
        16.100          21.600
  23139478.504    23139477.833    23139478.668    -9064589.544 3  -7063311.368 4
        21.600          26.800
  22354187.242    22354187.155    22354185.599   -13146915.872 5 -10244337.154 5
        34.100          35.900
  22376988.613    22376987.893    22376987.910   -11977686.626 5  -9333256.775 5
        32.100          32.800
  24954159.091    24954158.487    24954156.166    -1618139.687    -1260887.949 1
         3.000          11.000
  20415843.759    20415842.976    20415840.347   -25694027.999 6 -20021310.903 7
        37.700          46.100
  22427632.200    22427631.424    22427631.520   -11229309.400 5  -8750105.424 5
        30.400          30.600
  23550397.952    23550395.816    23550394.112    -7806759.349 4  -6083188.246 4
        24.600          27.400
  24573568.697    24573567.697    24573569.250     -942364.616 1   -734306.075 2
         6.500          17.800
 09  1  3  0 23 30.0000000  0 11G22G21G26G 9G15G 6G14G18G 3G19G24
  21302115.559    21302114.997    21302112.066   -20222987.770 6 -15758163.103 6
        40.000          40.600
  20959569.046    20959568.263    20959566.691   -24202825.742 6 -18859335.212 6
        40.100          38.600
  23614152.124    23614151.889    23614151.271    -3615004.586 2  -2816875.511 3
        17.000          21.600
  23120748.377    23120747.551    23120747.680    -9163020.262 3  -7140010.555 4
        23.000          26.800
  22368969.582    22368969.394    22368967.866   -13069235.169 5 -10183806.730 6
        34.000          36.100
