     2.11           OBSERVATION DATA    G (GPS)             RINEX VERSION / TYPE
teqc  2008Oct2      WCDA Operator       20090115 01:18:49UTCPGM / RUN BY / DATE
Solaris x86 5.10|AMD64|cc SC5.8 -xarch=amd64|=+|=+          COMMENT
teqc  2008Oct2      WCDA Operator       20090114 01:18:32UTCCOMMENT
flin  WCDA-ACP   965000   CFS Flin Flon SASK Canada         MARKER NAME
40135M001                                                   MARKER NUMBER
PGC-WCDA            GEOL. SURV. CANADA                      OBSERVER / AGENCY
1115                AOA BENCHMARK ACT   3.3.32.4            REC # / TYPE / VERS
231                 AOAD/M_T        SCIS                    ANT # / TYPE
  -766174.4630 -3611375.3160  5184056.2210                  APPROX POSITION XYZ
        0.1500        0.0000        0.0000                  ANTENNA: DELTA H/E/N
     1     1                                                WAVELENGTH FACT L1/2
     7    C1    P1    P2    L1    L2    S1    S2            # / TYPES OF OBSERV
STATION INFORMATION EFFECTIVE FROM: 2001/01/13 18:20:00     COMMENT
                                TO: CURRENT DATE (above)    COMMENT
BIT 2 OF LLI FLAGS (+4) DATA COLLECTED UNDER 'AS' CONDITION COMMENT
L1 PHASE CENTRE 0.110m ABOVE ARP                            COMMENT
L2 PHASE CENTRE 0.128m ABOVE ARP                            COMMENT
where ARP is the Antenna Reference Point for HI measurement COMMENT
CONTACT gps@pgc.nrcan.gc.ca FOR ADDITIONAL INFORMATION      COMMENT
    P1 =    P1  TurboRogue; =    Y1  Benchmark              COMMENT
    L1 = L1(CA)                                             COMMENT
    P2 =    P2  TurboRogue; =    Y2  Benchmark              COMMENT
    L2 = L2(P2) TurboRogue; = L2(Y2) Benchmark              COMMENT
 SNR is mapped to RINEX snr flag value [0-9]                COMMENT
  L1 & L2: min(max(int(snr_dBHz/6), 0), 9)                  COMMENT
  2009     1    14     0     0    0.0000000     GPS         TIME OF FIRST OBS
                                                            END OF HEADER
 09  1 14  0  0  0.0000000  0 10G21G 3G26G 9G 6G15G14G18G22G19
  21534486.171    21534485.345    21534483.825   -21103914.350 6 -16444602.213 5
        36.600          32.800
  22696281.465    22696280.610    22696281.042    -9592921.983 4  -7475000.477 4
        28.400          29.700
  24604253.482    24604253.617    24604252.064     1510249.860 1   1176827.171 1
         9.000           6.500
  22386492.938    22386492.190    22386492.081   -13001219.327 4 -10130814.655 5
        29.200          30.800
  22708651.233    22708650.678    22708650.683   -11093537.938 4  -8644310.156 5
        28.800          30.600
  23068116.072    23068115.881    23068114.788    -9384991.718 4  -7312970.264 5
        28.400          31.600
  23958281.657    23958281.003    23958281.285    -6933003.813 2  -5402337.029 3
        17.800          19.900
  20440761.764    20440760.949    20440759.092   -25963244.700 6 -20231090.378 8
        39.800          48.600
  20849279.585    20849279.033    20849276.067   -22594946.860 7 -17606443.549 7
        42.000          44.500
  23157451.189    23157449.810    23157448.410    -9771921.474 4  -7614480.836 4
        29.500          29.200
 09  1 14  0  0 30.0000000  0 10G21G 3G26G 9G 6G15G14G18G22G19
  21549427.300    21549426.302    21549424.483   -21025400.661 6 -16383422.720 5
        36.500          32.700
  22704780.366    22704779.394    22704779.543    -9548261.173 4  -7440199.853 4
        28.100          29.500
  24627676.541    24627676.231    24627674.473     1633338.209 1   1272740.145 1
         9.000           9.000
  22371420.577    22371419.752    22371419.644   -13080425.009 4 -10192533.335 5
        29.000          30.800
  22718233.545    22718233.000    22718233.388   -11043181.162 4  -8605071.120 5
        28.600          30.600
  23085621.353    23085621.105    23085619.803    -9293001.330 4  -7241289.437 5
        28.400          31.100
  23937352.635    23937351.672    23937351.312    -7042989.726 2  -5488040.293 3
        17.800          20.500
  20442999.265    20442998.476    20442997.394   -25951486.460 6 -20221928.106 8
        39.800          48.700
  20840182.615    20840182.120    20840179.293   -22642750.702 7 -17643693.286 7
        42.000          44.600
  23150201.493    23150200.294    23150198.635    -9810018.556 4  -7644166.863 4
        29.000          29.000
 09  1 14  0  1  0.0000000  0 10G21G 3G26G 9G 6G15G14G18G22G19
  21564444.465    21564443.570    21564441.817   -20946483.597 6 -16321928.903 5
        36.500          32.400
  22713379.864    22713379.264    22713379.743    -9503068.484 4  -7404984.789 4
        28.100          29.500
  24651120.807    24651119.720    24651119.280     1756535.170 1   1368737.760 1
         9.000           9.000
  22356445.152    22356444.424    22356444.264   -13159120.544 4 -10253854.499 5
        28.800          30.400
  22727907.139    22727906.357    22727906.646   -10992347.770 4  -8565460.676 5
        28.800          30.600
  23103177.952    23103177.451    23103176.032    -9200741.610 4  -7169398.748 5
        28.100          30.800
  23916453.651    23916452.411    23916452.183    -7152816.998 2  -5573619.941 3
        17.800          21.100
  20445311.049    20445310.261    20445308.396   -25939338.091 6 -20212461.837 8
        39.800          48.800
  20831151.337    20831150.809    20831147.939   -22690211.078 7 -17680675.392 7
        42.000          44.800
  23143057.833    23143056.327    23143054.656    -9847560.667 4  -7673420.440 4
        28.800          28.800
 09  1 14  0  1 30.0000000  0 10G21G 3G26G 9G 6G15G14G18G22G19
  21579536.674    21579535.781    21579534.165   -20867173.359 6 -16260128.717 5
        36.400          32.600
  22722079.145    22722078.510    22722078.997    -9457354.025 4  -7369363.140 4
        28.100          29.700
  24674582.612    24674581.608    24674581.945     1879829.323 1   1464811.140 1
         9.000           9.000
  22341565.835    22341565.194    22341565.175   -13237311.127 4 -10314782.192 5
        29.000          30.800
  22737668.964    22737668.424    22737668.424   -10941048.501 4  -8525487.229 5
        28.800          30.400
  23120783.821    23120783.550    23120781.495    -9108223.710 4  -7097306.867 5
        28.800          30.400
  23895582.675    23895582.167    23895581.015    -7262492.163 2  -5659081.064 3
        17.800          20.500
  20447695.409    20447694.542    20447693.333   -25926808.625 6 -20202698.608 8
        39.800          48.900
  20822183.613    20822183.096    20822180.344   -22737336.503 7 -17717396.493 7
        42.000          44.900
  23136018.241    23136016.658    23136014.546    -9884554.865 4  -7702247.071 4
        29.000          28.600
 09  1 14  0  2  0.0000000  0 10G21G 3G26G 9G 6G15G14G18G22G19
  21594705.857    21594704.977    21594703.278   -20787458.434 6 -16198013.192 5
        36.200          32.300
  22730879.680    22730878.823    22730879.620    -9411106.880 4  -7333326.413 4
        28.100          29.700
  24698064.285    24698063.002    24698064.511     2003231.102 1   1560968.369 1
         9.000          11.000
  22326785.964    22326785.448    22326784.991   -13314980.326 4 -10375303.619 5
        29.500          30.800
  22747521.702    22747521.269    22747521.372   -10889272.165 4  -8485142.041 5
        29.000          30.800
  23138440.333    23138439.900    23138438.196    -9015436.691 4  -7025005.282 5
        28.400          30.400
  23874744.041    23874743.324    23874742.290    -7372000.192 2  -5744411.947 3
        17.800          21.100
  20450154.608    20450153.785    20450152.002   -25913884.842 6 -20192628.121 8
        40.000          48.900
  20813282.408    20813281.843    20813279.074   -22784112.698 7 -17753845.469 7
        42.000          45.100
  23129085.221    23129083.743    23129082.194    -9920986.701 4  -7730635.500 4
        29.500          29.000
 09  1 14  0  2 30.0000000  0 10G 3G26G 9G 6G15G21G14G18G22G19
  22739780.418    22739779.669    22739780.069    -9364334.090 4  -7296880.087 4
        28.600          29.500
  24721565.841    24721565.395    24721567.336     2126732.949 1   1657203.568 1
         6.500          11.000
  22312105.065    22312104.286    22312103.887   -13392130.253 4 -10435420.416 5
        29.900          30.800
  22757463.925    22757463.283    22757463.485   -10837025.848 4  -8444430.630 5
        28.600          30.800
  23156146.300    23156146.262    23156144.734    -8922387.942 4  -6952499.756 5
        27.400          30.200
  21609950.710    21609949.944    21609948.464   -20707345.370 6 -16135587.426 5
        36.100          32.400
  23853936.174    23853935.095    23853934.863    -7481344.188 3  -5829615.003 3
        18.600          21.600
  20452688.143    20452687.270    20452686.040   -25900571.941 6 -20182254.422 8
        40.000          49.100
  20804446.847    20804446.290    20804443.495   -22830543.863 7 -17790025.589 7
        42.100          45.200
  23122258.746    23122257.150    23122255.478    -9956860.139 4  -7758588.815 4
        29.000          29.000
 09  1 14  0  3  0.0000000  0 10G 3G26G 9G 6G15G21G14G18G22G19
  22748780.952    22748780.269    22748780.564    -9317035.644 4  -7260024.158 4
        28.400          29.200
  24745086.916    24745085.415    24745086.790     2250334.226     1753516.218 1
         3.000          11.000
  22297523.669    22297522.829    22297522.677   -13468755.726 4 -10495128.556 5
        29.900          30.800
  22767495.712    22767495.043    22767495.160   -10784309.542 4  -8403352.996 5
        29.000          30.800
  23173902.960    23173902.932    23173901.372    -8829077.851 4  -6879790.596 5
        27.100          30.600
  21625271.603    21625270.796    21625269.337   -20626833.815 5 -16072851.153 5
        35.900          32.100
  23833160.609    23833159.830    23833159.524    -7590520.278 3  -5914687.229 3
        18.600          21.600
  20455295.786    20455294.917    20455293.160   -25886868.345 6 -20171576.291 8
        40.000          49.300
  20795677.476    20795676.994    20795674.171   -22876627.247 7 -17825934.710 7
        42.200          45.300
  23115538.806    23115537.532    23115536.163    -9992171.900 4  -7786104.457 4
        28.800          29.500
 09  1 14  0  3 30.0000000  0 10G 3G26G 9G 6G15G21G14G18G22G19
  22757881.515    22757880.669    22757880.883    -9269212.637 4  -7222759.477 4
        28.400          29.000
  24768626.627    24768624.593    24768625.082     2374033.231     1849905.027 2
         3.000          13.900
  22283042.778    22283042.112    22283041.649   -13544852.388 4 -10554424.630 5
        29.900          30.200
  22777616.425    22777615.662    22777615.751   -10731124.431 4  -8361910.055 5
        29.000          30.600
  23191708.794    23191708.613    23191707.381    -8735507.987 4  -6806879.012 5
        27.600          31.000
  21640668.364    21640667.445    21640665.654   -20545924.563 5 -16009804.985 5
        35.900          32.000
  23812417.567    23812416.794    23812416.163    -7699525.516 3  -5999626.327 3
        18.600          21.600
  20457977.930    20457977.097    20457975.759   -25872773.397 6 -20160593.209 8
        40.000          49.200
  20786974.489    20786973.922    20786971.073   -22922361.793 7 -17861572.010 7
        42.200          45.300
  23108926.705    23108925.157    23108924.013   -10026920.046 4  -7813180.923 4
        29.500          29.900
 09  1 14  0  4  0.0000000  0 10G 3G26G 9G 6G15G21G14G18G22G19
  22767080.221    22767079.228    22767079.487    -9220873.063 4  -7185092.288 4
        27.600          29.000
  24792182.699    24792181.539    24792181.351     2497821.495     1946363.392 2
         3.000          13.900
  22268662.359    22268661.574    22268660.979   -13620422.854 5 -10613310.686 5
        30.100          30.400
  22787824.848    22787824.208    22787824.457   -10677478.247 4  -8320107.840 5
        28.600          30.600
  23209562.767    23209562.562    23209561.022    -8641686.242 4  -6733771.151 5
        28.100          31.100
  21656139.005    21656138.201    21656136.661   -20464624.692 5 -15946454.435 5
        35.700          32.000
  23791705.984    23791705.153    23791704.692    -7808363.974 3  -6084435.465 3
        18.600          21.100
  20460733.458    20460732.663    20460730.864   -25858292.671 6 -20149309.518 8
        40.000          49.200
  20778337.117    20778336.611    20778333.598   -22967752.019 7 -17896941.008 7
        42.400          45.400
  23102421.156    23102419.584    23102417.559   -10061108.860 4  -7839821.544 4
        29.700          29.200
 09  1 14  0  4 30.0000000  0 10G 3G26G 9G 6G15G21G14G18G22G19
  22776379.251    22776378.247    22776378.553    -9172007.452 4  -7147015.188 4
        27.900          29.200
  24815756.601    24815756.132    24815755.860     2621707.704     2042898.089 2
         3.000          12.600
  22254384.295    22254383.538    22254383.340   -13695453.030 4 -10671775.734 5
        29.900          30.600
  22798123.022    22798122.455    22798122.536   -10623361.958 4  -8277939.311 5
        28.800          30.600
  23227466.653    23227466.164    23227464.456    -8547603.740 4  -6660460.106 5
        28.400          31.000
  21671686.105    21671685.241    21671683.718   -20382924.760 5 -15882792.151 5
        35.600          32.100
  23771029.144    23771028.837    23771027.756    -7917022.043 3  -6169104.044 3
        19.300          21.100
  20463564.562    20463563.684    20463562.435   -25843415.192 6 -20137716.668 8
        40.000          49.300
  20769767.345    20769766.833    20769763.931   -23012785.900 7 -17932032.336 7
        42.400          45.500
  23096023.955    23096022.191    23096020.787   -10094726.217 4  -7866016.886 4
        29.200          29.500
 09  1 14  0  5  0.0000000  0 10G 3G26G 9G 6G15G21G14G18G22G19
  22785777.960    22785777.216    22785777.247    -9122616.381 4  -7108528.636 4
        28.400          29.000
  24839348.597    24839348.264    24839349.508     2745691.182 1   2139508.560 2
         6.500          15.100
  22240210.226    22240209.582    22240209.305   -13769937.981 4 -10729815.933 5
        29.700          30.800
  22808510.235    22808509.538    22808509.799   -10568775.724 4  -8235404.586 5
        28.400          30.200
  23245419.263    23245418.975    23245417.150    -8453261.070 4  -6586946.338 5
        27.600          30.400
  21687309.302    21687308.430    21687306.763   -20300824.611 5 -15818818.015 5
        35.600          32.000
  23750387.402    23750386.755    23750385.944    -8025495.949 3  -6253629.111 3
        19.300          21.100
  20466471.357    20466470.516    20466468.883   -25828139.458 6 -20125813.494 8
        40.000          49.200
  20761265.967    20761265.430    20761262.524   -23057460.900 7 -17966844.015 7
        42.400          45.600
  23089736.222    23089734.390    23089732.537   -10127769.019 4  -7891764.509 4
        29.000          29.900
 09  1 14  0  5 30.0000000  0 10G 3G26G 9G 6G15G21G14G18G22G19
  22795273.934    22795273.150    22795273.113    -9072714.751 4  -7069644.253 4
        28.100          29.200
  24862957.692    24862955.684    24862958.986     2869756.506     2236182.797 2
         3.000          15.100
  22226138.358    22226137.706    22226137.440   -13843887.224 5 -10787438.701 5
        30.200          31.600
  22818984.072    22818983.588    22818983.683   -10513734.504 4  -8192515.338 5
        27.900          30.100
  23263418.435    23263418.366    23263416.577    -8358673.324 4  -6513241.591 5
        27.100          30.200
  21703005.728    21703004.934    21703003.185   -20218338.741 5 -15754543.313 5
        35.300          31.500
  23729778.539    23729777.595    23729777.151    -8133796.813 3  -6338019.349 3
        19.300          21.100
  20469451.566    20469450.750    20469449.375   -25812478.662 6 -20113610.268 8
        40.200          49.200
  20752830.576    20752830.030    20752827.061   -23101789.355 7 -18001385.661 7
        42.400          45.600
  23083555.020    23083553.367    23083551.821   -10160248.912 4  -7917073.511 5
        28.600          30.100
 09  1 14  0  6  0.0000000  0 11G 3G26G 9G 6G15G21G14G18G28G22G19
  22804865.488    22804864.623    22804864.785    -9022310.408 4  -7030368.145 4
        27.600          29.200
  24886580.920    24886580.561    24886582.206     2993895.453     2332914.437 2
                        12.600
  22212167.749    22212167.018    22212166.860   -13917303.318 5 -10844646.022 5
        30.200          32.000
  22829543.220    22829542.595    22829542.654   -10458246.086 4  -8149277.627 4
        28.100          29.500
  23281463.019    23281462.756    23281461.308    -8263848.622 4  -6439352.210 5
        26.500          30.400
  21718774.240    21718773.418    21718771.931   -20135474.342 5 -15689973.655 5
        35.200          31.800
  23709201.880    23709200.745    23709200.285    -8241928.193 3  -6422277.533 3
        19.300          21.100
  20472503.878    20472503.053    20472501.364   -25796438.629 6 -20101111.534 8
        40.200          49.300
  25638622.926    25638622.397    25638619.544           -.5201          -.36011
         3.000           6.500
  20744460.110    20744459.595    20744456.830   -23145775.820 7 -18035660.820 7
        42.400          45.800
  23077480.643    23077478.884    23077477.283   -10192170.483 4  -7941947.458 5
        28.800          30.100
 09  1 14  0  6 30.0000000  0 11G 3G26G 9G 6G15G21G14G18G28G22G19
  22814554.023    22814553.160    22814553.418    -8971396.917 4  -6990695.305 4
        27.600          29.200
  24910218.399    24910219.820    24910219.189     3118113.956     2429708.069 2
                        12.600
  22198300.895    22198300.060    22198299.713   -13990174.617 5 -10901428.831 5
        30.200          31.600
  22840188.560    22840188.117    22840188.224   -10402303.913 4  -8105686.321 4
        27.900          29.200
  23299553.295    23299553.231    23299551.994    -8168780.522 4  -6365273.164 4
        25.900          29.900
  21734616.132    21734615.414    21734613.873   -20052224.285 5 -15625103.481 5
        35.100          31.500
  23688659.215    23688658.656    23688657.667    -8349879.675 3  -6506395.524 3
        19.300          21.100
  20475629.941    20475629.107    20475627.784   -25780010.827 6 -20088310.642 8
        40.200          49.400
  25632608.851    25632608.400    25632606.943      -31603.032      -24625.755
                         3.000
  20736156.687    20736156.164    20736153.256   -23189411.005 7 -18069662.254 7
        42.500          45.800
  23071514.647    23071512.989    23071511.043   -10223524.094 5  -7966378.842 5
        30.200          30.200
 09  1 14  0  7  0.0000000  0 11G 3G26G 9G 6G15G21G14G18G28G22G19
  22824340.562    22824339.966    22824340.062    -8919967.668 4  -6950620.570 4
        27.900          29.000
  24933871.719    24933872.514    24933872.440     3242418.042     2526568.350 1
                        11.000
  22184539.523    22184538.933    22184538.500   -14062489.547 5 -10957778.108 5
        30.600          31.500
  22850921.868    22850921.314    22850921.223   -10345901.837 4  -8061736.667 4
        27.900          29.200
  23317691.373    23317691.534    23317690.460    -8073463.078 4  -6290999.825 5
        25.300          30.200
  21750532.740    21750531.898    21750530.468   -19968581.987 5 -15559927.671 5
        34.800          31.100
  23668152.884    23668152.236    23668151.633    -8457641.096 3  -6590365.421 3
        19.300          21.600
  20478831.501    20478830.619    20478828.990   -25763187.043 6 -20075201.196 8
        40.200          49.300
  25626689.246    25626687.914    25626687.365      -62725.350      -48876.907
         3.000           3.000
  20727921.827    20727921.265    20727918.266   -23232686.052 7 -18103383.061 7
        42.600          45.900
  23065657.887    23065656.272    23065654.701   -10254300.237 5  -7990360.251 5
        30.400          30.800
 09  1 14  0  7 30.0000000  0 11G 3G26G 9G 6G15G21G14G18G28G22G19
  22834223.047    22834222.246    22834222.492    -8868034.547 4  -6910153.208 4
        27.600          28.600
  24957541.654    24957541.308    24957543.720     3366795.403     2623485.780 2
                        12.600
  22170883.097    22170882.498    22170881.789   -14134254.497 5 -11013698.836 5
        30.600          31.300
  22861739.972    22861739.375    22861739.659   -10289051.511 4  -8017437.714 4
        27.400          29.700
  23335875.062    23335874.905    23335873.686    -7977908.202 4  -6216541.486 4
        25.600          29.700
  21766522.112    21766521.248    21766519.597   -19884559.033 5 -15494455.242 5
        35.100          31.100
  23647681.111    23647680.276    23647679.660    -8565219.865 3  -6674192.997 3
        18.600          21.100
  20482106.462    20482105.597    20482104.086   -25745977.115 6 -20061790.856 8
        40.300          49.400
  25620855.319    25620851.277    25620856.540      -93375.877      -72760.025 1
                         6.500
  20719753.499    20719753.035    20719750.155   -23275609.793 7 -18136830.124 7
        42.500          46.000
  23059909.755    23059907.998    23059906.366   -10284507.654 5  -8013898.491 5
        30.400          31.000
 09  1 14  0  8  0.0000000  0 11G 3G26G 9G 6G15G21G14G18G28G22G19
  22844201.282    22844200.464    22844200.701    -8815599.429 4  -6869294.681 4
        27.900          28.600
  24981225.411    24981226.665    24981222.342     3491244.208     2720458.816 1
                        11.000
  22157331.914    22157331.222    22157330.783   -14205466.062 5 -11069188.342 5
        30.600          31.300
  22872643.459    22872642.717    22872642.790   -10231754.702 4  -7972790.870 4
        27.400          29.500
  23354103.453    23354103.082    23354101.848    -7882117.665 4  -6141899.493 4
        25.600          29.500
  21782583.443    21782582.617    21782580.995   -19800156.232 5 -15428686.827 5
        34.600          31.000
  23627244.778    23627243.799    23627243.346    -8672613.767 3  -6757876.523 3
        19.300          21.600
  20485454.775    20485453.985    20485452.411   -25728380.870 6 -20048079.490 8
        40.300          49.300
  25615114.478    25615112.692    25615110.007     -123552.853      -96274.086 1
                         9.000
  20711652.524    20711652.016    20711649.130   -23318180.891 7 -18170002.399 7
        42.500          46.000
  23054269.893    23054268.219    23054266.598   -10314144.689 5  -8036992.283 5
        30.100          31.000
 09  1 14  0  8 30.0000000  0 11G 3G26G 9G 6G15G21G14G18G28G22G19
  22854274.538    22854273.593    22854273.800    -8762665.162 4  -6828047.203 4
        27.600          28.400
  25004922.441    25004921.041    25004918.289     3615761.167     2817484.961 2
                        12.600
  22143886.760    22143885.972    22143885.576   -14276122.045 5 -11124244.933 5
        31.000          31.300
  22883630.686    22883630.103    22883630.570   -10174014.217 4  -7927798.302 4
        27.100          29.700
  23372375.738    23372375.935    23372374.407    -7786094.401 4  -6067076.169 4
        25.900          29.000
  21798716.458    21798715.639    21798714.080   -19715375.962 5 -15362624.285 5
        34.400          30.800
  23606843.503    23606842.825    23606842.276    -8779821.444 3  -6841414.935 3
        19.900          22.100
  20488876.687    20488875.816    20488874.272   -25710399.165 6 -20034067.763 8
        40.200          49.200
  25609460.359    25609454.592    25609456.862     -153255.549     -119420.029 1
                         6.500
  20703618.655    20703618.093    20703615.200   -23360399.283 7 -18202899.837 7
        42.500          46.000
  23048738.497    23048736.929    23048735.611   -10343210.991 5  -8059641.358 5
        30.100          31.100
 09  1 14  0  9  0.0000000  0 10G 3G26G 9G 6G15G21G14G18G22G19
  22864441.957    22864441.241    22864441.315    -8709233.085 4  -6786411.828 4
        27.400          28.100
  25028632.055    25028630.503    25028624.647     3740344.927     2914563.167 1
                        11.000
  22130547.736    22130547.156    22130546.524   -14346218.392 5 -11178865.448 5
        31.300          31.100
  22894702.468    22894702.120    22894702.336   -10115831.377 4  -7882461.034 4
        27.100          29.700
  23390692.497    23390692.669    23390690.973    -7689839.712 4  -5992072.517 4
        25.600          28.600
  21814921.330    21814920.352    21814918.776   -19630218.987 5 -15296268.212 5
        34.100          30.600
  23586478.434    23586477.918    23586477.268    -8886839.936 3  -6924805.958 3
        21.100          22.100
  20492371.839    20492370.983    20492369.522   -25692031.360 6 -20019755.184 8
        40.200          49.300
  20695652.284    20695651.716    20695648.704   -23402263.471 7 -18235521.274 7
        42.600          46.200
  23043316.503    23043314.895    23043313.465   -10371704.507 5  -8081844.096 5
        30.600          31.300
 09  1 14  0  9 30.0000000  0 10G 3G26G 9G 6G15G21G14G18G22G19
  22874702.831    22874702.066    22874702.270    -8655312.257 4  -6744395.605 4
        27.400          28.100
  25052347.402    25052347.021    25052343.080     3864986.235     3011686.212 1
                         9.000
  22117314.540    22117313.838    22117313.353   -14415758.919 5 -11233052.856 5
        31.000          31.800
  22905856.801    22905856.139    22905856.523   -10057215.108 4  -7836786.042 4
        26.500          29.500
  23409051.099    23409051.479    23409049.702    -7593362.752 4  -5916895.652 4
        25.300          27.600
  21831196.142    21831195.264    21831193.670   -19544693.974 5 -15229625.349 5
        34.300          30.600
  23566148.432    23566148.009    23566147.568    -8993674.276 3  -7008053.477 3
        20.500          22.600
  20495939.339    20495938.509    20495936.926   -25673284.328 6 -20005147.100 8
        40.300          49.200
  20687751.823    20687751.363    20687748.464   -23443779.361 7 -18267871.307 7
        42.600          46.300
  23038002.415    23038000.662    23037998.867   -10399631.149 5  -8103605.122 5
        31.000          31.000
 09  1 14  0 10  0.0000000  0 11G 3G26G 9G 6G15G21G14G18G28G22G19
  22885060.156    22885059.405    22885059.656    -8600885.146 4  -6701984.873 4
        27.900          28.400
  25076078.108    25076078.072    25076074.156     3989702.027     3108867.331 1
                         6.500
  22104191.639    22104191.043    22104190.510   -14484721.132 5 -11286789.617 5
        31.500          32.400
  22917097.207    22917096.680    22917096.708    -9998147.990 4  -7790759.727 4
        26.500          29.200
  23427456.196    23427456.112    23427454.411    -7496645.922 4  -5841531.878 4
        25.300          27.600
  21847544.479    21847543.693    21847542.243   -19458782.756 5 -15162681.548 5
        34.100          31.000
  23545858.011    23545857.436    23545856.954    -9100302.789 3  -7091140.605 3
        20.500          22.600
  20499582.612    20499581.830    20499580.255   -25654138.646 6 -19990228.380 8
        40.300          49.200
  25593048.757    25593047.924    25593046.586           -.6011           .29911
                         6.500
  20679921.907    20679921.346    20679918.477   -23484926.615 7 -18299934.092 7
        42.600          46.400
  23032800.250    23032798.495    23032796.587   -10426970.256 5  -8124908.324 5
        31.000          31.300
 09  1 14  0 10 30.0000000  0 10G 3G 9G 6G15G21G14G18G28G22G19
  22895508.473    22895507.509    22895507.453    -8545979.609 4  -6659201.342 4
        27.100          27.900
  22091174.461    22091173.751    22091173.090   -14553127.486 5 -11340093.253 5
        31.600          32.300
  22928417.447    22928417.099    22928417.475    -9938657.630 4  -7744403.613 4
        26.800          29.500
  23445901.587    23445901.227    23445899.648    -7399717.234 4  -5766003.017 4
        25.600          28.400
  21863961.250    21863960.412    21863958.648   -19372512.673 5 -15095458.118 5
        33.900          30.200
  23525602.174    23525601.657    23525600.535    -9206749.003 3  -7174085.693 3
        21.100          22.100
  20503296.923    20503296.100    20503294.537   -25634619.969 6 -19975019.014 8
        40.400          49.100
  25587756.260    25587752.693    25587754.003      -27797.441      -21659.605

  20672157.339    20672156.733    20672153.810   -23525730.051 7 -18331728.968 7
        42.600          46.500
  23027704.590    23027702.784    23027701.423   -10453746.697 5  -8145773.075 5
        30.600          31.600
 09  1 14  0 11  0.0000000  0  9G 3G 9G 6G15G21G14G18G22G19
  22906047.725    22906046.786    22906047.307    -8490593.516 4  -6616043.362 4
        26.500          28.100
  22078263.945    22078263.379    22078262.826   -14620970.982 5 -11392958.297 5
        31.300          32.400
  22939819.189    22939818.693    22939818.857    -9878742.381 4  -7697716.416 4
        26.800          28.800
  23464387.305    23464386.977    23464385.193    -7302574.891 4  -5690307.675 4
        25.900          27.900
  21880446.468    21880445.744    21880444.061   -19285881.173 5 -15027953.060 4
        33.600          29.900
  23505381.548    23505380.847    23505380.451    -9313007.060 3  -7256884.156 3
        20.500          21.600
  20507082.836    20507082.027    20507080.453   -25614724.692 6 -19959516.195 8
        40.400          49.000
  20664458.898    20664458.347    20664455.468   -23566184.885 7 -18363252.205 7
        42.500          46.500
  23022717.279    23022715.492    23022714.069   -10479955.288 5  -8166195.353 5
        30.600          31.300
 09  1 14  0 11 30.0000000  0  9G 3G 9G 6G15G21G14G18G22G19
  22916684.964    22916684.167    22916684.650    -8434694.598 4  -6572485.771 4
        26.200          28.400
  22065468.004    22065467.457    22065466.964   -14688213.876 5 -11445355.333 5
        31.800          32.700
  22951307.697    22951307.338    22951307.627    -9818369.726 4  -7650672.793 4
        27.900          28.600
  23482919.324    23482919.210    23482917.594    -7205186.181 4  -5614420.356 4
        24.900          27.900
  21897006.827    21897006.099    21897004.666   -19198855.457 5 -14960140.818 4
        33.600          29.900
  23485204.418    23485203.893    23485202.876    -9419040.188 3  -7339507.373 3
        21.600          21.600
  20510947.082    20510946.215    20510944.694   -25594418.170 6 -19943692.927 8
        40.400          49.100
  20656833.677    20656833.120    20656830.184   -23606255.718 7 -18394476.221 7
        42.500          46.500
  23017844.888    23017843.079    23017841.385   -10505560.272 5  -8186147.280 5
        30.800          31.100
 09  1 14  0 12  0.0000000  0 10G 3G28G 9G 6G15G21G14G18G22G19
  22927415.313    22927414.696    22927414.916    -8378305.891 4  -6528546.531 4
        26.500          28.100
  25572442.969    25572443.386    25572441.066           -.3851           .0851
                         3.000
  22052783.033    22052782.371    22052781.849   -14754873.922 5 -11497298.201 5
        32.100          32.400
  22962879.285    22962878.538    22962878.348    -9757562.416 4  -7603290.475 4
        27.600          27.900
  23501493.733    23501494.013    23501492.900    -7107574.102 4  -5538358.990 4
        24.200          28.600
  21913638.004    21913637.333    21913635.866   -19111457.768 5 -14892038.726 5
        33.400          30.100
  23465066.113    23465065.146    23465064.857    -9524866.763 3  -7421969.631 3
        21.600          21.600
  20514885.610    20514884.775    20514883.192   -25573721.214 6 -19927565.425 8
        40.500          49.000
  20649277.811    20649277.275    20649274.279   -23645962.111 7 -18425416.257 7
        42.600          46.600
  23013083.350    23013081.821    23013080.168   -10530581.616 5  -8205644.429 5
        31.000          31.300
 09  1 14  0 12 30.0000000  0 10G 3G28G 9G 6G15G21G14G18G22G19
  22938237.246    22938236.284    22938236.852    -8321436.448 4  -6484232.683 4
        25.900          28.400
  25567528.747    25567527.640    25567527.774      -25844.695 1    -20138.395 1
         6.500           9.000
  22040208.439    22040207.640    22040207.045   -14820954.927 5 -11548789.884 5
        32.400          32.600
  22974531.422    22974530.920    22974530.610    -9696329.452 4  -7555576.482 4
        27.600          27.900
  23520109.558    23520109.833    23520108.412    -7009748.035 3  -5462130.895 4
        23.800          28.800
  21930338.343    21930337.597    21930336.235   -19023696.731 5 -14823653.515 4
        33.200          29.700
  23444966.242    23444965.454    23444964.862    -9630492.124 3  -7504275.099 3
        21.600          22.100
  20518896.927    20518896.152    20518894.599   -25552640.922 6 -19911139.218 8
        40.500          48.900
  20641790.149    20641789.582    20641786.598   -23685310.275 7 -18456077.156 7
        42.500          46.700
  23008431.979    23008430.214    23008428.658   -10555025.201 5  -8224691.372 5
        31.000          31.500
 09  1 14  0 13  0.0000000  0 10G 3G28G 9G 6G15G21G14G18G22G19
  22949150.503    22949149.687    22949149.836    -8264088.207 4  -6439545.756 4
        26.500          28.100
  25562699.752    25562700.187    25562697.884      -51204.138      -39898.926 1
                         9.000
  22027744.558    22027743.911    22027743.145   -14886453.555 5 -11599827.753 5
        32.400          33.000
  22986264.569    22986263.729    22986263.515    -9634672.918 4  -7507532.432 4
        27.400          27.600
  23538766.012    23538765.854    23538764.244    -6911709.333 4  -5385737.100 4
        24.200          27.900
  21947107.960    21947107.014    21947105.483   -18935573.662 5 -14754986.194 4
        33.400          29.700
  23424904.891    23424904.518    23424903.804    -9735913.870 3  -7586421.902 3
        22.100          22.100
  20522981.409    20522980.534    20522979.022   -25531177.149 6 -19894414.198 8
        40.500          48.800
  20634370.851    20634370.257    20634367.376   -23724298.880 7 -18486457.876 7
        42.500          46.800
  23003890.444    23003888.750    23003887.337   -10578889.641 5  -8243287.029 5
        30.600          31.300
 09  1 14  0 13 30.0000000  0 10G 3G28G 9G 6G15G21G14G18G22G19
  22960153.923    22960153.006    22960153.697    -8206263.378 4  -6394487.452 4
        25.900          28.400
  25557967.923    25557968.230    25557965.773      -76078.130 1    -59281.291 1
         6.500           6.500
  22015391.991    22015391.131    22015390.669   -14951366.995 5 -11650409.633 5
        32.700          33.200
  22998077.139    22998076.534    22998076.587    -9572595.191 4  -7459160.180 4
        27.100          27.900
  23557462.939    23557462.595    23557460.622    -6813460.355 4  -5309179.452 4
        24.900          27.400
  21963945.839    21963944.961    21963943.214   -18847090.528 5 -14686038.300 4
        33.200          29.500
  23404883.632    23404882.810    23404881.422    -9841130.168 3  -7668408.616 3
        22.600          22.100
  20527138.765    20527137.935    20527136.314   -25509330.333 6 -19877390.700 8
        40.600          48.800
  20627019.905    20627019.417    20627016.570   -23762927.641 7 -18516558.200 7
        42.600          46.900
  22999459.568    22999457.880    22999456.441   -10602174.433 5  -8261431.013 5
        30.800          31.500
 09  1 14  0 14  0.0000000  0 10G 3G28G 9G 6G15G21G14G18G22G19
  22971248.009    22971247.349    22971247.703    -8147964.470 4  -6349059.755 4
        26.200          28.600
  25553327.645    25553327.922    25553325.286     -100465.209      -78284.171 1
                         9.000
  22003150.994    22003150.237    22003150.041   -15015692.160 5 -11700533.122 5
        32.300          33.400
  23009969.907    23009969.339    23009969.649    -9510098.159 4  -7410461.208 4
        26.500          28.100
  23576199.156    23576198.202    23576196.454    -6715003.371 4  -5232459.714 4
        24.600          27.100
  21980852.106    21980851.105    21980849.162   -18758248.627 5 -14616810.854 4
        33.000          29.200
  23384901.165    23384900.075    23384899.373    -9946139.008 3  -7750233.683 3
        23.000          23.000
  20531368.967    20531368.131    20531366.516   -25487100.465 6 -19860068.720 8
        40.600          48.700
  20619737.878    20619737.311    20619734.257   -23801195.785 7 -18546377.524 7
        42.600          46.900
  22995139.261    22995137.692    22995136.236   -10624878.431 5  -8279122.432 5
        31.000          31.600
 09  1 14  0 14 30.0000000  0 10G 3G28G 9G 6G15G21G14G18G22G19
  22982432.046    22982431.365    22982431.654    -8089191.132 4  -6303262.350 4
        25.900          28.100
  25548778.429    25548779.865    25548775.819     -124361.723      -96904.781 2
                        12.600
  21991023.315    21991022.530    21991022.280   -15079423.660 5 -11750194.013 5
        32.600          33.400
  23021942.777    23021942.203    23021942.141    -9447181.529 4  -7361435.267 4
        26.500          27.900
  23594974.400    23594973.787    23594972.248    -6616337.709 4  -5155577.379 4
        24.600          27.900
  21997826.382    21997825.509    21997823.624   -18669046.989 5 -14547303.089 4
        32.600          29.000
  23364959.477    23364958.404    23364957.161   -10050935.393 3  -7831893.199 3
        23.000          23.000
  20535672.601    20535671.769    20535670.159   -25464484.716 6 -19842446.052 8
        40.700          48.700
  20612524.921    20612524.381    20612521.448   -23839099.504 7 -18575912.881 7
        42.600          47.000
  22990930.157    22990928.338    22990926.689   -10646998.041 5  -8296358.484 5
        31.000          31.100
 09  1 14  0 15  0.0000000  0 10G 3G28G 9G 6G15G21G14G18G22G19
  22993705.565    22993704.339    22993704.672    -8029951.290 4  -6257101.442 4
        25.900          28.100
  25544327.616    25544325.964    25544323.697     -147772.197 1   -115146.690 2
         6.500          16.100
  21979008.009    21979007.315    21979006.913   -15142564.571 5 -11799394.704 5
        32.800          33.500
  23033993.591    23033992.999    23033993.050    -9383853.451 4  -7312088.720 4
        25.300          28.100
  23613787.698    23613787.387    23613786.004    -6517471.265 3  -5078538.605 4
        23.800          28.100
  22014867.814    22014867.049    22014865.197   -18579493.456 5 -14477521.123 4
        32.700          29.000
  23345056.749    23345055.667    23345054.925   -10155523.269 3  -7913390.225 3
        23.000          23.400
  20540048.507    20540047.676    20540046.087   -25441489.428 6 -19824527.644 8
        40.800          48.700
  20605380.345    20605379.800    20605377.043   -23876643.796 7 -18605168.162 7
        42.500          47.100
  22986831.122    22986829.346    22986827.438   -10668538.645 5  -8313143.362 5
        31.100          30.600
 09  1 14  0 15 30.0000000  0 10G 3G28G 9G 6G15G21G14G18G22G19
  23005066.673    23005065.900    23005066.704    -7970244.262 4  -6210576.488 4
        25.600          28.600
  25539962.674    25539962.572    25539961.540     -170692.886     -133006.978 2
         3.000          15.100
  21967106.098    21967105.363    21967104.771   -15205108.827 5 -11848130.478 5
        32.600          33.100
  23046123.011    23046122.122    23046122.443    -9320113.069 4  -7262420.914 4
        25.300          28.400
  23632639.347    23632639.226    23632637.570    -6418403.337 3  -5001342.816 4
        23.800          27.400
  22031976.588    22031975.832    22031973.942   -18489586.497 5 -14407463.760 4
        32.800          28.600
  23325194.394    23325193.847    23325193.131   -10259897.714 3  -7994720.953 3
        23.400          23.800
  20544497.033    20544496.177    20544494.573   -25418112.234 6 -19806311.642 8
        40.800          48.600
  20598305.012    20598304.504    20598301.599   -23913825.230 7 -18634140.700 7
        42.600          47.100
  22982842.857    22982841.166    22982839.407   -10689496.300 5  -8329473.999 5
        31.000          30.800
 09  1 14  0 16  0.0000000  0 10G 3G28G 9G 6G15G21G14G18G22G19
  23016518.058    23016517.172    23016517.432    -7910070.177 4  -6163687.599 4
        26.200          28.400
  25535695.556    25535693.602    25535694.179     -193120.531     -150482.996 2
         3.000          12.600
  21955318.726    21955318.114    21955317.622   -15267051.667 5 -11896397.611 5
        32.700          33.500
  23058331.214    23058330.364    23058330.518    -9255960.538 4  -7212431.939 4
        26.200          28.800
  23651529.852    23651529.662    23651527.704    -6319133.887 4  -4923989.988 4
        24.200          27.100
  22049152.573    22049151.868    22049150.076   -18399325.856 5 -14337130.791 4
        32.600          29.000
  23305374.086    23305373.698    23305373.077   -10364054.652 3  -8075882.184 4
        23.800          24.600
  20549018.607    20549017.805    20549016.282   -25394350.672 6 -19787796.136 8
        40.800          48.500
  20591299.203    20591298.658    20591295.820   -23950641.009 7 -18662828.312 7
        42.600          47.300
  22978966.562    22978964.485    22978962.882   -10709868.041 5  -8345348.065 5
        31.000          31.000
 09  1 14  0 16 30.0000000  0 10G 3G28G 9G 6G15G21G14G18G22G19
  23028057.990    23028057.219    23028057.498    -7849426.054 4  -6116432.442 4
        26.200          27.600
  25531525.063    25531524.021    25531520.802     -215048.785 1   -167569.894 1
        11.000          11.000
  21943647.540    21943646.927    21943646.490   -15328384.747 5 -11944189.602 5
        32.800          33.900
  23070617.767    23070617.128    23070617.180    -9191393.104 4  -7162119.661 4
        25.900          28.400
  23670458.851    23670458.861    23670456.946    -6219659.897 3  -4846477.770 4
        23.800          27.100
  22066396.569    22066395.753    22066394.299   -18308707.946 5 -14266519.438 4
        31.800          29.700
  23285596.268    23285595.906    23285595.354   -10467986.948 3  -8156868.374 4
        23.800          25.300
  20553614.456    20553613.640    20553612.064   -25370199.783 6 -19768977.256 8
        40.900          48.500
  20584364.259    20584363.750    20584360.737   -23987085.060 7 -18691226.263 7
        42.700          47.300
  22975202.054    22975200.528    22975198.889   -10729647.821 5  -8360760.870 5
        30.600          31.300
 09  1 14  0 17  0.0000000  0 10G 3G28G 9G 6G15G21G14G18G22G19
  23039685.015    23039684.152    23039684.240    -7788327.372 4  -6068823.083 4
        26.200          27.600
  25527441.132    25527441.674    25527438.216     -236489.816     -184277.176 1
         3.000           9.000
  21932090.175    21932089.714    21932089.238   -15389118.226 5 -11991514.372 5
        33.000          33.600
  23082980.737    23082980.020    23082980.255    -9126425.921 4  -7111495.897 4
        26.200          28.600
  23689424.451    23689424.215    23689422.290    -6119996.489 3  -4768817.968 4
        23.000          27.100
  22083705.900    22083704.921    22083703.530   -18217747.526 5 -14195641.205 4
        31.600          29.500
  23265859.223    23265858.649    23265858.111   -10571705.841 3  -8237688.271 4
        23.000          24.600
  20558281.768    20558280.949    20558279.448   -25345672.532 6 -19749865.107 8
        40.900          48.400
  20577497.645    20577497.089    20577494.048   -24023169.325 7 -18719343.864 7
        42.700          47.300
  22971548.418    22971547.010    22971545.333   -10748847.823 5  -8375721.900 5
        30.600          31.600
 09  1 14  0 17 30.0000000  0 10G 3G28G 9G 6G15G21G14G18G22G19
  23051399.702    23051398.892    23051399.272    -7726765.439 4  -6020852.753 4
        26.200          28.100
  25523457.085    25523456.232    25523457.706     -257431.397 1   -200595.281 2
         6.500          12.600
  21920649.799    21920649.308    21920648.782   -15449238.141 5 -12038361.048 5
        33.100          33.800
  23095421.274    23095420.924    23095420.470    -9061049.845 4  -7060553.508 4
        26.200          27.600
  23708427.901    23708427.664    23708425.234    -6020134.274 3  -4691003.256 4
        22.100          26.800
  22101081.983    22101081.100    22101079.606   -18126435.339 5 -14124488.863 4
        31.800          29.000
  23246165.959    23246165.037    23246163.985   -10675197.582 3  -8318331.167 4
        23.400          24.600
  20563022.831    20563022.003    20563020.397   -25320758.108 6 -19730451.266 8
        41.000          48.200
  20570701.637    20570701.107    20570698.225   -24058881.698 7 -18747171.679 7
        42.700          47.400
  22968007.635    22968005.911    22968004.312   -10767456.296 5  -8390221.996 5
        31.100          31.600
 09  1 14  0 18  0.0000000  0 10G 3G28G 9G 6G15G21G14G18G22G19
  23063201.299    23063200.597    23063200.834    -7664747.593 4  -5972527.166 4
        26.500          28.100
  25519569.491    25519567.962    25519565.449     -277877.183 2   -216527.066 1
        15.100          11.000
  21909325.855    21909325.118    21909324.667   -15508746.622 5 -12084731.272 5
        33.100          33.900
  23107938.149    23107937.544    23107937.717    -8995271.965 4  -7009298.019 4
        25.600          27.400
  23727467.757    23727467.096    23727464.983    -5920079.985 3  -4613038.881 4
        22.100          26.500
  22118523.914    22118523.179    22118521.512   -18034777.076 5 -14053066.850 4
        31.600          28.600
  23226514.835    23226513.867    23226513.018   -10778465.002 3  -8398799.272 4
        23.800          24.900
  20567836.701    20567835.811    20567834.182   -25295461.368 6 -19710739.516 8
        41.000          48.200
  20563975.879    20563975.395    20563972.437   -24094225.941 7 -18774712.637 7
        42.700          47.400
  22964578.158    22964576.523    22964574.898   -10785477.188 5  -8404264.247 5
        31.500          31.300
 09  1 14  0 18 30.0000000  0 10G 3G28G 9G 6G15G21G14G18G22G19
  23075088.771    23075088.035    23075088.312    -7602278.477 4  -5923849.936 4
        26.200          27.900
  25515768.961    25515768.305    25515768.209     -297829.057 1   -232074.014 1
        11.000          11.000
  21898117.721    21898117.253    21898116.792   -15567644.011 5 -12130625.329 5
        33.200          33.800
  23120530.655    23120530.109    23120529.913    -8929098.020 4  -6957733.917 4
        25.300          26.800
  23746543.017    23746542.237    23746540.374    -5819839.387 3  -4534929.327 4
        21.600          25.600
  22136030.640    22136029.997    22136028.265   -17942778.383 5 -13981379.564 4
        31.800          28.100
  23206906.237    23206905.300    23206904.239   -10881509.320 4  -8479093.529 4
        24.200          25.600
  20572722.553    20572721.714    20572720.053   -25269785.827 6 -19690732.595 8
        41.000          48.100
  20557319.575    20557319.035    20557316.010   -24129205.139 7 -18801969.145 7
        42.700          47.500
  22961260.308    22961258.876    22961256.763   -10802913.101 5  -8417850.663 5
        31.600          31.000
 09  1 14  0 19  0.0000000  0 10G 3G28G 9G 6G15G21G14G18G22G19
  23087061.517    23087060.865    23087060.948    -7539361.608 4  -5874823.803 4
        26.200          27.400
  25512065.631    25512066.712    25512065.550     -317287.212 1   -247236.195 2
        11.000          13.900
  21887026.642    21887026.014    21887025.576   -15625928.678 5 -12176041.936 5
        33.100          34.000
  23133197.674    23133197.328    23133197.535    -8862531.042 4  -6905863.542 4
        24.900          27.400
  23765653.029    23765652.243    23765650.073    -5719415.035 3  -4456676.575 4
        21.600          24.900
  22153601.712    22153600.777    22153599.219   -17850441.825 5 -13909428.999 4
        31.300          28.100
  23187339.856    23187338.849    23187338.095   -10984329.699 3  -8559213.289 4
        23.800          25.300
  20577680.298    20577679.463    20577677.919   -25243732.168 6 -19670431.038 8
        41.000          48.000
  20550732.801    20550732.229    20550729.230   -24163819.146 7 -18828941.093 7
        42.700          47.600
  22958053.445    22958052.029    22958050.461   -10819764.020 5  -8430981.246 5
        31.300          31.300
 09  1 14  0 19 30.0000000  0 10G 3G28G 9G 6G15G21G14G18G22G19
  23099119.824    23099119.107    23099119.049    -7475995.332 4  -5825447.490 4
        25.900          27.100
  25508459.876    25508459.043    25508457.348     -336246.318 2   -262009.457 2
        12.600          12.600
  21876053.418    21876052.804    21876052.396   -15683593.148 5 -12220975.269 5
        33.400          33.800
  23145940.666    23145939.940    23145939.987    -8795569.005 4  -6853685.349 4
        24.900          27.100
  23784797.907    23784797.961    23784795.944    -5618804.883 3  -4378279.055 4
        22.100          24.900
  22171237.563    22171236.632    22171235.185   -17757765.011 5 -13837213.307 4
        31.000          28.400
  23167817.369    23167816.572    23167815.868   -11086919.736 3  -8639153.555 4
        23.400          25.300
  20582710.948    20582710.064    20582708.446   -25217296.766 6 -19649832.017 8
        41.000          48.000
  20544216.432    20544215.890    20544212.934   -24198062.562 7 -18855624.263 7
        42.800          47.700
  22954959.227    22954957.494    22954955.903   -10836025.116 5  -8443652.222 5
        30.800          31.300
 09  1 14  0 20  0.0000000  0 10G 3G28G 9G 6G15G21G14G18G22G19
  23111264.233    23111263.349    23111263.566    -7412175.502 4  -5775717.756 4
        25.900          26.800
  25504950.148    25504949.581    25504946.822     -354698.795 1   -276388.004 1
         9.000          11.000
  21865200.104    21865199.503    21865199.005   -15740627.871 5 -12265417.898 5
        33.400          33.900
  23158759.265    23158758.522    23158758.154    -8728207.603 4  -6801195.942 4
        24.600          27.600
  23803979.554    23803979.419    23803977.531    -5518004.289 3  -4299733.121 4
        22.100          25.300
  22188939.021    22188938.122    22188936.984   -17664742.199 5 -13764728.009 4
        30.800          28.400
  23148340.150    23148339.557    23148339.375   -11189270.575 3  -8718907.432 4
        23.800          25.600
  20587815.255    20587814.456    20587812.910   -25190472.944 6 -19628930.332 8
        41.100          48.000
  20537772.103    20537771.522    20537768.508   -24231927.886 7 -18882012.819 7
        42.800          47.700
  22951978.392    22951976.899    22951975.194   -10851689.262 5  -8455858.045 5
        31.500          31.500
 09  1 14  0 20 30.0000000  0 10G 3G28G 9G 6G15G21G14G18G22G19
  23123491.774    23123491.168    23123491.465    -7347916.782 4  -5725646.041 4
        25.600          27.100
  25501529.875    25501526.770    25501527.597     -372656.237     -290380.806 1
                         9.000
  21854464.603    21854463.995    21854463.869   -15797042.818 5 -12309377.582 5
        33.400          34.400
  23171650.111    23171649.895    23171650.223    -8660461.407 4  -6748406.717 4
        24.200          27.900
  23823194.648    23823194.557    23823193.025    -5417027.452 3  -4221049.873 4
        22.600          25.900
  22206703.925    22206703.156    22206701.464   -17571387.928 5 -13691984.429 4
        31.000          27.900
  23128907.453    23128906.677    23128906.113   -11291392.672 4  -8798483.075 4
        24.200          25.600
  20592991.292    20592990.433    20592988.801   -25163273.210 6 -19607735.729 7
        41.100          47.900
  20531397.342    20531396.789    20531393.861   -24265427.115 7 -18908116.106 7
        42.800          47.800
  22949109.167    22949107.485    22949105.649   -10866767.849 5  -8467607.586 5
        32.100          31.300
 09  1 14  0 21  0.0000000  0 10G 3G28G 9G 6G15G21G14G18G22G19
  23135803.508    23135802.944    23135802.732    -7283219.818 4  -5675232.838 4
        25.600          27.400
  25498209.119    25498208.107    25498207.752     -390115.705     -303985.528 2
         3.000          12.600
  21843848.147    21843847.526    21843846.965   -15852833.596 5 -12352850.896 5
        33.800          34.000
  23184615.116    23184614.573    23184615.072    -8592331.148 4  -6695318.223 4
        24.600          27.900
  23842443.098    23842443.196    23842441.413    -5315874.850 3  -4142229.654 4
        22.600          26.200
  22224531.435    22224530.690    22224529.488   -17477702.336 5 -13618982.676 4
        30.800          28.100
  23109518.882    23109517.865    23109516.989   -11393282.410 4  -8877877.652 4
        24.600          25.600
  20598238.869    20598238.071    20598236.422   -25135696.216 6 -19586247.160 7
        41.100          47.700
  20525092.855    20525092.330    20525089.306   -24298557.596 7 -18933932.056 7
        42.900          47.900
  22946351.596    22946350.002    22946348.162   -10881259.146 5  -8478899.503 5
        32.100          31.100
 09  1 14  0 21 30.0000000  0 10G 3G28G 9G 6G15G21G14G18G22G19
  23148197.972    23148197.356    23148197.762    -7218086.272 4  -5624479.425 4
        25.300          27.900
  25494981.458    25494980.395    25494979.273     -407075.677 1   -317201.036 1
         6.500          11.000
  21833350.997    21833350.171    21833349.591   -15907996.716 5 -12395835.131 5
        33.500          33.800
  23197653.460    23197652.610    23197652.823    -8523818.226 4  -6641931.543 4
        24.900          28.600
  23861724.834    23861725.239    23861723.475    -5214547.418 3  -4063273.207 4
        22.100          26.200
  22242421.955    22242421.382    22242420.031   -17383685.997 5 -13545723.201 4
        30.400          27.600
  23090174.526    23090173.565    23090172.564   -11494936.786 4  -8957088.832 4
        24.900          25.600
  20603558.558    20603557.750    20603556.139   -25107740.852 6 -19564463.754 7
        41.100          47.600
  20518858.830    20518858.280    20518855.314   -24331317.372 7 -18959459.145 8
        42.800          48.000
  22943706.043    22943704.409    22943702.697   -10895161.081 5  -8489732.175 5
        32.000          31.000
 09  1 14  0 22  0.0000000  0 10G 3G28G 9G 6G15G21G14G18G22G19
  23160675.860    23160675.324    23160675.209    -7152514.526 4  -5573384.570 4
        25.300          26.800
  25491849.822    25491848.718    25491847.231     -423531.094     -330023.464
                         3.000
  21822974.188    21822973.684    21822973.326   -15962525.647 5 -12438325.187 5
        33.600          34.300
  23210763.355    23210762.680    23210763.496    -8454921.053 4  -6588245.447 4
        24.200          28.100
  23881040.831    23881040.329    23881038.838    -5113043.521 3  -3984179.269 4
        21.600          25.900
  22260376.106    22260375.347    22260373.985   -17289337.016 5 -13472204.519 4
        30.200          27.400
  23070876.234    23070875.356    23070874.419   -11596350.005 4  -9036112.095 4
        24.900          25.900
  20608950.984    20608950.175    20608948.638   -25079403.492 6 -19542382.688 7
        41.100          47.600
  20512696.261    20512695.766    20512692.804   -24363701.923 7 -18984693.851 8
        42.900          48.200
  22941173.514    22941171.990    22941170.442   -10908469.210 5  -8500102.148 5
        32.000          31.500
 09  1 14  0 22 30.0000000  0 10G 3G28G 9G 6G15G21G14G18G22G19
  23173234.161    23173233.802    23173234.113    -7086517.252 4  -5521958.115 4
        24.600          27.100
  25488813.293    25488812.842    25488812.990     -439491.380     -342459.960
         3.000           3.000
  21812717.112    21812716.500    21812716.058   -16016427.550 5 -12480326.651 5
        34.000          34.400
  23223944.421    23223944.361    23223944.837    -8385651.980 4  -6534269.562 4
        24.200          27.600
  23900388.094    23900387.739    23900385.419    -5011374.867 3  -3904956.934 4
        21.100          24.900
  22278391.389    22278390.565    22278389.144   -17194667.006 4 -13398435.682 4
        29.900          27.100
  23051621.657    23051621.175    23051620.290   -11697530.360 4  -9114953.911 4
        25.300          25.600
  20614414.318    20614413.454    20614411.838   -25050694.154 6 -19520011.772 7
        41.100          47.500
  20506603.313    20506602.786    20506599.850   -24395720.479 7 -19009643.369 8
        42.900          48.200
  22938752.368    22938750.591    22938748.671   -10921193.263 5  -8510016.988 5
        32.100          30.800
 09  1 14  0 23  0.0000000  0 10G 3G28G 9G 6G15G21G14G18G22G19
  23185876.724    23185876.144    23185876.483    -7020081.016 4  -5470189.642 4
        24.900          27.100
  25485873.158    25485871.710    25485871.417     -454940.215 1   -354498.125 1
         6.500           6.500
  21802582.730    21802581.912    21802581.395   -16069684.747 5 -12521825.752 5
        33.900          34.100
  23237199.647    23237199.293    23237199.515    -8315998.096 3  -6479993.826 4
        23.800          27.400
  23919768.841    23919768.717    23919766.382    -4909528.154 3  -3825595.848 4
        21.600          24.600
  22296470.296    22296469.285    22296467.909   -17099662.832 4 -13324406.473 4
        29.500          27.100
  23032415.434    23032414.806    23032413.861   -11798460.053 4  -9193600.408 4
        25.300          25.600
  20619951.005    20619950.217    20619948.611   -25021598.250 6 -19497339.633 7
        41.200          47.400
  20500582.990    20500582.558    20500579.585   -24427356.802 7 -19034295.040 8
        42.900          48.300
  22936444.977    22936443.509    22936441.634   -10933317.243 5  -8519464.246 5
        32.400          30.400
 09  1 14  0 23 30.0000000  0 10G 3G28G 9G 6G15G21G14G18G22G19
  23198600.115    23198599.599    23198600.648    -6953216.835 3  -5418087.677 4
        23.800          27.100
  25483028.901    25483028.561    25483026.639     -469885.104 1   -366143.536 1
         9.000          11.000
  21792569.818    21792569.174    21792568.532   -16122303.007 5 -12562826.982 5
        34.100          34.300
  23250525.422    23250524.956    23250525.212    -8245970.058 3  -6425426.535 4
        23.800          26.800
  23939181.943    23939181.307    23939179.262    -4807513.851 3  -3746104.175 4
        21.100          25.300
  22314610.722    22314609.872    22314608.305   -17004334.121 4 -13250124.377 4
        29.900          27.100
  23013256.043    23013255.115    23013254.117   -11899145.542 4  -9272056.607 4
        25.300          25.600
  20625559.862    20625559.031    20625557.354   -24992123.856 6 -19474372.570 7
        41.200          47.200
  20494634.208    20494633.663    20494630.688   -24458618.599 7 -19058654.873 8
        43.000          48.400
  22934250.740    22934249.182    22934247.256   -10944849.112 5  -8528450.110 5
        32.300          30.600
 09  1 14  0 24  0.0000000  0 10G 3G28G 9G 6G15G21G14G18G22G19
  23211405.072    23211404.381    23211404.865    -6885930.852 4  -5365657.052 4
        24.600          27.100
  25480279.177    25480280.226    25480279.504     -484328.705     -377398.283 2
         3.000          13.900
  21782678.360    21782677.685    21782677.264   -16174282.853 5 -12603330.742 5
        34.100          34.700
  23263921.994    23263921.191    23263921.394    -8175573.718 3  -6370572.260 4
        23.800          26.800
  23958625.062    23958624.721    23958623.059    -4705337.374 3  -3666486.142 4
        20.500          24.900
