     2.11           OBSERVATION DATA    G (GPS)             RINEX VERSION / TYPE
teqc  2008Oct2      WCDA Operator       20090109 00:18:51UTCPGM / RUN BY / DATE
Solaris x86 5.10|AMD64|cc SC5.8 -xarch=amd64|=+|=+          COMMENT
teqc  2008Oct2      WCDA Operator       20090108 01:18:42UTCCOMMENT
flin  WCDA-ACP   965000   CFS Flin Flon SASK Canada         MARKER NAME
40135M001                                                   MARKER NUMBER
PGC-WCDA            GEOL. SURV. CANADA                      OBSERVER / AGENCY
1115                AOA BENCHMARK ACT   3.3.32.4            REC # / TYPE / VERS
231                 AOAD/M_T        SCIS                    ANT # / TYPE
  -766174.4630 -3611375.3160  5184056.2210                  APPROX POSITION XYZ
        0.1500        0.0000        0.0000                  ANTENNA: DELTA H/E/N
     1     1                                                WAVELENGTH FACT L1/2
     7    C1    P1    P2    L1    L2    S1    S2            # / TYPES OF OBSERV
STATION INFORMATION EFFECTIVE FROM: 2001/01/13 18:20:00     COMMENT
                                TO: CURRENT DATE (above)    COMMENT
BIT 2 OF LLI FLAGS (+4) DATA COLLECTED UNDER 'AS' CONDITION COMMENT
L1 PHASE CENTRE 0.110m ABOVE ARP                            COMMENT
L2 PHASE CENTRE 0.128m ABOVE ARP                            COMMENT
where ARP is the Antenna Reference Point for HI measurement COMMENT
CONTACT gps@pgc.nrcan.gc.ca FOR ADDITIONAL INFORMATION      COMMENT
    P1 =    P1  TurboRogue; =    Y1  Benchmark              COMMENT
    L1 = L1(CA)                                             COMMENT
    P2 =    P2  TurboRogue; =    Y2  Benchmark              COMMENT
    L2 = L2(P2) TurboRogue; = L2(Y2) Benchmark              COMMENT
 SNR is mapped to RINEX snr flag value [0-9]                COMMENT
  L1 & L2: min(max(int(snr_dBHz/6), 0), 9)                  COMMENT
  2009     1     8     0     0    0.0000000     GPS         TIME OF FIRST OBS
                                                            END OF HEADER
 09  1  8  0  0  0.0000000  0 11G22G 3G26G 9G15G21G 6G14G18G24G19
  21374277.641    21374277.097    21374274.002   -19847252.818 6 -15465384.614 6
        40.200          40.000
  22411099.631    22411098.723    22411098.503   -11262128.334 5  -8775681.601 5
        31.100          31.000
  23485620.609    23485620.684    23485619.822    -4404827.983 2  -3432323.175 3
        17.800          22.100
  23234355.849    23234355.436    23234355.492    -8453045.275 3  -6586784.080 4
        22.100          25.300
  22267238.186    22267238.074    22267236.226   -13566966.819 5 -10571651.185 6
        35.200          36.300
  20895089.216    20895088.370    20895086.609   -24526645.752 6 -19111663.280 6
        40.600          39.100
  22354742.566    22354742.096    22354741.642   -11944388.058 5  -9307311.312 5
        33.000          32.700
  25042582.894    25042581.288    25042581.369     -925318.586 1   -721027.178 1
         6.500          11.000
  20422142.433    20422141.547    20422140.491   -25858388.434 6 -20149383.784 7
        38.100          46.600
  24472353.976    24472352.774    24472353.723    -1475695.726    -1149889.878 2
         3.000          16.100
  23623567.898    23623566.566    23623564.659    -7425481.471 4  -5786087.341 4
        24.900          25.900
 09  1  8  0  0 30.0000000  0 11G22G 3G26G 9G15G21G 6G14G18G24G19
  21362153.090    21362152.556    21362149.621   -19910967.551 6 -15515032.452 6
        40.200          40.300
  22414272.190    22414271.465    22414271.467   -11245454.274 5  -8762688.828 5
        30.800          31.100
  23507344.506    23507343.976    23507343.119    -4290672.235 2  -3343370.653 3
        16.100          22.600
  23215292.350    23215291.723    23215291.778    -8553225.296 3  -6664846.387 4
        22.100          25.300
  22281600.262    22281600.190    22281598.602   -13491492.385 5 -10512839.943 6
        34.900          36.500
  20905899.519    20905898.724    20905896.944   -24469836.795 6 -19067396.568 6
        40.600          39.000
  22359486.655    22359486.086    22359486.073   -11919456.861 5  -9287884.389 5
        32.700          33.100
  25020618.988    25020616.920    25020618.231    -1040737.220     -810963.730 2
         3.000          13.900
  20420788.081    20420787.261    20420784.786   -25865505.219 6 -20154929.329 7
        38.100          46.600
  24492475.945    24492475.609    24492475.901    -1369952.402    -1067492.516 2
                        15.100
  23611562.358    23611560.903    23611558.751    -7488570.688 4  -5835247.754 4
        24.600          25.600
 09  1  8  0  1  0.0000000  0 11G22G 3G26G 9G15G21G 6G14G18G24G19
  21350086.361    21350085.811    21350082.779   -19974379.174 6 -15564444.099 6
        40.400          40.400
  22417560.228    22417559.270    22417559.214   -11228177.286 5  -8749226.242 5
        31.300          31.300
  23529115.811    23529115.128    23529113.837    -4176264.556 2  -3254221.822 3
        17.000          22.100
  23196293.868    23196293.180    23196293.119    -8653065.396 3  -6742643.830 4
        22.100          25.600
  22296036.306    22296036.155    22296034.514   -13415629.929 5 -10453726.343 6
        34.600          36.100
  20916798.694    20916797.843    20916795.978   -24412561.880 6 -19022766.768 6
        40.500          38.700
  22364335.916    22364335.328    22364335.292   -11893973.975 5  -9268027.593 5
        32.400          33.100
  24998667.220    24998666.039    24998667.100    -1156096.810     -900854.301 2
         3.000          13.900
  20419508.518    20419507.701    20419506.571   -25872229.126 6 -20160168.731 7
        38.100          46.600
  24512615.221    24512615.169    24512619.482    -1264107.317     -985015.852 2
                        12.600
  23599646.535    23599645.163    23599643.317    -7551187.174 3  -5884039.806 4
        23.800          25.900
 09  1  8  0  1 30.0000000  0 11G22G 3G26G 9G15G21G 6G14G18G24G19
  21338076.952    21338076.458    21338073.475   -20037488.165 6 -15613619.933 6
        40.500          40.400
  22420962.333    22420961.547    22420961.429   -11210298.737 5  -8735294.888 5
        31.500          31.300
  23550934.554    23550933.714    23550931.910    -4061608.745 2  -3164879.626 3
        17.800          21.100
  23177360.055    23177359.049    23177359.460    -8752562.418 3  -6820173.932 4
        22.600          25.900
  22310545.292    22310545.392    22310543.910   -13339382.249 5 -10394312.561 5
        34.400          35.900
  20927786.029    20927785.196    20927783.436   -24354822.946 6 -18977775.400 6
        40.600          38.600
  22369290.067    22369289.355    22369289.164   -11867941.024 5  -9247742.170 5
        32.400          33.000
  24976725.010    24976724.157    24976724.997    -1271396.198     -990697.975 1
         3.000          11.000
  20418303.649    20418302.809    20418300.336   -25878560.562 6 -20165102.314 7
        38.200          46.600
  24532777.546    24532777.673    24532777.205    -1158162.558     -902461.593 2
                        13.900
  23587821.765    23587820.139    23587817.768    -7613329.733 3  -5932462.569 4
        23.800          26.200
 09  1  8  0  2  0.0000000  0 11G22G 3G26G 9G15G21G 6G14G18G24G19
  21326126.089    21326125.589    21326122.730   -20100290.361 6 -15662556.707 6
        40.300          40.700
  22424479.339    22424478.507    22424478.493   -11191816.842 5  -8720893.408 5
        31.100          31.100
  23572799.212    23572798.877    23572797.562    -3946704.951 2  -3075344.188 3
        16.100          21.100
  23158492.274    23158491.982    23158491.958    -8851710.097 3  -6897431.828 4
        23.000          26.200
  22325128.399    22325128.536    22325126.799   -13262749.292 5 -10334598.568 6
        34.800          36.000
  20938862.105    20938861.245    20938859.428   -24296618.019 6 -18932420.916 6
        40.600          38.600
  22374348.837    22374348.184    22374348.082   -11841356.377 5  -9227026.859 5
        32.300          33.000
  24954796.076    24954796.162    24954795.115    -1386630.427    -1080490.874 2
         3.000          12.600
  20417173.959    20417173.173    20417172.016   -25884496.729 6 -20169727.891 7
        38.200          46.400
  24552957.845    24552956.986    24552958.761    -1052116.752     -819828.564 2
                        16.100
  23576087.651    23576085.656    23576084.080    -7674993.464 3  -5980512.227 4
        23.800          26.200
 09  1  8  0  2 30.0000000  0 11G22G 3G26G 9G15G21G 6G14G18G24G19
  21314233.182    21314232.713    21314229.791   -20162787.678 6 -15711255.905 6
        40.400          40.700
  22428109.922    22428109.141    22428109.267   -11172735.448 5  -8706024.790 5
        30.400          30.800
  23594710.471    23594710.203    23594708.972    -3831559.411 2  -2985620.396 3
        16.100          21.100
  23139691.812    23139691.433    23139691.731    -8950507.934 3  -6974417.114 4
        22.100          26.500
  22339783.920    22339783.653    22339782.046   -13185735.995 5 -10274588.204 6
        34.800          36.000
  20950025.988    20950025.127    20950023.276   -24237951.105 6 -18886706.439 6
        40.400          38.300
  22379512.330    22379511.488    22379511.322   -11814223.909 5  -9205884.676 5
        32.400          33.100
  24932880.792    24932880.009    24932878.408    -1501800.148    -1170233.500 2
         3.000          12.600
  20416119.162    20416118.323    20416115.783   -25890040.924 6 -20174048.042 7
        38.300          46.800
  24573157.362    24573156.123    24573157.447     -945974.452 1   -737120.307 2
         6.500          17.000
  23564444.345    23564442.663    23564440.909    -7736179.059 4  -6028189.303 4
        24.600          26.800
 09  1  8  0  3  0.0000000  0 11G22G 3G26G 9G15G21G 6G14G18G24G19
  21302397.869    21302397.294    21302394.154   -20224983.765 6 -15759720.390 6
        40.600          40.600
  22431854.558    22431853.778    22431853.670   -11153059.235 5  -8690692.676 5
        31.000          31.000
  23616666.178    23616666.157    23616665.056    -3716179.005 2  -2895713.576 3
        16.100          21.100
  23120958.219    23120957.656    23120957.556    -9048956.335 3  -7051130.092 4
        23.400          26.200
  22354510.134    22354509.956    22354508.396   -13108348.700 5 -10214286.412 6
        34.600          36.000
  20961276.920    20961276.067    20961274.385   -24178827.027 6 -18840635.731 6
        40.400          38.400
  22384778.552    22384777.801    22384777.449   -11786548.981 5  -9184319.797 5
        32.600          32.700
  24910976.773    24910975.979    24910974.137    -1616907.706    -1259927.624 2
         3.000          12.600
  20415137.984    20415137.141    20415136.041   -25895196.822 6 -20178065.616 7
        38.300          46.700
  24593372.953    24593372.274    24593373.218     -839741.120 1   -654341.117 2
         9.000          16.100
  23552892.426    23552890.406    23552888.204    -7796888.823 4  -6075495.602 4
        24.200          26.800
 09  1  8  0  3 30.0000000  0 11G22G 3G26G 9G15G21G 6G14G18G24G19
  21290621.174    21290620.650    21290617.603   -20286870.058 6 -15807943.471 6
        40.500          40.700
  22435713.264    22435712.389    22435712.295   -11132782.485 5  -8674892.616 5
        31.100          30.800
  23638668.733    23638668.033    23638666.635    -3600559.669 2  -2805620.592 3
        15.100          21.100
  23102292.490    23102292.011    23102291.836    -9147043.973 3  -7127562.001 4
        23.800          25.900
  22369308.813    22369308.487    22369306.952   -13030582.477 5 -10153689.353 6
        34.500          36.200
  20972616.083    20972615.177    20972613.511   -24119239.665 6 -18794204.021 6
        40.300          38.100
  22390149.151    22390148.629    22390148.359   -11758325.363 5  -9162327.358 5
        32.600          32.700
  24889085.957    24889083.615    24889084.825    -1731943.820    -1349566.074 2
         3.000          13.900
  20414232.008    20414231.154    20414228.661   -25899957.304 6 -20181775.082 7
        38.300          46.700
  24613606.179    24613605.353    24613606.315     -733410.828 1   -571486.379 2
         9.000          15.100
  23541430.987    23541429.325    23541427.873    -7857113.641 3  -6122424.012 4
        23.000          27.100
 09  1  8  0  4  0.0000000  0 11G21G 3G26G 9G15G 6G14G18G24G22G19
  20984043.687    20984042.827    20984040.983   -24059187.103 6 -18747409.816 6
        40.300          37.900
  22439686.256    22439685.412    22439685.331   -11111903.458 5  -8658623.242 5
        31.000          30.400
  23660715.153    23660715.255    23660713.847    -3484701.708 2  -2715341.666 3
        16.100          21.600
  23083696.856    23083696.295    23083696.146    -9244764.773 4  -7203708.058 4
        24.200          25.900
  22384179.396    22384178.914    22384177.417   -12952437.278 5 -10092796.992 6
        34.100          36.200
  22395624.322    22395623.844    22395623.782   -11729551.457 5  -9139906.130 5
        32.000          32.700
  24867209.201    24867208.681    24867208.312    -1846903.637 1  -1439145.077 2
         6.500          16.100
  20413402.024    20413401.224    20413400.015   -25904319.209 6 -20185173.961 7
        38.400          46.800
  24633858.950    24633858.099    24633859.133     -626982.237 1   -488555.043 2
         9.000          15.100
  21278904.109    21278903.659    21278900.754   -20348443.196 6 -15855922.536 6
        40.500          41.000
  23530063.329    23530062.141    23530060.781    -7916848.629 3  -6168970.737 4
        23.000          27.400
 09  1  8  0  4 30.0000000  0 11G21G 3G26G 9G15G 6G14G18G24G22G19
  20995559.049    20995558.135    20995556.296   -23998674.254 6 -18700256.951 6
        40.400          37.800
  22443773.320    22443772.440    22443772.238   -11090426.858 5  -8641888.232 5
        31.000          30.400
  23682806.549    23682806.303    23682805.104    -3368612.122 2  -2624882.247 3
        17.000          21.600
  23065170.853    23065170.231    23065170.233    -9342119.400 3  -7279568.774 4
        23.400          26.200
  22399120.490    22399120.364    22399118.936   -12873919.083 5 -10031613.982 5
        33.900          35.900
  22401203.862    22401203.162    22401202.974   -11700232.341 5  -9117060.067 5
        32.100          32.700
  24845349.007    24845347.823    24845347.364    -1961788.794    -1528665.893 2
         3.000          15.100
  20412647.060    20412646.196    20412643.632   -25908286.588 6 -20188265.422 7
        38.500          46.900
  24654129.136    24654127.094    24654128.968     -520460.486     -405551.080 2
         3.000          12.600
  21267246.171    21267245.648    21267242.805   -20409706.072 6 -15903659.839 6
        40.400          41.100
  23518789.425    23518788.053    23518786.088    -7976095.493 3  -6215137.102 4
        23.800          26.800
 09  1  8  0  5  0.0000000  0 11G21G 3G26G 9G15G 6G14G18G24G22G19
  21007161.776    21007160.893    21007158.957   -23937701.678 6 -18652745.859 6
        40.400          37.700
  22447973.692    22447972.943    22447972.520   -11068353.103 5  -8624687.915 5
        31.000          30.200
  23704941.572    23704941.274    23704939.774    -3252293.174 2  -2534244.098 3
        16.100          20.500
  23046715.541    23046714.644    23046714.665    -9439103.184 3  -7355140.516 4
        23.000          26.200
  22414132.852    22414132.540    22414131.105   -12795029.743 5  -9970141.763 5
        33.800          35.500
  22406886.916    22406886.181    22406886.089   -11670368.496 5  -9093789.533 5
        32.400          32.700
  24823502.937    24823501.055    24823499.615    -2076596.818 1  -1618126.586 2
         9.000          17.000
  20411967.325    20411966.535    20411965.241   -25911858.556 6 -20191048.766 7
        38.400          46.800
  24674416.965    24674414.981    24674417.246     -413846.408     -322475.188 2
                        13.900
  21255647.526    21255647.035    21255644.078   -20470657.037 6 -15951154.099 6
        40.500          41.100
  23507608.675    23507606.995    23507604.884    -8034851.543 4  -6260921.032 4
        24.900          26.200
 09  1  8  0  5 30.0000000  0 11G21G 3G26G 9G15G 6G14G18G24G22G19
  21018852.025    21018851.109    21018849.246   -23876268.850 6 -18604876.122 6
        40.300          37.700
  22452287.913    22452287.061    22452286.935   -11045681.861 5  -8607022.013 5
        31.100          30.600
  23727119.213    23727118.947    23727118.337    -3135746.540 2  -2443428.547 3
        16.100          20.500
  23028331.762    23028331.258    23028330.827    -9535710.841 3  -7430419.174 4
        23.800          25.600
  22429215.390    22429215.025    22429213.639   -12715770.164 5  -9908381.044 5
        33.500          35.100
  22412673.335    22412672.643    22412672.658   -11639959.808 5  -9070094.442 5
        32.400          32.600
  24801669.732    24801668.230    24801667.619    -2191324.408 1  -1707524.579 2
         9.000          17.800
  20411363.039    20411362.179    20411359.715   -25915034.032 6 -20193523.159 7
        38.500          47.000
  24694722.539    24694720.670    24694725.015     -307140.080     -239327.429 2
                        12.600
  21244108.856    21244108.284    21244105.382   -20531294.024 6 -15998403.702 6
        40.500          41.300
  23496521.884    23496520.280    23496518.447    -8093113.533 4  -6306319.975 4
        25.300          27.100
 09  1  8  0  6  0.0000000  0 11G21G 3G26G 9G15G 6G14G18G24G22G19
  21030629.998    21030629.083    21030627.270   -23814375.065 6 -18556647.209 6
        40.200          37.400
  22456715.817    22456714.940    22456715.063   -11022412.375 5  -8588889.943 5
        31.000          31.000
  23749339.626    23749339.817    23749339.528    -3018973.558 2  -2352436.628 3
        13.900          19.900
  23010019.913    23010019.257    23010019.372    -9631937.339 3  -7505400.843 4
        23.000          24.900
  22444368.106    22444367.984    22444366.600   -12636140.679 5  -9846332.091 5
        33.500          35.100
  22418563.861    22418563.078    22418562.679   -11609005.736 5  -9045974.382 5
        32.100          32.100
  24779851.431    24779851.464    24779851.346    -2305967.831 1  -1796857.008 2
         9.000          17.000
  20410834.546    20410833.704    20410832.543   -25917811.168 6 -20195687.154 7
        38.400          46.900
  24715046.055    24715046.842    24715047.237     -200341.341     -156107.684 2
                        13.900
  21232630.111    21232629.690    21232626.780   -20591614.483 6 -16045406.657 6
        40.600          41.400
  23485529.859    23485528.149    23485526.667    -8150877.738 4  -6351331.017 4
        25.300          27.100
 09  1  8  0  6 30.0000000  0 11G21G 3G26G 9G15G 6G14G18G24G22G19
  21042493.650    21042492.715    21042490.773   -23752031.391 6 -18508067.731 6
        40.200          37.100
  22461255.662    22461254.811    22461254.762   -10998556.216 5  -8570300.733 5
        31.000          31.100
  23771600.640    23771601.026    23771601.194    -2901987.300 2  -2261278.485 3
        15.100          19.300
  22991780.630    22991779.726    22991779.304    -9727789.197 3  -7580090.578 4
        23.400          25.300
  22459588.953    22459589.005    22459587.621   -12556154.073 5  -9784004.856 5
        33.600          35.200
  22424555.674    22424555.135    22424554.858   -11577517.646 5  -9021438.206 5
        32.100          32.400
  24758050.151    24758049.596    24758049.938    -2420534.936 1  -1886130.010 2
        11.000          16.100
  20410379.979    20410379.187    20410376.721   -25920199.606 6 -20197548.272 7
        38.500          46.800
  24735385.358    24735385.432    24735387.193      -93461.512      -72824.728 2
                        13.900
  21221210.137    21221209.634    21221206.724   -20651627.348 6 -16092169.928 6
        40.700          41.500
  23474631.285    23474629.451    23474627.169    -8208152.249 4  -6395960.497 4
        26.200          26.200
 09  1  8  0  7  0.0000000  0 11G21G 3G26G 9G15G 6G14G18G24G22G19
  21054443.297    21054442.446    21054440.555   -23689235.347 6 -18459135.754 6
        40.000          37.200
  22465907.652    22465906.708    22465906.399   -10974110.820 5  -8551252.367 5
        31.100          30.600
  23793904.103    23793904.229    23793903.423    -2784787.241 2  -2169953.752 3
        15.100          19.300
  22973612.911    22973612.303    22973611.946    -9823259.268 4  -7654482.815 4
        24.200          25.600
  22474878.111    22474878.013    22474876.765   -12475809.237 5  -9721398.481 5
        33.200          35.300
  22430649.645    22430648.992    22430648.757   -11545493.229 5  -8996484.117 5
        31.800          32.100
  24736265.037    24736263.492    24736264.006    -2535020.410 1  -1975339.394 2
        11.000          16.100
  20410000.087    20409999.289    20409998.106   -25922196.160 6 -20199104.020 7
        38.500          47.000
  24755741.941    24755740.291    24755740.319       13501.427 1     10522.975 2
         6.500          12.600
  21209849.266    21209848.868    21209845.861   -20711328.279 6 -16138690.133 6
        40.600          41.300
  23463826.290    23463824.710    23463822.494    -8264931.659 4  -6440204.192 4
        27.100          26.200
 09  1  8  0  7 30.0000000  0 11G21G 3G26G 9G15G 6G14G18G24G22G19
  21066478.563    21066477.749    21066476.027   -23625988.621 6 -18409852.601 6
        39.800          37.200
  22470671.439    22470670.452    22470669.980   -10949077.644 5  -8531745.996 5
        31.100          30.400
  23816248.110    23816247.579    23816245.698    -2667376.643 2  -2078464.950 3
        15.100          18.600
  22955518.843    22955518.146    22955517.678    -9918344.689 4  -7728575.327 4
        24.200          25.300
  22490234.934    22490234.889    22490233.415   -12395108.691 5  -9658514.943 5
        33.000          35.200
  22436845.468    22436844.849    22436844.506   -11512934.194 5  -8971113.438 5
        31.800          32.000
  24714495.493    24714494.500    24714494.492    -2649422.530 1  -2064483.809 2
        11.000          17.000
  20409694.634    20409693.833    20409691.299   -25923801.108 6 -20200354.628 7
        38.500          46.900
  24776109.598    24776108.809    24776108.841      120545.849 1     93934.175 1
         6.500          11.000
  21198548.322    21198547.713    21198544.689   -20770717.073 6 -16184967.115 6
        40.700          41.600
  23453115.682    23453114.020    23453112.108    -8321214.526 4  -6484060.958 4
        27.400          26.800
 09  1  8  0  8  0.0000000  0 11G 3G26G 9G15G21G 6G14G18G24G22G19
  22475547.477    22475546.509    22475546.359   -10923452.836 5  -8511778.607 5
        30.800          30.400
  23838631.095    23838630.511    23838627.999    -2549753.355 2  -1986810.432 3
        13.900          19.300
  22937499.155    22937498.525    22937498.433   -10013036.446 3  -7802361.082 4
        23.400          25.600
  22505659.808    22505659.794    22505658.201   -12314049.558 5  -9595351.979 5
        32.600          34.600
  21078600.649    21078599.894    21078598.273   -23562286.610 6 -18360214.674 6
        39.800          37.200
  22443143.518    22443142.971    22443142.913   -11479836.678 5  -8945323.164 5
        31.500          32.100
  24692742.252    24692740.739    24692741.305    -2763734.025 1  -2153557.647 2
        11.000          13.900
  20409464.863    20409463.986    20409462.765   -25925009.248 6 -20201296.027 7
        38.600          47.200
  24796495.123    24796494.650    24796495.157      227675.588 1    177411.843 1
         6.500          11.000
  21187307.647    21187307.159    21187304.149   -20829786.476 6 -16230995.217 6
        40.700          41.800
  23442501.116    23442499.588    23442497.758    -8376993.386 4  -6527524.992 4
        27.600          26.200
 09  1  8  0  8 30.0000000  0 11G21G 3G26G 9G15G 6G14G18G24G22G19
  21090808.953    21090808.177    21090806.559   -23498131.719 6 -18310223.859 6
        39.700          37.200
  22480535.479    22480534.727    22480534.674   -10897238.364 5  -8491351.747 5
        30.100          30.200
  23861053.122    23861052.827    23861051.274    -2431921.098 2  -1894993.099 3
        12.600          19.300
  22919555.388    22919554.897    22919554.526   -10107331.574 3  -7875837.762 4
        23.400          25.600
  22521152.581    22521152.366    22521150.953   -12232635.024 5  -9531912.077 5
        32.600          34.600
  22449543.971    22449543.371    22449543.312   -11446202.590 5  -8919114.790 5
        31.300          32.300
  24671006.409    24671005.810    24671004.879    -2877953.827 1  -2242560.042 2
         9.000          12.600
  20409310.242    20409309.472    20409306.917   -25925821.215 6 -20201928.726 7
        38.600          47.100
  24816896.819    24816894.838    24816898.351      334888.241 1    260954.123 2
         6.500          12.600
  21176127.674    21176127.160    21176124.072   -20888537.781 6 -16276775.451 6
        40.900          41.800
  23431983.268    23431981.833    23431979.724    -8432267.383 4  -6570595.634 4
        27.600          26.500
 09  1  8  0  9  0.0000000  0 11G 3G26G 9G15G21G 6G14G18G24G22G19
  22485636.315    22485635.484    22485635.569   -10870433.432 5  -8470464.785 5
        30.100          30.200
  23883514.416    23883514.326    23883513.496    -2313880.979 1  -1803013.798 3
        11.000          18.600
  22901688.823    22901687.953    22901687.397   -10201224.421 4  -7949000.998 4
        24.600          26.200
  22536713.145    22536712.908    22536711.269   -12150865.441 5  -9468195.518 5
        33.000          34.600
  21103103.634    21103102.798    21103101.097   -23433522.812 6 -18259879.260 6
        39.500          36.900
  22456046.471    22456045.853    22456045.869   -11412031.560 5  -8892488.010 5
        31.500          32.400
  24649289.019    24649289.986    24649288.223    -2992077.651 1  -2331487.668 1
         6.500          11.000
  20409231.503    20409230.722    20409229.554   -25926234.803 6 -20202250.995 7
        38.600          47.000
  24837314.307    24837313.331    24837316.396      442184.243      344561.355 2
         3.000          12.600
  21165008.703    21165008.237    21165005.215   -20946967.827 6 -16322305.351 6
        40.900          41.900
  23421561.543    23421559.708    23421558.257    -8487032.273 4  -6613269.576 4
        26.200          26.500
 09  1  8  0  9 30.0000000  0 11G 3G26G 9G15G21G 6G14G18G24G22G19
  22490847.488    22490846.724    22490846.555   -10843049.674 5  -8449126.799 5
        30.100          30.200
  23906013.383    23906012.976    23906013.207    -2195646.344 1  -1710882.916 3
        11.000          19.300
  22883896.329    22883895.605    22883895.750   -10294722.119 4  -8021856.317 4
        24.900          27.100
  22552338.157    22552338.173    22552336.769   -12068753.658 5  -9404212.305 5
        32.600          34.700
  21115482.608    21115481.696    21115479.992   -23368471.411 6 -18209189.866 6
        39.500          36.900
  22462649.137    22462648.558    22462648.257   -11377335.183 5  -8865451.874 5
        31.300          32.000
  24627589.141    24627589.083    24627587.228    -3106114.122 1  -2420347.192 1
         6.500           9.000
  20409226.644    20409225.834    20409223.432   -25926260.701 6 -20202271.172 7
        38.800          47.300
  24857745.791    24857745.463    24857746.696      549552.034      428224.511 1
                        11.000
  21153948.924    21153948.467    21153945.758   -21005086.057 6 -16367592.272 7
        40.600          42.100
  23411235.116    23411233.458    23411231.967    -8541296.715 4  -6655553.545 4
        26.500          26.500
 09  1  8  0 10  0.0000000  0 11G 3G26G 9G15G21G 6G14G18G24G22G19
  22496169.868    22496169.150    22496168.777   -10815079.702 5  -8427332.009 4
        30.100          29.700
  23928550.345    23928549.506    23928550.882    -2077211.497 1  -1618596.041 3
         9.000          18.600
  22866181.702    22866181.051    22866181.116   -10387812.570 4  -8094394.306 4
        25.900          27.600
  22568029.686    22568029.672    22568028.231   -11986293.518 5  -9339957.647 5
        32.300          34.400
  21127946.929    21127946.121    21127944.435   -23302970.304 6 -18158150.048 6
        39.400          36.600
  22469352.917    22469352.215    22469352.054   -11342106.406 5  -8838000.882 5
        31.100          32.100
  24605906.698    24605906.505    24605903.941    -3220052.573 1  -2509130.375 1
         6.500           6.500
  20409297.147    20409296.291    20409294.982   -25925890.549 6 -20201982.734 7
        38.700          47.200
  24878191.263    24878189.916    24878192.780      656998.582      511949.030 1
                         9.000
  21142950.759    21142950.233    21142947.321   -21062882.801 6 -16412628.683 7
        40.900          42.100
  23401006.338    23401004.662    23401002.780    -8595050.432 4  -6697439.559 4
        27.100          26.800
 09  1  8  0 10 30.0000000  0 11G21G 3G26G 9G15G 6G14G18G24G22G19
  21140497.376    21140496.550    21140494.633   -23237018.216 6 -18106758.810 6
        39.500          36.500
  22501604.079    22501603.376    22501603.208   -10786523.105 5  -8405080.119 5
        30.600          30.100
  23951124.954    23951125.058    23951126.730    -1958577.268 1  -1526153.769 3
        11.000          18.600
  22848545.794    22848545.357    22848544.878   -10480489.523 4  -8166610.093 4
        25.600          27.600
  22583787.704    22583787.643    22583786.176   -11903485.280 5  -9275431.747 5
        32.300          34.400
  22476158.252    22476157.633    22476157.482   -11306344.263 5  -8810134.273 5
        31.500          32.300
  24584245.134    24584244.577    24584241.720    -3333888.844 1  -2597833.961
         6.500           3.000
  20409443.332    20409442.494    20409440.049   -25925122.160 6 -20201383.989 7
        38.700          47.300
  24898653.744    24898652.086    24898653.892      764524.919      595735.719 1
                         6.500
  21132014.159    21132013.651    21132010.681   -21120355.241 6 -16457412.394 7
        41.000          42.100
  23390875.224    23390873.673    23390871.980    -8648289.555 4  -6738924.580 4
        27.400          27.400
 09  1  8  0 11  0.0000000  0 11G21G 3G26G 9G15G 6G14G18G24G22G19
  21153132.042    21153131.171    21153129.547   -23170622.023 6 -18055021.519 6
        39.200          36.600
  22507149.054    22507148.024    22507147.684   -10757386.186 5  -8382376.021 5
        30.400          30.100
  23973737.504    23973738.019    23973738.464    -1839752.130 1  -1433562.745 3
        11.000          18.600
  22830988.226    22830987.613    22830987.490   -10572755.374 4  -8238505.533 4
        24.600          27.600
  22599610.727    22599610.540    22599608.776   -11820336.676 5  -9210640.620 5
        32.700          34.300
  22483064.019    22483063.238    22483063.015   -11270055.936 5  -8781857.663 5
        31.300          32.300
  24562601.478    24562599.920    24562600.222    -3447626.420 1  -2686460.634 1
         9.000           9.000
  20409664.304    20409663.488    20409662.221   -25923961.039 6 -20200479.212 7
        38.800          47.400
  24919131.408    24919130.072    24919129.416      872123.814      679579.010 1
         3.000           9.000
  21121138.373    21121137.818    21121134.814   -21177508.127 6 -16501947.095 7
        41.000          42.200
  23380841.583    23380839.938    23380838.199    -8701017.639 4  -6780011.384 4
        27.100          27.600
 09  1  8  0 11 30.0000000  0 11G21G 3G26G 9G15G 6G14G18G24G22G19
  21165851.038    21165850.214    21165848.563   -23103783.114 6 -18002939.264 6
        39.100          36.500
  22512803.212    22512802.281    22512802.587   -10727670.488 4  -8359220.938 5
        29.900          30.200
  23996386.507    23996385.818    23996385.639    -1720739.245 1  -1340825.439 2
        11.000          17.800
  22813509.612    22813508.975    22813508.447   -10664606.724 4  -8310077.983 4
        25.300          27.400
  22615497.834    22615497.471    22615495.806   -11736850.108 5  -9145586.141 5
        32.400          34.500
  22490069.321    22490068.550    22490067.952   -11233242.954 5  -8753172.221 5
        31.500          31.800
  24540977.104    24540977.056    24540975.297    -3561263.234 1  -2775008.771 1
        11.000          11.000
  20409960.016    20409959.147    20409956.673   -25922407.197 6 -20199268.425 7
        38.700          47.300
  24939620.499    24939619.226    24939617.808      979793.630      763477.560 1
         3.000           9.000
  21110323.516    21110322.976    21110319.882   -21234340.692 6 -16546232.198 7
        41.100          42.200
  23370904.757    23370903.389    23370902.086    -8753233.147 4  -6820698.781 4
        27.100          27.900
 09  1  8  0 12  0.0000000  0 11G21G 3G26G 9G15G 6G14G18G24G22G19
  21178653.039    21178652.219    21178650.428   -23036508.548 6 -17950517.532 6
        39.200          36.200
  22518566.702    22518565.652    22518565.782   -10697383.618 4  -8335620.783 5
        29.900          30.100
  24019067.374    24019067.484    24019066.985    -1601547.047 1  -1247948.407 2
         9.000          17.000
  22796108.999    22796108.641    22796108.025   -10756045.951 4  -8381329.295 4
        25.900          26.500
  22631447.277    22631447.030    22631445.533   -11653034.134 5  -9080274.993 5
        32.000          34.600
  22497172.574    22497172.057    22497171.755   -11195912.712 5  -8724083.718 5
        31.100          31.500
  24519371.730    24519370.820    24519370.147    -3674803.299 2  -2863481.552 2
        12.600          12.600
  20410329.341    20410328.496    20410327.231   -25920466.405 6 -20197756.115 7
        38.700          47.300
  24960119.777    24960119.339    24960120.016     1087526.978 1    847425.631 1
         6.500           6.500
  21099568.504    21099568.007    21099565.122   -21290857.908 6 -16590271.570 7
        41.100          42.300
  23361066.102    23361064.588    23361062.360    -8804939.943 4  -6860989.792 4
        27.600          27.400
 09  1  8  0 12 30.0000000  0 11G21G 3G26G 9G15G 6G14G18G24G22G19
  21191538.964    21191538.128    21191536.268   -22968792.518 6 -17897751.800 6
        39.100          36.000
  22524440.006    22524439.148    22524438.932   -10666520.283 5  -8311571.429 4
        30.200          29.900
  24041784.443    24041783.943    24041782.451    -1482171.825 1  -1154928.758 2
        11.000          16.100
  22778789.763    22778789.052    22778788.150   -10847062.453 4  -8452251.235 4
        26.800          26.500
  22647460.678    22647460.468    22647458.857   -11568884.150 5  -9014703.580 5
        32.100          34.500
  22504375.805    22504375.289    22504374.892   -11158059.781 5  -8694587.926 5
        31.000          31.500
  24497785.894    24497784.791    24497784.363    -3788237.676 1  -2951871.951 2
        11.000          15.100
  20410773.615    20410772.759    20410770.335   -25918131.717 6 -20195936.874 7
        38.700          47.300
  24980633.618    24980632.739    24980634.605     1195329.392      931427.513 1
                         9.000
  21088875.288    21088874.774    21088871.819   -21347051.789 6 -16634058.995 7
        41.300          42.400
  23351324.579    23351322.931    23351320.864    -8856129.695 4  -6900877.905 4
        27.100          26.500
 09  1  8  0 13  0.0000000  0 11G21G 3G26G 9G15G 6G14G18G24G22G19
  21204508.925    21204508.084    21204506.326   -22900634.705 6 -17844641.826 5
        38.900          35.900
  22530422.797    22530422.084    22530421.966   -10635079.843 5  -8287072.382 5
        30.400          30.100
  24064535.464    24064534.955    24064533.551    -1362615.017 2  -1061767.619 2
        12.600          16.100
  22761551.134    22761550.257    22761549.665   -10937651.405 4  -8522840.011 4
        25.600          27.100
  22663537.091    22663536.985    22663535.444   -11484400.964 5  -8948872.523 5
        32.100          34.300
  22511678.385    22511677.826    22511677.642   -11119684.018 5  -8664684.735 5
        30.800          31.500
  24476220.262    24476219.927    24476218.592    -3901562.981 1  -3040177.354 2
        11.000          16.100
  20411292.960    20411292.122    20411290.905   -25915402.048 6 -20193809.856 7
        38.600          47.200
  25001160.682    25001160.706    25001162.051     1303201.178     1015483.414 1
         3.000          11.000
  21078243.863    21078243.311    21078240.324   -21402920.140 6 -16677592.759 7
        41.200          42.400
  23341682.088    23341680.928    23341679.063    -8906798.797 4  -6940360.312 4
        26.800          27.400
 09  1  8  0 13 30.0000000  0 11G21G 3G26G 9G15G 6G14G18G24G22G19
  21217564.278    21217563.485    21217561.815   -22832028.187 6 -17791182.209 5
        38.800          35.900
  22536516.974    22536516.124    22536515.793   -10603055.986 5  -8262118.727 4
        30.400          29.700
  24087322.065    24087321.412    24087319.473    -1242871.365 2   -968460.891 2
        15.100          16.100
  22744396.099    22744395.289    22744394.912   -11027801.102 4  -8593086.494 4
        25.600          27.600
  22679678.304    22679678.215    22679676.357   -11399578.799 5  -8882777.321 5
        32.000          34.100
  22519081.627    22519081.069    22519081.045   -11080778.981 5  -8634369.127 5
        30.800          31.600
  24454678.027    24454676.740    24454676.627    -4014768.985 2  -3128389.782 3
        12.600          18.600
  20411889.035    20411888.183    20411885.817   -25912269.352 6 -20191368.792 7
        38.600          47.100
  25021703.901    25021702.391    25021704.256     1411148.767     1099598.360 1
                        11.000
  21067675.918    21067675.419    21067672.413   -21458454.173 6 -16720866.016 7
        41.300          42.400
  23332141.259    23332139.890    23332138.476    -8956937.654 4  -6979429.542 4
        26.800          27.900
 09  1  8  0 14  0.0000000  0 11G21G 3G26G 9G15G 6G14G18G24G22G19
  21230702.127    21230701.239    21230699.439   -22762989.598 6 -17737385.916 5
        38.900          35.800
  22542718.826    22542717.934    22542717.407   -10570465.312 5  -8236723.395 4
        30.100          29.700
  24110140.268    24110139.607    24110138.385    -1122959.071 2   -875022.740 2
        13.900          16.100
  22727322.561    22727321.891    22727321.529   -11117523.044 4  -8662999.669 4
        25.300          27.900
  22695880.568    22695880.332    22695878.433   -11314435.306 5  -8816431.744 5
        31.600          33.600
  22526582.661    22526582.196    22526581.956   -11041361.526 5  -8603654.226 5
        30.400          31.600
  24433155.899    24433155.546    24433154.373    -4127869.164 2  -3216519.720 3
        13.900          18.600
  20412559.036    20412558.185    20412556.848   -25908748.977 6 -20188625.637 7
        38.700          47.200
  25042256.076    25042254.547    25042256.094     1519155.473     1183759.366 1
         3.000          11.000
  21057169.211    21057168.678    21057165.679   -21513668.010 6 -16763889.773 7
        41.400          42.600
  23322698.562    23322697.078    23322695.267    -9006559.532 4  -7018095.930 4
        26.200          27.600
 09  1  8  0 14 30.0000000  0 11G21G 3G26G 9G15G 6G14G18G24G22G19
  21243922.592    21243921.738    21243920.023   -22693514.547 6 -17683249.515 5
        38.600          35.500
  22549029.059    22549028.128    22549027.632   -10537303.742 5  -8210883.207 4
        30.100          29.200
  24132991.833    24132991.323    24132989.899    -1002875.134 2   -781450.860 2
        12.600          17.800
  22710331.899    22710331.325    22710331.005   -11206808.332 4  -8732572.589 4
        25.300          28.100
  22712144.349    22712144.319    22712142.590   -11228967.079 5  -8749833.128 5
        31.600          33.500
  22534182.065    22534181.370    22534180.930   -11001427.410 5  -8572536.738 5
        30.600          31.100
  24411654.874    24411654.871    24411654.068    -4240855.503 2  -3304560.995 3
        13.900          19.300
  20413303.816    20413302.996    20413300.643   -25904834.886 6 -20185575.696 7
        38.800          47.400
  25062821.819    25062819.940    25062821.927     1627225.531     1267969.770 1
         3.000           9.000
  21046724.505    21046723.955    21046721.005   -21568555.537 6 -16806659.258 7
        41.300          42.800
  23313355.642    23313354.016    23313352.064    -9055657.176 4  -7056353.821 4
        26.200          27.900
 09  1  8  0 15  0.0000000  0 11G21G 3G26G 9G15G 6G14G18G24G22G19
  21257225.390    21257224.610    21257223.042   -22623607.119 6 -17628776.201 5
        38.400          35.500
  22555447.373    22555446.620    22555446.178   -10503575.545 5  -8184601.483 4
        30.400          29.500
  24155874.902    24155874.601    24155873.023     -882625.452 2   -687749.838 3
        12.600          18.600
  22693424.349    22693423.949    22693423.712   -11295656.315 4  -8801804.758 4
        25.600          28.100
  22728469.131    22728469.251    22728467.502   -11143179.728 5  -8682985.846 5
        31.600          33.400
  22541878.589    22541877.960    22541877.687   -10960981.191 5  -8541020.206 5
        30.600          31.300
  24390175.364    24390174.849    24390175.172    -4353729.082 2  -3392514.398 3
        16.100          19.300
  20414122.986    20414122.126    20414121.006   -25900529.977 6 -20182221.215 7
        38.800          47.300
  25083397.393    25083396.791    25083398.024     1735354.690     1352226.238 1
                         9.000
  21036341.474    21036340.927    21036337.810   -21623118.824 6 -16849176.088 7
        41.400          42.600
  23304112.047    23304110.485    23304108.645    -9104231.879 4  -7094204.223 4
        27.100          27.600
 09  1  8  0 15 30.0000000  0 11G21G 3G26G 9G15G 6G14G18G24G22G19
  21270612.198    21270611.257    21270609.485   -22553261.014 6 -17573961.065 5
        38.600          35.500
  22561974.505    22561973.696    22561973.435   -10469274.410 4  -8157873.333 4
        29.700          29.500
  24178790.341    24178789.583    24178788.421     -762205.193 1   -593915.878 2
        11.000          17.800
  22676603.017    22676602.226    22676602.034   -11384055.830 4  -8870687.466 4
        26.200          28.800
  22744856.035    22744855.839    22744853.936   -11057067.697 5  -8615885.554 5
        31.600          33.100
  22549674.082    22549673.448    22549672.928   -10920016.766 5  -8509099.881 5
        31.000          31.600
  24368719.754    24368719.108    24368718.908    -4466480.136 2  -3480372.357 3
        15.100          19.300
  20415018.035    20415017.171    20415014.889   -25895827.046 6 -20178556.592 7
        38.900          47.700
  25103986.585    25103985.114    25103986.683     1843549.221     1436533.583 1
                         9.000
  21026021.677    21026021.216    21026018.135   -21677348.986 6 -16891433.347 7
        41.500          42.700
  23294970.358    23294968.595    23294966.709    -9152273.979 4  -7131639.631 4
        27.400          28.400
 09  1  8  0 16  0.0000000  0 11G21G 3G26G 9G15G 6G14G18G24G22G19
  21284080.325    21284079.484    21284077.780   -22482484.617 6 -17518810.627 5
        38.400          35.200
  22568609.230    22568608.277    22568608.292   -10434409.462 4  -8130705.838 4
        29.700          29.900
  24201735.333    24201734.843    24201734.338     -641624.354 2   -499956.792 2
        12.600          16.100
  22659865.191    22659864.478    22659864.607   -11472010.608 4  -8939223.633 4
        25.900          29.000
  22761302.599    22761302.260    22761300.558   -10970640.322 5  -8548539.545 5
        31.100          32.800
  22557565.983    22557565.453    22557565.433   -10878542.752 5  -8476782.464 5
        30.600          31.800
  24347286.393    24347284.984    24347284.938    -4579113.646 2  -3568138.687 3
        13.900          19.300
  20415987.382    20415986.499    20415985.285   -25890733.187 6 -20174587.348 7
        38.900          47.600
  25124587.706    25124585.220    25124584.985     1951800.538     1520885.226
                         3.000
  21015764.131    21015763.610    21015760.676   -21731252.391 6 -16933435.987 7
        41.400          42.800
  23285927.688    23285926.062    23285925.045    -9199789.189 4  -7168664.442 4
        26.500          29.000
 09  1  8  0 16 30.0000000  0 10G21G22G 3G26G 9G15G 6G14G18G19
  21297630.161    21297629.212    21297627.586   -22411280.134 6 -17463326.618 5
        38.300          35.100
  21005568.931    21005568.398    21005565.271   -21784829.497 6 -16975184.368 7
        41.600          43.000
  22575350.526    22575349.589    22575349.666   -10398983.128 4  -8103100.897 4
        29.200          29.700
  24224710.761    24224709.944    24224710.037     -520886.580 1   -405875.416 2
        11.000          16.100
  22643213.521    22643212.695    22643212.546   -11559517.913 4  -9007411.114 4
        26.500          28.800
  22777808.146    22777807.969    22777806.471   -10883901.313 5  -8480950.708 5
        30.800          33.100
  22565555.054    22565554.372    22565553.854   -10836561.847 5  -8444070.070 5
        30.400          31.300
  24325875.673    24325874.956    24325873.720    -4691628.779 2  -3655812.783 3
        16.100          18.600
  20417030.813    20417029.973    20417027.769   -25885249.243 6 -20170314.142 7
        38.900          47.500
  23276986.523    23276984.867    23276983.732    -9246776.839 4  -7205278.185 4
        27.900          29.500
 09  1  8  0 17  0.0000000  0 10G21G22G 3G26G 9G15G 6G14G18G19
  21311258.203    21311257.489    21311255.745   -22339663.108 6 -17407521.143 5
        38.200          34.800
  20995433.126    20995432.589    20995429.369   -21838093.569 6 -17016688.831 7
        41.600          42.900
  22582195.488    22582194.798    22582194.631   -10363010.850 4  -8075070.555 4
        29.200          29.500
  24247713.270    24247712.962    24247712.227     -400008.965 1   -311685.060 2
        11.000          16.100
  22626644.742    22626643.909    22626643.616   -11646588.505 4  -9075258.316 4
        27.100          28.800
  22794369.974    22794369.966    22794368.570   -10796866.881 5  -8413131.665 5
        30.600          33.100
  22573636.771    22573636.331    22573636.059   -10794089.846 5  -8410975.004 5
        30.200          31.100
  24304486.112    24304484.816    24304483.082    -4804037.551 2  -3743404.004 3
        16.100          18.600
  20418145.944    20418145.084    20418143.917   -25879389.386 6 -20165748.016 7
        38.900          47.600
  23268143.178    23268141.727    23268140.175    -9293249.318 4  -7241490.495 5
        28.400          30.100
 09  1  8  0 17 30.0000000  0 10G21G 3G26G 9G15G 6G14G18G22G19
  21324973.090    21324972.191    21324970.576   -22267591.549 6 -17351361.499 5
        38.000          34.700
  22589152.543    22589151.990    22589152.000   -10326451.338 4  -8046582.627 4
        29.000          29.500
  24270750.005    24270749.769    24270748.954     -278950.933 1   -217354.110 2
        11.000          16.100
  22610167.277    22610166.765    22610166.543   -11733175.767 4  -9142728.878 4
        26.800          29.200
  22810996.336    22810996.163    22810994.675   -10709496.152 5  -8345050.580 5
        30.800          33.100
  22581820.829    22581820.128    22581819.596   -10751085.193 5  -8377464.886 5
        30.800          31.500
  24283124.107    24283122.544    24283121.315    -4916294.701 2  -3830877.059 3
        15.100          19.300
  20419340.828    20419339.962    20419337.652   -25873110.289 6 -20160855.212 7
        39.000          47.700
  20985364.996    20985364.524    20985361.610   -21891000.129 6 -17057914.710 7
        41.300          43.000
  23259406.765    23259405.061    23259403.317    -9339161.843 4  -7277266.475 4
        27.900          29.700
 09  1  8  0 18  0.0000000  0 10G21G 3G26G 9G15G 6G14G18G22G19
  21338770.356    21338769.516    21338767.791   -22195086.797 6 -17294864.298 5
        38.100          34.700
  22596217.265    22596216.515    22596216.621   -10289325.873 4  -8017653.688 4
        28.600          29.700
  24293816.597    24293815.601    24293815.002     -157735.344 1   -122900.405 2
         9.000          17.000
  22593779.299    22593778.708    22593778.290   -11819296.474 4  -9209835.890 4
        27.100          29.200
  22827682.499    22827682.079    22827680.771   -10621811.492 5  -8276724.871 5
        30.800          33.200
  22590101.449    22590100.763    22590100.541   -10707569.438 5  -8343556.496 5
        30.800          31.500
  24261787.266    24261786.058    24261785.128    -5028418.169 2  -3918245.949 3
        15.100          18.600
  20420611.591    20420610.794    20420609.632   -25866432.251 6 -20155651.544 7
        39.100          47.600
  20975361.585    20975361.121    20975358.097   -21943568.864 6 -17098877.348 7
        41.500          43.100
  23250773.067    23250771.451    23250769.210    -9384532.769 4  -7312620.422 4
        28.400          29.500
 09  1  8  0 18 30.0000000  0 10G21G 3G26G 9G15G 6G14G18G22G19
  21352648.896    21352648.074    21352646.264   -22122154.608 6 -17238034.031 5
        38.000          34.400
  22603388.671    22603387.828    22603387.876   -10251640.996 4  -7988288.867 5
        28.600          30.100
  24316911.070    24316910.517    24316909.774      -36369.634 1    -28329.740 3
         6.500          18.600
  22577479.872    22577479.217    22577478.533   -11904951.549 4  -9276580.071 4
        27.100          28.600
  22844426.525    22844426.464    22844424.663   -10533819.943 5  -8208160.029 5
        30.600          32.400
  22598478.273    22598477.648    22598477.320   -10663549.085 5  -8309254.926 5
        30.800          31.500
  24240474.581    24240474.507    24240473.132    -5140410.767 2  -4005512.872 2
        13.900          17.800
  20421957.344    20421956.534    20421954.284   -25859360.280 6 -20150140.916 7
        39.100          47.700
  20965421.903    20965421.370    20965418.312   -21995802.994 6 -17139579.258 7
        41.500          43.200
  23242241.745    23242239.938    23242237.863    -9429365.167 4  -7347554.743 4
        29.000          29.700
 09  1  8  0 19  0.0000000  0 11G21G 3G26G 9G15G 6G14G18G24G22G19
  21366608.422    21366607.529    21366605.575   -22048798.042 6 -17180873.080 5
        37.700          34.100
  22610666.318    22610665.228    22610665.161   -10213399.692 4  -7958490.448 5
        28.800          30.100
  24340033.428    24340033.332    24340032.406       85141.874 1     66354.540 3
         6.500          18.600
  22561269.386    22561268.680    22561267.693   -11990138.810 4  -9342959.736 4
        27.900          28.400
  22861228.422    22861228.245    22861226.562   -10445525.431 5  -8139359.104 5
        30.200          32.000
  22606950.275    22606949.608    22606949.582   -10619027.186 4  -8274562.532 5
        29.900          31.300
  24219188.100    24219188.651    24219186.823    -5252272.011 2  -4092677.449 2
        13.900          17.000
  20423377.958    20423377.080    20423375.847   -25851895.682 6 -20144324.341 8
        39.100          48.000
  25248410.281    25248408.854    25248408.707           -.2611          -.7211
                         3.000
  20955545.458    20955544.955    20955542.025   -22047703.401 6 -17180021.124 7
        41.500          43.200
  23233812.862    23233810.960    23233809.411    -9473658.890 4  -7382069.318 5
        28.800          30.200
 09  1  8  0 19 30.0000000  0 11G21G 3G26G 9G15G 6G14G18G24G22G19
  21380646.001    21380645.180    21380643.268   -21975028.997 6 -17123390.711 5
        37.800          33.800
  22618046.769    22618045.797    22618045.361   -10174614.234 4  -7928268.022 4
        29.000          29.500
  24363181.934    24363181.728    24363180.661      206785.947 1    161142.095 3
         9.000          19.900
  22545145.945    22545145.270    22545144.951   -12074865.816 4  -9408980.762 4
        27.600          28.600
  22878085.501    22878085.292    22878083.673   -10356940.485 4  -8070331.871 5
        29.500          31.500
  22615515.322    22615514.828    22615514.582   -10574016.229 5  -8239489.054 5
        30.100          31.000
  24197925.578    24197925.232    24197924.284    -5364010.167 2  -4179746.119 2
        15.100          17.000
  20424870.909    20424870.072    20424867.895   -25844049.190 6 -20138210.191 7
        39.100          47.700
  25269080.624    25269079.204    25269079.477      108625.502       84642.712

  20945730.826    20945730.367    20945727.260   -22099279.941 6 -17220210.627 7
        41.500          43.300
  23225484.738    23225482.920    23225481.463    -9517422.958 4  -7416171.181 5
        28.400          30.400
 09  1  8  0 20  0.0000000  0 10G21G 3G26G 9G15G 6G14G18G22G19
  21394762.840    21394761.913    21394760.037   -21900844.918 6 -17065584.941 5
        37.600          33.800
  22625531.204    22625530.453    22625529.964   -10135282.793 4  -7897620.143 4
        29.500          29.000
  24386355.944    24386355.936    24386353.939      328563.613 2    256033.766 3
        12.600          19.900
  22529111.880    22529111.283    22529110.879   -12159125.344 4  -9474637.500 4
        27.400          29.200
  22894998.211    22894998.038    22894996.243   -10268064.201 4  -8001077.623 5
        29.200          31.600
  22624174.485    22624173.872    22624173.646   -10528514.034 4  -8204032.802 5
        29.700          31.000
  24176686.260    24176685.784    24176685.521    -5475619.444 2  -4266714.347 2
        15.100          16.100
  20426437.440    20426436.637    20426435.549   -25835816.803 6 -20131795.339 7
        39.100          47.700
  20935978.581    20935978.095    20935975.096   -22150528.104 6 -17260144.254 7
        41.500          43.400
  23217258.181    23217256.411    23217255.021    -9560652.086 4  -7449856.208 5
        28.100          30.100
 09  1  8  0 20 30.0000000  0 10G21G 3G26G 9G15G 6G14G18G22G19
  21408958.031    21408957.260    21408955.572   -21826246.894 6 -17007456.618 5
        37.200          33.600
  22633119.218    22633118.377    22633117.978   -10095406.409 4  -7866547.642 4
        28.600          28.800
  24409554.739    24409554.157    24409552.862      450472.437 2    351027.654 3
        15.100          19.900
  22513167.775    22513167.053    22513166.361   -12242913.134 4  -9539926.655 4
        28.100          29.200
  22911966.185    22911965.914    22911964.206   -10178898.081 4  -7931597.521 5
        29.500          32.000
  22632926.331    22632925.589    22632925.430   -10482521.844 4  -8168194.736 5
        29.500          30.800
  24155472.444    24155472.091    24155471.647    -5587097.468 2  -4353580.320 2
        15.100          15.100
  20428077.584    20428076.765    20428074.577   -25827198.158 6 -20125079.512 8
        39.200          48.000
  20926289.147    20926288.619    20926285.589   -22201446.299 6 -17299820.763 7
        41.400          43.500
  23209133.955    23209132.573    23209130.781    -9603344.562 4  -7483123.061 5
        28.400          30.100
 09  1  8  0 21  0.0000000  0 10G21G 3G26G 9G15G 6G14G18G22G19
  21423233.692    21423232.820    21423230.834   -21751229.556 6 -16949001.555 5
        37.500          33.400
  22640812.041    22640811.249    22640811.039   -10054980.257 4  -7835046.742 4
        28.800          29.000
  24432778.554    24432777.845    24432777.176      572516.652 2    446127.028 3
        12.600          19.300
  22497315.205    22497314.499    22497313.796   -12326219.088 4  -9604840.361 4
        28.100          29.200
  22928989.581    22928989.333    22928987.776   -10089437.735 4  -7861888.158 5
        28.600          32.100
  22641772.615    22641772.093    22641771.644   -10436034.713 4  -8131970.999 5
        29.700          30.800
  24134286.548    24134285.410    24134283.878    -5698435.574 2  -4440337.259 2
        16.100          16.100
  20429792.251    20429791.513    20429790.430   -25818186.764 6 -20118057.642 7
        39.100          47.700
  20916663.995    20916663.466    20916660.389   -22252027.120 6 -17339234.382 7
        41.400          43.500
  23201113.811    23201112.301    23201110.654    -9645491.648 4  -7515964.932 5
        28.100          30.200
 09  1  8  0 21 30.0000000  0 10G21G 3G26G 9G15G 6G14G18G22G19
  21437589.320    21437588.392    21437586.595   -21675790.296 6 -16890217.723 5
        37.300          33.400
  22648610.321    22648609.428    22648609.094   -10014001.467 4  -7803115.222 4
        28.800          29.200
  24456028.682    24456027.866    24456027.435      694697.426 2    541332.817 2
        12.600          17.800
  22481555.569    22481554.523    22481554.186   -12409036.425 4  -9669373.333 4
        28.400          29.700
  22946069.798    22946069.376    22946067.824    -9999681.697 4  -7791948.395 5
        28.600          32.100
  22650713.467    22650712.983    22650712.669   -10389050.589 4  -8095359.987 5
        29.500          31.000
  24113127.439    24113126.153    24113124.586    -5809627.880 2  -4526980.597 2
        16.100          15.100
  20431582.625    20431581.812    20431579.658   -25808778.902 6 -20110726.839 8
        39.200          48.000
  20907103.704    20907103.250    20907100.314   -22302265.701 6 -17378381.320 7
        41.400          43.700
  23193198.678    23193196.939    23193195.064    -9687088.136 4  -7548377.776 5
        28.400          30.200
 09  1  8  0 22  0.0000000  0 10G21G 3G26G 9G15G 6G14G18G22G19
  21452026.032    21452025.195    21452023.258   -21599924.773 6 -16831101.734 5
        37.200          33.100
  22656513.905    22656513.102    22656512.694    -9972467.026 4  -7770750.720 4
        28.600          29.000
  24479305.257    24479304.357    24479304.554      817017.886 1    636647.438 2
         9.000          17.000
  22465890.779    22465889.965    22465889.316   -12491355.673 4  -9733518.174 4
        28.600          29.700
  22963207.104    22963206.603    22963204.613    -9909626.520 4  -7721775.529 5
        28.800          31.500
  22659749.171    22659748.669    22659748.664   -10341565.511 4  -8058358.632 5
        28.800          31.000
  24091997.365    24091996.639    24091995.505    -5920666.368 2  -4613504.085 2
        16.100          16.100
  20433449.454    20433448.643    20433447.495   -25798968.800 6 -20103082.597 8
        39.300          48.000
  20897610.078    20897609.561    20897606.705   -22352155.515 6 -17417256.493 7
        41.300          43.900
  23185388.761    23185387.119    23185385.604    -9728126.949 4  -7580356.068 5
        27.900          30.100
 09  1  8  0 22 30.0000000  0 10G21G 3G26G 9G15G 6G14G18G22G19
  21466542.045    21466541.259    21466539.479   -21523641.844 6 -16771660.500 5
        37.000          33.200
  22664521.560    22664520.863    22664520.707    -9930385.382 4  -7737959.834 4
        28.600          29.000
  24502606.002    24502605.336    24502605.947      939467.819 1    732062.959 2
         9.000          15.100
  22450319.573    22450318.812    22450318.413   -12573180.631 4  -9797277.857 4
        27.900          29.200
  22980398.957    22980398.410    22980396.692    -9819281.861 4  -7651377.091 5
        28.600          31.000
  22668879.091    22668878.436    22668878.541   -10293588.455 4  -8020973.921 5
        28.800          30.800
