     2.11           OBSERVATION DATA    G (GPS)             RINEX VERSION / TYPE
teqc  2008Oct2      WCDA Operator       20090116 00:18:48UTCPGM / RUN BY / DATE
Solaris x86 5.10|AMD64|cc SC5.8 -xarch=amd64|=+|=+          COMMENT
teqc  2008Oct2      WCDA Operator       20090115 02:18:36UTCCOMMENT
flin  WCDA-ACP   965000   CFS Flin Flon SASK Canada         MARKER NAME
40135M001                                                   MARKER NUMBER
PGC-WCDA            GEOL. SURV. CANADA                      OBSERVER / AGENCY
1115                AOA BENCHMARK ACT   3.3.32.4            REC # / TYPE / VERS
231                 AOAD/M_T        SCIS                    ANT # / TYPE
  -766174.4630 -3611375.3160  5184056.2210                  APPROX POSITION XYZ
        0.1500        0.0000        0.0000                  ANTENNA: DELTA H/E/N
     1     1                                                WAVELENGTH FACT L1/2
     7    C1    P1    P2    L1    L2    S1    S2            # / TYPES OF OBSERV
STATION INFORMATION EFFECTIVE FROM: 2001/01/13 18:20:00     COMMENT
                                TO: CURRENT DATE (above)    COMMENT
BIT 2 OF LLI FLAGS (+4) DATA COLLECTED UNDER 'AS' CONDITION COMMENT
L1 PHASE CENTRE 0.110m ABOVE ARP                            COMMENT
L2 PHASE CENTRE 0.128m ABOVE ARP                            COMMENT
where ARP is the Antenna Reference Point for HI measurement COMMENT
CONTACT gps@pgc.nrcan.gc.ca FOR ADDITIONAL INFORMATION      COMMENT
    P1 =    P1  TurboRogue; =    Y1  Benchmark              COMMENT
    L1 = L1(CA)                                             COMMENT
    P2 =    P2  TurboRogue; =    Y2  Benchmark              COMMENT
    L2 = L2(P2) TurboRogue; = L2(Y2) Benchmark              COMMENT
 SNR is mapped to RINEX snr flag value [0-9]                COMMENT
  L1 & L2: min(max(int(snr_dBHz/6), 0), 9)                  COMMENT
  2009     1    15     0     0    0.0000000     GPS         TIME OF FIRST OBS
                                                            END OF HEADER
 09  1 15  0  0  0.0000000  0 10G26G 9G 6G21G14G15G 3G18G22G19
  24797345.474    24797344.358    24797344.048     2428925.038     1892678.242 2
                        12.600
  22265731.687    22265730.892    22265730.303   -13495660.536 4 -10516092.996 5
        29.900          30.400
  22789891.724    22789891.083    22789891.422   -10065907.496 4  -7843560.031 5
        28.600          30.600
  21660246.546    21660245.754    21660244.302   -20514385.671 5 -15985227.930 5
        35.500          32.000
  23783862.629    23783861.849    23783861.466    -7806521.313 3  -6083000.750 3
        19.300          21.600
  23216945.649    23216945.450    23216943.839    -8458702.965 4  -6591187.174 5
        28.100          31.300
  22768413.878    22768412.856    22768413.080    -8417151.904 4  -6558816.224 4
        27.900          28.800
  20460717.402    20460716.529    20460715.187   -25853619.017 6 -20145667.044 8
        39.900          49.200
  20776504.519    20776503.959    20776500.994   -22955313.304 7 -17887248.956 7
        42.300          45.400
  23103319.787    23103318.195    23103316.369    -9963372.234 4  -7763663.547 4
        29.500          29.000
 09  1 15  0  0 30.0000000  0 10G26G 9G 6G21G14G15G 3G18G22G19
  24820922.264    24820921.811    24820921.216     2552827.399     1989225.509 2
         3.000          12.600
  22251474.037    22251473.150    22251473.078   -13570583.338 4 -10574474.372 5
        29.700          30.800
  22800198.106    22800197.414    22800197.580   -10011748.327 4  -7801358.091 5
        28.600          30.200
  21675810.833    21675809.880    21675808.411   -20432596.247 5 -15921495.919 5
        35.500          32.100
  23763193.209    23763192.862    23763192.478    -7915138.362 3  -6167637.380 3
        19.300          21.100
  23234866.842    23234866.294    23234864.576    -8364528.467 4  -6517804.433 5
        27.900          30.600
  22777720.515    22777719.487    22777719.787    -8368245.607 4  -6520707.420 4
        27.900          29.200
  20463547.570    20463546.687    20463545.096   -25838746.030 6 -20134077.698 8
        39.800          49.200
  20767946.485    20767945.946    20767943.077   -23000285.324 7 -17922292.085 7
        42.200          45.400
  23096923.490    23096921.779    23096920.335    -9996985.465 4  -7789855.677 4
        29.200          29.500
 09  1 15  0  1  0.0000000  0 10G26G 9G 6G21G14G15G 3G18G22G19
  24844518.504    24844517.662    24844519.236     2676831.951     2085852.386 2
         3.000          13.900
  22237321.483    22237320.970    22237320.681   -13644954.338 4 -10632425.773 5
        29.700          31.000
  22810594.354    22810593.746    22810594.108    -9957113.973 4  -7758785.878 5
        28.100          30.100
  21691451.750    21691450.999    21691449.441   -20350401.542 5 -15857448.106 5
        35.400          31.600
  23742560.486    23742560.048    23742559.761    -8023565.207 3  -6252125.777 3
        19.300          21.100
  23252837.856    23252837.607    23252835.804    -8270088.734 4  -6444215.030 5
        27.400          30.200
  22787128.033    22787127.230    22787127.372    -8318808.609 4  -6482185.079 4
        28.100          29.000
  20466454.657    20466453.808    20466452.572   -25823468.865 6 -20122173.407 8
        39.900          49.200
  20759457.919    20759457.393    20759454.484   -23044892.941 7 -17957051.264 7
        42.300          45.500
  23090637.711    23090636.012    23090633.986   -10030018.590 4  -7815595.771 4
        29.200          29.700
 09  1 15  0  1 30.0000000  0 11G28G26G 9G 6G21G14G15G 3G18G22G19
  25643661.617    25643661.866    25643660.447           -.2411           .42511
         3.000           9.000
  24868133.178    24868132.123    24868134.848     2800926.336     2182549.260 2
         3.000          13.900
  22223273.114    22223272.263    22223272.220   -13718780.856 5 -10689952.906 5
        30.100          31.800
  22821079.092    22821078.556    22821078.829    -9902016.401 4  -7715852.720 5
        27.600          30.100
  21707167.923    21707167.031    21707165.477   -20267812.990 5 -15793093.399 5
        35.100          31.600
  23721962.485    23721961.337    23721961.462    -8131809.784 3  -6336472.138 3
        18.600          21.100
  23270857.183    23270856.724    23270855.234    -8175396.563 4  -6370428.911 5
        26.800          30.400
  22796634.596    22796633.537    22796633.616    -8268852.472 4  -6443258.227 4
        27.900          29.200
  20469436.661    20469435.833    20469434.189   -25807798.499 6 -20109962.733 8
        40.000          49.200
  20751037.015    20751036.479    20751033.566   -23089145.264 7 -17991533.590 7
        42.300          45.600
  23084459.899    23084458.233    23084456.711   -10062480.312 4  -7840890.615 4
        28.600          29.900
 09  1 15  0  2  0.0000000  0 11G28G26G 9G 6G21G14G15G 3G18G22G19
  25637578.026    25637577.088    25637573.256      -31969.546      -24910.800
         3.000           3.000
  24891761.178    24891760.832    24891761.652     2925088.660     2279299.098 2
                        12.600
  22209325.114    22209324.193    22209324.063   -13792078.838 5 -10747068.187 5
        30.100          32.000
  22831647.755    22831647.236    22831647.342    -9846477.114 4  -7672575.364 4
        28.100          29.200
  21722954.847    21722954.065    21722952.596   -20184851.624 5 -15728448.188 5
        34.900          31.600
  23701395.446    23701394.452    23701394.498    -8239889.523 3  -6420690.067 3
        18.600          21.100
  23288920.070    23288919.725    23288918.380    -8080473.574 4  -6296462.942 5
        25.900          30.200
  22806235.208    22806234.230    22806234.602    -8218398.964 4  -6403943.806 4
        27.400          29.200
  20472489.930    20472489.072    20472487.681   -25791753.767 6 -20097460.335 8
        40.200          49.300
  20742680.090    20742679.574    20742676.829   -23133060.633 7 -18025753.354 7
        42.300          45.700
  23078387.954    23078386.349    23078384.668   -10094388.704 4  -7865754.287 5
        28.800          30.100
 09  1 15  0  2 30.0000000  0 11G28G26G 9G 6G21G14G15G 3G18G22G19
  25631583.547    25631582.068    25631582.533      -63468.806      -49455.755
                         3.000
  24915402.240    24915402.513    24915403.906     3049328.941     2376109.680 1
                        11.000
  22195480.471    22195479.541    22195479.395   -13864832.183 5 -10803759.085 5
        30.200          31.500
  22842302.795    22842302.057    22842302.329    -9790485.357 4  -7628945.422 4
        27.600          29.200
  21738814.866    21738814.046    21738812.722   -20101506.172 5 -15663503.687 5
        34.800          31.300
  23680862.793    23680861.919    23680861.891    -8347789.725 3  -6504768.081 3
        18.600          21.100
  23307028.693    23307028.588    23307027.750    -7985308.674 4  -6222308.467 4
        25.300          29.900
  22815932.962    22815932.142    22815932.201    -8167437.548 4  -6364233.622 4
        27.600          29.200
  20475616.519    20475615.817    20475614.314   -25775322.066 6 -20084656.409 8
        40.000          49.300
  20734390.180    20734389.526    20734386.641   -23176625.514 7 -18059700.009 7
        42.400          45.700
  23072424.119    23072422.488    23072420.697   -10125730.193 5  -7890176.223 5
        30.200          30.100
 09  1 15  0  3  0.0000000  0 11G28G26G 9G 6G21G14G15G 3G18G22G19
  25625683.318    25625681.335    25625681.243      -94490.207      -73628.193 1
         3.000           6.500
  24939058.611    24939060.507    24939063.033     3173651.686     2472984.468 1
                         9.000
  22181741.200    22181740.609    22181740.216   -13937030.990 5 -10860017.872 5
        30.600          31.500
  22853044.874    22853044.261    22853044.345    -9734036.529 4  -7584959.333 4
        27.900          29.500
  21754749.231    21754748.380    21754746.899   -20017771.206 5 -15598255.670 5
        34.700          31.100
  23660366.238    23660364.950    23660364.750    -8455501.297 3  -6588699.106 3
        19.900          21.600
  23325184.726    23325184.797    23325183.855    -7889897.704 4  -6147962.252 5
        25.300          30.100
  22825728.008    22825727.300    22825727.603    -8115963.252 4  -6324123.785 4
        27.600          28.800
  20478818.435    20478817.587    20478816.178   -25758497.166 6 -20071546.089 8
        40.100          49.300
  20726168.152    20726167.542    20726164.588   -23219832.611 7 -18093367.870 7
        42.400          45.800
  23066569.263    23066567.712    23066566.191   -10156496.719 5  -7914150.138 5
        30.400          30.600
 09  1 15  0  3 30.0000000  0 11G28G26G 9G 6G21G14G15G 3G18G22G19
  25619868.576    25619863.321    25619867.070     -125037.149      -97430.026
                         3.000
  24962732.074    24962732.850    24962733.125     3298049.546     2569917.811 1
                        11.000
  22168107.440    22168106.719    22168106.064   -14008677.235 5 -10915846.090 5
        30.200          31.300
  22863872.271    22863871.629    22863871.930    -9677137.333 4  -7540622.303 4
        27.400          29.700
  21770756.594    21770755.774    21770754.160   -19933653.429 5 -15532709.358 5
        34.900          31.100
  23639904.387    23639903.415    23639902.953    -8563027.065 3  -6672485.354 3
        19.900          21.600
  23343386.904    23343386.613    23343385.074    -7794247.678 4  -6073429.762 4
        25.900          29.500
  22835619.512    22835618.673    22835618.947    -8063982.967 4  -6283619.673 4
        27.900          28.400
  20482094.012    20482093.150    20482091.581   -25741284.045 6 -20058133.264 8
        40.200          49.300
  20718013.181    20718012.762    20718009.906   -23262685.791 7 -18126759.952 7
        42.400          45.900
  23060823.656    23060821.869    23060820.114   -10186692.103 5  -7937679.001 5
        30.400          31.000
 09  1 15  0  4  0.0000000  0 11G28G26G 9G 6G21G14G15G 3G18G22G19
  25614146.858    25614146.480    25614140.172     -155110.166     -120863.699 1
                         6.500
  24986420.675    24986420.543    24986420.151     3422518.527     2666906.576 1
                        11.000
  22154578.986    22154578.305    22154577.835   -14079769.495 5 -10971242.630 5
        30.600          31.500
  22874784.934    22874784.211    22874784.299    -9619791.863 4  -7495937.532 4
        27.400          29.500
  21786835.797    21786834.912    21786833.497   -19849156.033 5 -15466867.239 5
        34.600          31.000
  23619478.068    23619476.838    23619476.919    -8670367.073 3  -6756126.848 3
        19.900          22.600
  23361632.791    23361632.498    23361631.376    -7698362.678 4  -5998714.173 4
        25.300          29.200
  22845606.700    22845605.777    22845606.053    -8011500.992 4  -6242724.633 4
        27.900          28.600
  20485443.076    20485442.256    20485440.741   -25723684.132 6 -20044419.039 8
        40.200          49.200
  20709925.773    20709925.195    20709922.362   -23305186.021 7 -18159877.011 7
        42.400          45.900
  23055185.975    23055184.315    23055182.705   -10216317.019 5  -7960763.346 5
        30.100          31.000
 09  1 15  0  4 30.0000000  0 11G28G26G 9G 6G21G14G15G 3G18G22G19
  25608512.857    25608511.883    25608514.931     -184706.593     -143927.846 1
                         6.500
  25010122.329    25010119.827    25010117.221     3547057.640     2763949.970 1
                        11.000
  22141157.054    22141156.366    22141155.861   -14150302.829 5 -11026203.644 5
        31.000          31.300
  22885782.002    22885781.387    22885781.709    -9562000.500 4  -7450905.310 4
        26.800          29.700
  21802987.220    21802986.312    21802984.949   -19764279.326 5 -15400729.552 5
        34.100          30.800
  23599087.764    23599086.956    23599086.630    -8777517.962 3  -6839620.981 3
        20.500          22.100
  23379923.200    23379923.501    23379922.149    -7602243.488 4  -5923816.096 4
        25.900          28.800
  22855689.291    22855688.178    22855688.390    -7958517.316 4  -6201438.652 4
        27.400          28.400
  20488866.141    20488865.289    20488863.732   -25705696.182 6 -20030402.450 8
        40.200          49.200
  20701905.871    20701905.287    20701902.444   -23347330.862 7 -18192717.138 7
        42.400          46.000
  23049657.286    23049655.673    23049654.510   -10245368.704 5  -7983401.031 5
        30.100          31.100
 09  1 15  0  5  0.0000000  0 11G28G26G 9G 6G21G14G15G 3G18G22G19
  25602972.887    25602973.096    25602968.363     -213822.907     -166617.844 1
                         9.000
  25033837.601    25033835.990    25033829.385     3671666.244     2861047.522 1
                        11.000
  22127842.296    22127841.621    22127840.897   -14220272.539 5 -11080725.491 5
        31.300          31.300
  22896864.019    22896863.520    22896863.831    -9503763.671 4  -7405525.967 4
        26.800          29.500
  21819210.961    21819210.046    21819208.402   -19679023.117 5 -15334296.153 5
        34.000          30.600
  23578733.927    23578733.755    23578733.193    -8884475.491 3  -6922964.464 3
        20.500          22.600
  23398259.276    23398259.116    23398257.348    -7505890.437 4  -5848735.795 4
        25.600          28.100
  22865866.754    22865866.015    22865866.147    -7905032.481 4  -6159762.169 4
        27.100          27.900
  20492363.152    20492362.302    20492360.869   -25687318.691 6 -20016082.326 8
        40.200          49.200
  20693954.142    20693953.530    20693950.569   -23389117.994 7 -18225278.528 7
        42.500          46.100
  23044238.787    23044237.177    23044235.830   -10273844.125 5  -8005589.664 5
        30.400          31.300
 09  1 15  0  5 30.0000000  0 11G28G26G 9G 6G21G14G15G 3G18G22G19
  25597523.278    25597522.198    25597521.594     -242462.348     -188934.353 1
                         9.000
  25057558.643    25057556.906    25057552.947     3796337.397     2958193.888 1
                         9.000
  22114634.222    22114633.612    22114633.148   -14289680.299 5 -11134809.442 5
        30.800          31.800
  22908029.599    22908028.911    22908029.382    -9445088.059 4  -7359804.735 4
        26.200          29.200
  21835505.745    21835504.894    21835503.391   -19593393.447 5 -15267571.742 5
        34.100          30.800
  23558416.855    23558416.127    23558416.343    -8991242.387 3  -7006159.388 3
        20.500          22.600
  23416637.374    23416637.441    23416635.882    -7409310.196 4  -5773478.449 4
        24.900          27.600
  22876138.665    22876137.786    22876138.149    -7851053.568 4  -6117700.684 4
        27.400          28.100
  20495933.563    20495932.724    20495931.144   -25668556.511 6 -20001462.438 8
        40.200          49.100
  20686069.445    20686068.938    20686066.096   -23430551.326 7 -18257564.227 7
        42.400          46.300
  23038929.121    23038927.509    23038925.703   -10301747.125 5  -8027332.261 5
        30.800          31.000
 09  1 15  0  6  0.0000000  0 11G28G26G 9G 6G21G14G15G 3G18G22G19
  25592162.124    25592161.896    25592160.409     -270629.591     -210882.885
         3.000           3.000
  25081290.049    25081292.934    25081286.421     3921063.479     3055383.033 1
                         6.500
  22101533.216    22101532.507    22101531.982   -14358528.287 5 -11188457.199 5
        31.500          32.300
  22919277.461    22919276.857    22919277.175    -9385981.149 4  -7313747.411 4
        26.500          29.200
  21851870.242    21851869.375    21851867.875   -19507397.601 5 -15200562.002 5
        34.000          30.800
  23538135.634    23538134.947    23538134.766    -9097822.051 3  -7089208.420 3
        21.100          22.600
  23435058.478    23435058.196    23435056.607    -7312510.361 4  -5698049.986 4
        25.300          27.900
  22886503.401    22886502.602    22886502.899    -7796587.828 4  -6075259.853 4
        27.600          28.400
  20499576.105    20499575.234    20499573.722   -25649414.791 6 -19986546.803 8
        40.300          49.100
  20678251.603    20678251.048    20678248.180   -23471634.934 7 -18289577.414 7
        42.500          46.400
  23033727.840    23033725.884    23033724.164   -10329081.957 5  -8048632.127 5
        30.600          31.000
 09  1 15  0  6 30.0000000  0 11G28G26G 9G 6G21G14G15G 3G18G22G19
  25586893.650    25586892.187    25586890.809     -298312.555     -232454.074
                         3.000
  25105034.999    25105038.102    25105034.293     4045852.430     3152621.180
                         3.000
  22088540.855    22088540.165    22088539.531   -14426803.008 5 -11241658.261 5
        31.300          32.100
  22930608.419    22930608.035    22930608.521    -9326434.621 4  -7267347.531 4
        26.800          29.200
  21868306.172    21868305.315    21868303.586   -19421026.380 5 -15133259.761 5
        33.800          30.100
  23517892.615    23517891.550    23517890.977    -9204202.089 3  -7172101.910 3
        20.500          22.100
  23453522.714    23453521.902    23453520.408    -7215482.436 4  -5622443.799 4
        25.600          28.100
  22896962.271    22896961.248    22896961.205    -7741626.877 4  -6032433.139 4
        26.800          27.900
  20503292.763    20503291.907    20503290.388   -25629883.587 6 -19971327.677 8
        40.300          49.000
  20670502.327    20670501.733    20670498.889   -23512357.581 7 -18321309.336 7
        42.500          46.400
  23028636.229    23028634.361    23028633.078   -10355837.168 5  -8069480.336 5
        30.600          31.500
 09  1 15  0  7  0.0000000  0 11G28G26G 9G 6G21G14G15G 3G18G22G19
  25581722.023    25581720.852    25581719.984     -325506.689 1   -253644.284 2
        11.000          12.600
  25128793.787    25128794.278    25128792.603     4170705.179     3249909.016
                         3.000
  22075658.647    22075657.948    22075657.633   -14494498.110 5 -11294407.677 5
        31.300          32.400
  22942024.079    22942023.325    22942023.619    -9266447.341 4  -7220604.203 4
        26.800          28.800
  21884813.525    21884812.741    21884811.277   -19334278.367 5 -15065663.915 4
        33.600          29.900
  23497687.972    23497687.024    23497686.686    -9310377.000 3  -7254835.550 3
        21.100          22.100
  23472029.588    23472029.390    23472027.738    -7118225.573 4  -5546659.212 4
        25.900          27.900
  22907514.947    22907514.097    22907514.562    -7686170.090 4  -5989220.076 4
        26.500          28.100
  20507084.110    20507083.273    20507081.709   -25609959.697 6 -19955802.561 8
        40.300          49.000
  20662822.462    20662821.875    20662819.047   -23552715.260 7 -18352756.871 7
        42.400          46.400
  23023656.005    23023654.314    23023652.770   -10382008.339 5  -8089873.452 5
        30.600          31.300
 09  1 15  0  7 30.0000000  0 10G28G 9G 6G21G14G15G 3G18G22G19
  25576633.938    25576635.597    25576632.743     -352222.388     -274461.773 1
                         6.500
  22062885.365    22062884.901    22062884.283   -14561621.963 5 -11346711.956 5
        31.600          32.400
  22953520.518    22953520.070    22953520.286    -9206032.991 4  -7173528.092 4
        27.600          28.600
  21901390.410    21901389.690    21901388.225   -19247166.472 5 -14997784.527 4
        33.400          29.700
  23477520.517    23477519.916    23477519.225    -9416356.323 3  -7337416.812 3
        21.600          22.100
  23490577.962    23490577.462    23490576.149    -7020753.485 4  -5470706.923 4
        24.600          28.100
  22918159.859    22918158.954    22918159.516    -7630230.899 4  -5945631.103 4
        26.200          28.400
  20510948.095    20510947.207    20510945.723   -25589654.525 6 -19939980.340 8
        40.300          48.900
  20655209.963    20655209.434    20655206.554   -23592718.855 7 -18383928.498 7
        42.400          46.400
  23018785.074    23018783.062    23018781.470   -10407606.166 5  -8109819.805 5
        30.800          31.100
 09  1 15  0  8  0.0000000  0 10G28G 9G 6G21G14G15G 3G18G22G19
  25571641.962    25571641.557    25571641.276     -378461.925     -294908.213
         3.000           3.000
  22050220.891    22050220.222    22050219.671   -14628174.465 5 -11398571.034 5
        32.300          32.300
  22965097.445    22965096.790    22965096.630    -9145196.615 4  -7126123.126 4
        27.400          27.900
  21918035.404    21918034.732    21918033.467   -19159695.574 5 -14929625.392 4
        33.100          29.700
  23457390.535    23457389.389    23457389.201    -9522141.054 3  -7419846.428 3
        21.600          21.600
  23509165.475    23509165.764    23509164.644    -6923071.462 3  -5394591.059 4
        23.400          28.600
  22928895.601    22928894.713    22928895.052    -7573814.293 4  -5901670.122 4
        26.500          28.100
  20514883.962    20514883.089    20514881.562   -25568971.319 6 -19923863.548 8
        40.300          48.900
  20647664.639    20647664.076    20647661.097   -23632370.435 7 -18414825.824 7
        42.500          46.500
  23014022.531    23014020.838    23014019.288   -10432632.732 5  -8129321.026 5
        31.000          31.300
 09  1 15  0  8 30.0000000  0 10G28G 9G 6G21G14G15G 3G18G22G19
  25566745.607    25566744.728    25566743.427     -404202.551     -314965.934 1
         3.000           9.000
  22037669.773    22037669.001    22037668.300   -14694132.234 5 -11449966.689 5
        32.300          32.400
  22976758.027    22976757.383    22976757.286    -9083919.728 4  -7078374.902 4
        27.600          27.600
  21934752.731    21934752.002    21934750.485   -19071846.456 5 -14861171.544 4
        33.200          29.500
  23437301.197    23437300.611    23437300.371    -9627708.513 3  -7502106.734 3
        21.600          22.100
  23527797.617    23527797.652    23527796.094    -6825160.566 3  -5318296.842 4
        23.800          28.600
  22939725.622    22939724.717    22939725.300    -7516901.851 4  -5857322.769 4
        25.900          28.600
  20518895.602    20518894.783    20518893.270   -25547889.484 6 -19907436.128 8
        40.400          48.800
  20640190.285    20640189.697    20640186.783   -23671648.371 7 -18445431.999 7
        42.400          46.600
  23009372.997    23009371.281    23009369.713   -10457066.290 5  -8148360.169 5
        31.000          31.300
 09  1 15  0  9  0.0000000  0 10G28G 9G 6G21G14G15G 3G18G22G19
  25561938.438    25561936.423    25561938.273     -429446.201     -334636.414 1
                         6.500
  22025231.797    22025231.125    22025230.410   -14759494.840 5 -11500898.569 5
        32.600          33.000
  22988501.653    22988500.947    22988500.748    -9022207.324 4  -7030287.316 4
        27.100          27.600
  21951541.320    21951540.438    21951538.834   -18983623.216 5 -14792426.180 4
        33.400          29.500
  23417253.646    23417253.099    23417252.423    -9733059.465 3  -7584198.330 3
        22.600          22.600
  23546472.442    23546472.403    23546470.517    -6727025.501 4  -5241827.958 4
        24.600          27.600
  22950649.298    22950648.486    22950648.546    -7459498.723 4  -5812593.072 4
        26.500          28.100
  20522982.718    20522981.876    20522980.334   -25526411.765 6 -19890700.227 8
        40.300          48.700
  20632786.659    20632786.100    20632783.276   -23710554.421 7 -18475748.386 7
        42.400          46.800
  23004835.841    23004834.144    23004832.654   -10480908.294 5  -8166938.351 5
        30.600          31.300
 09  1 15  0  9 30.0000000  0 10G28G 9G 6G21G14G15G 3G18G22G19
  25557231.308    25557229.759    25557228.752     -454203.023     -353927.459 1
         3.000           9.000
  22012905.219    22012904.480    22012903.950   -14824271.266 5 -11551373.688 5
        32.600          33.100
  23000324.951    23000324.225    23000324.617    -8960073.450 4  -6981871.316 4
        26.800          27.600
  21968398.233    21968397.351    21968395.636   -18895039.626 5 -14723400.011 4
        33.000          29.200
  23397245.766    23397245.168    23397243.875    -9838203.667 3  -7666128.837 3
        23.000          22.600
  23565187.748    23565187.090    23565185.015    -6628680.586 4  -5165195.546 4
        24.600          27.400
  22961663.263    22961662.346    22961662.963    -7401619.012 4  -5767492.008 4
        25.900          28.600
  20527142.747    20527141.942    20527140.352   -25504550.567 6 -19873665.512 8
        40.500          48.700
  20625451.654    20625451.127    20625448.251   -23749099.904 7 -18505783.815 7
        42.500          46.800
  23000409.366    23000407.727    23000406.354   -10504169.623 5  -8185064.066 5
        30.800          31.500
 09  1 15  0 10  0.0000000  0 10G28G 9G 6G21G14G15G 3G18G22G19
  25552609.186    25552612.060    25552608.260     -478475.035     -372840.647 1
                         9.000
  22000689.978    22000689.310    22000689.078   -14888461.031 5 -11601391.670 5
        32.400          33.200
  23012228.147    23012227.546    23012227.766    -8897522.613 4  -6933130.411 4
        26.500          28.100
  21985323.175    21985322.156    21985320.231   -18806100.026 5 -14654096.440 4
        32.800          29.000
  23377277.099    23377276.186    23377275.113    -9943141.402 3  -7747898.461 3
        23.000          23.000
  23583941.115    23583940.424    23583938.806    -6530130.552 4  -5088403.311 4
        24.200          27.400
  22972767.483    22972766.743    22972767.127    -7343266.959 4  -5722022.901 4
        26.200          28.400
  20531375.430    20531374.508    20531372.941   -25482308.121 6 -19856333.725 8
        40.600          48.600
  20618185.096    20618184.548    20618181.519   -23787286.196 7 -18535539.349 7
        42.600          46.800
  22996093.176    22996091.358    22996090.167   -10526852.371 5  -8202738.938 5
        31.000          31.500
 09  1 15  0 10 30.0000000  0 10G28G 9G 6G21G14G15G 3G18G22G19
  25548083.577    25548083.038    25548082.007     -502266.709     -391379.827 2
         3.000          13.900
  21988586.351    21988585.506    21988585.270   -14952066.731 5 -11650954.535 5
        32.400          33.400
  23024209.207    23024208.559    23024208.475    -8834562.671 4  -6884070.720 4
        26.200          27.900
  22002313.941    22002313.094    22002311.291   -18716811.335 5 -14584520.846 4
        32.700          29.000
  23357346.948    23357345.892    23357344.807   -10047876.149 3  -7829509.907 3
        22.600          23.400
  23602732.036    23602731.412    23602730.177    -6431383.071 4  -5011457.217 4
        24.200          27.900
  22983959.724    22983958.723    22983959.229    -7284450.792 4  -5676192.132 4
        25.900          28.100
  20535679.458    20535678.575    20535677.018   -25459690.216 6 -19838709.374 8
        40.600          48.500
  20610985.733    20610985.231    20610982.380   -23825118.225 7 -18565018.835 7
        42.500          46.900
  22991886.026    22991884.252    22991882.660   -10548961.212 5  -8219966.610 5
        31.000          31.100
 09  1 15  0 11  0.0000000  0 10G28G 9G 6G21G14G15G 3G18G22G19
  25543651.777    25543650.247    25543648.872     -525567.812 1   -409536.681 2
         6.500          16.100
  21976595.853    21976595.151    21976594.661   -15015076.713 5 -11700053.202 5
        32.700          33.200
  23036269.126    23036268.372    23036268.522    -8771187.159 4  -6834687.216 4
        25.600          28.400
  22019372.509    22019371.770    22019370.028   -18627167.008 5 -14514668.139 4
        32.600          28.800
  23337456.907    23337456.028    23337455.320   -10152397.654 3  -7910955.179 3
        23.000          23.800
  23621561.736    23621561.273    23621560.037    -6332431.257 3  -4934351.914 4
        23.800          28.100
  22995242.042    22995240.873    22995241.179    -7225163.892 4  -5629994.569 4
        25.900          28.100
  20540056.555    20540055.734    20540054.128   -25436688.460 6 -19820785.921 8
        40.700          48.600
  20603855.697    20603855.134    20603852.384   -23862586.685 7 -18594215.019 7
        42.400          47.000
  22987789.854    22987788.083    22987786.439   -10570486.546 5  -8236739.605 5
        31.100          30.600
 09  1 15  0 11 30.0000000  0 10G28G 9G 6G21G14G15G 3G18G22G19
  25539309.761    25539309.001    25539308.933     -548368.387     -427303.196 2
         3.000          13.900
  21964720.916    21964720.102    21964719.593   -15077479.328 5 -11748678.598 5
        32.600          33.100
  23048409.157    23048408.319    23048408.830    -8707389.732 4  -6784974.957 4
        25.300          28.600
  22036500.508    22036499.782    22036497.921   -18537159.930 5 -14444532.765 4
        32.800          28.600
  23317609.084    23317608.797    23317608.287   -10256694.918 3  -7992225.736 4
        23.400          24.200
  23640431.428    23640431.340    23640429.252    -6233268.694 3  -4857082.386 4
        23.400          27.100
  23006613.939    23006612.987    23006613.935    -7165400.383 4  -5583425.608 4
        25.600          28.600
  20544508.271    20544507.399    20544505.842   -25413294.437 6 -19802556.805 8
        40.700          48.500
  20596796.742    20596796.186    20596793.309   -23899681.990 7 -18623120.434 7
        42.600          47.100
  22983806.448    22983804.794    22983803.171   -10591418.727 5  -8253050.399 5
        31.000          30.600
 09  1 15  0 12  0.0000000  0 10G28G 9G 6G21G14G15G 3G18G22G19
  25535065.721    25535064.386    25535064.087     -570679.741 1   -444688.479 2
         6.500          12.600
  21952959.980    21952959.431    21952958.895   -15139283.391 5 -11796837.583 5
        32.600          33.600
  23060627.535    23060626.606    23060626.914    -8643184.009 4  -6734944.528 4
        26.200          28.800
  22053694.833    22053694.083    22053692.438   -18446803.163 5 -14374124.904 4
        32.400          29.000
  23297802.800    23297802.487    23297802.187   -10360777.679 3  -8073329.138 4
        23.400          24.900
  23659338.883    23659338.675    23659336.850    -6133909.122 4  -4779659.327 4
        24.200          27.100
  23018075.356    23018074.546    23018074.593    -7105173.608 4  -5536495.664 4
        26.200          28.100
  20549032.345    20549031.514    20549030.012   -25389519.844 6 -19784031.139 8
        40.700          48.400
  20589806.668    20589806.113    20589803.270   -23936415.175 7 -18651743.682 7
        42.500          47.200
  22979934.355    22979932.283    22979930.690   -10611768.989 5  -8268907.736 5
        31.000          30.800
 09  1 15  0 12 30.0000000  0 10G28G 9G 6G21G14G15G 3G18G22G19
  25530913.725    25530912.924    25530908.118     -592505.812 2   -461695.778 1
        12.600           9.000
  21941312.467    21941311.921    21941311.596   -15200491.339 5 -11844532.061 5
        32.800          33.800
  23072921.412    23072920.745    23072920.880    -8578577.842 4  -6684602.067 4
        25.900          28.400
  22070954.164    22070953.387    22070952.166   -18356103.860 5 -14303450.141 4
        31.600          29.500
  23278036.647    23278036.032    23278035.844   -10464649.198 3  -8154267.939 4
        23.400          24.900
  23678282.204    23678282.148    23678280.330    -6034359.886 3  -4702088.485 4
        23.400          27.100
  23029622.433    23029621.556    23029622.043    -7044491.377 4  -5489210.818 4
        25.900          27.600
  20553628.003    20553627.185    20553625.611   -25365369.995 6 -19765213.073 8
        40.800          48.400
  20582884.906    20582884.337    20582881.289   -23972790.169 7 -18680087.817 7
        42.700          47.200
  22976171.227    22976169.677    22976168.220   -10631541.337 5  -8284314.756 5
        30.400          31.100
 09  1 15  0 13  0.0000000  0 10G28G 9G 6G21G14G15G 3G18G22G19
  25526850.620    25526850.456    25526850.071     -613837.030     -478317.589 1
         3.000           9.000
  21929780.605    21929780.119    21929779.515   -15261091.712 5 -11891753.106 5
        33.100          33.500
  23085293.184    23085292.582    23085292.626    -8513564.719 4  -6633942.511 4
        25.900          28.100
  22088280.439    22088279.492    22088278.224   -18265054.761 5 -14232502.812 4
        31.600          29.200
  23258312.959    23258312.260    23258311.614   -10568298.952 3  -8235033.933 4
        23.000          24.600
  23697263.796    23697263.413    23697261.303    -5934614.406 3  -4624364.732 4
        22.600          27.100
  23041258.205    23041257.339    23041257.322    -6983347.330 4  -5441566.113 4
        26.200          27.600
  20558296.534    20558295.658    20558294.157   -25340836.555 6 -19746096.112 8
        40.900          48.300
  20576032.679    20576032.134    20576029.195   -24008797.720 7 -18708145.636 7
        42.700          47.200
  22972520.401    22972519.085    22972517.487   -10650726.414 5  -8299264.167 5
        30.800          31.300
 09  1 15  0 13 30.0000000  0 10G28G 9G 6G21G14G15G 3G18G22G19
  25522889.265    25522888.275    25522888.056     -634666.709 1   -494548.526 2
        11.000          12.600
  21918365.857    21918365.318    21918364.939   -15321076.209 5 -11938494.253 5
        33.000          33.800
  23097742.842    23097742.102    23097741.895    -8448141.404 4  -6582963.315 4
        26.200          27.600
  22105673.697    22105672.771    22105671.407   -18173652.461 5 -14161280.257 4
        31.600          28.800
  23238632.954    23238632.033    23238631.369   -10671719.186 3  -8315621.087 4
        23.400          24.900
  23716282.597    23716282.203    23716280.084    -5834669.312 3  -4546485.439 4
        22.100          26.800
  23052981.721    23052981.013    23052981.475    -6921738.324 4  -5393559.109 4
        26.200          27.900
  20563039.077    20563038.230    20563036.654   -25315914.126 6 -19726676.039 8
        40.900          48.200
  20569251.812    20569251.260    20569248.367   -24044431.233 7 -18735911.998 7
        42.600          47.300
  22968982.836    22968980.951    22968979.593   -10669318.215 5  -8313751.272 5
        31.300          31.500
 09  1 15  0 14  0.0000000  0 10G28G 9G 6G21G14G15G 3G18G22G19
  25519021.396    25519020.073    25519017.720     -654999.125 2   -510391.995 1
        13.900          11.000
  21907068.114    21907067.341    21907066.877   -15380447.670 5 -11984757.703 5
        33.100          33.600
  23110268.561    23110268.063    23110268.476    -8382315.424 4  -6531670.347 4
        25.300          27.400
  22123132.813    22123132.125    22123130.564   -18081903.741 5 -14089787.762 4
        31.600          28.600
  23218996.015    23218995.155    23218994.242   -10774913.077 4  -8396031.874 4
        24.200          25.300
  23735338.333    23735337.634    23735335.509    -5734531.845 3  -4468456.250 4
        21.600          25.600
  23064792.548    23064791.929    23064792.065    -6859672.070 4  -5345195.808 4
        26.200          27.900
  20567854.713    20567853.822    20567852.227   -25290608.015 6 -19706956.991 8
        40.900          48.100
  20562541.196    20562540.666    20562537.723   -24079695.887 7 -18763390.936 7
        42.700          47.300
  22965556.757    22965555.069    22965553.578   -10687321.099 5  -8327779.491 5
        31.300          31.100
 09  1 15  0 14 30.0000000  0 10G28G 9G 6G21G14G15G 3G18G22G19
  25515242.719    25515242.448    25515243.282     -674836.605 1   -525849.873 2
         9.000          12.600
  21895886.353    21895885.814    21895885.362   -15439206.332 5 -12030543.658 5
        33.100          33.600
  23122870.481    23122870.027    23122869.846    -8316092.604 4  -6480068.155 4
        24.900          26.500
  22140657.021    22140656.287    22140654.602   -17989813.884 5 -14018029.444 4
        31.800          28.100
  23199401.424    23199400.311    23199399.798   -10877882.401 3  -8476267.677 4
        23.800          25.300
  23754429.603    23754428.884    23754426.519    -5634207.705 3  -4390281.585 4
        21.600          24.900
  23076689.420    23076688.722    23076688.884    -6797154.345 4  -5296480.711 4
        25.900          27.600
  20572742.575    20572741.751    20572740.110   -25264921.891 6 -19686941.826 8
        40.900          48.000
  20555900.294    20555899.708    20555896.689   -24114594.381 7 -18790584.559 7
        42.700          47.400
  22962242.580    22962240.984    22962239.027   -10704738.103 5  -8341351.154 5
        31.600          31.000
 09  1 15  0 15  0.0000000  0 10G28G 9G 6G21G14G15G 3G18G22G19
  25511562.006    25511561.935    25511561.165     -694182.328 1   -540924.401 2
        11.000          13.900
  21884821.321    21884820.682    21884820.329   -15497353.476 5 -12075853.101 5
        33.000          33.800
  23135546.483    23135545.947    23135546.315    -8249479.205 4  -6428161.605 4
        24.900          27.100
  22158244.903    22158243.908    22158242.600   -17897388.538 5 -13946009.702 4
        31.000          28.100
  23179849.049    23179848.193    23179847.700   -10980628.993 3  -8556329.919 4
        23.400          24.900
  23773554.743    23773554.076    23773552.281    -5533702.585 3  -4311965.917 4
        21.600          24.900
  23088670.807    23088670.175    23088670.144    -6734191.672 4  -5247418.896 4
        25.900          27.400
  20577701.941    20577701.066    20577699.509   -25238860.146 6 -19666633.968 7
        40.900          47.900
  20549328.515    20549327.976    20549324.991   -24149128.970 7 -18817494.620 7
        42.700          47.400
  22959038.834    22959037.357    22959035.981   -10721572.137 5  -8354468.567 5
        31.300          31.100
 09  1 15  0 15 30.0000000  0 10G28G 9G 6G21G14G15G 3G18G22G19
  25507979.876    25507978.621    25507976.582     -713023.154 2   -555605.522 2
        12.600          12.600
  21873875.447    21873874.830    21873874.445   -15554874.645 5 -12120674.772 5
        33.200          33.600
  23148299.252    23148298.497    23148298.722    -8182465.343 4  -6375943.025 4
        24.600          27.100
  22175898.608    22175897.746    22175896.438   -17804617.467 5 -13873720.569 4
        30.600          28.100
  23160341.758    23160340.939    23160340.552   -11083138.978 3  -8636207.800 4
        23.400          25.300
  23792716.020    23792716.106    23792714.132    -5433007.055 3  -4233501.888 4
        21.600          24.900
  23100738.974    23100737.965    23100738.007    -6670774.215 4  -5198002.710 4
        25.900          27.100
  20582735.225    20582734.319    20582732.717   -25212410.734 6 -19646024.027 7
        41.000          47.800
  20542828.319    20542827.775    20542824.827   -24183287.744 7 -18844111.835 7
        42.700          47.500
  22955948.851    22955947.150    22955945.591   -10737810.625 5  -8367121.912 5
        30.800          31.100
 09  1 15  0 16  0.0000000  0 10G28G 9G 6G21G14G15G 3G18G22G19
  25504488.086    25504487.138    25504485.992     -731364.121     -569897.166 1
         3.000           9.000
  21863048.119    21863047.550    21863047.132   -15611772.716 5 -12165010.925 5
        33.200          33.900
  23161126.507    23161125.478    23161125.413    -8115059.208 4  -6323418.763 4
        24.200          27.400
  22193616.518    22193615.701    22193614.613   -17711508.166 5 -13801167.885 4
        30.600          28.100
  23140879.022    23140878.372    23140878.044   -11185415.963 3  -8715904.113 4
        23.800          25.600
  23811912.466    23811912.319    23811910.526    -5332128.656 3  -4154895.335 4
        22.100          25.600
  23112891.769    23112890.938    23112891.010    -6606909.934 4  -5148238.348 4
        25.600          26.500
  20587840.956    20587840.104    20587838.574   -25185579.660 6 -19625116.694 7
        41.000          47.800
  20536398.722    20536398.157    20536395.163   -24217075.384 7 -18870439.855 7
        42.700          47.600
  22952971.206    22952969.561    22952967.933   -10753458.882 5  -8379315.334 5
        31.600          31.300
 09  1 15  0 16 30.0000000  0 10G28G 9G 6G21G14G15G 3G18G22G19
  25501093.131    25501091.662    25501089.801     -749204.153     -583798.373 1
                         9.000
  21852339.843    21852339.247    21852339.061   -15668045.065 5 -12208859.494 5
        33.400          34.400
  23174026.661    23174026.198    23174026.656    -8047263.392 4  -6270590.866 4
        24.200          27.900
  22211398.806    22211397.989    22211396.657   -17618062.669 5 -13728353.219 4
        30.800          27.900
  23121461.364    23121460.650    23121459.911   -11287458.255 4  -8795417.562 4
        24.600          25.300
  23831143.568    23831143.111    23831141.483    -5231069.359 3  -4076147.820 4
        22.600          25.900
  23125128.779    23125128.149    23125128.268    -6542601.873 4  -5098128.185 4
        25.300          26.800
  20593019.354    20593018.495    20593016.911   -25158367.173 6 -19603912.158 7
        41.000          47.700
  20530039.838    20530039.319    20530036.433   -24250490.982 7 -18896477.972 7
        42.700          47.700
  22950105.813    22950104.147    22950102.409   -10768516.570 5  -8391048.574 5
        32.000          31.100
 09  1 15  0 17  0.0000000  0 10G28G 9G 6G21G14G15G 3G18G22G19
  25497791.540    25497791.178    25497791.350     -766550.572     -597315.007 2
         3.000          12.600
  21841749.856    21841749.173    21841748.510   -15723696.806 5 -12252224.473 5
        33.600          33.900
  23187000.388    23186999.693    23187000.099    -7979087.988 4  -6217467.181 4
        24.600          27.900
  22229242.788    22229242.124    22229241.039   -17524290.492 5 -13655284.004 4
        30.400          27.900
  23102087.184    23102086.156    23102085.329   -11389271.698 4  -8874752.683 4
        24.600          25.900
  23850406.398    23850406.623    23850405.096    -5129839.313 3  -3997267.253 4
        22.100          26.200
  23137448.931    23137448.296    23137448.260    -6477859.722 4  -5047679.773 4
        25.300          27.100
  20598268.591    20598267.767    20598266.147   -25130781.455 6 -19582416.794 7
        41.000          47.600
  20523750.614    20523750.053    20523747.050   -24283541.658 7 -18922231.731 7
        42.800          47.800
  22947351.551    22947349.866    22947348.118   -10782990.716 5  -8402327.109 5
        32.100          31.100
 09  1 15  0 17 30.0000000  0 10G28G 9G 6G21G14G15G 3G18G22G19
  25494589.003    25494588.591    25494586.418     -783387.634 1   -610434.685 1
         6.500           9.000
  21831280.949    21831280.201    21831279.664   -15778710.524 5 -12295092.296 5
        33.400          33.800
  23200048.770    23200048.139    23200048.493    -7910520.613 4  -6164038.063 4
        25.300          28.400
  22247151.690    22247150.962    22247149.756   -17430178.800 5 -13581950.234 4
        30.200          27.600
  23082759.195    23082758.482    23082757.474   -11490839.491 4  -8953896.391 4
        24.900          25.600
  23869704.872    23869704.910    23869703.271    -5028425.863 3  -3918243.773 4
        21.600          26.200
  23149854.002    23149853.371    23149853.634    -6412671.725 4  -4996883.939 4
        25.300          27.600
  20603591.769    20603590.919    20603589.296   -25102808.092 6 -19560619.366 7
        41.100          47.500
  20517533.544    20517533.005    20517530.058   -24316212.076 7 -18947689.179 7
        42.800          47.900
  22944711.059    22944709.277    22944707.673   -10796866.140 5  -8413139.105 5
        32.000          31.100
 09  1 15  0 18  0.0000000  0 10G28G 9G 6G21G14G15G 3G18G22G19
  25491478.965    25491478.094    25491476.522     -799722.585     -623163.153
                         3.000
  21820932.445    21820931.822    21820931.462   -15833091.941 5 -12337467.416 5
        33.900          34.400
  23213168.609    23213168.261    23213168.751    -7841571.899 4  -6110311.795 4
        24.600          27.900
  22265123.386    22265122.542    22265121.230   -17335737.313 5 -13508359.478 4
        30.100          27.100
  23063477.125    23063476.226    23063475.442   -11592167.971 4  -9032853.629 4
        24.900          25.600
  23889036.880    23889036.068    23889034.124    -4926838.911 3  -3839085.104 4
        21.100          25.300
  23162341.685    23162340.968    23162341.098    -6347048.080 4  -4945748.656 4
        24.900          27.100
  20608987.092    20608986.287    20608984.738   -25074455.232 6 -19538526.220 7
        41.100          47.500
  20511387.545    20511386.976    20511384.033   -24348509.886 7 -18972856.290 8
        42.900          48.000
  22942183.030    22942181.415    22942179.964   -10810150.412 5  -8423490.468 5
        32.000          31.300
 09  1 15  0 18 30.0000000  0 10G28G 9G 6G21G14G15G 3G18G22G19
  25488466.143    25488464.556    25488464.167     -815564.683     -635507.605 1
         3.000           6.500
  21810703.025    21810702.351    21810701.881   -15886848.016 5 -12379355.253 5
        33.900          34.300
  23226358.885    23226358.733    23226359.392    -7772253.894 3  -6056297.777 4
        23.800          27.600
  22283155.775    22283154.759    22283153.529   -17240977.575 4 -13434520.729 4
        29.700          27.100
  23044238.602    23044237.927    23044237.314   -11693264.683 4  -9111630.276 4
        24.900          25.600
  23908398.809    23908398.698    23908396.350    -4825090.410 3  -3759800.541 4
        21.100          24.900
  23174909.509    23174909.078    23174909.339    -6281001.135 4  -4894283.513 4
        24.600          27.100
  20614452.980    20614452.039    20614450.427   -25045732.843 6 -19516145.135 7
        41.100          47.400
  20505310.587    20505310.084    20505307.166   -24380443.817 7 -18997739.859 8
        42.800          48.100
  22939766.007    22939764.177    22939762.447   -10822852.606 5  -8433388.259 5
        32.000          30.800
 09  1 15  0 19  0.0000000  0 10G28G 9G 6G21G14G15G 3G18G22G19
  25485545.959    25485545.543    25485543.188     -830902.658 1   -647459.345 1
         9.000           6.500
  21800595.077    21800594.227    21800593.694   -15939966.438 5 -12420746.221 5
        33.900          34.100
  23239622.089    23239621.548    23239621.731    -7702559.073 3  -6001990.138 4
        23.800          27.400
  22301250.120    22301249.121    22301247.880   -17145891.518 4 -13360427.714 4
        29.200          27.100
  23025047.185    23025046.223    23025045.549   -11794117.619 4  -9190216.970 4
        24.900          25.300
  23927793.488    23927793.004    23927790.823    -4723172.455 3  -3680383.948 4
        21.100          24.900
  23187559.750    23187559.286    23187559.595    -6214523.736 4  -4842482.975 4
        24.900          27.100
  20619990.718    20619989.902    20619988.318   -25016631.207 6 -19493468.531 7
        41.200          47.300
  20499305.097    20499304.587    20499301.606   -24412002.924 7 -19022331.355 8
        42.900          48.200
  22937461.256    22937459.788    22937457.941   -10834962.569 5  -8442824.580 5
        32.400          30.400
 09  1 15  0 19 30.0000000  0 10G28G 9G 6G21G14G15G 3G18G22G19
  25482723.237    25482722.599    25482721.478     -845735.409 1   -659017.226 2
         9.000          13.900
  21790608.819    21790608.121    21790607.622   -15992444.342 5 -12461638.094 5
        34.100          34.300
  23252955.549    23252955.114    23252955.498    -7632489.264 3  -5947390.293 4
        23.400          26.800
  22319406.290    22319405.383    22319403.945   -17050480.180 4 -13286081.229 4
        29.700          26.800
  23005902.476    23005901.487    23005900.699   -11894724.808 4  -9268612.177 4
        24.900          25.600
  23947219.743    23947219.247    23947217.625    -4621086.293 3  -3600836.278 4
        20.500          24.900
  23200291.216    23200290.569    23200291.707    -6147617.539 3  -4790348.286 4
        23.800          27.100
  20625600.807    20625599.947    20625598.314   -24987150.109 6 -19470496.245 7
        41.100          47.100
  20493371.215    20493370.627    20493367.668   -24443186.075 7 -19046629.900 8
        42.900          48.400
  22935269.845    22935268.317    22935266.593   -10846479.082 5  -8451798.473 5
        32.300          30.400
 09  1 15  0 20  0.0000000  0 10G28G 9G 6G21G14G15G 3G18G22G19
  25479995.969    25479994.074    25479996.355     -860060.320     -670179.443 2
         3.000          12.600
  21780745.428    21780744.731    21780744.379   -16044276.875 5 -12502027.066 5
        34.300          34.700
  23266361.569    23266360.833    23266360.773    -7562044.751 3  -5892498.478 4
        23.800          26.500
  22337624.400    22337623.602    22337622.180   -16954743.378 4 -13211481.136 4
        29.700          27.100
  22986804.672    22986803.858    22986803.510   -11995081.843 4  -9346812.452 4
        24.900          25.900
  23966677.984    23966677.769    23966676.005    -4518831.875 3  -3521157.515 4
        20.500          25.300
  23213105.280    23213104.600    23213105.219    -6080282.788 4  -4737879.663 4
        24.600          27.100
  20631283.418    20631282.538    20631280.867   -24957287.674 6 -19447226.810 7
        41.200          47.100
  20487509.344    20487508.777    20487505.845   -24473990.199 7 -19070633.099 8
        43.000          48.400
  22933192.101    22933190.085    22933188.282   -10857399.511 5  -8460307.874 5
        32.100          30.400
 09  1 15  0 20 30.0000000  0 10G28G 9G 6G21G14G15G 3G18G22G19
  25477369.264    25477367.272    25477364.562     -873879.237     -680947.440 1
                         6.500
  21771004.662    21771003.953    21771003.448   -16095464.709 5 -12541913.682 5
        34.100          34.300
  23279836.413    23279835.882    23279836.167    -7491230.946 4  -5837318.895 4
        24.600          26.200
  22355903.721    22355902.816    22355901.290   -16858686.655 4 -13136631.748 4
        29.700          27.400
  22967755.077    22967753.981    22967753.422   -12095189.896 4  -9424818.724 4
        25.600          25.600
  23986165.891    23986166.985    23986165.871    -4416414.544 3  -3441351.799 4
        18.600          25.600
  23225998.954    23225998.376    23225998.812    -6012525.278 4  -4685081.601 4
        24.200          26.800
  20637038.109    20637037.243    20637035.584   -24927047.052 6 -19423662.689 7
        41.200          47.000
  20481719.116    20481718.558    20481715.614   -24504418.156 7 -19094343.180 8
        43.100          48.500
  22931226.843    22931224.889    22931223.294   -10867726.869 5  -8468355.157 5
        31.600          30.800
 09  1 15  0 21  0.0000000  0 10G28G 9G 6G21G14G15G 3G18G22G19
  25474833.994    25474833.325    25474831.641     -887194.496 1   -691322.904
         6.500           3.000
  21761386.639    21761385.907    21761385.386   -16146008.078 5 -12581298.118 5
        34.400          34.400
  23293381.045    23293380.600    23293381.000    -7420053.273 4  -5781855.778 4
        24.600          26.200
  22374242.775    22374241.953    22374240.539   -16762313.854 4 -13061536.069 4
        29.500          27.100
  22948752.346    22948751.287    22948750.714   -12195049.860 4  -9502631.682 4
        25.600          25.600
  24005686.100    24005686.544    24005684.956    -4313839.354 3  -3361423.082 4
        19.900          25.600
  23238972.821    23238972.008    23238972.071    -5944350.055 4  -4631958.078 4
        24.600          26.200
  20642863.859    20642863.053    20642861.529   -24896431.592 6 -19399806.488 7
        41.300          47.000
  20476000.093    20475999.524    20475996.575   -24534471.825 7 -19117761.614 8
        43.100          48.600
  22929373.816    22929372.011    22929370.266   -10877463.605 5  -8475942.205 5
        31.500          30.600
 09  1 15  0 21 30.0000000  0 10G28G 9G 6G21G14G15G 3G18G22G19
  25472395.638    25472393.682    25472394.257     -900007.208     -701306.962
                         3.000
  21751891.213    21751890.452    21751890.005   -16195906.300 5 -12620179.834 5
        34.400          34.300
  23306994.210    23306993.641    23306994.065    -7348515.830 4  -5726112.323 4
        24.600          26.200
  22392641.167    22392640.308    22392638.875   -16665628.982 4 -12986197.219 4
        29.000          26.200
  22929796.599    22929796.005    22929795.376   -12294661.450 4  -9580251.098 4
        26.200          26.200
  24025235.343    24025235.512    24025233.938    -4211109.327 3  -3281373.713 4
        18.600          25.300
  23252024.548    23252023.658    23252024.302    -5875761.718 4  -4578512.614 4
        24.900          26.200
  20648760.891    20648760.031    20648758.455   -24865442.977 6 -19375659.507 7
        41.200          46.900
  20470352.128    20470351.587    20470348.553   -24564151.986 7 -19140888.995 8
        43.200          48.600
  22927633.068    22927631.300    22927629.388   -10886610.841 5  -8483069.899 5
        31.500          30.600
 09  1 15  0 22  0.0000000  0 10G28G 9G 6G21G14G15G 3G18G22G19
  25470056.009    25470055.857    25470052.264     -912310.319 1   -710893.864 1
         6.500           6.500
  21742520.500    21742519.730    21742518.667   -16245150.676 5 -12658552.072 5
        34.600          33.900
  23320677.062    23320676.223    23320676.748    -7276614.780 4  -5670085.549 4
        24.200          26.800
  22411099.806    22411098.952    22411097.679   -16568627.223 4 -12910611.443 4
        28.800          25.900
  22910890.215    22910889.446    22910888.763   -12394016.756 4  -9657670.817 4
        26.800          26.200
  24044814.699    24044814.154    24044813.057    -4108220.553 3  -3201200.676 4
        18.600          25.300
  23265156.107    23265155.248    23265155.467    -5806756.757 4  -4524742.531 4
        24.600          25.900
  20654729.945    20654729.062    20654727.519   -24834075.297 6 -19351217.162 7
        41.200          46.800
  20464776.514    20464776.014    20464772.997   -24593451.677 7 -19163719.913 8
        43.300          48.700
  22926005.787    22926003.843    22926002.607   -10895161.969 5  -8489733.108 5
        31.100          30.800
 09  1 15  0 22 30.0000000  0 10G 9G28G 6G21G14G15G 3G18G22G19
  21733274.153    21733273.455    21733273.079   -16293738.740 5 -12696412.894 5
        34.400          34.400
  25467811.224    25467811.048    25467809.029     -924102.779     -720082.698 1
         3.000           9.000
  23334427.320    23334426.898    23334427.780    -7204352.290 3  -5613777.127 4
        23.800          26.500
  22429618.430    22429617.662    22429616.443   -16471310.614 4 -12834780.333 4
        28.600          25.900
  22892032.755    22892031.975    22892031.224   -12493113.279 4  -9734888.880 4
        26.500          26.500
  24064423.672    24064423.683    24064422.559    -4005174.710 3  -3120905.239 4
        18.600          24.600
  23278365.928    23278365.101    23278365.461    -5737336.725 3  -4470649.014 4
        23.800          25.300
  20660771.246    20660770.374    20660768.701   -24802328.473 6 -19326479.375 7
        41.300          46.700
  20459273.519    20459273.071    20459270.018   -24622369.899 7 -19186253.585 8
        43.400          48.800
  22924491.944    22924490.276    22924488.857   -10903116.292 5  -8495931.269 5
        31.000          31.000
 09  1 15  0 23  0.0000000  0 10G 9G28G 6G21G14G15G 3G18G22G19
  21724153.356    21724152.734    21724152.265   -16341669.152 5 -12733761.261 5
        34.400          34.500
  25465663.245    25465662.576    25465663.175     -935385.429 1   -728874.374 1
         6.500           9.000
  23348247.100    23348246.266    23348246.771    -7131731.966 3  -5557189.877 4
        23.400          26.200
  22448196.651    22448196.001    22448194.505   -16373681.888 4 -12758706.006 4
        28.800          25.900
  22873224.168    22873223.570    22873223.091   -12591950.376 4  -9811904.785 4
        25.900          26.800
  24084062.325    24084062.335    24084060.929    -3901974.860 2  -3040489.778 4
        17.800          24.600
  23291654.190    23291653.628    23291653.859    -5667505.987 3  -4416235.460 4
        23.800          24.600
  20666884.217    20666883.364    20666881.806   -24770204.018 6 -19301447.331 7
        41.300          46.600
  20453843.259    20453842.696    20453839.646   -24650907.044 7 -19208490.313 8
        43.500          49.000
  22923091.739    22923089.924    22923088.369   -10910475.089 5  -8501665.378 5
        31.000          30.600
 09  1 15  0 23 30.0000000  0 10G 9G28G 6G21G14G15G 3G18G22G19
  21715156.362    21715155.608    21715154.893   -16388949.761 5 -12770603.284 5
        34.700          34.500
  25463611.515    25463611.138    25463612.025     -946167.430 1   -737275.945 1
         6.500           9.000
  23362131.967    23362131.317    23362131.885    -7058766.513 3  -5500333.690 4
        23.000          26.800
  22466832.018    22466831.241    22466829.928   -16275753.198 4 -12682397.947 4
        28.400          26.200
  22854464.322    22854463.360    22854462.620   -12690536.400 4  -9888725.046 4
        26.200          27.100
  24103727.479    24103727.319    24103725.580    -3798633.129 2  -2959963.743 3
        17.800          23.800
  23305018.164    23305017.574    23305017.791    -5597276.839 3  -4361511.451 3
        23.400          23.800
  20673067.180    20673066.279    20673064.769   -24737712.283 6 -19276129.092 7
        41.300          46.500
