     2.11           OBSERVATION DATA    G (GPS)             RINEX VERSION / TYPE
teqc  2008Oct2      gpsops              20090123 00:09:39UTCPGM / RUN BY / DATE
    30.0000                                                 INTERVAL
     1     1                                                WAVELENGTH FACT L1/2
     7    L1    L2    P1    P2    C1    S1    S2            # / TYPES OF OBSERV
Linux 2.4.20-8|Pentium IV|gcc -static|Linux|486/DX+         COMMENT
     2.10           OBSERVATION DATA    GPS                 COMMENT
soc2rnx ver 1.20    gpsops              23-Jan-2009 00:09:35COMMENT
S1, if present, is the SNR for the C/A data stream on L1.   COMMENT
 SNR is mapped to RINEX snr flag value [1,4-9]              COMMENT
    SNR:   >316  >100  >31.6  >10  >3.2    >0 bad=0         COMMENT
L1 & L2:      9     8     7     6     5     4     1         COMMENT
                                                            COMMENT
This data is provided as a public service by NASA/JPL.      COMMENT
No warranty is expressed or implied regarding suitability   COMMENT
for use.  For further information, contact:                 COMMENT
Dave Stowers, NASA/JPL m/s 238-600                          COMMENT
4800 Oak Grove Drive, Pasadena CA 91109 USA                 COMMENT
                                                            COMMENT
Forced Modulo Decimation to 30 seconds                      COMMENT
  2009     1    22     0     0    0.0000000     GPS         TIME OF FIRST OBS
GGN                 JPL                                     OBSERVER / AGENCY
CR519992104         ASH701945B_M    SCIT                    ANT # / TYPE
   -33801.4662 -6377516.5323   -82154.3508                  APPROX POSITION XYZ
        0.0083        0.0000        0.0000                  ANTENNA: DELTA H/E/N
ZR220013847         ASHTECH UZ-12       CQ00                REC # / TYPE / VERS
GLPS                                                        MARKER NAME
42005M002                                                   MARKER NUMBER
                                                            END OF HEADER
 09  1 22  0  0  0.0000000  0 12G30G 9G14G 5G24G31G29G22G21G18G 6G12
 121627697.48947  94774810.01447  23144996.7164   23145000.0444   23144996.4494
        48.000          42.000
 120148971.70847  93622563.21947  22863598.9614   22863602.6184   22863598.6074
        47.000          41.000
 115881208.08147  90297033.18647  22051472.3094   22051474.9924   22051471.8164
        50.000          44.000
 124062129.56247  96671780.36647  23608245.7644   23608250.2424   23608245.8624
        45.000          39.000
 115275524.28547  89825073.03047  21936209.4284   21936214.4954   21936209.3634
        51.000          45.000
 119291788.81347  92954624.82047  22700484.6404   22700486.4224   22700484.4774
        49.000          43.000
 120810368.54347  94137931.00247  22989462.6984   22989466.4134   22989462.2244
        47.000          42.000
 126000973.03647  98182576.27447  23977187.2314   23977187.2814   23977187.2444
        45.000          38.000
 105307459.96347  82057745.29047  20039355.8634   20039357.6314   20039356.2304
        54.000          49.000
 122570689.79747  95509621.17047  23324432.3624   23324433.8274   23324432.3114
        46.000          40.000
 127863159.74147  99633617.03747  24331561.5364   24331564.5124   24331561.0504
        43.000          37.000
 128188050.60147  99886771.46747  24393391.0744   24393395.5284   24393391.0884
        44.000          39.000
 09  1 22  0  0 30.0000000  0 12G30G 9G14G 5G24G31G29G22G21G18G 6G12
 121601147.19847  94754121.51947  23139944.1714   23139948.0774   23139943.4944
        48.000          41.000
 120233532.89847  93688455.06047  22879689.9144   22879693.6624   22879690.0944
        47.000          41.000
 115905140.76947  90315682.05047  22056026.0204   22056029.0044   22056026.0534
        50.000          44.000
 124049998.99847  96662328.00747  23605936.7164   23605941.1974   23605936.9584
        45.000          39.000
 115329041.93747  89866775.08647  21946393.4564   21946398.7174   21946393.7494
        51.000          45.000
 119194677.98547  92878954.09347  22682004.8654   22682007.4364   22682004.7144
        49.000          43.000
 120885179.11947  94196224.94147  23003698.4024   23003701.8794   23003698.0094
        47.000          42.000
 125970008.72547  98158448.28447  23971294.1444   23971295.1174   23971294.0654
        44.000          38.000
 105283773.13547  82039288.01747  20034848.2754   20034850.2334   20034848.5684
        54.000          49.000
 122540086.20047  95485774.22947  23318608.4694   23318610.2594   23318608.9144
        47.000          40.000
 127824394.54747  99603410.37747  24324184.1794   24324188.3844   24324184.2654
        42.000          37.000
 128190489.20147  99888671.74347  24393855.9254   24393859.8464   24393855.4284
        44.000          39.000
 09  1 22  0  1  0.0000000  0 12G30G 9G14G 5G24G31G29G22G21G18G 6G12
 121574538.83747  94733387.77047  23134881.1644   23134884.5814   23134880.5834
        48.000          41.000
 120318473.88047  93754642.85047  22895853.4824   22895857.0204   22895853.8044
        48.000          40.000
 115929370.46247  90334562.35047  22060636.8814   22060639.6934   22060636.8994
        50.000          44.000
 124037959.33147  96652946.47547  23603645.4334   23603650.1434   23603646.1334
        45.000          39.000
 115382997.87047  89908818.66447  21956661.0074   21956666.1024   21956661.3094
        51.000          45.000
 119097765.11347  92803437.61047  22663562.9374   22663565.4724   22663562.1274
        49.000          43.000
 120959935.31447  94254476.49447  23017924.0994   23017927.7794   23017923.5444
        47.000          42.000
 125938818.71247  98134144.42447  23965358.9314   23965359.7464   23965358.6474
        45.000          38.000
 105260660.50147  82021278.17447  20030450.1604   20030452.2324   20030450.5254
        54.000          49.000
 122509328.48947  95461807.18847  23312754.9364   23312757.5374   23312755.4354
        46.000          40.000
 127785928.96747  99573437.20547  24316864.0394   24316868.3904   24316864.1074
        43.000          37.000
 128193010.60347  99890636.54747  24394335.2784   24394339.6984   24394334.9264
        44.000          39.000
 09  1 22  0  1 30.0000000  0 12G30G 9G14G 5G24G31G29G22G21G18G 6G12
 121547872.72647  94712609.01547  23129806.5794   23129810.3674   23129806.3534
        49.000          42.000
 120403790.70047  93821123.51247  22912088.6754   22912091.9164   22912089.0464
        47.000          41.000
 115953893.28047  90353671.06047  22065303.3214   22065306.2604   22065303.4474
        51.000          44.000
 124026011.13547  96643636.22347  23601371.5844   23601376.9184   23601372.0814
        45.000          39.000
 115437389.03547  89951201.38647  21967011.3404   21967016.1774   21967011.5394
        51.000          44.000
 119001051.04347  92728076.05347  22645159.0494   22645161.2804   22645158.6564
        49.000          43.000
 121034633.46547  94312682.82447  23032138.6944   23032142.2694   23032138.3334
        47.000          42.000
 125907401.39947  98109663.44747  23959380.6034   23959380.8324   23959380.2974
        45.000          38.000
 105238122.06347  82003715.75847  20026161.1474   20026163.1304   20026161.5224
        54.000          49.000
 122478416.35647  95437719.82747  23306872.6364   23306874.6914   23306873.3404
        46.000          40.000
 127747760.98347  99543695.91147  24309600.4864   24309605.3844   24309600.8274
        43.000          37.000
 128195615.05647  99892666.06247  24394831.1194   24394834.7744   24394830.9354
        43.000          38.000
 09  1 22  0  2  0.0000000  0 12G30G 9G14G 5G24G31G29G22G21G18G 6G12
 121521153.71447  94691789.03647  23124722.0154   23124725.4104   23124721.6454
        48.000          41.000
 120489483.75247  93887897.32647  22928395.7514   22928398.9954   22928396.0854
        47.000          40.000
 115978710.00847  90373008.78747  22070025.7744   22070028.5744   22070026.1944
        50.000          44.000
 124014159.55247  96634401.26247  23599116.5354   23599121.2134   23599117.0204
        46.000          39.000
 115492217.30647  89993924.71047  21977444.8714   21977449.3954   21977445.1954
        51.000          44.000
 118904541.98047  92652874.22747  22626793.8534   22626796.2024   22626793.8824
        49.000          43.000
 121109274.45947  94370844.59447  23046342.0824   23046346.0464   23046342.2094
        47.000          42.000
 125875759.97647  98085007.83647  23953359.0774   23953359.6984   23953358.9544
        45.000          38.000
 105216162.37447  81986604.31447  20021982.5094   20021984.4664   20021982.9364
        54.000          49.000
 122447353.84347  95413515.27847  23300961.6334   23300963.9934   23300962.1854
        46.000          40.000
 127709893.10247  99514188.48747  24302395.2544   24302399.5954   24302394.8394
        42.000          37.000
 128198307.56147  99894764.18147  24395343.0904   24395346.6604   24395342.7754
        43.000          38.000
 09  1 22  0  2 30.0000000  0 12G30G 9G14G 5G24G31G29G22G21G18G 6G12
 121494381.37047  94670927.50447  23119627.2824   23119631.0354   23119626.7244
        48.000          42.000
 120575548.00547  93954960.39847  22944773.1964   22944776.3624   22944773.1634
        47.000          40.000
 116003815.73147  90392571.70047  22074803.2944   22074806.0324   22074803.5314
        50.000          44.000
 124002404.18647  96625241.26647  23596879.3184   23596884.4484   23596879.7674
        45.000          39.000
 115547479.14047  90036985.86647  21987960.6184   21987965.4954   21987960.6914
        51.000          44.000
 118808238.33647  92577832.46747  22608468.0194   22608469.8624   22608467.5284
        50.000          43.000
 121183853.76047  94428958.29747  23060534.3154   23060537.8094   23060534.4294
        47.000          42.000
 125843892.33547  98060175.93647  23947295.0684   23947296.1014   23947295.0174
        46.000          39.000
 105194780.40247  81969943.03847  20017913.3834   20017915.5344   20017913.7424
        54.000          49.000
 122416140.03247  95389192.85447  23295021.8704   23295024.0994   23295022.2354
        47.000          40.000
 127672322.38547  99484912.61047  24295245.7374   24295250.1414   24295245.7524
        43.000          36.000
 128201087.70247  99896930.58247  24395872.0164   24395876.1384   24395871.8194
        43.000          38.000
 09  1 22  0  3  0.0000000  0 12G30G 9G14G 5G24G31G29G22G21G18G 6G12
 121467559.09047  94650027.06447  23114523.4484   23114527.4604   23114522.9964
        49.000          42.000
 120661982.44047  94022311.91447  22961220.6724   22961224.8124   22961221.0004
        46.000          40.000
 116029209.35047  90412358.95547  22079635.5704   22079638.0054   22079635.7124
        50.000          44.000
 123990748.81947  96616159.19947  23594661.2954   23594666.4114   23594661.6894
        45.000          39.000
 115603174.64147  90080384.94547  21998559.3584   21998563.9654   21998559.6264
        51.000          44.000
 118712144.60347  92502954.28047  22590181.6904   22590183.9074   22590181.2634
        49.000          43.000
 121258371.02647  94487023.67347  23074714.4744   23074718.3264   23074714.3114
        47.000          42.000
 125811799.98947  98035168.95947  23941188.2974   23941188.9164   23941188.5604
        45.000          39.000
 105173979.28447  81953734.37447  20013955.2244   20013957.1334   20013955.5914
        54.000          49.000
 122384777.81847  95364754.77947  23289054.3044   23289055.9064   23289054.6754
        47.000          40.000
 127635049.90947  99455869.11747  24288153.7404   24288157.3154   24288153.5314
        43.000          37.000
 128203958.77847  99899167.83947  24396418.1274   24396422.4854   24396417.9214
        44.000          38.000
 09  1 22  0  3 30.0000000  0 12G30G 9G14G 5G24G31G29G22G21G18G 6G12
 121440688.04947  94629088.61947  23109410.1474   23109413.4704   23109409.7584
        48.000          41.000
 120748784.11547  94089949.58047  22977738.9334   22977742.4814   22977739.0554
        47.000          40.000
 116054887.83047  90432368.18647  22084521.9304   22084524.5914   22084522.1854
        50.000          44.000
 123979194.85747  96607156.14747  23592462.9194   23592467.5364   23592463.3024
        46.000          39.000
 115659301.85947  90124120.44347  22009240.0004   22009244.5334   22009240.2244
        51.000          44.000
 118616263.23147  92428241.55647  22571936.1814   22571938.2374   22571935.7784
        49.000          43.000
 121332823.20847  94545038.32647  23088881.9244   23088885.6984   23088881.6574
        46.000          42.000
 125779482.75747  98009986.72947  23935038.0504   23935038.8414   23935037.9524
        45.000          39.000
 105153759.92347  81937979.03447  20010107.5734   20010109.6184   20010107.9604
        54.000          49.000
 122353267.62047  95340201.37747  23283057.8844   23283059.6764   23283058.6584
        47.000          40.000
 127598074.47047  99427057.09747  24281116.1574   24281120.8764   24281116.4704
        42.000          37.000
 128206922.22547  99901477.08547  24396982.0884   24396985.8354   24396981.8404
        43.000          38.000
 09  1 22  0  4  0.0000000  0 12G30G 9G14G 5G24G31G29G22G21G18G 6G12
 121413770.44947  94608113.89547  23104287.4754   23104290.9154   23104287.1984
        48.000          41.000
 120835951.21047  94157872.00547  22994325.9034   22994329.5644   22994326.3374
        47.000          40.000
 116080849.23547  90452597.86547  22089462.1624   22089464.8684   22089462.3174
        50.000          44.000
 123967744.90447  96598234.14047  23590283.6664   23590288.8534   23590284.0344
        45.000          39.000
 115715859.81347  90168191.56747  22020002.7474   22020007.2044   22020003.0084
        51.000          44.000
 118520597.70547  92353697.04147  22553731.3604   22553733.7884   22553731.1464
        49.000          44.000
 121407208.85047  94603001.13747  23103037.3074   23103040.7854   23103036.6464
        47.000          42.000
 125746941.16747  97984629.66447  23928845.6844   23928846.1034   23928845.4594
        45.000          39.000
 105134123.91947  81922678.25347  20006371.0174   20006372.9214   20006371.3644
        54.000          49.000
 122321611.68547  95315534.42647  23277034.0054   23277036.0964   23277034.5724
        47.000          40.000
 127561396.03047  99398476.47647  24274137.7034   24274141.9494   24274137.1854
        42.000          37.000
 128209980.09747  99903859.86347  24397563.7124   24397568.4844   24397563.4444
        44.000          38.000
 09  1 22  0  4 30.0000000  0 12G30G 9G14G 5G24G31G29G22G21G18G 6G12
 121386807.35547  94587103.72347  23099156.3414   23099160.0974   23099155.9074
        48.000          42.000
 120923480.18547  94226076.40547  23010982.0814   23010985.9224   23010982.0124
        47.000          40.000
 116107090.18247  90473045.37347  22094455.3624   22094458.3224   22094455.9044
        50.000          44.000
 123956400.00247  96589394.00547  23588125.1154   23588129.9554   23588125.4464
        45.000          39.000
 115772845.94847  90212596.34247  22030846.8244   22030851.5074   22030847.0724
        51.000          44.000
 118425149.85647  92279322.14147  22535568.0854   22535570.6024   22535567.6604
        49.000          44.000
 121481524.79247  94660909.63747  23117179.3804   23117182.7624   23117178.7224
        47.000          42.000
 125714174.63947  97959097.33847  23922610.5934   23922611.3274   23922610.7724
        45.000          39.000
 105115071.55647  81907832.25947  20002745.5254   20002747.3644   20002745.8674
        54.000          50.000
 122289810.01647  95290753.91747  23270981.9154   23270984.4064   23270982.4334
        47.000          41.000
 127525013.00747  99370126.06747  24267212.9174   24267218.3744   24267213.7254
        42.000          37.000
 128213133.50647  99906317.13047  24398164.1754   24398168.2834   24398163.5594
        43.000          38.000
 09  1 22  0  5  0.0000000  0 12G30G 9G14G 5G24G31G29G22G21G18G 6G12
 121359802.16247  94566060.74247  23094017.3974   23094021.5534   23094016.9634
        48.000          41.000
 121011369.72547  94294561.77947  23027707.0314   23027710.4334   23027706.9414
        47.000          40.000
 116133609.39747  90493709.71947  22099502.0024   22099504.7164   22099501.9784
        50.000          44.000
 123945163.65647  96580638.43047  23585986.8194   23585991.3304   23585987.1054
        45.000          39.000
 115830260.57247  90257335.00247  22041772.2704   22041777.2824   22041772.6654
        51.000          44.000
 118329923.42647  92205119.76747  22517446.8424   22517449.5874   22517446.6394
        49.000          44.000
 121555770.31447  94718763.26347  23131307.8054   23131310.9284   23131307.3234
        47.000          42.000
 125681184.81847  97933391.01247  23916332.4394   23916333.5614   23916332.5834
        45.000          39.000
 105096605.63247  81893443.22847  19999231.5514   19999233.4764   19999231.9114
        54.000          50.000
 122257865.52847  95265862.09847  23264903.3634   23264905.5224   23264903.6364
        48.000          41.000
 127488926.06847  99342006.35247  24260346.1594   24260351.0274   24260346.5014
        42.000          37.000
 128216385.69047  99908851.36847  24398782.3484   24398786.5094   24398782.0454
        43.000          39.000
 09  1 22  0  5 30.0000000  0 12G30G 9G14G 5G24G31G29G22G21G18G 6G12
 121332755.14947  94544985.20047  23088870.2834   23088874.3574   23088870.3484
        47.000          41.000
 121099615.46547  94363324.69647  23044499.7154   23044503.2104   23044499.7504
        47.000          40.000
 116160402.85247  90514587.76147  22104600.7474   22104603.3064   22104601.0434
        50.000          44.000
 123934036.52947  96571967.97647  23583869.8684   23583873.8634   23583870.1314
        45.000          39.000
 115888100.88747  90302405.37847  22052778.8374   22052783.7574   22052778.9734
        51.000          44.000
 118234920.42247  92131091.51247  22499368.4694   22499371.3284   22499368.0894
        49.000          44.000
 121629942.04247  94776559.38447  23145422.0524   23145425.6294   23145422.0874
        47.000          41.000
 125647970.25147  97907509.56947  23910012.0824   23910012.7244   23910012.1344
        45.000          39.000
 105078726.18147  81879511.19047  19995829.2764   19995831.1404   19995829.6464
        54.000          50.000
 122225777.98847  95240858.82847  23258797.3944   23258799.6294   23258797.8044
        48.000          41.000
 127453133.30947  99314115.90947  24253535.2304   24253540.0454   24253534.9714
        42.000          37.000
 128219736.94247  99911462.78347  24399419.8664   24399424.2734   24399420.0104
        43.000          38.000
 09  1 22  0  6  0.0000000  0 12G30G 9G14G 5G24G31G29G22G21G18G 6G12
 121305671.44347  94523881.04747  23083716.5854   23083720.4234   23083715.9684
        48.000          42.000
 121188218.33047  94432365.90947  23061360.3764   23061363.7294   23061360.4664
        47.000          40.000
 116187471.31447  90535680.08747  22109751.6564   22109754.2004   22109751.9704
        50.000          44.000
 123923024.02647  96563386.82947  23581773.7274   23581778.5854   23581773.9344
        45.000          39.000
 115946368.56447  90347808.75247  22063866.9094   22063871.5944   22063867.0664
        51.000          44.000
 118140146.88147  92057242.04147  22481333.7194   22481336.4354   22481333.2004
        49.000          44.000
 121704041.04347  94834298.84347  23159522.9964   23159526.0514   23159523.2004
        48.000          42.000
 125614534.72347  97881455.95147  23903649.4874   23903650.2654   23903649.7854
        45.000          39.000
 105061437.75747  81866039.69047  19992539.3574   19992541.2794   19992539.7324
        54.000          50.000
 122193552.13347  95215747.77647  23252665.0304   23252667.3444   23252665.5654
        48.000          41.000
 127417637.32247  99286456.69147  24246781.0664   24246785.4464   24246781.1644
        41.000          37.000
 128223192.42347  99914155.40547  24400077.9584   24400081.9704   24400077.3654
        44.000          38.000
 09  1 22  0  6 30.0000000  0 12G30G 9G14G 5G24G31G29G22G21G18G 6G12
 121278548.86247  94502746.58847  23078555.2844   23078559.1824   23078555.0624
        48.000          42.000
 121277171.12347  94501679.80247  23078287.2854   23078290.2864   23078287.7414
        47.000          40.000
 116214808.29447  90556981.65147  22114953.6034   22114956.1794   22114953.8484
        50.000          44.000
 123912123.71247  96554893.11847  23579699.5164   23579704.2044   23579699.9014
        45.000          39.000
 116005057.75147  90393540.57247  22075034.9844   22075039.8274   22075035.0424
        50.000          44.000
 118045601.19947  91983570.13047  22463342.2064   22463345.0584   22463341.8424
        50.000          44.000
 121778060.75547  94891976.51647  23173608.4444   23173611.6224   23173608.7114
        47.000          41.000
 125580874.03747  97855226.87547  23897244.2464   23897245.3314   23897244.5584
        45.000          39.000
 105044736.70547  81853025.88747  19989361.1604   19989363.2314   19989361.4814
        54.000          49.000
 122161184.83347  95190526.49447  23246505.7914   23246507.8424   23246506.2214
        48.000          41.000
 127382433.08647  99259024.82047  24240081.4774   24240085.5274   24240080.8364
        42.000          36.000
 128226749.41347  99916927.13147  24400754.4344   24400758.6774   24400754.6554
        43.000          38.000
 09  1 22  0  7  0.0000000  0 12G30G 9G14G 5G24G31G29G22G21G18G 6G12
 121251392.51047  94481585.84847  23073387.5584   23073391.2964   23073387.3854
        48.000          41.000
 121366474.58647  94571266.92647  23095281.2894   23095284.4284   23095281.6004
        46.000          40.000
 116242413.90547  90578492.53947  22120206.7434   22120209.6894   22120206.9654
        50.000          44.000
 123901340.94347  96546490.99247  23577647.2214   23577652.2944   23577647.3374
        44.000          39.000
 116064170.41947  90439602.38447  22086283.5674   22086288.2094   22086283.6414
        50.000          44.000
 117951289.60947  91910080.63447  22445395.3624   22445398.0494   22445395.3404
        50.000          44.000
 121852002.74247  94949593.60547  23187678.9704   23187682.7484   23187678.9944
        47.000          42.000
 125546991.79847  97828825.15547  23890796.6014   23890797.4454   23890796.1794
        45.000          39.000
 105028627.95447  81840473.61847  19986295.7194   19986297.7794   19986295.9694
        54.000          49.000
 122128680.40047  95165198.36147  23240320.4304   23240322.3174   23240320.8344
        48.000          41.000
 127347523.08747  99231822.20147  24233439.0764   24233443.3304   24233439.1164
        43.000          37.000
 128230413.10647  99919782.02547  24401452.2164   24401455.4184   24401452.1734
        45.000          38.000
 09  1 22  0  7 30.0000000  0 12G30G 9G14G 5G24G31G29G22G21G18G 6G12
 121224203.43447  94460399.57847  23068213.4854   23068217.2764   23068213.1054
        48.000          41.000
 121456124.92947  94641124.35747  23112341.1294   23112344.8164   23112341.4734
        46.000          40.000
 116270284.64547  90600210.01747  22125510.2654   22125513.1124   22125510.5184
        50.000          44.000
 123890676.75647  96538181.27747  23575618.0134   23575622.6544   23575618.3424
        45.000          39.000
 116123703.94747  90485992.14347  22097612.4154   22097617.3984   22097612.6514
        50.000          44.000
 117857213.93047  91836774.95947  22427493.3744   22427496.1984   22427492.6004
        50.000          44.000
 121925863.81147  95007147.66847  23201734.3524   23201738.4684   23201734.0964
        46.000          42.000
 125512887.11347  97802250.11447  23884306.2504   23884307.2304   23884306.3144
        45.000          39.000
 105013111.28947  81828382.71847  19983343.0644   19983345.0404   19983343.4294
        54.000          49.000
 122096039.61647  95139763.97447  23234108.9764   23234111.1414   23234109.4224
        48.000          41.000
 127312905.67447  99204847.59247  24226851.2794   24226855.4824   24226851.3514
        43.000          37.000
 128234184.43847  99922720.77647  24402169.9314   24402173.1984   24402169.5234
        44.000          38.000
 09  1 22  0  8  0.0000000  0 12G30G 9G14G 5G24G31G29G22G21G18G 6G12
 121196983.75447  94439189.47647  23063034.0354   23063037.7004   23063033.7484
        48.000          42.000
 121546120.46147  94711250.74047  23129466.7254   23129470.5784   23129466.5594
        44.000          40.000
 116298418.41847  90622132.45247  22130864.1924   22130866.6124   22130864.5054
        50.000          44.000
 123880133.55847  96529965.82447  23573611.9084   23573616.4934   23573612.1754
        46.000          39.000
 116183657.20047  90532708.95947  22109021.3254   22109026.1934   22109021.5824
        50.000          44.000
 117763377.20047  91763655.47947  22409636.8614   22409639.5664   22409636.5314
        50.000          44.000
 121999642.01047  95064637.13347  23215773.7974   23215777.9144   23215773.7954
        47.000          42.000
 125478560.49447  97775502.15147  23877774.3364   23877775.1044   23877774.2514
        45.000          39.000
 104998188.47147  81816754.55247  19980503.4254   19980505.3064   19980503.9294
        54.000          50.000
 122063264.29147  95114224.74147  23227872.1454   23227874.3154   23227872.6044
        47.000          41.000
 127278580.50647  99178100.71347  24220318.8164   24220323.5724   24220319.2994
        43.000          37.000
 128238065.41647  99925744.97447  24402908.4924   24402911.4804   24402908.4684
        43.000          38.000
 09  1 22  0  8 30.0000000  0 12G30G 9G14G 5G24G31G29G22G21G18G 6G12
 121169735.79947  94417957.33447  23057848.8634   23057852.8034   23057848.4744
        48.000          41.000
 121636458.78947  94781644.26247  23146657.7184   23146661.4984   23146657.6414
        46.000          40.000
 116326813.02047  90644258.13647  22136267.3764   22136269.9624   22136267.5564
        50.000          44.000
 123869713.91847  96521846.66047  23571628.9324   23571633.8364   23571629.2854
        45.000          39.000
 116244029.20247  90579752.06947  22120509.8264   22120514.7014   22120509.8364
        50.000          44.000
 117669783.09247  91690725.06847  22391826.4304   22391829.1924   22391826.5444
        50.000          44.000
 122073335.87447  95122060.90447  23229797.3564   23229801.4264   23229797.0444
        47.000          42.000
 125444012.90647  97748581.98247  23871199.8604   23871200.9504   23871200.0944
        45.000          39.000
 104983860.91947  81805590.22847  19977776.9814   19977778.9034   19977777.3074
        54.000          49.000
 122030356.09247  95088582.00147  23221609.7984   23221611.9894   23221610.0424
        47.000          40.000
 127244547.46647  99151581.45147  24213843.2194   24213847.3174   24213843.2744
        42.000          37.000
 128242058.43147  99928856.47547  24403667.4374   24403672.4814   24403666.8014
        44.000          38.000
 09  1 22  0  9  0.0000000  0 12G30G 9G14G 5G24G31G29G22G21G18G 6G12
 121142460.23647  94396703.67447  23052658.5534   23052662.0204   23052658.0914
        48.000          42.000
 121727135.81447  94852301.69547  23163912.6904   23163916.7534   23163912.7854
        46.000          40.000
 116355464.90147  90666584.29747  22141719.7394   22141722.2174   22141719.8514
        50.000          44.000
 123859418.64147  96513824.38147  23569669.6064   23569674.4954   23569669.7804
        45.000          39.000
 116304816.95447  90627119.15347  22132077.3864   22132082.3064   22132077.5824
        51.000          44.000
 117576432.89047  91617984.71847  22374062.2094   22374065.2824   22374061.7394
        50.000          44.000
 122146942.35347  95179416.56947  23243804.1934   23243808.0924   23243804.1314
        47.000          42.000
 125409243.20947  97721488.72747  23864583.4224   23864584.2244   23864583.1354
        45.000          39.000
 104970128.53347  81794889.66747  19975163.6114   19975165.6614   19975163.9414
        54.000          49.000
 121997315.57247  95062836.11147  23215322.3794   23215324.4614   23215322.7634
        48.000          41.000
 127210804.37347  99125288.12247  24207422.1594   24207425.8044   24207422.0694
        42.000          37.000
 128246164.12747  99932055.77247  24404449.6834   24404452.6164   24404449.5264
        44.000          38.000
 09  1 22  0  9 30.0000000  0 12G30G 9G14G 5G24G31G29G22G21G18G 6G12
 121115160.83847  94375431.43647  23047463.3334   23047467.4014   23047463.3324
        48.000          42.000
 121818150.69547  94923222.39247  23181232.2944   23181235.9884   23181232.3984
        46.000          40.000
 116384373.09547  90689110.16547  22147220.4894   22147223.2874   22147220.7844
        50.000          44.000
 123849251.54547  96505901.99847  23567734.8914   23567740.1644   23567735.1514
        45.000          39.000
 116366020.62147  90674810.31047  22143724.3124   22143728.9254   22143724.5594
        50.000          44.000
 117483331.56847  91545438.29047  22356345.6544   22356348.4914   22356344.9674
        50.000          44.000
 122220461.02547  95236703.81947  23257794.4334   23257798.5854   23257794.0924
        47.000          42.000
 125374254.06247  97694224.49147  23857925.4934   23857926.0974   23857924.9044
        45.000          39.000
 104956994.08147  81784655.02947  19972664.3464   19972666.2004   19972664.7584
        54.000          49.000
 121964146.06447  95036989.73647  23209010.3364   23209012.9794   23209010.5904
        47.000          41.000
 127177352.33547  99099221.60347  24201055.9504   24201059.8024   24201056.3424
        42.000          37.000
 128250386.00447  99935345.58847  24405252.4444   24405256.5734   24405252.3874
        43.000          38.000
 09  1 22  0 10  0.0000000  0 12G30G 9G14G 5G24G31G29G22G21G18G 6G12
 121087838.22847  94354141.13747  23042264.3764   23042268.2824   23042263.8914
        49.000          42.000
 121909499.25947  94994403.10547  23198615.6004   23198618.7874   23198615.6154
        46.000          40.000
 116413533.36147  90711832.46247  22152769.5004   22152772.1984   22152769.6524
        50.000          44.000
 123839213.13847  96498079.90747  23565825.0444   23565829.6164   23565825.4884
        45.000          39.000
 116427637.04747  90722823.10047  22155449.4264   22155454.1294   22155449.5794
        51.000          44.000
 117390480.20047  91473086.63947  22338676.4604   22338679.2224   22338676.0824
        50.000          45.000
 122293888.30847  95293919.84647  23271767.2214   23271771.2964   23271767.1394
        47.000          42.000
 125339043.65647  97666787.84247  23851224.7044   23851225.4494   23851224.5014
        45.000          38.000
 104944457.05147  81774885.91347  19970278.5424   19970280.3644   19970278.9124
        54.000          49.000
 121930846.65447  95011042.13647  23202673.8204   23202675.9874   23202674.3224
        47.000          40.000
 127144188.93247  99073379.97947  24194745.1554   24194749.5524   24194744.8554
        42.000          37.000
 128254724.10547  99938725.96447  24406078.1224   24406082.2464   24406077.4924
        43.000          38.000
 09  1 22  0 10 30.0000000  0 12G30G 9G14G 5G24G31G29G22G21G18G 6G12
 121060496.53547  94332835.95747  23037061.2454   23037065.1474   23037060.8404
        49.000          42.000
 122001180.87447  95065843.34247  23216061.9474   23216064.8374   23216062.0024
        46.000          39.000
 116442945.58947  90734751.09447  22158366.3584   22158369.3364   22158366.5094
        50.000          44.000
 123829308.07047  96490361.71447  23563940.1194   23563944.7664   23563940.5284
        45.000          39.000
 116489667.53047  90771158.54147  22167253.6414   22167258.1214   22167253.8354
        51.000          44.000
 117297884.33247  91400934.07647  22321055.9824   22321058.6124   22321055.6614
        49.000          44.000
 122367224.90647  95351065.21647  23285722.7934   23285726.9314   23285722.5134
        46.000          41.000
 125303614.85047  97639180.98947  23844482.8064   23844483.6904   23844482.9974
        45.000          39.000
 104932520.85747  81765584.98447  19968007.2274   19968009.1804   19968007.5704
        54.000          50.000
 121897421.59747  94984996.64047  23196313.6584   23196315.3494   23196313.8494
        48.000          41.000
 127111316.10847  99047764.77847  24188489.6864   24188494.0824   24188489.5884
        42.000          37.000
 128259183.26247  99942200.67947  24406926.4184   24406930.3814   24406926.3784
        42.000          38.000
 09  1 22  0 11  0.0000000  0 12G30G 9G14G 5G24G31G29G22G21G18G 6G12
 121033132.91047  94311513.69647  23031854.0184   23031858.0904   23031853.8204
        49.000          42.000
 122093188.03647  95137537.25047  23233570.3654   23233573.5434   23233570.7454
        45.000          39.000
 116472602.03347  90757860.02447  22164009.8104   22164012.7844   22164010.0684
        50.000          44.000
 123819533.12547  96482744.89447  23562079.8834   23562084.3844   23562080.4644
        45.000          39.000
 116552105.02647  90819811.12347  22179134.8244   22179139.5684   22179135.0564
        50.000          44.000
 117205541.37847  91328978.58147  22303483.7194   22303486.4914   22303483.2044
        50.000          45.000
 122440463.58047  95408134.28347  23299659.7844   23299663.6874   23299659.7274
        46.000          41.000
 125267963.10447  97611400.41847  23837698.7664   23837699.8714   23837698.7164
        46.000          39.000
 104921181.41247  81756749.05347  19965849.5294   19965851.4834   19965850.0244
        54.000          49.000
 121863867.27847  94958850.40947  23189928.4714   23189929.9324   23189928.7504
        47.000          41.000
 127078727.74647  99022371.25247  24182288.4854   24182292.9374   24182288.3214
        43.000          37.000
 128263759.91547  99945766.94447  24407796.7984   24407801.3294   24407796.5314
        42.000          38.000
 09  1 22  0 11 30.0000000  0 12G30G 9G14G 5G24G31G29G22G21G18G 6G12
 121005755.80647  94290180.92147  23026644.6424   23026648.4314   23026644.2534
        49.000          42.000
 122185524.64547  95209487.87347  23251141.6254   23251144.4104   23251141.5984
        45.000          39.000
 116502506.72047  90781162.39447  22169700.5064   22169703.3694   22169700.5534
        50.000          44.000
 123809896.95147  96475236.21047  23560246.3194   23560250.5244   23560246.8664
        45.000          39.000
 116614954.55747  90868784.77647  22191094.9234   22191099.7404   22191094.9694
        50.000          44.000
 117113460.92747  91257227.65047  22285961.2844   22285964.1824   22285961.3974
        50.000          45.000
 122513608.87647  95465130.59647  23313578.9214   23313582.7744   23313578.7304
        46.000          41.000
 125232095.23447  97583451.44847  23830873.3854   23830874.2054   23830873.3444
        46.000          39.000
 104910446.02047  81748383.81147  19963806.4664   19963808.4724   19963806.9604
        54.000          49.000
 121830191.73547  94932609.73747  23183520.0434   23183522.2764   23183520.3604
        47.000          41.000
 127046429.68747  98997203.95547  24176142.2884   24176146.9854   24176143.0184
        44.000          37.000
 128268462.15447  99949431.06547  24408692.3684   24408695.6274   24408692.1104
        42.000          38.000
 09  1 22  0 12  0.0000000  0 12G30G 9G14G 5G24G31G29G22G21G18G 6G12
 120978364.21947  94268836.85947  23021432.1584   23021435.7964   23021431.9674
        48.000          42.000
 122278184.71747  95281690.55247  23268774.1364   23268776.6354   23268774.2684
        45.000          39.000
 116532653.79347  90804653.63147  22175437.2434   22175439.9144   22175437.3584
        50.000          44.000
 123800398.56447  96467834.91947  23558438.7394   23558442.9904   23558439.5614
        45.000          39.000
 116678211.34347  90918075.77447  22203132.3664   22203136.9254   22203132.6154
        50.000          44.000
 117021642.66147  91185681.01247  22268488.8154   22268491.5464   22268488.0774
        50.000          45.000
 122586655.86547  95522050.28847  23327479.1954   23327483.1994   23327479.0194
        46.000          41.000
 125196008.62547  97555332.02847  23824006.0034   23824007.2204   23824006.4094
        46.000          39.000
 104900312.53447  81740487.59047  19961878.1284   19961880.1304   19961878.4674
        54.000          49.000
 121796393.33947  94906273.32447  23177087.9914   23177090.3894   23177088.4394
        47.000          40.000
 127014418.01247  98972259.77747  24170050.3524   24170055.1444   24170050.8494
        42.000          37.000
 128273288.99347  99953192.27347  24409610.5164   24409614.6794   24409610.3204
        43.000          38.000
 09  1 22  0 12 30.0000000  0 12G30G 9G14G 5G24G31G29G22G21G18G 6G12
 120950961.84947  94247484.40947  23016217.5384   23016221.3304   23016217.0694
        49.000          42.000
 122371167.26847  95354144.50347  23286467.7694   23286470.7904   23286467.6654
        45.000          39.000
 116563042.43847  90828333.10747  22181219.9684   22181222.7954   22181220.0364
        50.000          44.000
 123791041.52947  96460543.76047  23556658.1294   23556662.0414   23556658.6434
        46.000          39.000
 116741875.34347  90967684.07347  22215247.1664   22215251.2304   22215247.3364
        50.000          43.000
 116930091.23347  91114342.29247  22251067.5314   22251070.0094   22251066.9174
        51.000          45.000
 122659604.42147  95578893.30247  23341361.1074   23341364.7024   23341361.0694
        46.000          41.000
 125159705.30547  97527043.73947  23817097.9414   23817098.7874   23817098.1784
        46.000          39.000
 104890783.53647  81733062.39847  19960064.7924   19960066.8204   19960065.1794
        54.000          49.000
 121762475.22747  94879843.62147  23170633.7974   23170635.7474   23170634.2354
        47.000          40.000
 126982693.35647  98947539.27147  24164013.3644   24164018.1264   24164013.5974
        43.000          37.000
 128278243.45047  99957052.94447  24410553.0124   24410557.3414   24410552.7524
        42.000          38.000
 09  1 22  0 13  0.0000000  0 12G30G 9G14G 5G24G31G29G22G21G18G 6G12
 120923548.02847  94226123.02347  23011000.8554   23011004.5564   23011000.3094
        49.000          42.000
 122464467.57347  95426846.06247  23304221.9994   23304225.0484   23304222.1174
        46.000          39.000
 116593667.81647  90852197.04947  22187047.9634   22187050.5804   22187047.9254
        50.000          44.000
 123781825.78447  96453362.68047  23554904.3994   23554909.1434   23554904.7134
        45.000          39.000
 116805942.68847  91017606.67347  22227438.5704   22227443.3764   22227438.5874
        50.000          43.000
 116838807.30847  91043212.02047  22233696.6484   22233699.1724   22233696.7254
        51.000          45.000
 122732450.23947  95635656.25647  23355223.2754   23355226.7874   23355222.8194
        46.000          41.000
 125123183.38047  97498585.11447  23810148.3144   23810148.3524   23810148.4844
        46.000          39.000
 104881857.18047  81726106.79847  19958366.2124   19958368.1464   19958366.5674
        54.000          49.000
 121728437.00647  94853320.32147  23164156.1244   23164158.5774   23164156.6944
        48.000          40.000
 126951252.86747  98923040.17347  24158030.6414   24158035.1534   24158030.5784
        42.000          37.000
 128283325.33847  99961012.90847  24411519.8734   24411524.1334   24411519.4864
        42.000          38.000
 09  1 22  0 13 30.0000000  0 12G30G 9G14G 5G24G31G29G22G21G18G 6G12
 120896125.78047  94204755.07247  23005782.9094   23005786.0464   23005782.5894
        49.000          42.000
 122558083.53947  95499793.59447  23322036.5174   23322039.8944   23322036.9194
        46.000          39.000
 116624528.10947  90876244.03847  22192920.6534   22192923.3214   22192920.8634
        50.000          44.000
 123772754.20847  96446293.93447  23553178.2664   23553182.4774   23553178.3604
        45.000          39.000
 116870412.62247  91067842.97547  22239706.8284   22239711.6624   22239707.0094
        50.000          43.000
 116747794.42747  90972292.94947  22216377.2624   22216379.8594   22216376.8794
        50.000          45.000
 122805191.86247  95692338.01547  23369065.1554   23369069.0884   23369065.0024
        47.000          41.000
 125086444.16547  97469957.16447  23803156.7754   23803157.4654   23803156.5724
        45.000          39.000
 104873535.90447  81719622.68847  19956782.5774   19956784.7114   19956783.0094
        54.000          49.000
 121694280.67047  94826704.97447  23157657.3284   23157659.0794   23157657.5414
        48.000          40.000
 126920096.60147  98898762.55147  24152101.5244   24152106.4734   24152101.7524
        43.000          37.000
 128288537.57147  99965074.41247  24412511.9784   24412515.6824   24412511.3684
        43.000          38.000
 09  1 22  0 14  0.0000000  0 12G30G 9G14G 5G24G31G29G22G21G18G 6G12
 120868699.52147  94183383.99647  23000563.5884   23000566.9854   23000563.6264
        49.000          42.000
 122652014.39147  95572986.49147  23339911.5444   23339914.6054   23339911.6654
        46.000          40.000
 116655622.83247  90900473.70447  22198837.8654   22198840.4124   22198838.0684
        50.000          44.000
 123763830.99447  96439340.79447  23551480.2684   23551484.6504   23551480.9464
        45.000          39.000
 116935285.42047  91118393.20647  22252051.8254   22252056.3364   22252051.9704
        50.000          43.000
 116657057.73947  90901589.08547  22199110.7654   22199113.1054   22199110.1154
        50.000          45.000
 122877829.88847  95748939.05747  23382887.8444   23382891.4614   23382887.5534
        46.000          41.000
 125049490.50947  97441162.11347  23796124.0084   23796125.3714   23796124.3364
        44.000          39.000
 104865822.54447  81713612.28047  19955314.8444   19955316.8284   19955315.3014
        54.000          49.000
 121660009.86747  94800000.43247  23151135.5104   23151137.3484   23151136.0994
        48.000          41.000
 126889225.74347  98874707.32447  24146227.6674   24146232.0024   24146227.2254
        41.000          37.000
 128293883.94147  99969240.45847  24413529.8424   24413533.0724   24413529.8824
        43.000          38.000
 09  1 22  0 14 30.0000000  0 12G30G 9G14G 5G24G31G29G22G21G18G 6G12
 120841267.97647  94162008.80147  22995343.5034   22995346.8644   22995343.0714
        49.000          42.000
 122746254.46147  95646420.33847  23357844.9424   23357847.8384   23357844.9074
        45.000          39.000
 116686946.30347  90924881.61747  22204798.2634   22204801.0034   22204798.3624
        50.000          44.000
 123755055.22747  96432502.55247  23549810.2674   23549814.8454   23549810.2514
        45.000          39.000
 117000556.23847  91169253.57247  22264472.1954   22264476.8784   22264472.1734
        50.000          43.000
 116566597.22647  90831100.41947  22181896.4084   22181898.8824   22181896.0854
        50.000          45.000
 122950359.47547  95805455.58947  23396689.7684   23396693.3764   23396689.6054
        46.000          41.000
 125012319.70847  97412197.87047  23789050.8804   23789052.2354   23789050.7624
        46.000          39.000
 104858714.49547  81708073.54247  19953962.3244   19953964.1554   19953962.6624
        54.000          49.000
 121625623.03347  94773205.47947  23144591.5244   23144594.0014   23144591.9954
        47.000          41.000
 126858636.40747  98850871.47947  24140405.9474   24140410.9024   24140406.0604
        42.000          37.000
 128299363.17647  99973510.03547  24414572.5444   24414575.7154   24414571.7154
        43.000          38.000
 09  1 22  0 15  0.0000000  0 12G30G 9G14G 5G24G31G29G22G21G18G 6G12
 120813835.83747  94140633.14847  22990123.2574   22990126.9104   22990122.9274
        49.000          42.000
 122840803.61347  95720095.01847  23375837.0274   23375840.1534   23375836.9194
        45.000          39.000
 116718498.37347  90949467.65847  22210802.4274   22210805.1964   22210802.6134
        50.000          44.000
 123746431.56447  96425782.85447  23548168.9424   23548173.5704   23548169.2654
        45.000          39.000
 117066226.10147  91220424.88747  22276968.7294   22276973.6754   22276968.8734
        49.000          43.000
 116476417.76547  90760830.75947  22164735.6104   22164738.0944   22164735.1274
        50.000          45.000
 123022781.23247  95861888.09947  23410471.7034   23410474.9994   23410471.2584
        47.000          41.000
 124974934.79947  97383066.79247  23781937.2284   23781938.1644   23781937.5224
        46.000          39.000
 104852215.06747  81703009.04947  19952725.5434   19952727.3054   19952725.9714
        54.000          49.000
 121591124.52147  94746323.52047  23138026.7664   23138029.0604   23138027.2694
        47.000          41.000
 126828330.32647  98827256.33547  24134639.6374   24134643.3244   24134639.7214
        41.000          37.000
 128304979.62547  99977886.55547  24415640.9424   24415645.0014   24415641.1064
        43.000          38.000
 09  1 22  0 15 30.0000000  0 12G30G 9G14G 5G24G31G29G22G21G18G 6G12
 120786403.49747  94119257.33147  22984902.9144   22984906.7564   22984902.2934
        48.000          42.000
 122935657.19647  95794006.91147  23393886.6574   23393890.3204   23393887.0314
        45.000          39.000
 116750274.34747  90974228.16647  22216849.1014   22216851.8534   22216849.1174
        49.000          44.000
 123737960.08347  96419181.72647  23546557.0574   23546561.4924   23546557.3674
        45.000          39.000
 117132291.42847  91271904.35847  22289540.1504   22289545.5894   22289540.3344
        50.000          43.000
 116386520.97947  90690781.36147  22147629.1894   22147631.3454   22147628.7874
        51.000          45.000
 123095091.47947  95918233.72047  23424231.6064   23424234.9504   23424231.5254
        46.000          41.000
 124937334.44547  97353767.80947  23774782.1124   23774783.1864   23774782.0744
        46.000          39.000
 104846323.05247  81698417.86647  19951604.2894   19951606.0534   19951604.7524
        54.000          49.000
 121556514.11547  94719354.39047  23131440.6084   23131442.9964   23131441.0814
        48.000          41.000
 126798304.67247  98803859.71947  24128925.5064   24128930.4274   24128925.4944
        44.000          37.000
 128310733.26247  99982369.95847  24416736.0254   24416739.3854   24416735.7874
        44.000          39.000
 09  1 22  0 16  0.0000000  0 12G30G 9G14G 5G24G31G29G22G21G18G 6G12
 120758974.34947  94097884.00647  22979683.2384   22979687.1614   22979682.9704
        48.000          42.000
 123030813.69547  95868154.85447  23411994.3514   23411997.5734   23411994.7854
        45.000          39.000
 116782273.39847  90999162.50847  22222938.6834   22222941.1294   22222938.8644
        50.000          44.000
 123729644.18647  96412701.82347  23544974.6734   23544978.6014   23544975.2874
        46.000          39.000
 117198751.48347  91323691.40747  22302187.1614   22302192.3554   22302187.6614
        49.000          43.000
 116296910.69247  90620955.21247  22130576.9164   22130579.0674   22130576.4874
        51.000          45.000
 123167289.66947  95974492.02447  23437970.3614   23437974.1784   23437970.3254
        46.000          41.000
 124899520.59547  97324302.47247  23767585.9994   23767587.4734   23767586.0254
        45.000          39.000
 104841040.64047  81694301.69647  19950599.1544   19950600.9344   19950599.5254
        54.000          49.000
 121521794.86147  94692300.40547  23124833.8724   23124836.2944   23124834.5314
        47.000          41.000
 126768559.99047  98780682.04047  24123265.7614   24123269.2664   24123265.6574
        42.000          37.000
 128316627.13447  99986962.62247  24417857.5504   24417861.4304   24417857.2734
        43.000          39.000
 09  1 22  0 16 30.0000000  0 12G30G 9G14G 5G24G31G29G22G21G18G 6G12
 120731550.75947  94076514.99547  22974464.4264   22974468.3754   22974464.1204
        48.000          42.000
 123126270.86547  95942537.08447  23430159.1994   23430162.4414   23430159.7464
        44.000          38.000
 116814493.34347  91024268.96547  22229069.8524   22229072.4724   22229070.0634
        50.000          44.000
 123721486.49447  96406345.20447  23543422.0534   23543425.8574   23543422.6024
        45.000          39.000
 117265605.04147  91375785.07947  22314909.0594   22314913.8134   22314908.8044
        49.000          43.000
 116207590.24047  90551354.91147  22113579.8404   22113581.9784   22113579.4484
        51.000          45.000
 123239374.48947  96030661.98547  23451687.5064   23451691.2654   23451687.1374
        46.000          41.000
 124861493.92347  97294671.33447  23760350.0914   23760350.8044   23760350.0094
        45.000          39.000
 104836368.97547  81690661.44047  19949709.9154   19949712.1044   19949710.2544
        54.000          49.000
 121486968.70847  94665163.15847  23118206.5764   23118208.9894   23118206.9984
        48.000          41.000
 126739095.64547  98757722.80347  24117658.7564   24117663.2544   24117658.4384
        42.000          37.000
 128322663.68147  99991666.47347  24419005.8294   24419010.2394   24419005.9254
        43.000          39.000
 09  1 22  0 17  0.0000000  0 12G30G 9G14G 5G24G31G29G22G21G18G 6G12
 120704132.21247  94055149.90347  22969247.0294   22969250.7324   22969246.8054
        49.000          42.000
 123222023.54147  96017149.56747  23448380.0284   23448384.0114   23448380.4344
        44.000          38.000
 116846929.17147  91049543.65647  22235242.1864   22235244.5434   22235242.3604
        50.000          44.000
 123713486.52447  96400111.48047  23541899.2304   23541904.3974   23541899.7734
        46.000          39.000
 117332848.08947  91428182.25247  22327705.5324   22327710.0474   22327705.4884
        50.000          43.000
 116118559.74147  90481980.53347  22096638.0174   22096639.7624   22096637.5864
        51.000          45.000
 123311341.84947  96086740.43347  23465382.0444   23465386.3044   23465381.8574
        45.000          41.000
 124823252.68447  97264872.97447  23753073.1174   23753073.9144   23753073.3104
        46.000          40.000
 104832306.00147  81687495.48747  19948936.7834   19948938.9394   19948937.0884
        54.000          49.000
 121452034.61547  94637941.77247  23111559.0574   23111561.3794   23111559.6004
        48.000          41.000
 126709908.28747  98734979.40847  24112104.8074   24112108.9374   24112105.1064
        43.000          37.000
 128328841.82147  99996480.65047  24420182.3554   24420185.6584   24420181.9214
        44.000          39.000
 09  1 22  0 17 30.0000000  0 12G30G 9G14G 5G24G31G29G22G21G18G 6G12
 120676723.71147  94033792.66547  22964031.3014   22964035.0124   22964031.2914
        49.000          42.000
 123318071.59747  96091992.23547  23466657.5574   23466660.4954   23466657.7544
        45.000          38.000
 116879580.69647  91074986.42747  22241455.4354   22241458.1374   22241455.6914
        50.000          44.000
 123705649.20247  96394004.49547  23540407.9874   23540412.9274   23540408.6724
        45.000          39.000
 117400481.57347  91480883.65747  22340575.6404   22340580.4274   22340575.5874
        49.000          43.000
 116029825.36547  90412836.90847  22079752.4564   22079754.0954   22079752.1884
        51.000          45.000
 123383192.40847  96142727.86247  23479054.9414   23479059.4144   23479054.1254
        46.000          41.000
 124784800.12847  97234909.95047  23745755.5654   23745756.5694   23745755.7144
        45.000          39.000
 104828855.39647  81684806.70447  19948280.1354   19948282.3834   19948280.5254
        54.000          49.000
 121416997.07147  94610639.78747  23104891.7324   23104893.7704   23104892.0084
        48.000          41.000
 126680999.91047  98712453.37847  24106603.7084   24106607.4734   24106602.9814
        43.000          38.000
 128335166.40447 100001408.93647  24421385.2344   24421389.2804   24421384.8714
        44.000          39.000
 09  1 22  0 18  0.0000000  0 12G30G 9G14G 5G24G31G29G22G21G18G 6G12
 120649327.58247  94012445.04747  22958818.0354   22958821.8284   22958817.6094
        49.000          42.000
 123414412.36247  96167062.99347  23484990.7894   23484993.8764   23484990.6524
        45.000          38.000
 116912445.49047  91100595.37847  22247709.1664   22247712.0834   22247709.4194
        50.000          44.000
 123697976.65947  96388025.90647  23538948.1234   23538952.9144   23538948.7724
        45.000          40.000
 117468503.85947  91533888.02747  22353519.7644   22353524.8734   22353520.0404
        50.000          43.000
 115941389.92947  90343926.21447  22062923.5924   22062925.3554   22062923.1254
        51.000          45.000
 123454924.74547  96198623.15247  23492705.0674   23492709.6824   23492704.5584
        45.000          41.000
 124746137.22847  97204783.01947  23738398.1794   23738399.4224   23738398.3374
        46.000          40.000
 104826018.00547  81682595.75047  19947740.3214   19947742.4204   19947740.6924
        54.000          49.000
 121381858.21747  94583258.85547  23098205.0744   23098206.9314   23098205.3214
        48.000          41.000
 126652369.73247  98690144.13447  24101155.2584   24101160.0054   24101155.2774
        43.000          38.000
 128341639.45847 100006452.93447  24422616.9914   24422620.6744   24422616.9114
        43.000          38.000
 09  1 22  0 18 30.0000000  0 12G30G 9G14G 5G24G31G29G22G21G18G 6G12
 120621943.63247  93991106.92947  22953607.1724   22953610.8154   22953607.1094
        49.000          42.000
 123511040.78947  96242357.89347  23503378.4644   23503382.0944   23503378.6094
        46.000          39.000
 116945518.37447  91126366.47047  22254003.1384   22254005.4444   22254003.3044
        50.000          44.000
 123690468.53247  96382175.44947  23537519.4954   23537523.4974   23537519.9384
        45.000          39.000
 117536910.59147  91587191.96147  22366537.0744   22366542.0194   22366537.3964
        49.000          43.000
 115853253.64847  90275248.63247  22046151.8714   22046153.6534   22046151.2284
        51.000          45.000
 123526534.58447  96254423.00347  23506332.0904   23506336.6684   23506331.9054
        46.000          41.000
 124707261.70247  97174490.41347  23731001.0544   23731001.4344   23731000.9064
        46.000          40.000
 104823791.63747  81680860.91847  19947316.7334   19947318.6264   19947317.1834
        54.000          49.000
 121346616.91347  94555798.08347  23091498.8774   23091500.5354   23091499.4974
        48.000          41.000
 126624014.25747  98668048.94547  24095759.7214   24095764.1794   24095759.8394
        44.000          38.000
 128348260.53247 100011612.23947  24423877.1704   24423880.5624   24423876.7914
        44.000          39.000
 09  1 22  0 19  0.0000000  0 12G30G 9G14G 5G24G31G29G22G21G18G 6G12
 120594576.95647  93969782.25847  22948399.4154   22948403.2564   22948399.0664
        49.000          42.000
 123607957.25047  96317877.24147  23521821.1844   23521825.1174   23521821.4194
        45.000          39.000
 116978800.29047  91152300.44747  22260335.8864   22260338.6294   22260336.1584
        49.000          44.000
 123683130.12047  96376457.23547  23536123.0044   23536127.4434   23536123.4934
        45.000          39.000
 117605703.23347  91640796.60947  22379628.1234   22379632.6274   22379628.4084
        50.000          43.000
 115765422.92147  90206809.14547  22029437.8964   22029440.0884   22029437.4534
        51.000          45.000
 123598023.46247  96310128.60047  23519936.2144   23519940.3584   23519936.3014
        46.000          41.000
 124668177.34847  97144035.09747  23723563.5544   23723564.0074   23723563.8064
        46.000          40.000
 104822180.00347  81679605.09547  19947009.9864   19947011.9004   19947010.3774
        54.000          49.000
 121311278.29347  94528261.51347  23084773.7914   23084775.9684   23084774.1824
        48.000          41.000
 126595935.81747  98646169.63347  24090416.1834   24090421.0054   24090416.5314
        43.000          38.000
 128355034.00947 100016890.33447  24425166.0344   24425169.3834   24425165.8514
        44.000          39.000
 09  1 22  0 19 30.0000000  0 12G30G 9G14G 5G24G31G29G22G21G18G 6G12
 120567226.93247  93948470.57647  22943194.8884   22943198.7174   22943194.4384
        49.000          42.000
 123705155.84847  96393616.43947  23540317.5314   23540320.5854   23540317.9154
        46.000          39.000
 117012285.41547  91178392.78347  22266708.0864   22266710.7364   22266708.2744
        50.000          44.000
 123675960.50347  96370870.55247  23534758.4654   23534763.1874   23534759.0744
        45.000          39.000
 117674876.97447  91694698.22747  22392791.5904   22392795.8074   22392791.7014
        49.000          43.000
 115677897.55547  90138607.59947  22012782.2394   22012784.6554   22012781.7944
        51.000          46.000
 123669386.71647  96365736.29347  23533516.1004   23533520.7084   23533516.2054
        45.000          41.000
 124628882.39847  97113415.67047  23716085.5104   23716086.5594   23716085.3214
        46.000          40.000
 104821180.48747  81678826.25047  19946819.6874   19946821.6014   19946820.0714
        54.000          49.000
 121275840.96747  94500648.01547  23078030.1974   23078032.8354   23078030.7504
        47.000          41.000
 126568130.36847  98624503.03447  24085124.7724   24085130.0374   24085124.7474
        43.000          38.000
 128361959.00347 100022286.47247  24426484.1014   24426486.9024   24426483.4594
        44.000          39.000
 09  1 22  0 20  0.0000000  0 12G30G 9G14G 5G24G31G29G22G21G18G 6G12
 120539897.15947  93927174.67547  22937994.1014   22937997.6704   22937993.8974
        49.000          42.000
 123802635.38047  96469574.53947  23558867.1724   23558870.8674   23558867.4344
        44.000          38.000
 117045972.48347  91204642.45547  22273118.4704   22273121.3714   22273118.7554
        50.000          44.000
 123668963.21847  96365418.14547  23533427.4344   23533431.8844   23533427.9804
        45.000          40.000
 117744431.31447  91748896.39547  22406026.7044   22406031.8174   22406026.8304
        49.000          43.000
 115590681.73447  90070647.25447  21996185.7594   21996188.2064   21996184.9684
        51.000          46.000
 123740624.18647  96421245.99747  23547071.8774   23547076.6974   23547072.0184
        45.000          40.000
 124589378.62447  97082633.52347  23708568.2164   23708569.6024   23708568.6084
        47.000          40.000
 104820795.33147  81678526.12447  19946746.5144   19946748.4014   19946746.9444
        54.000          49.000
 121240308.30647  94472960.23647  23071268.5134   23071271.0074   23071268.9724
        48.000          41.000
 126540598.50347  98603049.61047  24079886.1144   24079890.8584   24079886.0684
        44.000          38.000
 128369038.86647 100027803.29547  24427830.5874   24427833.6984   24427830.5924
        43.000          38.000
 09  1 22  0 20 30.0000000  0 12G30G 9G14G 5G24G31G29G22G21G18G 6G12
 120512590.56347  93905896.82347  22932797.9624   22932801.3894   22932797.9444
        49.000          42.000
 123900393.78047  96545749.92447  23577469.8704   23577473.4864   23577469.7594
        44.000          38.000
 117079860.02647  91231048.34747  22279567.0574   22279569.7244   22279567.4464
        50.000          44.000
