     2.11           OBSERVATION DATA    G (GPS)             RINEX VERSION / TYPE
teqc  2008Oct2      gpsops              20090120 00:10:12UTCPGM / RUN BY / DATE
    30.0000                                                 INTERVAL
     1     1                                                WAVELENGTH FACT L1/2
     7    L1    L2    P1    P2    C1    S1    S2            # / TYPES OF OBSERV
Linux 2.4.20-8|Pentium IV|gcc -static|Linux|486/DX+         COMMENT
     2.10           OBSERVATION DATA    GPS                 COMMENT
soc2rnx ver 1.20    gpsops              20-Jan-2009 00:10:00COMMENT
S1, if present, is the SNR for the C/A data stream on L1.   COMMENT
 SNR is mapped to RINEX snr flag value [1,4-9]              COMMENT
    SNR:   >316  >100  >31.6  >10  >3.2    >0 bad=0         COMMENT
L1 & L2:      9     8     7     6     5     4     1         COMMENT
                                                            COMMENT
This data is provided as a public service by NASA/JPL.      COMMENT
No warranty is expressed or implied regarding suitability   COMMENT
for use.  For further information, contact:                 COMMENT
Dave Stowers, NASA/JPL m/s 238-600                          COMMENT
4800 Oak Grove Drive, Pasadena CA 91109 USA                 COMMENT
                                                            COMMENT
Forced Modulo Decimation to 30 seconds                      COMMENT
  2009     1    19     0     0    0.0000000     GPS         TIME OF FIRST OBS
GGN                 JPL                                     OBSERVER / AGENCY
CR519992104         ASH701945B_M    SCIT                    ANT # / TYPE
   -33801.4662 -6377516.5323   -82154.3508                  APPROX POSITION XYZ
        0.0083        0.0000        0.0000                  ANTENNA: DELTA H/E/N
ZR220013847         ASHTECH UZ-12       CQ00                REC # / TYPE / VERS
GLPS                                                        MARKER NAME
42005M002                                                   MARKER NUMBER
                                                            END OF HEADER
 09  1 19  0  0  0.0000000  0 12G 5G 6G21G31G24G30G18G22G12G14G 9G29
 124350177.94747  96896228.60447  23663060.3344   23663067.1514   23663061.9504
        45.000          39.000
 128889296.54447 100433188.78247  24526838.8284   24526844.2084   24526839.3404
        42.000          37.000
 106067387.04847  82649885.76547  20183973.0104   20183974.9434   20183973.6694
        54.000          49.000
 121755868.42647  94874698.85247  23169373.0944   23169377.1834   23169372.8404
        47.000          42.000
 114099772.83647  88908892.32447  21712482.0344   21712485.9384   21712482.1094
        52.000          46.000
 122254329.34647  95263098.79547  23264235.7434   23264240.0074   23264235.0154
        47.000          41.000
 123265042.94547  96050663.37347  23456574.0854   23456573.4364   23456573.6514
        47.000          40.000
 126691133.80247  98720357.77747  24108525.9444   24108526.8654   24108525.4164
        45.000          39.000
 128169553.05747  99872363.26147  24389867.2734   24389871.9604   24389867.9384
        44.000          39.000
 115415064.12047  89933819.10847  21962754.7954   21962756.8214   21962755.2064
        51.000          45.000
 118193275.35947  92098662.49247  22491423.6304   22491426.8814   22491424.1794
        49.000          42.000
 118993979.97747  92722572.85547  22643808.0534   22643812.0464   22643807.5124
        49.000          43.000
 09  1 19  0  0 30.0000000  0 12G 5G 6G21G31G24G30G18G22G12G14G 9G29
 124336456.54347  96885536.63347  23660449.8834   23660455.4184   23660450.8344
        45.000          39.000
 128843101.67347 100397192.82047  24518048.4084   24518054.0054   24518048.3704
        42.000          37.000
 106030094.47947  82620826.61947  20176876.8414   20176878.4814   20176877.2334
        55.000          49.000
 121654795.88647  94795941.14347  23150139.7344   23150143.4114   23150138.8794
        47.000          42.000
 114142192.40047  88941946.52747  21720554.0754   21720558.1624   21720554.2764
        52.000          45.000
 122229773.01347  95243964.02847  23259562.8884   23259567.3594   23259562.3814
        47.000          41.000
 123238643.42547  96030092.34347  23451549.5134   23451551.9224   23451549.8134
        47.000          40.000
 126665757.24747  98700583.85047  24103696.8224   24103697.9254   24103696.5194
        45.000          39.000
 128170612.74647  99873189.06547  24390069.1544   24390073.4224   24390068.7534
        44.000          39.000
 115430775.41647  89946061.69047  21965744.6484   21965746.9064   21965744.8764
        51.000          45.000
 118267795.93547  92156730.48047  22505604.7794   22505608.3034   22505604.9344
        48.000          42.000
 119069498.27447  92781418.25047  22658179.0354   22658183.1984   22658178.6634
        48.000          43.000
 09  1 19  0  1  0.0000000  0 12G 5G 6G21G31G24G30G18G22G12G14G 9G29
 124322774.30747  96874875.19647  23657846.3094   23657851.2114   23657846.6954
        45.000          39.000
 128797213.14947 100361435.55047  24509316.8024   24509321.3834   24509316.9834
        42.000          37.000
 105993330.30147  82592179.20447  20169880.8114   20169882.4494   20169881.1844
        54.000          49.000
 121553849.38547  94717281.65247  23130930.3224   23130933.6884   23130929.3774
        47.000          42.000
 114185073.97947  88975360.73947  21728714.0834   21728718.2764   21728713.9954
        52.000          45.000
 122205115.01347  95224750.03247  23254870.8584   23254874.9184   23254870.1634
        47.000          41.000
 123212062.38447  96009379.86247  23446491.3344   23446493.6284   23446491.7764
        48.000          40.000
 126640154.06147  98680633.34747  24098825.1064   24098825.8534   24098825.0194
        46.000          39.000
 128171708.52847  99874043.01347  24390277.5314   24390282.2624   24390276.9774
        44.000          39.000
 115446840.77247  89958580.16247  21968801.6934   21968804.1734   21968801.8744
        51.000          45.000
 118342751.55647  92215137.46847  22519868.5604   22519871.5874   22519868.6644
        49.000          42.000
 119145017.25747  92840264.18147  22672550.1394   22672553.9204   22672549.8884
        48.000          43.000
 09  1 19  0  1 30.0000000  0 12G 5G 6G21G31G24G30G18G22G12G14G 9G29
 124309132.11447  96864244.94747  23655250.3324   23655255.3174   23655250.7814
        45.000          39.000
 128751629.79747 100325916.09147  24500642.2324   24500646.7864   24500642.1974
        42.000          36.000
 105957095.84347  82563944.56747  20162985.4824   20162987.1664   20162985.8184
        54.000          49.000
 121453030.40747  94638721.52447  23111745.0584   23111748.3074   23111745.0374
        48.000          42.000
 114228415.73047  89009133.52447  21736961.4214   21736966.1334   21736961.5104
        52.000          45.000
 122180355.67047  95205457.07947  23250159.3444   23250163.6644   23250158.9734
        48.000          41.000
 123185299.09247  95988525.37447  23441398.4984   23441400.4124   23441398.8424
        47.000          40.000
 126614322.94447  98660505.25247  24093909.2274   24093910.1074   24093909.4274
        45.000          39.000
 128172841.48547  99874925.91147  24390492.8354   24390497.7174   24390492.6094
        44.000          38.000
 115463256.99747  89971372.03647  21971925.4604   21971927.9734   21971925.6614
        51.000          45.000
 118418138.79647  92273880.78647  22534214.4594   22534217.3884   22534214.4224
        48.000          42.000
 119220532.82747  92899107.43847  22686920.0884   22686924.0864   22686919.8584
        48.000          43.000
 09  1 19  0  2  0.0000000  0 12G 5G 6G21G31G24G30G18G22G12G14G 9G29
 124295533.20547  96853648.43447  23652662.7864   23652667.7054   23652663.3984
        45.000          39.000
 128706352.63947 100290635.21547  24492027.2764   24492031.3774   24492026.9454
        42.000          37.000
 105921394.17947  82536125.08747  20156191.8654   20156193.4234   20156192.2724
        54.000          49.000
 121352343.29647  94560264.14447  23092585.0434   23092588.1934   23092584.9784
        49.000          42.000
 114272218.05847  89043265.20547  21745296.7264   21745301.4964   21745296.9834
        52.000          45.000
 122155498.15847  95186087.63247  23245428.9074   23245433.5474   23245428.6794
        47.000          41.000
 123158355.67247  95967530.52247  23436271.2284   23436273.4984   23436271.6254
        48.000          40.000
 126588265.13647  98640200.49447  24088950.8314   24088951.3334   24088950.5154
        45.000          39.000
 128174014.81347  99875840.26147  24390716.5064   24390720.6584   24390716.3134
        45.000          39.000
 115480022.85147  89984436.35047  21975115.8664   21975118.3984   21975116.3834
        51.000          45.000
 118493956.90647  92332959.83147  22548641.7814   22548645.2344   22548642.0714
        49.000          42.000
 119296043.90947  92957947.20647  22701289.3594   22701293.3264   22701288.9964
        48.000          43.000
 09  1 19  0  2 30.0000000  0 12G 5G 6G21G31G24G30G18G22G12G14G 9G29
 124281978.11947  96843086.08747  23650083.0344   23650088.1844   23650083.6734
        45.000          39.000
 128661379.93347 100255591.57647  24483468.1244   24483473.2674   24483467.8644
        42.000          37.000
 105886226.04947  82508721.35247  20149499.4344   20149501.2174   20149499.8634
        54.000          49.000
 121251789.28147  94481910.46847  23073450.3134   23073453.3244   23073449.5024
        48.000          43.000
 114316478.77447  89077754.07347  21753719.1914   21753723.8064   21753719.3864
        51.000          45.000
 122130542.43447  95166641.65047  23240679.8244   23240684.6104   23240679.4154
        47.000          41.000
 123131231.94147  95946395.15747  23431109.9754   23431112.0624   23431110.4944
        48.000          40.000
 126561979.27447  98619718.03047  24083948.5624   24083949.4174   24083948.6924
        46.000          39.000
 128175228.75947  99876786.26947  24390947.2014   24390951.6254   24390946.8964
        44.000          39.000
 115497134.59447  89997770.19047  21978372.1644   21978374.4354   21978372.3644
        51.000          45.000
 118570202.33547  92392371.87947  22563151.1704   22563154.0774   22563151.1634
        49.000          42.000
 119371546.52247  93016780.36847  22715657.2404   22715661.0154   22715656.7814
        49.000          43.000
 09  1 19  0  3  0.0000000  0 12G 5G 6G21G31G24G30G18G22G12G14G 9G29
 124268470.14247  96832560.45047  23647512.8204   23647517.8004   23647513.5284
        46.000          40.000
 128616712.83647 100220786.08547  24474968.7324   24474973.0564   24474968.4694
        41.000          37.000
 105851594.28947  82481735.56147  20142909.2234   20142911.1254   20142909.5954
        54.000          49.000
 121151372.62247  94403663.82647  23054341.7154   23054344.5774   23054341.1174
        48.000          43.000
 114361198.28147  89112600.43447  21762228.9014   21762233.3514   21762228.8904
        51.000          45.000
 122105491.37247  95147121.37247  23235912.6164   23235917.4304   23235912.3664
        48.000          41.000
 123103929.98247  95925120.90347  23425914.6644   23425916.3694   23425915.1454
        48.000          40.000
 126535466.01847  98599058.37347  24078902.9884   24078904.1304   24078903.0654
        45.000          39.000
 128176486.06347  99877766.08447  24391186.6414   24391190.4454   24391186.3744
        44.000          38.000
 115514591.14647  90011372.70847  21981694.1184   21981696.5154   21981694.1634
        51.000          45.000
 118646874.14947  92452116.17847  22577741.0774   22577743.9094   22577741.2114
        49.000          42.000
 119447039.75947  93075606.22747  22730023.0474   22730026.9224   22730023.0314
        48.000          43.000
 09  1 19  0  3 30.0000000  0 12G 5G 6G21G31G24G30G18G22G12G14G 9G29
 124255010.14847  96822072.18947  23644951.8254   23644956.2584   23644952.0504
        46.000          40.000
 128572350.00847 100186217.66547  24466526.7324   24466530.4054   24466526.9584
        42.000          37.000
 105817499.92247  82455168.52647  20136421.0254   20136423.3174   20136421.3114
        54.000          49.000
 121051094.63547  94325525.23447  23035258.9514   23035262.2054   23035259.1214
        48.000          42.000
 114406374.70047  89147802.83347  21770825.7334   21770830.4004   21770825.7264
        51.000          45.000
 122080345.52447  95127527.23347  23231127.7394   23231131.9554   23231127.3064
        48.000          41.000
 123076449.55147  95903707.59947  23420685.4044   23420687.4274   23420685.8644
        48.000          40.000
 126508724.21747  98578220.63547  24073814.1384   24073815.5504   24073814.2074
        44.000          39.000
 128177788.00447  99878780.65847  24391433.9084   24391438.4414   24391433.9504
        44.000          38.000
 115532389.39647  90025241.49647  21985080.8324   21985083.3744   21985081.0994
        50.000          45.000
 118723969.00147  92512190.08947  22592411.5014   22592414.8054   22592411.5634
        48.000          42.000
 119522520.26347  93134422.15747  22744386.4174   22744390.3604   22744386.4574
        48.000          43.000
 09  1 19  0  4  0.0000000  0 12G 5G 6G21G31G24G30G18G22G12G14G 9G29
 124241602.62147  96811624.83447  23642399.8094   23642404.9744   23642400.2954
        46.000          40.000
 128528293.55547 100151888.03247  24458143.1624   24458147.6234   24458143.2514
        42.000          37.000
 105783947.60347  82429023.86347  20130036.5164   20130038.2864   20130036.8704
        54.000          49.000
 120950960.74047  94247498.92847  23016203.9534   23016207.2814   23016203.3864
        48.000          42.000
 114452009.41247  89183362.35147  21779509.9654   21779514.3774   21779510.0714
        51.000          45.000
 122055108.90547  95107862.37547  23226325.6434   23226329.8034   23226325.5224
        48.000          41.000
 123048794.33347  95882158.08347  23415422.9224   23415424.7964   23415423.3524
        48.000          40.000
 126481756.13247  98557206.57247  24068682.1484   24068683.1104   24068682.7224
        45.000          39.000
 128179138.74847  99879833.25647  24391690.8374   24391695.5184   24391690.8094
        44.000          38.000
 115550529.62647  90039376.75547  21988532.9984   21988535.4414   21988533.0084
        51.000          45.000
 118801487.17047  92572593.85847  22607162.7964   22607166.1794   22607162.6844
        48.000          42.000
 119597987.96047  93193228.12547  22758747.5934   22758751.1274   22758747.2554
        48.000          43.000
 09  1 19  0  4 30.0000000  0 12G 5G 6G21G31G24G30G18G22G12G14G 9G29
 124228246.76947  96801217.72647  23639858.3594   23639863.4964   23639858.7504
        46.000          40.000
 128484540.48447 100117794.74547  24449817.3014   24449821.3204   24449817.1384
        40.000          36.000
 105750936.33447  82403300.79847  20123754.5724   20123756.5074   20123754.9504
        54.000          49.000
 120850971.00547  94169584.94747  22997176.5594   22997179.8194   22997175.6194
        48.000          42.000
 114498098.66147  89219276.04747  21788280.3734   21788284.9394   21788280.5604
        52.000          45.000
 122029780.38847  95088125.90847  23221505.3274   23221509.4224   23221505.0264
        48.000          41.000
 123020962.40347  95860470.87747  23410126.1274   23410128.6174   23410126.7424
        48.000          40.000
 126454559.11247  98536014.11447  24063506.8814   24063507.9684   24063507.1144
        45.000          39.000
 128180536.86747  99880922.79647  24391957.0164   24391961.0404   24391956.8004
        44.000          38.000
 115569006.30547  90053774.18947  21992048.8664   21992051.6264   21992048.9724
        50.000          45.000
 118879423.69047  92633323.62747  22621993.6904   22621997.0684   22621993.7694
        48.000          42.000
 119673437.73847  93252020.11547  22773105.1764   22773108.8104   22773104.6484
        48.000          43.000
 09  1 19  0  5  0.0000000  0 12G 5G 6G21G31G24G30G18G22G12G14G 9G29
 124214946.91947  96790854.26747  23637327.4484   23637332.5084   23637327.7014
        46.000          39.000
 128441092.76647 100083939.39347  24441549.4594   24441553.6514   24441549.1364
        41.000          36.000
 105718470.09847  82378002.43547  20117576.7084   20117578.4314   20117577.1334
        55.000          49.000
 120751130.48047  94091787.24447  22978177.3934   22978180.7724   22978177.2704
        48.000          43.000
 114544643.83547  89255545.01247  21797137.6174   21797142.2604   21797137.7674
        52.000          45.000
 122004363.62047  95068320.66147  23216668.7184   23216672.9494   23216667.9464
        47.000          41.000
 122992956.94647  95838648.44847  23404797.2764   23404799.0314   23404797.6084
        48.000          40.000
 126427135.23047  98514644.87047  24058288.2204   24058289.5314   24058288.1174
        45.000          39.000
 128181986.74847  99882052.64747  24392232.3734   24392237.2494   24392232.1924
        44.000          38.000
 115587819.76147  90068434.03347  21995628.9064   21995631.5824   21995629.1924
        50.000          45.000
 118957778.44847  92694379.29647  22636904.2784   22636907.4854   22636904.5134
        48.000          42.000
 119748869.26947  93310797.87947  22787459.5754   22787463.0474   22787459.3074
        48.000          43.000
 09  1 19  0  5 30.0000000  0 12G 5G 6G21G31G24G30G18G22G12G14G 9G29
 124201704.27447  96780535.38447  23634807.4804   23634812.4364   23634807.8314
        45.000          39.000
 128397949.44547 100050321.24447  24433339.9464   24433343.7134   24433339.7364
        42.000          37.000
 105686550.13547  82353129.73947  20111502.5394   20111504.1164   20111502.9564
        54.000          49.000
 120651441.24547  94014107.43947  22959206.9444   22959210.3994   22959206.4294
        48.000          43.000
 114591642.96947  89292167.71547  21806081.2484   21806085.9314   21806081.4784
        51.000          45.000
 121978860.01147  95048447.75747  23211816.0244   23211819.4704   23211815.5794
        48.000          42.000
 122964778.39047  95816691.14647  23399434.9094   23399437.0484   23399435.1744
        48.000          40.000
 126399483.50147  98493098.09547  24053026.7164   24053026.9644   24053026.7394
        46.000          39.000
 128183489.42647  99883223.62647  24392518.9894   24392523.2954   24392518.6434
        44.000          39.000
 115606966.66747  90083353.70647  21999272.2044   21999274.9494   21999272.4524
        50.000          44.000
 119036548.27047  92755758.38947  22651893.7904   22651896.5424   22651893.7584
        49.000          42.000
 119824279.65547  93369559.17747  22801809.6124   22801813.1574   22801809.3644
        48.000          43.000
 09  1 19  0  6  0.0000000  0 12G 5G 6G21G31G24G30G18G22G12G14G 9G29
 124188521.76347  96770263.34947  23632298.9384   23632303.8104   23632299.4744
        45.000          40.000
 128355110.92147 100016940.59947  24425187.8734   24425191.5484   24425187.5034
        42.000          37.000
 105655179.17047  82328684.83547  20105532.7814   20105534.4964   20105533.1394
        54.000          49.000
 120551907.20147  93936548.55547  22940266.4024   22940269.7804   22940265.8934
        48.000          43.000
 114639095.99047  89329144.09547  21815111.2494   21815115.8224   21815111.5264
        51.000          45.000
 121953271.74047  95028508.86447  23206946.4414   23206950.3784   23206946.3004
        48.000          41.000
 122936428.81547  95794600.56647  23394039.8524   23394042.1944   23394040.4514
        48.000          40.000
 126371604.66347  98471374.37047  24047721.3284   24047722.0604   24047721.4064
        46.000          39.000
 128185047.56147  99884437.84947  24392815.6434   24392819.2944   24392815.1814
        43.000          38.000
 115626445.68647  90098532.18147  22002979.0404   22002981.7034   22002979.3924
        50.000          45.000
 119115732.03947  92817460.04447  22666962.2414   22666964.8924   22666962.1904
        48.000          42.000
 119899667.24047  93428302.71047  22816155.4354   22816159.0464   22816155.0574
        48.000          43.000
 09  1 19  0  6 30.0000000  0 12G 5G 6G21G31G24G30G18G22G12G14G 9G29
 124175398.63247  96760037.58347  23629801.3044   23629806.4164   23629801.9214
        45.000          39.000
 128312574.32447  99983795.24447  24417092.4394   24417097.7684   24417093.1204
        43.000          37.000
 105624356.31247  82304667.02747  20099667.4374   20099669.0474   20099667.8784
        54.000          49.000
 120452528.27547  93859110.53947  22921355.0654   22921358.1254   22921354.5924
        48.000          43.000
 114686999.31447  89366471.36247  21824227.1484   21824231.4934   21824227.1764
        52.000          45.000
 121927597.93247  95008503.31647  23202061.1294   23202064.6254   23202060.5224
        48.000          41.000
 122907906.16547  95772375.13447  23388612.3894   23388614.3394   23388612.5374
        47.000          40.000
 126343495.97647  98449471.51247  24042372.1544   24042373.2804   24042372.4544
        45.000          39.000
 128186660.39247  99885694.67947  24393121.5644   24393125.6674   24393121.2394
        43.000          38.000
 115646251.57447  90113965.35347  22006747.9144   22006750.8284   22006748.2724
        50.000          45.000
 119195324.39047  92879480.06547  22682107.7324   22682110.9584   22682107.8774
        47.000          41.000
 119975026.91547  93487024.50347  22830496.0244   22830499.6494   22830495.7544
        48.000          43.000
 09  1 19  0  7  0.0000000  0 12G 5G 6G21G31G24G30G18G22G12G14G 9G29
 124162341.46247  96749863.20747  23627316.2384   23627321.4244   23627316.8584
        46.000          39.000
 128270343.79047  99950888.35647  24409057.0204   24409060.6984   24409057.1964
        42.000          37.000
 105594087.77147  82281081.15747  20093907.3884   20093909.2394   20093907.7394
        54.000          50.000
 120353311.60247  93781798.96247  22902474.5964   22902477.8084   22902474.2084
        48.000          43.000
 114735356.52047  89404152.30047  21833428.9484   21833433.5774   21833429.0254
        51.000          45.000
 121901844.83547  94988435.98947  23197160.0324   23197164.2674   23197159.7504
        48.000          41.000
 122879216.16747  95750019.30647  23383152.6904   23383154.3704   23383153.2584
        48.000          40.000
 126315162.10247  98427393.18647  24036980.6764   24036981.7454   24036980.4694
        46.000          39.000
 128188334.35847  99886999.12347  24393439.8084   24393444.6134   24393439.7444
        44.000          38.000
 115666386.80147  90129655.15047  22010579.6514   22010582.2494   22010579.9274
        50.000          45.000
 119275327.40047  92941820.07647  22697331.4494   22697334.8234   22697331.7494
        47.000          41.000
 120050360.98847  93545726.34347  22844831.9944   22844835.3564   22844831.5554
        48.000          43.000
 09  1 19  0  7 30.0000000  0 12G 5G 6G21G31G24G30G18G22G12G14G 9G29
 124149348.23747  96739738.65247  23624843.9594   23624848.9674   23624844.4984
        44.000          39.000
 128228414.81447  99918216.45147  24401077.4714   24401082.5164   24401077.3854
        41.000          37.000
 105564371.60447  82257925.70847  20088252.6934   20088254.4974   20088253.1494
        54.000          50.000
 120254256.21247  93704613.05347  22883624.7514   22883628.0794   22883624.2014
        47.000          43.000
 114784162.41547  89442182.86447  21842716.2784   21842721.1354   21842716.4184
        51.000          45.000
 121876009.96647  94968304.94747  23192244.0744   23192248.0204   23192243.7664
        48.000          41.000
 122850355.92447  95727530.78947  23377661.3864   23377663.1084   23377661.8504
        48.000          40.000
 126286598.78747  98405136.08547  24031545.3274   24031545.8344   24031545.4374
        46.000          39.000
 128190067.22847  99888349.47847  24393770.2514   24393774.7494   24393769.6844
        44.000          38.000
 115686844.75747  90145596.43547  22014472.5414   22014475.3074   22014472.6054
        50.000          44.000
 119355734.93147  93004475.31047  22712632.2264   22712635.6824   22712632.6144
        46.000          41.000
 120125663.18547  93604403.35347  22859161.4504   22859165.0484   22859161.2864
        48.000          43.000
 09  1 19  0  8  0.0000000  0 12G 5G 6G21G31G24G30G18G22G12G14G 9G29
 124136424.03647  96729667.88847  23622384.3194   23622389.5674   23622384.3384
        45.000          39.000
 128186790.25247  99885781.73847  24393156.7254   24393161.5284   24393157.1584
        43.000          37.000
 105535212.51447  82235204.34247  20082703.8244   20082705.7144   20082704.2164
        54.000          50.000
 120155367.73747  93627557.20647  22864806.9804   22864809.9374   22864806.1894
        48.000          43.000
 114833419.00147  89480564.62147  21852089.7374   21852094.3174   21852089.6644
        51.000          45.000
 121850098.14847  94948113.95347  23187313.0574   23187316.7514   23187313.4814
        48.000          41.000
 122821329.65347  95704912.92847  23372137.8194   23372139.1894   23372138.1534
        47.000          40.000
 126257809.00747  98382702.52247  24026066.8234   24026067.2784   24026067.2214
        46.000          40.000
 128191863.62747  99889749.36347  24394112.8554   24394116.4424   24394112.6624
        44.000          39.000
 115707626.16547  90161789.74947  22018426.8144   22018429.9004   22018426.8934
        50.000          44.000
 119436547.81047  93067446.39447  22728010.5524   22728014.1214   22728010.6464
        46.000          41.000
 120200933.93147  93663055.84347  22873484.9874   22873488.6344   22873484.9054
        48.000          43.000
 09  1 19  0  8 30.0000000  0 12G 5G 6G21G31G24G30G18G22G12G14G 9G29
 124123570.48247  96719652.15847  23619938.9334   23619943.6984   23619939.5654
        46.000          39.000
 128145469.21647  99853583.52047  24385293.9474   24385297.8644   24385293.8434
        41.000          37.000
 105506611.73247  82212918.02247  20077261.4034   20077263.1014   20077261.8334
        54.000          50.000
 120056648.85847  93550633.50047  22846021.1084   22846024.1584   22846021.3134
        49.000          43.000
 114883124.66547  89519296.30147  21861548.4204   21861553.0774   21861548.6074
        51.000          45.000
 121824110.67547  94927863.98747  23182367.6074   23182372.1474   23182367.0854
        47.000          41.000
 122792138.00147  95682166.20447  23366582.6534   23366584.0644   23366583.1384
        48.000          40.000
 126228792.46947  98360092.25447  24020545.1804   24020545.7914   24020545.3204
        46.000          40.000
 128193725.20447  99891200.00847  24394466.3364   24394470.7714   24394465.9464
        43.000          38.000
 115728728.09447  90178232.82947  22022442.5474   22022445.3864   22022442.5174
        50.000          44.000
 119517763.39947  93130731.28047  22743465.4794   22743468.6234   22743465.4114
        46.000          41.000
 120276170.61447  93721681.77547  22887801.9114   22887805.7364   22887801.7924
        48.000          43.000
 09  1 19  0  9  0.0000000  0 12G 5G 6G21G31G24G30G18G22G12G14G 9G29
 124110787.76647  96709691.63947  23617506.3954   23617511.4284   23617506.8104
        45.000          40.000
 128104449.47347  99821620.10947  24377487.7504   24377492.8434   24377487.4764
        42.000          37.000
 105478568.98247  82191066.53847  20071924.8024   20071926.7314   20071925.1734
        54.000          50.000
 119958100.55447  93473842.71147  22827268.3984   22827270.8144   22827268.3744
        50.000          43.000
 114933276.32747  89558375.51347  21871091.9894   21871096.4074   21871092.2754
        51.000          45.000
 121798047.45547  94907555.02547  23177408.2214   23177412.0614   23177408.0974
        48.000          41.000
 122762780.10047  95659289.92347  23360996.0244   23360997.4224   23360996.3744
        48.000          40.000
 126199547.12247  98337303.71747  24014980.0144   24014980.4424   24014979.9844
        46.000          39.000
 128195651.69547  99892701.24347  24394832.9634   24394836.5624   24394832.7594
        43.000          38.000
 115750146.53747  90194922.53947  22026518.3744   22026521.0394   22026518.7174
        50.000          44.000
 119599377.08447  93194326.36047  22758995.8584   22758999.4344   22758995.8284
        46.000          41.000
 120351369.22247  93780278.04747  22902111.5374   22902115.2894   22902111.1464
        48.000          43.000
 09  1 19  0  9 30.0000000  0 12G 5G 6G21G31G24G30G18G22G12G14G 9G29
 124098079.74547  96699789.33347  23615087.8384   23615093.0264   23615088.5014
        46.000          39.000
 128063732.43547  99789892.55547  24369739.9234   24369744.6074   24369740.2064
        42.000          37.000
 105451088.11147  82169652.87847  20066695.5114   20066697.2364   20066695.9264
        54.000          49.000
 119859727.36147  93397188.37247  22808548.7194   22808550.9164   22808548.4064
        49.000          43.000
 114983874.83947  89597802.92247  21880720.7014   21880724.9154   21880720.6844
        51.000          45.000
 121771911.88047  94887189.68347  23172434.5584   23172438.6904   23172434.4604
        48.000          41.000
 122733258.93347  95636286.41247  23355378.2474   23355380.1074   23355378.7044
        48.000          40.000
 126170074.95247  98314338.41747  24009371.3394   24009372.0074   24009371.4514
        45.000          39.000
 128197647.03247  99894256.12547  24395212.2424   24395216.3694   24395211.9224
        44.000          38.000
 115771880.98847  90211858.48547  22030654.3274   22030656.8404   22030654.5524
        51.000          44.000
 119681388.50547  93258231.37147  22774602.3324   22774605.7394   22774602.1394
        47.000          41.000
 120426529.17347  93838844.20547  22916413.9604   22916417.8474   22916413.7174
        48.000          43.000
 09  1 19  0 10  0.0000000  0 12G 5G 6G21G31G24G30G18G22G12G14G 9G29
 124085447.88447  96689946.36647  23612684.0544   23612689.0084   23612684.2914
        46.000          39.000
 128023317.03747  99758400.05147  24362048.7534   24362053.1664   24362048.6764
        42.000          37.000
 105424169.91447  82148677.66847  20061573.0054   20061574.8104   20061573.3634
        54.000          50.000
 119761531.77347  93320672.41347  22789862.6124   22789864.8434   22789861.7904
        49.000          43.000
 115034918.60347  89637577.27847  21890433.8974   21890438.3894   21890434.0614
        51.000          45.000
 121745705.08947  94866768.82147  23167447.4384   23167451.6764   23167446.8414
        48.000          41.000
 122703574.88547  95613155.99547  23349729.6174   23349731.5374   23349729.6474
        48.000          40.000
 126140375.37647  98291195.91647  24003719.5104   24003720.2554   24003719.6784
        46.000          39.000
 128199712.33547  99895865.54247  24395605.0024   24395609.6004   24395604.9264
        43.000          38.000
 115793928.12947  90229038.08947  22034849.8894   22034852.3034   22034850.2474
        50.000          44.000
 119763794.83747  93322444.11647  22790283.8854   22790286.9104   22790284.0254
        47.000          41.000
 120501647.77347  93897378.13647  22930708.8574   22930712.6294   22930708.2174
        48.000          43.000
 09  1 19  0 10 30.0000000  0 12G 5G 6G21G31G24G30G18G22G12G14G 9G29
 124072894.45247  96680164.51147  23610295.2784   23610299.8994   23610296.0564
        46.000          39.000
 127983203.10747  99727142.44047  24354416.1744   24354419.7484   24354416.2594
        42.000          37.000
 105397816.45247  82128142.51047  20056558.1034   20056560.1034   20056558.5504
        54.000          50.000
 119663516.74347  93244297.15547  22771210.6054   22771213.0344   22771210.5224
        49.000          43.000
 115086406.61947  89677697.80847  21900231.8564   21900236.2414   21900231.9234
        51.000          44.000
 121719429.19747  94846294.11447  23162447.5424   23162451.7174   23162447.1794
        47.000          42.000
 122673729.46947  95589899.83047  23344050.2814   23344052.0254   23344050.6114
        48.000          40.000
 126110448.70147  98267876.46347  23998024.9594   23998025.6234   23998025.0864
        45.000          39.000
 128201850.03447  99897531.35947  24396012.1904   24396016.0174   24396011.7434
        44.000          38.000
 115816285.79947  90246459.66547  22039104.3994   22039106.5774   22039104.6434
        51.000          44.000
 119846593.35647  93386962.45747  22806039.8074   22806043.2274   22806039.9574
        48.000          41.000
 120576722.93047  93955878.21247  22944995.0104   22944998.8754   22944994.8904
        48.000          43.000
 09  1 19  0 11  0.0000000  0 12G 5G 6G21G31G24G30G18G22G12G14G 9G29
 124060423.12647  96670446.63947  23607922.1094   23607926.6904   23607922.7454
        46.000          39.000
 127943391.80447  99696120.64747  24346839.2634   24346843.9184   24346839.3504
        42.000          37.000
 105372030.85847  82108049.84547  20051651.3734   20051653.1444   20051651.8384
        54.000          50.000
 119565686.53447  93168065.91647  22752593.9654   22752596.4534   22752593.3904
        49.000          43.000
 115138339.27247  89718164.80847  21910114.2094   21910118.5674   21910114.2384
        51.000          45.000
 121693087.92647  94825768.48547  23157434.8944   23157439.0144   23157434.4514
        48.000          42.000
 122643725.62147  95566520.21647  23338340.7804   23338342.5474   23338341.2594
        48.000          40.000
 126080296.64447  98244381.37147  23992286.7324   23992287.8844   23992286.8564
        45.000          39.000
 128204063.18147  99899255.96247  24396433.1144   24396436.9164   24396433.0534
        44.000          38.000
 115838953.22047  90264122.60947  22043417.7594   22043420.3924   22043417.9874
        50.000          44.000
 119929783.63847  93451786.06747  22821870.6984   22821873.8804   22821870.4034
        47.000          41.000
 120651753.88147  94014343.84047  22959273.3084   22959276.9524   22959272.9924
        48.000          43.000
 09  1 19  0 11 30.0000000  0 12G 5G 6G21G31G24G30G18G22G12G14G 9G29
 124048034.07447  96660792.88247  23605564.5884   23605569.3564   23605565.1054
        46.000          40.000
 127903881.01147  99665333.00647  24339321.3804   24339325.6344   24339321.5954
        42.000          37.000
 105346812.49647  82088399.18147  20046852.5054   20046854.3594   20046852.8454
        54.000          50.000
 119468042.38747  93091979.66547  22734012.6384   22734015.4024   22734012.2924
        48.000          43.000
 115190713.52447  89758975.91547  21920080.8324   21920085.1524   21920080.8734
        51.000          45.000
 121666681.06547  94805191.72647  23152409.8354   23152413.7514   23152409.2094
        48.000          41.000
 122613562.39347  95543016.42547  23332600.8134   23332602.7494   23332601.0244
        47.000          40.000
 126049917.28347  98220709.15747  23986506.2914   23986506.6854   23986506.1654
        46.000          39.000
 128206351.55147  99901039.18747  24396868.2554   24396872.2354   24396867.8074
        44.000          38.000
 115861926.39647  90282023.80147  22047789.7224   22047791.9984   22047789.9514
        51.000          44.000
 120013361.27347  93516911.52247  22837774.8674   22837778.1144   22837774.9194
        48.000          41.000
 120726736.60947  94072771.89247  22973541.9584   22973545.7824   22973541.7474
        48.000          42.000
 09  1 19  0 12  0.0000000  0 12G 5G 6G21G31G24G30G18G22G12G14G 9G29
 124035729.41347  96651204.88647  23603222.8494   23603227.4754   23603223.4354
        46.000          39.000
 127864670.04247  99634778.99547  24331859.2904   24331863.9054   24331859.0524
        42.000          37.000
 105322163.71247  82069192.34647  20042161.9814   20042163.8144   20042162.3264
        54.000          50.000
 119370587.09147  93016040.56747  22715467.3114   22715469.9134   22715466.8234
        49.000          43.000
 115243528.03247  89800130.07447  21930131.0374   21930135.4974   21930131.1304
        51.000          45.000
 121640210.37247  94784565.27547  23147372.4984   23147376.1884   23147372.4124
        48.000          42.000
 122583241.41547  95519389.70047  23326831.1144   23326832.7694   23326831.4894
        47.000          40.000
 126019310.59047  98196859.82447  23980681.6754   23980681.6834   23980681.6334
        45.000          39.000
 128208717.37547  99902882.76547  24397318.8374   24397322.6274   24397318.7394
        45.000          39.000
 115885202.52647  90300161.06947  22052218.8634   22052221.1394   22052218.8974
        51.000          44.000
 120097323.99847  93582337.04947  22853752.3894   22853755.3744   22853752.6434
        48.000          41.000
 120801668.88747  94131160.62747  22987801.4764   22987804.9364   22987801.1824
        48.000          42.000
 09  1 19  0 12 30.0000000  0 12G 5G 6G21G31G24G30G18G22G12G14G 9G29
 124023513.08547  96641685.71447  23600898.0104   23600903.0664   23600898.3544
        45.000          39.000
 127825760.33947  99604459.73147  24324455.3364   24324459.8484   24324454.8514
        42.000          37.000
 105298087.41747  82050431.60447  20037580.3994   20037582.1534   20037580.8774
        54.000          50.000
 119273325.62747  92940252.51947  22696959.2424   22696962.0644   22696959.0184
        49.000          43.000
 115296783.52747  89841627.86247  21940265.0564   21940269.9834   21940265.0734
        51.000          45.000
 121613679.38347  94763891.82747  23142323.7154   23142327.3634   23142323.4134
        48.000          42.000
 122552765.53747  95495642.26547  23321031.6164   23321033.0934   23321032.3634
        47.000          40.000
 125988478.73647  98172835.02647  23974814.8254   23974815.0494   23974814.9734
        45.000          39.000
 128211164.36247  99904789.58247  24397784.6464   24397788.4964   24397784.5884
        44.000          39.000
 115908781.01347  90318533.93047  22056705.6264   22056708.1714   22056705.8184
        51.000          45.000
 120181670.95847  93648061.96147  22869803.2134   22869806.4354   22869803.3884
        47.000          41.000
 120876550.73547  94189510.07147  23002050.6224   23002054.2474   23002050.3504
        47.000          42.000
 09  1 19  0 13  0.0000000  0 12G 5G 6G21G31G24G30G18G22G12G14G 9G29
 124011385.56247  96632235.74747  23598590.4854   23598594.9444   23598590.7634
        46.000          40.000
 127787149.94147  99574373.69647  24317107.8574   24317112.0694   24317107.2414
        42.000          37.000
 105274583.68747  82032117.01547  20033107.6544   20033109.5824   20033107.9344
        54.000          50.000
 119176258.84647  92864616.16447  22678487.7924   22678490.8134   22678487.6334
        49.000          43.000
 115350477.24147  89883467.11547  21950482.8994   21950487.6054   21950482.9754
        51.000          45.000
 121587088.53047  94743171.72347  23137263.7774   23137267.6934   23137263.4344
        48.000          42.000
 122522134.17447  95471773.67747  23315202.6714   23315204.2384   23315202.8834
        47.000          40.000
 125957420.27947  98148633.65447  23968903.9474   23968904.7944   23968903.7394
        44.000          38.000
 128213692.71647  99906759.80947  24398265.2024   24398269.9804   24398265.2084
        43.000          39.000
 115932657.98347  90337139.37747  22061249.1334   22061251.9594   22061249.3324
        51.000          45.000
 120266398.39747  93714083.34347  22885926.2224   22885929.6774   22885926.1604
        47.000          41.000
 120951378.07747  94247817.03547  23016290.0064   23016293.7074   23016289.4844
        48.000          42.000
 09  1 19  0 13 30.0000000  0 12G 5G 6G21G31G24G30G18G22G12G14G 9G29
 123999347.73747  96622855.65647  23596299.4624   23596304.4084   23596299.8754
        45.000          39.000
 127748837.08747  99544519.49447  24309816.8284   24309821.6924   24309816.8954
        43.000          37.000
 105251653.07547  82014249.00947  20028744.2134   20028746.1014   20028744.5964
        54.000          50.000
 119079388.64447  92789132.98247  22660054.1814   22660057.0764   22660053.3624
        49.000          43.000
 115404606.58747  89925645.82747  21960783.2794   21960788.0184   21960783.2874
        51.000          45.000
 121560438.44747  94722405.48347  23132192.2994   23132196.3424   23132191.9184
        48.000          42.000
 122491347.70047  95447784.21647  23309344.1964   23309345.7704   23309344.9054
        47.000          40.000
 125926133.99747  98124254.76747  23962950.7654   23962951.3354   23962950.5814
        45.000          39.000
 128216302.96647  99908793.81147  24398762.0844   24398766.1704   24398761.8784
        44.000          38.000
 115956830.08747  90355974.80347  22065849.1234   22065851.7264   22065849.5564
        51.000          45.000
 120351502.51847  93780398.26347  22902121.0364   22902123.7184   22902121.1044
        47.000          41.000
 121026147.33347  94306078.73847  23030518.2114   23030521.8614   23030517.8874
        47.000          42.000
 09  1 19  0 14  0.0000000  0 12G 5G 6G21G31G24G30G18G22G12G14G 9G29
 123987406.46247  96613550.82047  23594027.4074   23594031.8794   23594027.4644
        46.000          40.000
 127710826.06247  99514900.52247  24302583.6584   24302588.6494   24302583.6814
        42.000          37.000
 105229301.53547  81996832.22947  20024490.7904   20024492.6224   20024491.1854
        54.000          50.000
 118982722.59947  92713808.90447  22641659.0014   22641661.8874   22641659.0844
        49.000          43.000
 115459175.06547  89968166.71347  21971167.3994   21971171.7994   21971167.5954
        51.000          44.000
 121533735.53947  94701598.08147  23127110.8924   23127114.6814   23127110.6574
        48.000          42.000
 122460411.86647  95423678.37447  23303457.3164   23303459.1064   23303457.6324
        47.000          40.000
 125894624.98347  98099702.31247  23956955.0424   23956955.1374   23956954.9224
        45.000          38.000
 128219001.87647  99910896.93247  24399275.4324   24399279.1284   24399275.3104
        44.000          38.000
 115981299.37047  90375041.79547  22070505.3674   22070507.8674   22070505.7214
        50.000          45.000
 120436985.41847  93847008.32547  22918387.7154   22918390.7934   22918387.8184
        47.000          41.000
 121100861.39247  94364297.42947  23044735.8274   23044739.4144   23044735.5434
        47.000          42.000
 09  1 19  0 14 30.0000000  0 12G 5G 6G21G31G24G30G18G22G12G14G 9G29
 123975559.76647  96604319.67847  23591772.8484   23591777.4914   23591773.2814
        46.000          39.000
 127673112.32447  99485513.17247  24295406.8684   24295411.6694   24295407.1474
        42.000          37.000
 105207526.64347  81979864.78747  20020347.2914   20020349.1194   20020347.6884
        54.000          50.000
 118886259.84747  92638643.22547  22623302.7784   22623305.1864   22623302.4804
        49.000          43.000
 115514177.47247  90011025.73047  21981633.8244   21981638.2774   21981634.0334
        51.000          44.000
 121506977.76747  94680747.91647  23122018.3714   23122022.8104   23122018.1414
        48.000          41.000
 122429324.23647  95399454.25647  23297541.1174   23297543.0524   23297541.5474
        47.000          40.000
 125862889.46947  98074973.35147  23950915.6774   23950915.7304   23950915.7564
        45.000          39.000
 128221787.60447  99913067.68647  24399805.7864   24399809.7414   24399805.5124
        44.000          39.000
 116006059.51847  90394335.43547  22075217.2194   22075219.5994   22075217.4824
        51.000          45.000
 120522840.65847  93913908.52547  22934725.3224   22934728.5184   22934725.4224
        46.000          40.000
 121175514.15847  94422468.36347  23058941.8924   23058945.4894   23058941.8174
        47.000          42.000
 09  1 19  0 15  0.0000000  0 12G 5G 6G21G31G24G30G18G22G12G14G 9G29
 123963810.65547  96595164.55747  23589537.2174   23589541.8674   23589537.5914
        46.000          39.000
 127635696.20847  99456357.75147  24288287.2044   24288291.4764   24288287.3654
        42.000          37.000
 105186330.61347  81963348.40447  20016313.6804   20016315.4804   20016313.9774
        54.000          50.000
 118790004.10047  92563638.84347  22604985.9824   22604988.2124   22604985.6184
        49.000          43.000
 115569613.30647  90054222.47547  21992182.9044   21992187.5594   21992182.9484
        50.000          44.000
 121480167.45247  94659856.81147  23116916.8744   23116921.1744   23116916.3604
        48.000          41.000
 122398086.90247  95375113.48947  23291597.0954   23291598.7554   23291597.6114
        47.000          40.000
 125830928.05847  98050068.38147  23944833.6074   23944834.7304   23944833.7894
        46.000          39.000
 128224662.29547  99915307.75947  24400352.6124   24400357.3484   24400352.4744
        44.000          39.000
 116031108.56047  90413854.18247  22079983.7884   22079986.1564   22079984.1494
        51.000          44.000
 120609067.01247  93981097.91447  22951133.3284   22951136.8394   22951133.5504
        46.000          40.000
 121250104.08347  94480590.32747  23073136.0694   23073139.5574   23073135.9004
        48.000          42.000
 09  1 19  0 15 30.0000000  0 12G 5G 6G21G31G24G30G18G22G12G14G 9G29
 123952161.86747  96586087.59847  23587320.2154   23587324.9694   23587320.8254
        46.000          39.000
 127598577.81347  99427434.31547  24281223.8664   24281228.2114   24281224.0354
        42.000          37.000
 105165715.59747  81947284.76347  20012390.8164   20012392.5614   20012391.2154
        54.000          50.000
 118693958.87647  92488798.49347  22586709.1554   22586711.3064   22586708.3064
        49.000          44.000
 115625481.95847  90097756.48547  22002814.4644   22002818.9974   22002814.6474
        51.000          44.000
 121453307.73147  94638927.21247  23111805.6194   23111809.9904   23111805.3094
        48.000          41.000
 122366701.83647  95350657.60047  23285624.8624   23285626.4604   23285625.2264
        47.000          40.000
 125798741.78047  98024988.19547  23938709.1884   23938709.7554   23938709.2784
        45.000          39.000
 128227628.74247  99917619.34847  24400917.3104   24400920.6784   24400917.0984
        44.000          39.000
 116056444.93647  90433596.82547  22084805.3824   22084807.4014   22084805.7604
        51.000          45.000
 120695662.37847  94048574.82647  22967612.1194   22967615.5164   22967612.3764
        47.000          40.000
 121324630.22047  94538662.58847  23087317.7294   23087321.3644   23087317.7514
        47.000          42.000
 09  1 19  0 16  0.0000000  0 12G 5G 6G21G31G24G30G18G22G12G14G 9G29
 123940616.02247  96577090.87847  23585123.1054   23585128.0754   23585123.8554
        45.000          40.000
 127561757.20347  99398742.91747  24274216.5444   24274221.4154   24274216.6304
        43.000          37.000
 105145683.40647  81931675.26847  20008578.7594   20008580.6134   20008579.1434
        54.000          50.000
 118598127.62147  92414124.89047  22568473.1534   22568474.9464   22568472.8764
        50.000          44.000
 115681782.60147  90141627.11247  22013528.0994   22013532.7794   22013528.3834
        51.000          44.000
 121426400.82147  94617960.84047  23106685.5794   23106689.5324   23106685.3494
        48.000          42.000
 122335170.71547  95326087.89347  23279624.5024   23279626.1764   23279625.2434
        47.000          41.000
 125766331.61547  97999733.53947  23932541.1804   23932541.5914   23932541.0004
        45.000          39.000
 128230689.65947  99920004.52447  24401499.4524   24401503.8724   24401499.4564
        44.000          39.000
 116082066.79247  90453561.92047  22089680.7384   22089683.0034   22089681.0484
        50.000          44.000
 120782624.54647  94116337.55747  22984160.5644   22984163.7884   22984161.0674
        46.000          40.000
 121399090.54847  94596683.57347  23101487.1054   23101490.6514   23101486.6194
        47.000          42.000
 09  1 19  0 16 30.0000000  0 12G 5G 6G21G31G24G30G18G22G12G14G 9G29
 123929173.16947  96568174.40747  23582945.3374   23582950.6354   23582945.7834
        45.000          40.000
 127525231.66447  99370281.44147  24267266.6014   24267271.5494   24267266.5274
        43.000          37.000
 105126233.63047  81916519.59947  20004877.5874   20004879.2924   20004877.9324
        54.000          50.000
 118502511.07747  92339618.59747  22550277.6424   22550279.7884   22550277.0104
        50.000          44.000
 115738511.75647  90185831.63947  22024323.4544   22024327.9934   22024323.6804
        51.000          44.000
 121399446.55347  94596957.57147  23101555.7774   23101559.7134   23101555.5304
        48.000          41.000
 122303493.11047  95301404.05547  23273596.2614   23273598.4594   23273596.5824
        47.000          41.000
 125733695.67447  97974302.95347  23926331.1344   23926331.3484   23926330.7704
        46.000          39.000
 128233844.59447  99922462.96447  24402099.5514   24402103.6444   24402099.5704
        44.000          38.000
 116107969.14347  90473745.58847  22094609.7104   22094612.2614   22094609.9234
        51.000          44.000
 120869949.23047  94184382.78047  23000777.8374   23000780.8714   23000777.7544
        47.000          40.000
 121473480.94347  94654650.06847  23115643.1214   23115646.9094   23115642.6624
        47.000          42.000
 09  1 19  0 17  0.0000000  0 12G 5G 6G21G31G24G30G18G22G12G14G 9G29
 123917838.59647  96559342.31547  23580788.3694   23580793.5634   23580788.8834
        45.000          39.000
 127489003.90947  99342052.01747  24260372.9794   24260376.7284   24260372.8204
        43.000          37.000
 105107370.65447  81901821.18347  20001288.1044   20001289.8854   20001288.4944
        54.000          50.000
 118407115.46047  92265284.46047  22532123.9984   22532126.6444   22532123.7284
        49.000          44.000
 115795671.80347  90230371.92647  22035200.6514   22035205.1784   22035200.9634
        51.000          44.000
 121372450.08647  94575921.41147  23096418.8124   23096422.7394   23096418.1604
        47.000          41.000
 122271673.24647  95276609.35747  23267541.0624   23267543.3894   23267541.6054
        47.000          41.000
 125700837.43747  97948699.14647  23920078.3244   23920079.4404   23920078.4624
        46.000          39.000
 128237098.42147  99924998.47647  24402718.6274   24402722.9114   24402718.0944
        44.000          39.000
 116134153.23547  90494148.78947  22099592.5694   22099594.6444   22099592.7984
        50.000          44.000
 120957637.08447  94252710.99447  23017464.3414   23017467.6774   23017464.1364
        47.000          40.000
 121547802.55947  94712562.95347  23129785.8414   23129789.7224   23129785.5814
        47.000          42.000
 09  1 19  0 17 30.0000000  0 12G 5G 6G21G31G24G30G18G22G12G14G 9G29
 123906611.53447  96550593.97847  23578652.2584   23578656.4224   23578652.3774
        45.000          39.000
 127453070.31347  99314051.81547  24253533.9564   24253539.4084   24253534.4684
        42.000          37.000
 105089092.98947  81887578.85047  19997810.1284   19997811.7934   19997810.5154
        54.000          50.000
 118311940.60147  92191122.33247  22514012.7814   22514015.2564   22514012.1524
        49.000          44.000
 115853258.17347  90275244.41647  22046159.0204   22046163.4494   22046159.1084
        50.000          44.000
 121345410.41247  94554851.59247  23091273.2944   23091277.3204   23091273.1784
        48.000          41.000
 122239709.94147  95251702.87147  23261458.9684   23261460.8844   23261459.3624
        48.000          41.000
 125667754.21547  97922920.03447  23913782.7684   23913783.0344   23913782.6234
        45.000          39.000
 128240450.43447  99927610.49547  24403356.3494   24403360.6434   24403356.3284
        44.000          38.000
 116160613.40647  90514767.12147  22104627.4464   22104630.1054   22104627.5964
        50.000          44.000
 121045682.38947  94321317.73747  23034218.6444   23034221.8774   23034218.7364
        46.000          40.000
 121622050.53047  94770418.46347  23143914.6084   23143918.6824   23143914.6314
        47.000          42.000
 09  1 19  0 18  0.0000000  0 12G 5G 6G21G31G24G30G18G22G12G14G 9G29
 123895495.81847  96541932.41747  23576536.4434   23576541.3264   23576536.9834
        44.000          39.000
 127417432.21347  99286281.85047  24246752.7024   24246757.7664   24246752.7324
        42.000          37.000
 105071403.61647  81873794.92747  19994443.9814   19994445.5984   19994444.3674
        54.000          50.000
 118216991.36047  92117136.02747  22495944.5414   22495947.0634   22495944.2684
        50.000          44.000
 115911270.91247  90320449.13247  22057198.3464   22057202.8894   22057198.5124
        51.000          44.000
 121318331.28447  94533751.02747  23086120.2594   23086124.1534   23086120.0074
        47.000          41.000
 122207605.96147  95226686.78647  23255350.1704   23255351.7474   23255350.5494
        48.000          41.000
 125634448.03347  97896967.17047  23907444.8034   23907445.0494   23907444.8564
        46.000          39.000
 128243904.02847  99930301.65647  24404013.6014   24404017.7564   24404012.6324
        44.000          38.000
 116187348.88847  90535599.98147  22109715.1134   22109717.4844   22109715.4364
        50.000          44.000
 121134084.53847  94390202.55447  23051040.9604   23051044.4894   23051041.2224
        47.000          40.000
 121696224.59547  94828216.38447  23158029.6964   23158033.0914   23158029.9244
        47.000          42.000
 09  1 19  0 18 30.0000000  0 12G 5G 6G21G31G24G30G18G22G12G14G 9G29
 123884493.00647  96533358.82947  23574442.7634   23574448.0294   23574443.3064
        45.000          40.000
 127382088.26247  99258741.12447  24240026.9974   24240031.5184   24240026.9334
        42.000          37.000
 105054303.14147  81860469.88447  19991189.7404   19991191.5914   19991190.1004
        54.000          50.000
 118122269.97047  92043327.24047  22477919.7494   22477921.8904   22477919.0964
        50.000          44.000
 115969708.06747  90365984.56247  22068318.7534   22068323.1034   22068319.0044
        51.000          44.000
 121291213.94547  94512620.68747  23080960.0604   23080964.0434   23080959.5724
        48.000          42.000
 122175362.57647  95201562.07047  23249213.8654   23249215.9694   23249214.5224
        48.000          41.000
 125600918.47647  97870840.27347  23901064.5954   23901064.6544   23901064.8114
        46.000          39.000
 128247460.63647  99933073.08347  24404690.2814   24404694.8354   24404690.3284
        44.000          38.000
 116214356.84647  90556645.15347  22114854.6994   22114857.2744   22114854.9274
        51.000          44.000
 121222840.26947  94459362.89847  23067930.7754   23067933.8474   23067930.9444
        47.000          40.000
 121770322.31547  94885954.82147  23172130.2294   23172133.7924   23172130.3844
        47.000          41.000
 09  1 19  0 19  0.0000000  0 12G 5G 6G21G31G24G30G18G22G12G14G 9G29
 123873605.14747  96524874.81647  23572370.9994   23572376.0854   23572371.4024
        45.000          39.000
 127347037.94747  99231429.20747  24233356.8544   24233361.4874   24233357.1584
        43.000          37.000
 105037792.83747  81847604.71647  19988047.8634   19988049.7564   19988048.1804
        54.000          50.000
 118027779.30947  91969698.24747  22459938.7344   22459941.1344   22459938.4694
        50.000          44.000
 116028568.13947  90411849.53847  22079519.3874   22079523.7284   22079519.3194
        51.000          44.000
 121264060.28447  94491462.03447  23075792.9484   23075796.8354   23075792.7464
        48.000          42.000
 122142980.82747  95176329.53747  23243052.2164   23243054.0784   23243052.5524
        47.000          41.000
 125567165.78747  97844539.49447  23894641.4634   23894641.6624   23894641.5804
        45.000          40.000
 128251121.90247  99935926.08247  24405387.1374   24405390.7704   24405386.9724
        44.000          38.000
 116241634.63547  90577900.58747  22120045.3904   22120047.9264   22120045.5974
        50.000          44.000
 121311946.82047  94528796.59847  23084887.3264   23084889.7344   23084887.4084
        47.000          40.000
 121844341.63247  94943632.14847  23186215.8654   23186219.3354   23186215.6334
        47.000          42.000
 09  1 19  0 19 30.0000000  0 12G 5G 6G21G31G24G30G18G22G12G14G 9G29
 123862835.21547  96516482.69047  23570321.7944   23570326.9014   23570322.2574
        45.000          39.000
 127312281.31347  99204346.10447  24226743.2734   24226748.7434   24226744.1954
        43.000          37.000
 105021874.73647  81835201.00447  19985018.8444   19985020.5344   19985019.2094
        54.000          50.000
 117933523.24047  91896252.05047  22442002.3044   22442004.6054   22442001.9514
        50.000          44.000
 116087850.75447  90458043.77447  22090800.3434   22090804.7874   22090800.6014
        51.000          44.000
 121236873.38447  94470277.47547  23070619.2404   23070623.0234   23070618.9474
        48.000          42.000
 122110463.21347  95150991.13547  23236864.1924   23236866.1704   23236864.6634
        48.000          41.000
 125533191.40647  97818065.96347  23888176.2414   23888176.5174   23888176.1134
        46.000          39.000
 128254890.81447  99938862.97647  24406104.5124   24406108.2704   24406104.1574
        44.000          38.000
 116269180.41947  90599364.84947  22125287.2164   22125289.7094   22125287.3784
        50.000          44.000
 121401402.93647  94598502.68247  23101910.4394   23101913.1034   23101910.2204
        46.000          40.000
 121918280.83647  95001247.06647  23200285.9484   23200290.0304   23200285.3984
        47.000          42.000
 09  1 19  0 20  0.0000000  0 12G 5G 6G21G31G24G30G18G22G12G14G 9G29
 123852183.69047  96508182.84447  23568294.6804   23568299.3764   23568295.3094
        45.000          39.000
 127277816.14947  99177490.14047  24220184.5844   24220188.9984   24220185.0474
        43.000          37.000
 105006548.43947  81823258.44547  19982102.3194   19982104.0334   19982102.6694
        54.000          50.000
 117839502.82447  91822989.47347  22424110.6794   22424113.1234   22424110.0064
        49.000          44.000
 116147552.61347  90504564.69147  22102161.3264   22102165.8824   22102161.7034
        50.000          44.000
 121209653.53047  94449067.24347  23065439.5074   23065443.3604   23065439.4054
        48.000          42.000
 122077809.17347  95125546.42647  23230650.1094   23230652.4624   23230650.4814
        47.000          41.000
 125498994.04947  97791418.69647  23881668.6544   23881669.0464   23881668.5024
        46.000          39.000
 128258767.49147  99941883.82747  24406842.8904   24406846.7084   24406842.7014
        44.000          38.000
 116296989.94047  90621034.62347  22130578.9684   22130581.6414   22130579.2394
        50.000          44.000
 121491204.04347  94668477.59147  23118998.6004   23119002.0414   23118998.5214
        46.000          40.000
 121992136.39447  95058796.78847  23214340.2094   23214344.2944   23214339.9904
        47.000          42.000
 09  1 19  0 20 30.0000000  0 12G 5G 6G21G31G24G30G18G22G12G14G 9G29
 123841655.06847  96499978.75547  23566291.3064   23566296.4434   23566291.9914
        46.000          40.000
 127243644.26847  99150862.71147  24213682.2814   24213686.9604   24213682.5084
        43.000          37.000
 104991817.43747  81811779.75247  19979299.1354   19979300.8984   19979299.6024
        54.000          50.000
