     2.11           OBSERVATION DATA    G (GPS)             RINEX VERSION / TYPE
teqc  2013Mar15     gpsops              20140521 00:23:23UTCPGM / RUN BY / DATE
Linux 2.4.21-27.ELsmp|Opteron|gcc -static|Linux x86_64|=+   COMMENT
BIT 2 OF LLI FLAGS DATA COLLECTED UNDER A/S CONDITION       COMMENT
GLPS                                                        MARKER NAME
42005M002                                                   MARKER NUMBER
GGN                 JPL                                     OBSERVER / AGENCY
ZR220013847         ASHTECH UZ-12       CQ00                REC # / TYPE / VERS
CR519992104         ASH701945B_M    SCIT                    ANT # / TYPE
   -33801.4662 -6377516.5323   -82154.3508                  APPROX POSITION XYZ
        0.0083        0.0000        0.0000                  ANTENNA: DELTA H/E/N
     1     1                                                WAVELENGTH FACT L1/2
     7    L1    L2    P1    P2    C1    S1    S2            # / TYPES OF OBSERV
    30.0000                                                 INTERVAL
                                                            COMMENT
This data is provided as a public service by NASA/JPL.      COMMENT
No warranty is expressed or implied regarding suitability   COMMENT
for use.  For further information, contact:                 COMMENT
Dave Stowers, NASA/JPL m/s 238-600                          COMMENT
4800 Oak Grove Drive, Pasadena CA 91109 USA                 COMMENT
                                                            COMMENT
Forced Modulo Decimation to 30 seconds                      COMMENT
 SNR is mapped to RINEX snr flag value [0-9]                COMMENT
  L1 & L2: min(max(int(snr_dBHz/6), 0), 9)                  COMMENT
pseudorange smoothing corrections not applied               COMMENT
  2014     5    20     0     0    0.0000000     GPS         TIME OF FIRST OBS
                                                            END OF HEADER
 14  5 20  0  0  0.0000000  0 12G20G26G10G09G07G13G02G08G01G17G04G28
  -4341355.49946  -3326950.64545  23721669.3684   23721679.4984   23721669.253
        40.0004         35.0004
   -891198.03447   -674845.10446  24054961.1864   24054975.0234   24054962.602
        42.0004         37.0004
 -12355923.50347  -9622118.43146  23683782.5264   23683793.3794   23683784.186
        44.0004         39.0004
 -13398684.08949 -10420679.40148  19977701.5374   19977707.8684   19977701.663
        54.0004         49.0004
 -20166585.37148 -15684544.30048  20804012.1034   20804017.2834   20804011.431
        52.0004         48.0004
  20160627.02046  15704072.22445  24576944.5464   24576953.7604   24576945.955
        40.0004         35.0004
  -4770644.99647  -3697424.74346  23487013.6804   23487021.8654   23487013.977
        44.0004         39.0004
 -25873311.49949 -20114989.49448  19882807.3104   19882813.6964   19882807.823
        54.0004         49.0004
  -1536829.65546  -1172423.85346  24467123.4494   24467138.3914   24467123.093
        40.0004         36.0004
 -11978022.46348  -9279692.79447  22870230.4024   22870238.9294   22870229.574
        49.0004         44.0004
 -23180133.94448 -18014999.83147  20907943.6324   20907950.6094   20907943.685
        52.0004         47.0004
  -6414506.49347  -4961683.74046  23307068.5874   23307078.6784   23307069.926
        44.0004         40.0004
 14  5 20  0  0 30.0000000  0 12G20G26G10G09G07G13G02G08G01G17G04G28
  -4322441.36046  -3312212.34845  23725267.1764   23725277.4324   23725267.764
        40.0004         35.0004
   -894347.54047   -677299.13446  24054361.9694   24054377.9954   24054362.010
        42.0004         38.0004
 -12418709.48147  -9671042.42146  23671836.2614   23671846.6444   23671836.589
        44.0004         39.0004
 -13399628.33749 -10421415.12948  19977521.9464   19977528.5874   19977521.951
        54.0004         49.0004
 -20103237.88348 -15635182.60347  20816066.6774   20816071.9954   20816066.000
        52.0004         47.0004
  20226523.22746  15755420.02445  24589484.9954   24589494.4744   24589485.593
        40.0004         35.0004
  -4857793.61747  -3765332.56846  23470429.3874   23470437.5214   23470429.804
        44.0004         39.0004
 -25871678.67849 -20113717.12748  19883118.0124   19883124.4594   19883118.420
        54.0004         49.0004
  -1431612.76846  -1090436.66846  24487145.2564   24487160.2514   24487145.443
        40.0004         36.0004
 -11935414.72248  -9246491.92747  22878337.9764   22878346.6224   22878337.782
        49.0004         44.0004
 -23237839.71248 -18059965.29847  20896962.8854   20896969.3954   20896962.115
        52.0004         47.0004
  -6468898.77547  -5004067.18746  23296719.2634   23296727.6724   23296719.423
        45.0004         40.0004
 14  5 20  0  1  0.0000000  0 12G20G26G10G09G07G13G02G08G01G17G04G28
  -4303237.64246  -3297248.38546  23728921.6804   23728933.5294   23728923.617
        40.0004         36.0004
   -897213.07347   -679531.90046  24053817.3114   24053830.5154   24053817.033
        42.0004         38.0004
 -12481673.52347  -9720105.17246  23659852.1164   23659863.8894   23659854.785
        44.0004         39.0004
 -13399960.77649 -10421674.12348  19977458.9954   19977464.7334   19977458.805
        54.0004         49.0004
 -20039402.86948 -15585441.01947  20828214.0064   20828219.3644   20828213.517
        52.0004         47.0004
  20292187.95546  15806587.42945  24601979.0774   24601987.8614   24601981.482
        40.0004         35.0004
  -4944706.96647  -3833057.07546  23453890.6474   23453897.7764   23453890.497
        44.0004         39.0004
 -25869381.85249 -20111927.35148  19883555.1264   19883562.0004   19883555.514
        54.0004         49.0004
  -1326292.43246  -1008368.88946  24507188.0024   24507202.0964   24507186.660
        41.0004         36.0004
 -11892831.32348  -9213310.01847  22886442.1904   22886450.2104   22886441.250
        48.0004         44.0004
 -23295076.16748 -18104565.06947  20886070.6224   20886077.8734   20886070.331
        52.0004         47.0004
  -6523434.87747  -5046562.70846  23286340.5684   23286350.0374   23286341.363
        45.0004         40.0004
 14  5 20  0  1 30.0000000  0 12G20G26G10G09G07G13G02G08G01G17G04G28
  -4283742.22746  -3282057.13045  23732630.7384   23732640.7964   23732631.810
        40.0004         35.0004
   -899795.82947   -681544.30946  24053326.7704   24053340.0454   24053326.389
        42.0004         38.0004
 -12544813.44447  -9769304.96746  23647838.1164   23647849.2934   23647838.679
        44.0004         39.0004
 -13399680.58649 -10421455.74448  19977512.2014   19977518.6584   19977512.236
        54.0004         50.0004
 -19975081.87248 -15535320.74147  20840453.7954   20840459.8284   20840453.212
        52.0004         47.0004
  20357620.90546  15857574.23345  24614433.4564   24614438.0894   24614431.788
        40.0004         35.0004
  -5031381.96347  -3900595.84646  23437396.6084   23437404.6594   23437397.768
        44.0004         39.0004
 -25866419.84449 -20109619.25148  19884118.7424   19884125.2324   19884118.983
        54.0004         49.0004
  -1220870.53746   -926221.95846  24527248.5854   24527262.0074   24527247.694
        41.0004         36.0004
 -11850273.30348  -9180147.88647  22894539.5044   22894547.9374   22894539.780
        49.0004         44.0004
 -23351840.71948 -18148797.11747  20875269.0224   20875275.8454   20875268.488
        52.0004         47.0004
  -6578111.70847  -5089167.88146  23275936.4774   23275945.0634   23275936.737
        45.0004         41.0004
 14  5 20  0  2  0.0000000  0 12G20G26G10G09G07G13G02G08G01G17G04G28
  -4263950.50646  -3266634.96945  23736399.1694   23736407.5924   23736399.401
        40.0004         35.0004
   -902094.52847   -683335.38946  24052887.7304   24052903.1574   24052887.998
        42.0004         38.0004
 -12608124.67047  -9818638.24246  23635791.0954   23635801.4374   23635790.414
        44.0004         39.0004
 -13398784.58749 -10420757.51348  19977682.5124   19977688.8234   19977682.642
        54.0004         50.0004
 -19910274.00448 -15484821.08747  20852786.1734   20852792.1324   20852785.693
        52.0004         47.0004
  20422824.48946  15908382.29945  24626841.0204   24626847.1134   24626838.833
        40.0004         35.0004
  -5117813.09447  -3967944.60246  23420949.0574   23420956.4814   23420949.005
        44.0004         40.0004
 -25862789.41149 -20106790.30348  19884809.5504   19884816.2474   19884809.820
        54.0004         49.0004
  -1115346.31546   -843995.29046  24547329.9164   24547343.5684   24547328.291
        41.0004         37.0004
 -11807739.22948  -9147004.41147  22902633.6644   22902641.6314   22902633.302
        49.0004         44.0004
 -23408128.29148 -18192657.50448  20864557.6224   20864565.0414   20864557.444
        52.0004         48.0004
  -6632924.60647  -5131879.08946  23265505.2904   23265513.1224   23265505.583
        45.0004         40.0004
 14  5 20  0  2 30.0000000  0 12G20G26G10G09G07G13G02G08G01G17G04G28
  -4243865.12246  -3250983.98045  23740219.5864   23740228.9774   23740220.494
        40.0004         35.0004
   -904114.18547   -684909.01546  24052504.0104   24052516.7424   24052504.211
        43.0004         38.0004
 -12671609.65847  -9868106.92546  23623710.2074   23623720.5994   23623709.853
        44.0004         39.0004
 -13397277.10649 -10419582.80448  19977969.4164   19977975.5314   19977969.208
        54.0004         50.0004
 -19844985.47948 -15433946.89447  20865209.8624   20865215.4724   20865209.584
        52.0004         47.0004
  20487793.79846  15959007.85845  24639202.9514   24639211.1574   24639202.238
        40.0004         35.0004
  -5204001.84447  -4035104.47946  23404548.2274   23404556.0734   23404547.629
        44.0004         39.0004
 -25858494.21249 -20103443.35948  19885626.9464   19885633.9144   19885627.271
        54.0004         49.0004
  -1009726.19246   -761693.89846  24567425.4804   24567441.6584   24567427.488
        41.0004         36.0004
 -11765235.28248  -9113884.41247  22910721.0914   22910731.3494   22910721.743
        49.0004         44.0004
 -23463940.47648 -18236147.45548  20853937.2844   20853943.6994   20853936.712
        52.0004         48.0004
  -6687875.15047  -5174697.53946  23255049.6314   23255057.4544   23255049.118
        45.0004         40.0004
 14  5 20  0  3  0.0000000  0 12G20G26G10G09G07G13G02G08G01G17G04G28
  -4223485.55746  -3235103.81345  23744097.4724   23744107.4314   23744099.233
        40.0004         35.0004
   -905857.01547   -686266.92946  24052173.0284   24052186.4614   24052171.963
        43.0004         38.0004
 -12735267.32747  -9917710.15646  23611595.9844   23611606.4014   23611596.434
        44.0004         39.0004
 -13395158.87349 -10417932.18348  19978372.2444   19978378.7294   19978372.160
        54.0004         50.0004
 -19779219.00348 -15382700.27147  20877724.9534   20877730.6584   20877724.480
        52.0004         47.0004
  20552527.50346  16009449.77145  24651521.2434   24651527.6824   24651520.816
        40.0004         35.0004
  -5289946.57847  -4102074.22446  23388192.6594   23388199.8294   23388193.343
        44.0004         40.0004
 -25853534.75749 -20099578.80848  19886571.0264   19886577.2504   19886571.038
        54.0004         49.0004
   -904013.28446   -679320.21446  24587544.7634   24587558.7974   24587544.126
        41.0004         37.0004
 -11722764.08048  -9080789.93047  22918803.0024   22918812.3034   22918802.956
        48.0004         43.0004
 -23519276.21448 -18279266.14048  20843406.5564   20843413.6334   20843405.894
        52.0004         48.0004
  -6742961.90247  -5217622.13346  23244565.7684   23244575.8394   23244565.902
        45.0004         40.0004
 14  5 20  0  3 30.0000000  0 12G20G26G10G09G07G13G02G08G01G17G04G28
  -4202807.22246  -3218990.80345  23748033.9484   23748043.2804   23748033.407
        40.0004         35.0004
   -907321.96547   -687408.31846  24051893.2964   24051906.1254   24051893.509
        43.0004         38.0004
 -12799093.12847  -9967444.40146  23599449.9754   23599461.0714   23599451.050
        44.0004         39.0004
 -13392426.93449 -10415803.35448  19978892.3544   19978898.3404   19978892.124
        54.0004         50.0004
 -19712973.75248 -15331080.57347  20890330.9284   20890336.5984   20890330.673
        52.0004         47.0004
  20617027.82746  16059709.86745  24663794.4994   24663802.1594   24663794.967
        40.0004         35.0004
  -5375642.00747  -4168849.70046  23371885.4754   23371893.3124   23371886.480
        44.0004         40.0004
 -25847907.80949 -20095194.13448  19887641.3584   19887648.0804   19887641.491
        54.0004         49.0004
   -798206.89546   -596873.67246  24607678.3344   24607692.4894   24607678.054
        41.0004         36.0004
 -11680324.56448  -9047720.13447  22926879.8734   22926888.8264   22926879.329
        48.0004         43.0004
 -23574130.20648 -18322009.44248  20832968.3104   20832975.1054   20832968.490
        52.0004         48.0004
  -6798179.61047  -5260648.74646  23234056.7014   23234067.1014   23234058.391
        45.0004         40.0004
 14  5 20  0  4  0.0000000  0 12G20G26G10G09G07G13G02G08G01G17G04G28
  -4181831.78346  -3202646.26745  23752026.3414   23752036.9844   23752025.175
        40.0004         35.0004
   -908514.64247   -688337.55546  24051667.4304   24051680.9104   24051666.659
        43.0004         38.0004
 -12863088.26147 -10017310.58846  23587271.6354   23587282.5474   23587273.358
        44.0004         39.0004
 -13389084.61549 -10413198.90048  19979528.1664   19979534.1924   19979528.012
        54.0004         49.0004
 -19646255.06048 -15279091.96447  20903027.4714   20903033.2704   20903027.033
        52.0004         47.0004
  20681291.16446  16109785.27645  24676023.8004   24676033.2614   24676023.396
        39.0004         35.0004
  -5461088.38147  -4235431.10746  23355625.3914   23355633.0194   23355625.366
        44.0004         40.0004
 -25841615.98849 -20090291.37948  19888838.3574   19888844.9664   19888838.977
        54.0004         49.0004
   -692312.39046   -514358.47846  24627829.9004   24627845.3374   24627829.261
        41.0004         36.0004
 -11637922.10548  -9014679.20747  22934948.7124   22934957.3614   22934948.316
        48.0004         44.0004
 -23628503.37248 -18364378.08148  20822621.6604   20822627.9214   20822620.669
        52.0004         48.0004
  -6853528.83547  -5303777.86146  23223525.3934   23223534.0044   23223525.590
        45.0004         40.0004
 14  5 20  0  4 30.0000000  0 12G20G26G10G09G07G13G02G08G01G17G04G28
  -4160551.16646  -3186063.94646  23756075.6364   23756084.9254   23756075.378
        40.0004         36.0004
   -909428.99947   -689049.90446  24051492.0114   24051503.8854   24051491.293
        42.0004         38.0004
 -12927244.15747 -10067302.05046  23575064.4524   23575073.8124   23575064.494
        44.0004         39.0004
 -13385124.95749 -10410113.40448  19980281.1964   19980287.8454   19980281.277
        54.0004         49.0004
 -19579058.25248 -15226730.79847  20915814.4544   20915819.6114   20915814.118
        52.0004         47.0004
  20745323.63246  16159680.80945  24688210.2824   24688216.5674   24688208.502
        39.0004         35.0004
  -5546276.30547  -4301811.13746  23339413.2794   23339421.8354   23339414.178
        44.0004         40.0004
 -25834652.20749 -20084865.01148  19890163.6304   19890170.4684   19890164.191
        54.0004         49.0004
   -586325.25846   -431771.10046  24647999.5594   24648012.9594   24647998.129
        41.0004         36.0004
 -11595550.91948  -8981662.65347  22943011.0634   22943019.6404   22943011.216
        48.0004         44.0004
 -23682386.99748 -18406365.24748  20812367.8434   20812374.1534   20812367.300
        52.0004         48.0004
  -6909000.41647  -5347002.29946  23212968.0024   23212978.0464   23212969.605
        45.0004         40.0004
 14  5 20  0  5  0.0000000  0 12G20G26G10G09G07G13G02G08G01G17G04G28
  -4138977.54546  -3169253.30646  23760181.4634   23760190.6604   23760180.267
        40.0004         36.0004
   -910080.08847   -689557.12646  24051369.2044   24051381.4064   24051368.585
        43.0004         38.0004
 -12991572.63647 -10117427.99446  23562821.9604   23562832.9134   23562823.175
        44.0004         39.0004
 -13380561.58049 -10406557.48548  19981150.0994   19981156.2624   19981150.128
        54.0004         50.0004
 -19511399.06048 -15174009.33347  20928689.0594   20928695.3444   20928688.885
        52.0004         47.0004
  20809111.21546  16209385.48745  24700347.5364   24700356.3124   24700347.239
        39.0004         35.0004
  -5631217.09747  -4367998.59746  23323250.5444   23323257.9164   23323250.386
        44.0004         40.0004
 -25827029.87249 -20078925.49048  19891614.0034   19891620.6124   19891614.502
        54.0004         49.0004
   -480261.40246   -349123.93746  24668180.8524   24668196.8334   24668181.429
        41.0004         36.0004
 -11553227.01548  -8948682.95947  22951065.2174   22951074.1964   22951065.105
        48.0004         43.0004
 -23735792.18648 -18447979.61448  20802205.1984   20802211.6564   20802205.021
        52.0004         48.0004
  -6964606.16047  -5390331.28846  23202388.0554   23202397.8554   23202388.172
        45.0004         40.0004
 14  5 20  0  5 30.0000000  0 12G20G26G10G09G07G13G02G08G01G17G04G28
  -4117101.17746  -3152206.77945  23764341.4764   23764353.7244   23764344.238
        40.0004         35.0004
   -910460.11347   -689853.12446  24051295.5474   24051308.8434   24051295.652
        43.0004         38.0004
 -13056063.94147 -10167680.80446  23550549.6294   23550559.0814   23550550.970
        44.0004         39.0004
 -13375386.39749 -10402524.82848  19982134.5684   19982140.9584   19982134.580
        54.0004         50.0004
 -19443271.44848 -15120922.86347  20941653.8084   20941659.3354   20941653.489
        52.0004         47.0004
  20872661.35546  16258905.18145  24712439.7054   24712447.5294   24712440.282
        39.0004         35.0004
  -5715899.95047  -4433985.05946  23307135.3214   23307143.3544   23307135.968
        44.0004         40.0004
 -25818740.48649 -20072466.19148  19893191.4124   19893198.5854   19893192.044
        54.0004         49.0004
   -374114.99746   -266412.43345  24688381.7734   24688394.9414   24688380.013
        40.0004         35.0004
 -11510943.89748  -8915735.03847  22959111.7944   22959120.0794   22959111.279
        48.0004         43.0004
 -23788708.97248 -18489213.40348  20792135.0794   20792142.0724   20792134.632
        52.0004         48.0004
  -7020335.25547  -5433756.39246  23191783.1574   23191791.1694   23191783.009
        45.0004         40.0004
 14  5 20  0  6  0.0000000  0 12G20G26G10G09G07G13G02G08G01G17G04G28
  -4094922.10946  -3134924.36245  23768563.3474   23768572.4274   23768563.784
        40.0004         35.0004
   -910573.61847   -689941.44846  24051274.5984   24051287.2594   24051273.679
        43.0004         38.0004
 -13120717.69747 -10218060.20846  23538246.2214   23538256.4354   23538247.154
        44.0004         39.0004
 -13369601.12949 -10398016.78648  19983235.4264   19983241.8364   19983235.306
        54.0004         49.0004
 -19374679.26648 -15067474.38947  20954706.3484   20954712.1344   20954705.829
        52.0004         47.0004
  20935972.33846  16308238.49545  24724485.6724   24724496.0914   24724487.697
        39.0004         34.0004
  -5800323.94847  -4499769.82746  23291070.3924   23291077.5004   23291070.420
        45.0004         40.0004
 -25809785.64449 -20065488.35248  19894896.0554   19894902.0614   19894896.284
        54.0004         49.0004
   -267889.67446   -183639.45345  24708594.9874   24708607.3714   24708594.510
        40.0004         35.0004
 -11468704.98548  -8882821.56147  22967149.8534   22967158.0464   22967148.774
        48.0004         43.0004
 -23841136.72348 -18530066.12448  20782158.3744   20782165.4144   20782158.218
        52.0004         48.0004
  -7076186.87647  -5477276.96446  23181155.7564   23181163.9524   23181155.061
        45.0004         41.0004
 14  5 20  0  6 30.0000000  0 12G20G26G10G09G07G13G02G08G01G17G04G28
  -4072439.91046  -3117405.74645  23772841.9404   23772852.0184   23772842.570
        40.0004         35.0004
   -910421.71347   -689822.95846  24051302.4694   24051316.3394   24051302.581
        43.0004         38.0004
 -13185532.68147 -10268565.23246  23525912.5994   23525921.9204   23525913.423
        44.0004         40.0004
 -13363206.67249 -10393034.04548  19984452.2234   19984458.6704   19984452.419
        54.0004         50.0004
 -19305624.90448 -15013665.78047  20967847.0044   20967852.6824   20967846.408
        52.0004         47.0004
  20999042.53546  16357384.18445  24736490.1304   24736498.3834   24736489.551
        39.0004         34.0004
  -5884487.05347  -4565351.29946  23275054.8854   23275062.1964   23275054.923
        45.0004         40.0004
 -25800165.74549 -20057992.28748  19896726.3104   19896732.5844   19896726.554
        54.0004         49.0004
   -161588.38946   -100807.27445  24728823.3774   24728837.0714   24728822.744
        40.0004         35.0004
 -11426512.78048  -8849944.46147  22975179.0504   22975186.0134   22975177.995
        48.0004         43.0004
 -23893074.04948 -18570536.69948  20772275.5054   20772281.7714   20772275.020
        52.0004         48.0004
  -7132159.30247  -5520891.66746  23170502.9134   23170511.6624   23170503.509
        46.0004         41.0004
 14  5 20  0  7  0.0000000  0 12G20G26G10G09G07G13G02G08G01G17G04G28
  -4049652.59446  -3099649.34845  23777178.2604   23777188.0834   23777178.191
        40.0004         35.0004
   -910007.36847   -689499.98146  24051380.7744   24051395.2534   24051381.478
        43.0004         38.0004
 -13250506.66347 -10319194.16246  23513548.6564   23513558.2604   23513549.268
        44.0004         40.0004
 -13356203.03649 -10387576.62348  19985784.7954   19985791.4214   19985784.724
        54.0004         50.0004
 -19236110.46248 -14959498.66347  20981075.0754   20981080.8724   20981074.493
        52.0004         47.0004
  21061871.65646  16406342.03645  24748445.4374   24748453.8974   24748445.487
        39.0004         35.0004
  -5968386.64947  -4630727.43946  23259088.4254   23259097.3804   23259088.871
        45.0004         40.0004
 -25789880.23349 -20049977.55848  19898683.4024   19898690.1684   19898683.993
        54.0004         49.0004
    -55213.10546    -17917.42945  24749064.8424   24749079.8944   24749064.835
        39.0004         35.0004
 -11384368.44548  -8817104.68047  22983198.1004   22983206.6124   22983198.016
        48.0004         43.0004
 -23944518.62648 -18610623.31248  20762485.8844   20762492.4904   20762484.905
        52.0004         48.0004
  -7188249.78147  -5564598.37246  23159830.1724   23159838.2964   23159830.003
        46.0004         41.0004
 14  5 20  0  7 30.0000000  0 12G20G26G10G09G07G13G02G08G01G17G04G28
  -4026559.08846  -3081654.38345  23781572.1614   23781580.5304   23781573.070
        40.0004         35.0004
   -909330.54647   -688972.45546  24051509.9854   24051524.4484   24051510.220
        43.0004         38.0004
 -13315638.18147 -10369945.84846  23501154.6724   23501163.1824   23501154.945
        44.0004         40.0004
 -13348590.39549 -10381644.65348  19987233.4604   19987239.9534   19987233.843
        54.0004         49.0004
 -19166138.33348 -14904974.90847  20994390.4674   20994395.8114   20994389.817
        52.0004         47.0004
  21124459.43646  16455111.83345  24760358.1244   24760364.8934   24760355.826
        39.0004         35.0004
  -6052020.25747  -4695896.31946  23243173.6234   23243181.2784   23243174.417
        45.0004         40.0004
 -25778929.43849 -20041444.43748  19900767.0604   19900774.0754   19900767.742
        54.0004         49.0004
     51233.89746     65028.30345  24769321.4784   24769337.0654   24769321.061
        39.0004         34.0004
 -11342273.94648  -8784303.73047  22991207.7924   22991216.1784   22991208.007
        48.0004         43.0004
 -23995468.36348 -18650324.33648  20752790.1774   20752796.4714   20752789.794
        52.0004         48.0004
  -7244456.12547  -5608395.36046  23149133.2724   23149140.4274   23149133.824
        46.0004         41.0004
 14  5 20  0  8  0.0000000  0 12G20G26G10G09G07G13G02G08G01G17G04G28
  -4003158.96946  -3063420.51045  23786023.3604   23786036.5914   23786025.596
        39.0004         35.0004
   -908395.57847   -688243.80046  24051687.8264   24051701.6744   24051687.586
        42.0004         38.0004
 -13380926.87047 -10420819.98846  23488729.6384   23488740.3674   23488731.149
        44.0004         40.0004
 -13340370.69549 -10375239.64548  19988797.6014   19988804.2574   19988797.748
        54.0004         50.0004
 -19095712.39148 -14850097.53447  21007791.7374   21007798.1164   21007791.468
        52.0004         47.0004
  21186803.60746  16503691.79845  24772220.0194   24772225.9024   24772218.650
        39.0004         35.0004
  -6135387.02347  -4760857.26446  23227309.7444   23227317.3704   23227310.213
        45.0004         40.0004
 -25767314.73949 -20032393.98348  19902977.3874   19902983.9894   19902977.901
        54.0004         49.0004
    157748.76546    148026.90745  24789589.2864   24789604.2234   24789590.330
        39.0004         33.0004
 -11300232.49448  -8751544.11747  22999208.3974   22999216.3924   22999208.329
        48.0004         43.0004
 -24045923.01348 -18689639.58348  20743189.0714   20743195.5604   20743188.420
        52.0004         48.0004
  -7300777.37547  -5652281.87646  23138415.6574   23138424.2594   23138415.742
        46.0004         41.0004
 14  5 20  0  8 30.0000000  0 12G20G26G10G09G07G13G02G08G01G17G04G28
  -3979453.14846  -3044948.43545  23790536.2544   23790544.0484   23790536.155
        39.0004         34.0004
   -907204.66247   -687315.70446  24051914.1044   24051927.7494   24051914.147
        42.0004         38.0004
 -13446372.06147 -10471816.09546  23476277.0914   23476285.6384   23476277.273
        44.0004         40.0004
 -13331545.77949 -10368363.04548  19990476.7484   19990483.2674   19990476.953
        54.0004         50.0004
 -19024836.37148 -14794869.45247  21021279.2994   21021285.2704   21021278.887
        52.0004         47.0004
  21248902.60346  16552080.71745  24784037.3514   24784042.5214   24784036.647
        40.0004         35.0004
  -6218485.19347  -4825608.92846  23211496.8564   23211503.5464   23211496.353
        45.0004         40.0004
 -25755037.77349 -20022827.47548  19905313.4664   19905320.1914   19905313.940
        54.0004         49.0004
    264327.84046    231075.55645  24809871.8744   24809887.9734   24809871.205
        39.0004         34.0004
 -11258247.51148  -8718828.49247  23007199.0024   23007206.6174   23007197.914
        48.0004         43.0004
 -24095882.02648 -18728568.60848  20733681.2824   20733688.4994   20733681.188
        53.0004         48.0004
  -7357212.71047  -5696257.30447  23127675.8484   23127684.8074   23127676.787
        46.0004         42.0004
 14  5 20  0  9  0.0000000  0 11G20G26G10G09G07G13G02G08G17G04G28
  -3955436.45846  -3026234.11645  23795106.8364   23795116.2854   23795106.515
        39.0004         34.0004
   -905757.21347   -686187.69246  24052191.4574   24052203.9394   24052190.525
        42.0004         38.0004
 -13511968.85747 -10522930.33346  23463793.4524   23463801.6814   23463794.518
        45.0004         40.0004
 -13322112.36849 -10361012.28948  19992272.0654   19992278.3774   19992272.111
        54.0004         50.0004
 -18953508.77948 -14739289.49447  21034852.5134   21034857.8584   21034851.956
        52.0004         47.0004
  21310758.95046  16600280.55545  24795808.7744   24795815.7944   24795806.647
        40.0004         35.0004
  -6301309.60647  -4890147.26046  23195735.1254   23195741.5634   23195735.408
        45.0004         41.0004
 -25742094.96349 -20012742.12848  19907776.3604   19907783.0824   19907776.773
        54.0004         49.0004
 -11216317.30548  -8686155.57247  23015176.9954   23015184.8554   23015176.770
        48.0004         43.0004
 -24145339.81548 -18767107.07948  20724270.2224   20724276.8854   20724270.576
        53.0004         48.0004
  -7413756.15147  -5740316.95947  23116916.0984   23116925.2614   23116916.963
        46.0004         42.0004
 14  5 20  0  9 30.0000000  0 12G20G26G10G09G07G13G02G08G01G17G04G28
  -3931109.66646  -3007278.14045  23799735.5764   23799743.8744   23799735.553
        39.0004         34.0004
   -904055.64947   -684861.68246  24052514.0614   24052526.6754   24052512.737
        42.0004         38.0004
 -13577717.20347 -10574162.65046  23451282.4554   23451291.0064   23451282.953
        45.0004         40.0004
 -13312072.76949 -10353189.18148  19994182.7214   19994188.8074   19994182.547
        54.0004         50.0004
 -18881734.23548 -14683361.26347  21048510.5654   21048516.2424   21048510.136
        52.0004         47.0004
  21372370.41146  16648289.58445  24807531.6184   24807538.6724   24807531.121
        39.0004         35.0004
  -6383859.98447  -4954472.05546  23180027.0394   23180033.7884   23180026.954
        45.0004         41.0004
 -25728488.31749 -20002139.50848  19910365.6304   19910372.3914   19910366.037
        54.0004         49.0004
 -13701102.38756 -10651077.82955  24850469.4945   24850485.4075   24850470.499
        38.0004         33.0004
 -11174445.50548  -8653528.17347  23023145.2214   23023153.7954   23023144.577
        48.0004         43.0004
 -24194296.74648 -18805255.27248  20714954.2594   20714960.6234   20714953.044
        52.0004         48.0004
  -7470407.58047  -5784460.77146  23106135.3554   23106144.0934   23106136.318
        46.0004         41.0004
 14  5 20  0 10  0.0000000  0 12G20G26G10G09G07G13G02G08G01G17G04G28
  -3906472.20346  -2988080.09745  23804425.2874   23804432.4324   23804424.671
        39.0004         35.0004
   -902103.33147   -683340.27346  24052883.9874   24052897.6464   24052885.540
        42.0004         38.0004
 -13643615.72947 -10625512.00346  23438742.3554   23438751.2014   23438742.663
        45.0004         40.0004
 -13301428.34849 -10344894.78348  19996208.5994   19996214.3784   19996208.281
        54.0004         50.0004
 -18809515.83748 -14627087.17247  21062253.3704   21062258.6194   21062253.023
        52.0004         47.0004
  21433735.64946  16696106.72945  24819208.3714   24819218.3684   24819208.209
        39.0004         35.0004
  -6466134.29447  -5018581.74646  23164370.2414   23164377.5334   23164370.507
        45.0004         41.0004
 -25714218.92749 -19991020.46348  19913081.3084   19913087.4654   19913081.505
        54.0004         49.0004
 -13594339.02656 -10567885.58855  24870784.4385   24870802.7875   24870786.163
        38.0004         33.0004
 -11132634.82948  -8620948.38247  23031100.6204   23031109.7074   23031100.784
        48.0004         43.0004
 -24242751.63548 -18843012.25348  20705732.9804   20705740.1454   20705733.300
        52.0004         48.0004
  -7527165.00647  -5828687.16946  23095335.4424   23095344.3204   23095335.682
        46.0004         41.0004
 14  5 20  0 10 30.0000000  0 12G20G26G10G09G07G13G02G08G01G17G04G28
  -3881521.36146  -2968637.86845  23809172.5434   23809183.0644   23809171.696
        39.0004         34.0004
   -899899.39747   -681622.82046  24053304.5974   24053316.3264   24053303.713
        42.0004         38.0004
 -13709661.48247 -10676976.07846  23426173.7004   23426182.3424   23426173.955
        45.0004         40.0004
 -13290178.05449 -10336128.27548  19998348.8054   19998355.2184   19998349.063
        54.0004         50.0004
 -18736854.26548 -14570467.74347  21076080.2494   21076086.2614   21076079.597
        52.0004         47.0004
  21494855.81546  16743732.94345  24830839.6934   24830847.4084   24830838.711
        39.0004         35.0004
  -6548128.70547  -5082473.32146  23148767.3054   23148774.4744   23148767.334
        45.0004         41.0004
 -25699285.52549 -19979384.01048  19915922.3844   19915929.3994   19915923.066
        54.0004         49.0004
 -13487518.35146 -10484648.69345  24891115.2994   24891131.7644   24891114.040
        38.0004         33.0004
 -11090885.41248  -8588416.31747  23039046.2264   23039054.2104   23039045.232
        48.0004         43.0004
 -24290701.01348 -18880375.34348  20696608.9564   20696615.4704   20696608.356
        52.0004         48.0004
  -7584024.53147  -5872993.12046  23084514.5854   23084522.1284   23084515.123
        46.0004         41.0004
 14  5 20  0 11  0.0000000  0 12G20G26G10G09G07G13G02G08G01G17G04G28
  -3856260.21746  -2948953.84645  23813980.9004   23813984.5424   23813979.646
        39.0004         34.0004
   -897450.25347   -679714.26946  24053770.0794   24053783.1024   24053770.953
        43.0004         38.0004
 -13775856.70047 -10728556.61346  23413577.0264   23413586.3854   23413577.573
        45.0004         40.0004
 -13278326.42449 -10326893.19848  20000604.3214   20000610.7064   20000604.227
        54.0004         50.0004
 -18663756.03648 -14513508.07447  21089990.7664   21089996.4924   21089990.149
        52.0004         47.0004
  21555726.00546  16791164.33145  24842423.4754   24842432.5764   24842421.726
        39.0004         34.0004
  -6629844.79447  -5146148.02546  23133216.3664   23133224.0584   23133216.522
        45.0004         41.0004
 -25683692.40049 -19967233.48748  19918890.0064   19918896.3934   19918890.369
        54.0004         49.0004
                 -10401372.15155                  24911467.9025   24911450.580
                        33.0004
 -11049203.23148  -8555936.64647  23046977.1014   23046986.0504   23046977.415
        48.0004         43.0004
 -24338147.31048 -18917346.41248  20687580.0744   20687586.0484   20687579.227
        52.0004         48.0004
  -7640987.86347  -5917379.97546  23073675.5534   23073684.3484   23073675.641
        46.0004         41.0004
 14  5 20  0 11 30.0000000  0 11G20G26G10G09G07G13G02G08G17G04G28
  -3830684.83646  -2929024.93345  23818845.1694   23818856.7074   23818846.119
        39.0004         34.0004
   -894755.06047   -677614.01946  24054282.7334   24054297.1604   24054282.802
        43.0004         38.0004
 -13842196.14347 -10780249.53046  23400953.0564   23400961.4324   23400953.411
        45.0004         40.0004
 -13265870.96649 -10317187.60048  20002974.4134   20002980.7164   20002974.288
        54.0004         50.0004
 -18590220.73848 -14456207.82447  21103983.3844   21103989.6174   21103983.188
        52.0004         47.0004
  21616348.73346  16838402.89445  24853959.6344   24853967.5534   24853958.294
        39.0004         34.0004
  -6711277.31747  -5209601.78046  23117720.5814   23117726.8214   23117720.884
        45.0004         41.0004
 -25667436.97249 -19954566.88348  19921983.2394   19921989.6914   19921983.730
        54.0004         49.0004
 -11007587.07348  -8523508.42547  23054896.9454   23054904.8734   23054896.845
        48.0004         43.0004
 -24385085.81348 -18953921.80548  20678647.9284   20678654.2274   20678647.525
        52.0004         48.0004
  -7698050.00647  -5961843.83646  23062816.3444   23062824.1274   23062816.720
        46.0004         41.0004
 14  5 20  0 12  0.0000000  0 11G20G26G10G09G07G13G02G08G17G04G28
 -16408154.28046 -12729650.45245  23823772.6114   23823782.7454   23823771.944
        39.0004         34.0004
   -891816.05947   -675323.77146  24054843.6254   24054855.1214   24054842.353
        43.0004         38.0004
 -13908679.14247 -10832054.31646  23388301.2074   23388310.4224   23388301.108
        45.0004         40.0004
 -13252813.40449 -10307012.83048  20005459.4394   20005465.3414   20005459.253
        54.0004         50.0004
 -18516251.28048 -14398569.26847  21118059.6314   21118065.5454   21118059.185
        52.0004         47.0004
  21676722.90046  16885447.76745  24865446.9664   24865459.5714   24865447.552
        39.0004         34.0004
  -6792424.52847  -5272833.21046  23102277.7974   23102284.4044   23102278.355
        45.0004         41.0004
 -25650520.54849 -19941385.22048  19925202.5524   19925208.9094   19925202.970
        54.0004         49.0004
 -10966039.69348  -8491133.79947  23062803.6804   23062812.0694   23062802.986
        48.0004         43.0004
 -24431515.42848 -18990100.66548  20669812.4274   20669819.4094   20669811.763
        52.0004         48.0004
  -7755209.14847  -6006383.28346  23051940.7544   23051946.1474   23051939.450
        46.0004         41.0004
 14  5 20  0 12 30.0000000  0 11G20G26G10G09G07G13G02G08G17G04G28
 -16381945.68046 -12709228.15645  23828759.5544   23828770.2884   23828760.134
        39.0004         35.0004
   -888633.28147   -672843.55646  24055447.1464   24055459.9664   24055447.209
        42.0004         38.0004
 -13975301.96747 -10883968.05046  23375622.9054   23375631.9404   23375624.119
        45.0004         41.0004
 -13239152.52849 -10296367.94548  20008058.6894   20008064.8624   20008058.585
        54.0004         50.0004
 -18441849.00048 -14340593.44847  21132218.0144   21132223.5714   21132217.141
        52.0004         47.0004
  21736849.73746  16932299.93145  24876889.2034   24876895.6514   24876888.213
        39.0004         34.0004
  -6873282.73947  -5335839.45246  23086891.5144   23086897.3564   23086891.513
        45.0004         41.0004
 -25632941.62249 -19927687.31848  19928547.8814   19928554.0914   19928547.614
        54.0004         49.0004
 -10924560.90048  -8458812.62047  23070695.7564   23070704.3874   23070695.576
        48.0004         43.0004
 -24477432.87048 -19025880.42348  20661074.5164   20661081.3084   20661074.321
        52.0004         48.0004
  -7812460.92447  -6050994.91046  23041044.6504   23041052.7794   23041045.313
        46.0004         41.0004
 14  5 20  0 13  0.0000000  0 11G20G26G10G09G07G13G02G08G17G04G28
 -16355425.00146 -12688562.67345  23833803.6314   23833813.3704   23833806.731
        39.0004         34.0004
   -885215.10247   -670179.91446  24056099.2554   24056111.8814   24056098.198
        42.0004         37.0004
 -14042069.35347 -10935994.43946  23362917.5254   23362926.5574   23362918.325
        45.0004         41.0004
 -13224895.43649 -10285258.47948  20010771.7124   20010777.6814   20010771.749
        54.0004         50.0004
 -18367022.61048 -14282287.16247  21146457.5004   21146462.7674   21146456.952
        51.0004         47.0004
  21796722.10146  16978953.81045  24888281.6224   24888291.4864   24888282.102
        39.0004         34.0004
  -6953856.13547  -5398623.75946  23071558.6384   23071565.8464   23071559.787
        46.0004         41.0004
 -25614706.95849 -19913478.45748  19932017.7214   19932023.9754   19932017.870
        54.0004         49.0004
 -10883159.09548  -8426551.42547  23078574.5734   23078583.5464   23078574.460
        48.0004         43.0004
 -24522842.80748 -19061264.72948  20652433.3914   20652439.8154   20652433.036
        53.0004         48.0004
  -7869809.61747  -6095682.05846  23030132.2584   23030139.5914   23030131.879
        46.0004         41.0004
 14  5 20  0 13 30.0000000  0 11G20G26G10G09G07G13G02G08G17G04G28
 -16328586.43246 -12667649.45245  23838914.3904   23838922.5254   23838913.767
        39.0004         34.0004
   -881558.83347   -667330.73746  24056794.2044   24056805.9694   24056794.299
        42.0004         38.0004
 -14108974.94947 -10988128.52146  23350185.6704   23350195.1514   23350186.639
        45.0004         41.0004
 -13210038.41749 -10273681.53748  20013598.9984   20013604.7204   20013598.714
        54.0004         50.0004
 -18291769.97648 -14223648.73047  21160777.1434   21160782.4844   21160776.480
        51.0004         47.0004
  21856344.15546  17025412.62045  24899626.8934   24899638.0744   24899628.657
        39.0004         35.0004
  -7034137.74447  -5461180.69046  23056281.2794   23056289.1834   23056282.234
        46.0004         41.0004
 -25595812.58849 -19898755.53848  19935613.0044   19935619.2994   19935613.195
        54.0004         49.0004
 -10841831.43448  -8394348.01147  23086438.5004   23086447.6594   23086438.612
        48.0004         43.0004
 -24567739.21748 -19096248.88148  20643889.9854   20643896.7634   20643889.280
        53.0004         48.0004
  -7927248.18147  -6140439.24246  23019201.6714   23019208.7624   23019201.359
        46.0004         41.0004
 14  5 20  0 14  0.0000000  0 11G20G26G10G09G07G13G02G08G17G04G28
 -16301429.87546 -12646488.50145  23844082.0254   23844090.6214   23844081.849
        39.0004         34.0004
   -877667.51147   -664298.41046  24057535.0044   24057546.7004   24057534.101
        42.0004         37.0004
 -14176017.93147 -11040369.65046  23337427.7694   23337437.1504   23337429.370
        45.0004         41.0004
 -13194583.51349 -10261638.72048  20016539.8734   20016546.0654   20016539.937
        54.0004         50.0004
 -18216094.79848 -14164681.05047  21175177.7114   21175182.9854   21175177.169
        51.0004         47.0004
  21915714.21246  17071675.10345  24910926.4614   24910935.9704   24910925.524
        39.0004         34.0004
  -7114126.80347  -5523509.67146  23041060.0404   23041067.3684   23041060.311
        46.0004         41.0004
 -25576260.29548 -19883519.95548  19939333.5754   19939340.0104   19939333.777
        53.0004         49.0004
 -10800580.95348  -8362204.72047  23094288.9434   23094296.7424   23094288.425
        48.0004         43.0004
 -24612121.67048 -19130832.54648  20635443.9704   20635450.5314   20635443.776
        53.0004         48.0004
  -7984775.61247  -6185265.67146  23008253.5834   23008261.8624   23008254.302
        46.0004         41.0004
 14  5 20  0 14 30.0000000  0 11G20G26G10G09G07G13G02G08G17G04G28
 -16273953.45946 -12625078.29945  23849313.1034   23849322.1254   23849309.981
        39.0004         34.0004
   -873541.88647   -661083.51046  24058320.5844   24058332.6614   24058319.129
        42.0004         38.0004
 -14243195.07247 -11092715.32846  23324644.4014   23324654.4414   23324645.511
        45.0004         41.0004
 -13178530.26149 -10249129.64948  20019594.4134   20019600.9414   20019594.569
        54.0004         50.0004
 -18139998.47748 -14105385.20247  21189657.8104   21189663.4084   21189657.679
        51.0004         47.0004
  21974832.79446  17117741.60445  24922176.1074   24922184.6814   24922175.159
        39.0004         34.0004
  -7193819.57047  -5585607.77446  23025894.2364   23025901.5964   23025895.515
        46.0004         41.0004
 -25556049.53348 -19867771.27948  19943179.3584   19943185.8534   19943179.939
        53.0004         49.0004
 -10759408.46848  -8330122.20447  23102124.2184   23102132.0494   23102123.180
        48.0004         43.0004
 -24655987.55348 -19165013.69348  20627097.0014   20627103.0754   20627096.603
        53.0004         48.0004
  -8042388.60447  -6230158.77346  22997289.6264   22997297.9104   22997290.921
        46.0004         41.0004
 14  5 20  0 15  0.0000000  0 11G20G26G10G09G07G13G02G08G17G04G28
 -16246156.53946 -12603418.31245  23854600.0604   23854610.3494   23854600.011
        39.0004         34.0004
   -869184.19247   -657687.75046  24059147.8744   24059161.4514   24059148.343
        42.0004         38.0004
 -14310505.29947 -11145164.71546  23311836.4474   23311844.6204   23311836.372
        45.0004         41.0004
 -13161879.93449 -10236155.33148  20022763.1134   20022769.0294   20022763.079
        54.0004         50.0004
 -18063484.31248 -14045763.76347  21204217.8934   21204224.0854   21204217.864
        51.0004         47.0004
  22033699.09646  17163611.55745  24933376.4184   24933383.0554   24933376.758
        39.0004         34.0004
  -7273214.09647  -5647473.48446  23010787.2524   23010793.3804   23010787.013
        46.0004         41.0004
 -25535181.22548 -19851510.22748  19947150.6194   19947156.9164   19947150.901
        53.0004         49.0004
 -10718315.91748  -8298101.98347  23109943.2714   23109951.1494   23109942.865
        48.0004         43.0004
 -24699335.43248 -19198791.19948  20618847.7004   20618854.2884   20618846.889
        53.0004         48.0004
  -8100084.72247  -6275116.64446  22986310.3734   22986318.2284   22986311.236
        46.0004         41.0004
 14  5 20  0 15 30.0000000  0 11G20G26G10G09G07G13G02G08G17G04G28
 -16218038.92746 -12581508.44045  23859949.3334   23859962.2214   23859950.328
        39.0004         34.0004
   -864597.31347   -654113.42446  24060021.2534   24060035.9534   24060020.650
        42.0004         38.0004
 -14377947.43547 -11197716.87846  23299002.0744   23299010.0034   23299002.503
        45.0004         40.0004
 -13144634.41049 -10222717.22148  20026045.0544   20026050.7024   20026044.849
        54.0004         50.0004
 -17986555.75048 -13985819.41747  21218857.5984   21218863.1934   21218857.014
        51.0004         47.0004
  22092311.74646  17209283.79545  24944529.4944   24944539.5474   24944530.902
        39.0004         34.0004
  -7352309.50047  -5709106.11246  22995734.8764   22995741.7044   22995734.753
        46.0004         41.0004
 -25513656.85049 -19834737.95548  19951246.3264   19951253.1974   19951246.745
        54.0004         49.0004
 -10677306.29748  -8266146.37847  23117747.2334   23117755.6504   23117746.496
        48.0004         43.0004
 -24742165.00148 -19232164.82048  20610697.7604   20610703.9154   20610697.442
        53.0004         48.0004
  -8157862.47647  -6320138.13246  22975316.5934   22975324.6514   22975316.655
        46.0004         41.0004
 14  5 20  0 16  0.0000000  0 11G20G26G10G09G07G13G02G08G17G04G28
 -16189599.35046 -12559347.74345  23865362.6184   23865371.5084   23865361.832
        39.0004         34.0004
   -859782.70647   -650361.63346  24060936.9524   24060949.4304   24060936.171
        42.0004         38.0004
 -14445519.19347 -11250370.04346  23286143.3924   23286152.6224   23286143.684
        45.0004         41.0004
 -13126794.04649 -10208815.60248  20029439.5444   20029445.5354   20029439.553
        54.0004         50.0004
 -17909214.87248 -13925553.79147  21233574.9014   21233580.2424   21233574.230
        51.0004         47.0004
  22150670.68946  17254758.39145  24955635.4674   24955647.2794   24955635.839
        38.0004         33.0004
  -7431102.93147  -5770503.44646  22980741.2064   22980749.0704   22980741.197
        46.0004         41.0004
 -25491476.81549 -19817454.78548  19955467.3814   19955473.9204   19955467.753
        54.0004         49.0004
 -10636380.81248  -8234256.33447  23125535.1394   23125543.0004   23125534.493
        48.0004         43.0004
 -24784474.22948 -19265132.98848  20602646.7314   20602652.7864   20602646.077
        53.0004         48.0004
  -8215719.07647  -6365221.06446  22964306.7344   22964314.7364   22964306.601
        46.0004         41.0004
 14  5 20  0 16 30.0000000  0 11G20G26G10G09G07G13G02G08G17G04G28
 -16160838.30046 -12536936.48845  23870834.4934   23870843.8844   23870835.192
        39.0004         34.0004
   -854743.74647   -646435.03646  24061896.7064   24061908.4604   24061895.956
        42.0004         38.0004
 -14513220.29147 -11303123.99746  23273259.8224   23273269.0744   23273260.661
        45.0004         41.0004
 -13108361.46449 -10194452.51948  20032947.2344   20032952.9054   20032947.302
        54.0004         50.0004
 -17831465.83648 -13864970.11647  21248370.3664   21248375.6834   21248369.771
        51.0004         47.0004
  22208774.19446  17300033.91745  24966694.7474   24966699.0214   24966692.509
        38.0004         34.0004
  -7509593.93047  -5831665.12046  22965804.4784   22965810.8734   22965805.276
        46.0004         41.0004
 -25468643.39649 -19799662.48548  19959812.2084   19959818.6324   19959812.699
        54.0004         49.0004
 -10595542.61747  -8202434.29247  23133305.0644   23133314.0044   23133305.561
        47.0004         43.0004
 -24826263.25948 -19297695.80748  20594694.0564   20594700.5024   20594693.303
        53.0004         48.0004
  -8273653.78547  -6410364.86146  22953281.4234   22953290.3144   22953281.995
        46.0004         41.0004
 14  5 20  0 17  0.0000000  0 11G20G26G10G09G07G13G02G08G17G04G28
 -16131753.38546 -12514272.89545  23876368.1904   23876381.5434   23876370.445
        39.0004         34.0004
   -849481.13447   -642334.14646  24062898.0574   24062909.2774   24062897.012
        42.0004         38.0004
 -14581047.62147 -11355976.31346  23260352.5854   23260361.1424   23260353.512
        45.0004         40.0004
 -13089336.41849 -10179627.76748  20036567.5694   20036573.5984   20036567.408
        54.0004         50.0004
 -17753309.78348 -13804069.28547  21263242.3684   21263248.5424   21263241.897
        51.0004         47.0004
  22266622.83646  17345110.84445  24977702.9704   24977711.6864   24977699.875
        38.0004         34.0004
  -7587778.85147  -5892588.29046  22950926.2774   22950932.0224   22950926.120
        46.0004         41.0004
 -25445156.00149 -19781360.59248  19964281.8154   19964288.2524   19964282.074
        54.0004         49.0004
 -10554792.47847  -8170680.87947  23141060.7104   23141068.4684   23141060.110
        47.0004         43.0004
 -24867529.08548 -19329850.92948  20586841.6034   20586848.1004   20586841.346
        53.0004         48.0004
  -8331662.81647  -6455566.56746  22942243.0154   22942250.7944   22942242.898
        46.0004         41.0004
 14  5 20  0 17 30.0000000  0 11G20G26G10G09G07G13G02G08G17G04G28
 -16102344.16546 -12491356.61345  23881965.5914   23881976.4164   23881966.552
        39.0004         34.0004
   -843997.03247   -638060.67546  24063940.8284   24063952.8254   24063941.113
        42.0004         38.0004
 -14648999.44547 -11408925.63846  23247421.8254   23247430.6284   23247423.098
        45.0004         41.0004
 -13069720.01649 -10164342.22748  20040300.4074   20040306.2504   20040300.284
        54.0004         50.0004
 -17674749.96248 -13742853.83147  21278191.8274   21278198.0354   21278191.300
        51.0004         46.0004
  22324216.05346  17389988.76345  24988657.3664   24988667.6094   24988660.336
        38.0004         33.0004
  -7665655.56847  -5953271.30146  22936105.8224   22936113.5774   22936107.013
        46.0004         41.0004
 -25421015.63749 -19762549.89348  19968875.5104   19968882.0254   19968875.766
        54.0004         49.0004
 -10514132.10447  -8138997.41947  23148797.1154   23148807.0444   23148797.497
        47.0004         43.0004
 -24908270.69248 -19361597.57548  20579088.6414   20579094.6964   20579087.781
        53.0004         48.0004
  -8389743.94747  -6500824.45846  22931189.7374   22931197.0144   22931190.454
        46.0004         41.0004
 14  5 20  0 18  0.0000000  0 11G20G26G10G09G07G13G02G08G17G04G28
 -16072607.67746 -12468185.28545  23887623.1474   23887636.2834   23887625.239
        39.0004         35.0004
   -838291.31647   -633614.52046  24065026.4284   24065038.4014   24065026.661
        42.0004         38.0004
 -14717071.55347 -11461968.70346  23234467.7914   23234476.9074   23234469.107
        45.0004         41.0004
 -13049511.00949 -10148594.91348  20044145.8034   20044151.9964   20044146.022
        54.0004         50.0004
 -17595786.81548 -13681324.10247  21293218.1964   21293223.8044   21293217.668
        51.0004         46.0004
  22381555.33246  17434668.80245  24999572.5024   24999578.9034   24999571.833
        38.0004         34.0004
  -7743219.96647  -6013710.94047  22921346.8404   22921352.8044   22921347.780
        46.0004         42.0004
 -25396221.08549 -19743229.43748  19973593.6184   19973600.1234   19973594.059
        54.0004         49.0004
 -10473561.34747  -8107383.78147  23156518.6364   23156526.8834   23156517.738
        47.0004         43.0004
 -24948484.72348 -19392933.12448  20571436.0424   20571442.3844   20571435.866
        53.0004         48.0004
  -8447892.49247  -6546134.87146  22920124.9744   22920132.3314   22920125.067
        46.0004         41.0004
 14  5 20  0 18 30.0000000  0 11G20G26G10G09G07G13G02G08G17G04G28
 -16042549.02946 -12444762.94845  23893345.4074   23893356.6684   23893345.848
        39.0004         35.0004
   -832371.95447   -629001.88846  24066152.3154   24066165.4074   24066152.495
        42.0004         37.0004
 -14785268.11147 -11515108.72746  23221490.7124   23221498.9664   23221491.507
        45.0004         41.0004
 -13028716.62449 -10132391.46248  20048102.9234   20048108.5954   20048103.063
        54.0004         50.0004
 -17516429.19048 -13619486.98147  21308319.2874   21308324.5854   21308318.868
        51.0004         46.0004
  22438634.47746  17479146.12245  25010433.1294   25010439.9154   25010433.747
        38.0004         34.0004
  -7820476.12747  -6073910.38947  22906646.4204   22906651.3284   22906645.577
        46.0004         42.0004
 -25370779.32948 -19723404.66548  19978435.2194   19978441.3274   19978435.465
        53.0004         49.0004
 -10433088.16847  -8075846.17247  23164220.0084   23164227.9024   23164219.489
        47.0004         43.0004
 -24988175.62648 -19423861.04248  20563883.0354   20563889.6344   20563882.734
        53.0004         48.0004
  -8506112.12547  -6591500.69746  22909046.0154   22909054.2844   22909046.438
        46.0004         41.0004
 14  5 20  0 19  0.0000000  0 11G20G26G10G09G07G13G02G08G17G04G28
 -16012163.48146 -12421085.84545  23899125.6714   23899136.1704   23899127.253
        39.0004         34.0004
   -826237.02247   -624221.28946  24067321.2444   24067332.4204   24067320.456
        42.0004         37.0004
 -14853583.48147 -11568341.34546  23208491.3384   23208499.2294   23208491.347
        45.0004         41.0004
 -13007334.12949 -10115729.74348  20052171.8004   20052177.7774   20052171.787
        54.0004         50.0004
 -17436675.58148 -13557341.30547  21323495.9224   21323501.3714   21323495.568
        51.0004         46.0004
  22495456.96546  17523423.44945  25021247.6464   25021253.0704   25021246.265
        38.0004         33.0004
  -7897418.03247  -6133864.97147  22892002.9804   22892010.0674   22892004.453
        46.0004         42.0004
 -25344687.32948 -19703073.21248  19983400.5934   19983406.2894   19983400.604
        53.0004         49.0004
 -10392710.03647  -8044382.63547  23171903.6164   23171911.3884   23171902.742
        47.0004         43.0004
 -25027338.29348 -19454377.34548  20556430.0834   20556437.4144   20556429.749
        53.0004         48.0004
  -8564396.56747  -6636917.02046  22897954.5014   22897962.0704   22897955.263
        46.0004         41.0004
 14  5 20  0 19 30.0000000  0 11G20G26G10G09G07G13G02G08G17G04G28
 -15981451.02346 -12397154.05345  23904972.5684   23904984.0484   23904971.861
        38.0004         34.0004
   -819889.72047   -619275.20146  24068527.4844   24068540.9284   24068527.250
        42.0004         37.0004
 -14922016.51947 -11621665.65446  23195466.9414   23195476.3454   23195468.285
        45.0004         41.0004
 -12985365.68449 -10098611.44348  20056352.0824   20056358.5744   20056352.373
        54.0004         50.0004
 -17356530.14248 -13494890.29847  21338747.7034   21338752.3794   21338746.906
        51.0004         46.0004
  22552021.27046  17567499.60745  25032011.3654   25032018.7544   25032010.344
        38.0004         33.0004
  -7974044.53047  -6193573.77747  22877422.4074   22877428.6984   22877422.402
        46.0004         42.0004
 -25317947.15248 -19682236.68248  19988488.8474   19988495.4674   19988488.905
        53.0004         49.0004
 -10352429.92047  -8012995.47047  23179568.4734   23179577.0464   23179568.213
        47.0004         43.0004
 -25065972.49548 -19484481.85748  20549078.7684   20549084.7324   20549078.574
        53.0004         48.0004
  -8622744.38347  -6682382.72046  22886851.2644   22886859.2144   22886851.722
        46.0004         41.0004
 14  5 20  0 20  0.0000000  0 11G20G26G10G09G07G13G02G08G17G04G28
 -15950410.74546 -12372966.80645  23910879.5054   23910887.4834   23910878.165
        39.0004         34.0004
   -813331.23347   -614164.55546  24069775.6044   24069788.5734   24069776.314
        42.0004         37.0004
 -14990564.77947 -11675079.74546  23182423.3564   23182432.1334   23182424.526
        45.0004         41.0004
 -12962811.73349 -10081036.90048  20060644.2824   20060650.0884   20060644.353
        54.0004         50.0004
 -17275994.79348 -13432135.47847  21354072.5144   21354077.8894   21354072.328
        51.0004         46.0004
                  17611374.76845                  25042731.0954   25042724.192
                        33.0004
  -8050352.78947  -6253034.60947  22862900.9014   22862907.0884   22862901.243
        46.0004         42.0004
 -25290559.27948 -19660895.45648  19993700.4934   19993706.6774   19993700.841
        53.0004         49.0004
 -10312248.94847  -7981685.56347  23187214.8594   23187223.5154   23187214.487
        47.0004         43.0004
 -25104076.37748 -19514173.13348  20541827.4114   20541833.8624   20541827.160
        53.0004         48.0004
  -8681152.46947  -6727895.38947  22875736.4164   22875744.6564   22875736.907
        46.0004         42.0004
 14  5 20  0 20 30.0000000  0 11G20G26G10G09G07G13G02G08G17G04G28
 -15919043.32346 -12348524.61545  23916844.8864   23916855.9214   23916846.876
        38.0004         34.0004
   -806565.37047   -608892.32346  24071061.4334   24071075.3474   24071062.939
        42.0004         37.0004
 -15059228.28947 -11728583.63946  23169357.0534   23169365.3844   23169358.347
        45.0004         41.0004
 -12939675.21649 -10063008.41348  20065046.8954   20065053.0434   20065046.727
        54.0004         50.0004
 -17195074.01748 -13369080.31447  21369471.5824   21369477.1894   21369471.057
        51.0004         46.0004
  22664374.11046  17655047.41645  25053390.7514   25053401.0684   25053388.674
        38.0004         33.0004
  -8126342.27947  -6312247.05547  22848440.7324   22848445.6294   22848440.921
        46.0004         42.0004
 -25262526.28148 -19639051.54048  19999035.1934   19999041.0164   19999035.525
        53.0004         49.0004
 -10272170.56447  -7950455.59247  23194841.5474   23194849.9894   23194840.684
        47.0004         43.0004
 -25141650.46848 -19543451.58648  20534677.6404   20534683.9644   20534677.185
        53.0004         48.0004
  -8739620.08747  -6773454.45146  22864610.1304   22864617.0214   22864610.736
        46.0004         41.0004
 14  5 20  0 21  0.0000000  0 11G20G26G10G09G07G13G02G08G17G04G28
 -15887346.22246 -12323825.56245  23922879.7054   23922889.3904   23922878.372
        38.0004         34.0004
   -799592.67647   -603458.92846  24072389.4634   24072402.6804   24072390.048
        42.0004         38.0004
 -15128003.59247 -11782174.64146  23156269.6634   23156277.7854   23156270.484
        45.0004         41.0004
 -12915955.95449 -10044525.84048  20069560.4214   20069566.3494   20069560.588
        54.0004         50.0004
 -17113768.98048 -13305725.73147  21384942.8804   21384948.7644   21384942.788
        51.0004         46.0004
  22720161.58656  17698518.19355  25064006.8045   25064017.9315   25064005.374
        38.0004         33.0004
  -8202009.78447  -6371208.59447  22834041.5654   22834048.0744   22834041.940
        46.0004         42.0004
 -25233847.73048 -19616704.59048  20004491.9494   20004498.5714   20004492.618
        53.0004         49.0004
 -10232194.88147  -7919305.65347  23202448.9034   23202457.0184   23202448.057
        47.0004         42.0004
 -25178691.79348 -19572314.90048  20527628.5764   20527634.9444   20527628.385
        53.0004         48.0004
  -8798143.56347  -6819057.04547  22853473.2464   22853480.7384   22853473.550
        46.0004         42.0004
 14  5 20  0 21 30.0000000  0 11G20G26G10G09G07G13G02G08G17G04G28
 -15855319.35946 -12298869.54545  23928973.2064   23928984.0714   23928973.809
        38.0004         34.0004
