     2.11           OBSERVATION DATA    G (GPS)             RINEX VERSION / TYPE
teqc  2008Oct2      gpsops              20090115 00:09:43UTCPGM / RUN BY / DATE
    30.0000                                                 INTERVAL
     1     1                                                WAVELENGTH FACT L1/2
     7    L1    L2    P1    P2    C1    S1    S2            # / TYPES OF OBSERV
Linux 2.4.20-8|Pentium IV|gcc -static|Linux|486/DX+         COMMENT
     2.10           OBSERVATION DATA    GPS                 COMMENT
soc2rnx ver 1.20    gpsops              15-Jan-2009 00:09:30COMMENT
S1, if present, is the SNR for the C/A data stream on L1.   COMMENT
 SNR is mapped to RINEX snr flag value [1,4-9]              COMMENT
    SNR:   >316  >100  >31.6  >10  >3.2    >0 bad=0         COMMENT
L1 & L2:      9     8     7     6     5     4     1         COMMENT
                                                            COMMENT
This data is provided as a public service by NASA/JPL.      COMMENT
No warranty is expressed or implied regarding suitability   COMMENT
for use.  For further information, contact:                 COMMENT
Dave Stowers, NASA/JPL m/s 238-600                          COMMENT
4800 Oak Grove Drive, Pasadena CA 91109 USA                 COMMENT
                                                            COMMENT
Forced Modulo Decimation to 30 seconds                      COMMENT
  2009     1    14     0     0    0.0000000     GPS         TIME OF FIRST OBS
GGN                 JPL                                     OBSERVER / AGENCY
CR519992104         ASH701945B_M    SCIT                    ANT # / TYPE
   -33801.4662 -6377516.5323   -82154.3508                  APPROX POSITION XYZ
        0.0083        0.0000        0.0000                  ANTENNA: DELTA H/E/N
ZR220013847         ASHTECH UZ-12       CQ00                REC # / TYPE / VERS
GLPS                                                        MARKER NAME
42005M002                                                   MARKER NUMBER
                                                            END OF HEADER
 09  1 14  0  0  0.0000000  0 12G 9G22G 5G 6G18G24G12G14G30G29G31G21
 115524805.76347  90019323.98047  21983642.5384   21983647.5144   21983643.5584
        50.000          44.000
 127545021.42847  99385732.70447  24271008.4714   24271010.8184   24271009.3824
        44.000          38.000
 124869558.99847  97300931.73847  23761904.8594   23761911.3634   23761905.9064
        45.000          39.000
 130991818.96147 102071516.78347  24926937.7594   24926942.2664   24926938.0444
        39.000          35.000
 124172514.26247  96757786.08447  23629256.8934   23629258.2104   23629256.3384
        47.000          40.000
 112761539.38347  87866120.08247  21457818.4354   21457823.9904   21457818.6964
        53.000          46.000
 128170445.65547  99873049.50747  24390044.3394   24390050.4574   24390044.8954
        43.000          38.000
 115149929.26747  89727208.38547  21912309.8454   21912312.2774   21912310.3384
        51.000          45.000
 123154074.15447  95964198.10247  23435450.6864   23435457.3004   23435451.0854
        47.000          41.000
 115991942.31147  90383321.13147  22072539.8994   22072542.6124   22072539.0684
        51.000          45.000
 126018167.10247  98195941.97047  23980484.7304   23980488.3074   23980484.9174
        45.000          39.000
 108027638.50147  84177373.98447  20556978.7314   20556981.1794   20556979.1054
        55.000          49.000
 09  1 14  0  0 30.0000000  0 12G 9G22G 5G 6G18G24G12G14G30G29G31G21
 115579966.23947  90062306.16647  21994139.9424   21994144.0404   21994140.2544
        50.000          44.000
 127528739.01647  99373045.13547  24267910.8054   24267912.0714   24267910.8004
        44.000          38.000
 124855959.34047  97290334.60247  23759316.6314   23759322.9254   23759317.4494
        45.000          39.000
 130933283.54047 102025904.80447  24915798.3624   24915803.8474   24915799.0474
        39.000          35.000
 124154339.09947  96743623.61847  23625797.0814   23625799.6854   23625797.5264
        46.000          40.000
 112784666.88747  87884141.51447  21462219.8224   21462224.7904   21462220.0504
        53.000          47.000
 128171704.27547  99874030.25347  24390284.4284   24390289.9454   24390284.4194
        43.000          38.000
 115149204.48247  89726643.64347  21912171.5474   21912174.6834   21912171.8014
        51.000          45.000
 123135008.68647  95949341.93847  23431823.7364   23431828.8804   23431823.1684
        46.000          41.000
 116065547.44247  90440675.77447  22086545.9874   22086549.3784   22086545.8294
        50.000          45.000
 125914364.17247  98115056.68147  23960731.4884   23960734.9264   23960731.7204
        45.000          39.000
 107970729.45047  84133029.28047  20546149.5604   20546151.6334   20546149.9784
        54.000          49.000
 09  1 14  0  1  0.0000000  0 12G 9G22G 5G 6G18G24G12G14G30G29G31G21
 115635627.46447  90105678.56847  22004731.9094   22004735.6834   22004732.0044
        50.000          44.000
 127512243.05247  99360191.17747  24264771.6854   24264772.4964   24264772.0164
        45.000          38.000
 124842315.42847  97279702.99347  23756720.4844   23756726.3684   23756721.2524
        46.000          39.000
 130875043.93947 101980523.31547  24904716.7094   24904722.1404   24904716.4004
        40.000          35.000
 124135949.93347  96729294.42347  23622297.4014   23622300.3804   23622297.6844
        46.000          40.000
 112808265.78047  87902530.26347  21466710.8124   21466715.6514   21466711.0714
        53.000          46.000
 128172922.26347  99874979.33747  24390516.3344   24390521.6214   24390515.1594
        43.000          38.000
 115148906.94047  89726411.81947  21912115.1404   21912118.1154   21912115.4474
        51.000          45.000
 123115780.26247  95934358.77547  23428165.0994   23428169.9544   23428164.7544
        47.000          41.000
 116139252.91547  90498108.60247  22100571.7414   22100575.0754   22100571.3434
        50.000          45.000
 125810571.88547  98034179.69047  23940980.1184   23940983.8964   23940980.0024
        44.000          39.000
 107914243.08347  84089013.94547  20535400.2954   20535402.7344   20535400.6184
        54.000          49.000
 09  1 14  0  1 30.0000000  0 12G 9G22G 5G 6G18G24G12G14G30G29G31G21
 115691790.06847  90149441.65347  22015419.2384   22015423.1164   22015419.2394
        50.000          44.000
 127495533.86347  99347171.06247  24261591.6974   24261593.1784   24261591.5914
        43.000          38.000
 124828630.65547  97269039.56147  23754116.5444   23754122.1494   23754117.2474
        45.000          39.000
 130817102.25547 101935373.96147  24893690.4944   24893696.0804   24893690.7764
        41.000          35.000
 124117348.61947  96714799.90647  23618757.9114   23618760.2534   23618758.1944
        46.000          40.000
 112832337.71347  87921287.60847  21471291.4904   21471296.2084   21471291.6164
        53.000          46.000
 128174102.93547  99875899.34447  24390740.5924   24390745.6914   24390740.1804
        43.000          38.000
 115149036.88447  89726513.10247  21912139.6454   21912142.7064   21912139.9394
        51.000          45.000
 123096391.72647  95919250.86947  23424475.2384   23424480.1894   23424475.0404
        47.000          41.000
 116213057.59047  90555618.74247  22114616.1544   22114619.7424   22114615.6474
        50.000          45.000
 125706794.28047  97953314.13747  23921231.7554   23921235.6654   23921230.9354
        44.000          39.000
 107858183.84047  84045331.42947  20524732.6504   20524735.0224   20524732.9654
        55.000          49.000
 09  1 14  0  2  0.0000000  0 12G 9G22G 5G 6G18G24G12G14G30G29G31G21
 115748450.34747  90193592.53247  22026201.4994   22026205.6054   22026201.5564
        51.000          44.000
 127478608.84147  99333982.78047  24258370.1844   24258372.5904   24258370.5174
        43.000          37.000
 124814904.36647  97258343.76647  23751504.5824   23751509.9734   23751504.9404
        46.000          39.000
 130759456.36047 101890455.08947  24882720.2654   24882725.1454   24882720.7114
        40.000          35.000
 124098533.44547  96700138.73847  23615177.0294   23615179.8094   23615177.9074
        46.000          40.000
 112856880.74147  87940412.05147  21475961.7244   21475966.7984   21475961.8784
        53.000          46.000
 128175246.19747  99876790.18747  24390957.6864   24390963.9894   24390957.6974
        43.000          38.000
 115149590.23547  89726944.31347  21912245.2184   21912248.1934   21912245.3354
        51.000          45.000
 123076841.46547  95904016.92947  23420754.5984   23420759.8874   23420754.2604
        47.000          41.000
 116286956.41447  90613202.22647  22128678.3814   22128682.3264   22128678.3624
        50.000          45.000
 125603031.60647  97872460.21447  23901486.2434   23901490.0914   23901485.5594
        45.000          39.000
 107802551.94847  84001981.92647  20514146.1704   20514148.5824   20514146.5454
        55.000          49.000
 09  1 14  0  2 30.0000000  0 12G 9G22G 5G 6G18G24G12G14G30G29G31G21
 115805609.50347  90238132.15147  22037078.8114   22037082.3654   22037079.1224
        50.000          44.000
 127461470.28347  99320628.17747  24255109.7114   24255110.9824   24255109.5844
        44.000          38.000
 124801141.19247  97247619.24647  23748885.6854   23748890.6144   23748886.2714
        45.000          39.000
 130702109.51347 101845769.24547  24871808.5094   24871812.6704   24871807.6854
        41.000          35.000
 124079507.65947  96685313.47847  23611557.1524   23611559.2354   23611557.5534
        46.000          40.000
 112881897.70047  87959905.78547  21480722.3204   21480727.2114   21480722.4454
        53.000          46.000
 128176355.34347  99877654.45247  24391168.9474   24391174.6574   24391169.1114
        43.000          38.000
 115150568.22847  89727706.41147  21912431.4334   21912434.5914   21912431.6384
        51.000          45.000
 123057133.46547  95888660.09347  23417004.3664   23417009.6834   23417003.8444
        47.000          41.000
 116360949.27547  90670858.98847  22142759.0024   22142762.5634   22142758.7354
        50.000          45.000
 125499289.47147  97791622.30147  23881745.1294   23881748.3494   23881744.8384
        45.000          39.000
 107747353.00747  83958969.77647  20503642.4114   20503644.4684   20503642.7634
        55.000          49.000
 09  1 14  0  3  0.0000000  0 12G 9G22G 5G 6G18G24G12G14G30G29G31G21
 115863266.69147  90283059.83647  22048050.4514   22048054.3524   22048050.6384
        50.000          44.000
 127444117.94547  99307106.91547  24251807.1884   24251809.0784   24251807.3314
        44.000          38.000
 124787343.51147  97236867.82047  23746259.9764   23746265.4174   23746260.1714
        45.000          39.000
 130645062.68847 101801317.18147  24860952.2454   24860957.0744   24860952.0184
        42.000          35.000
 124060271.99247  96670324.66547  23607896.7204   23607899.1964   23607896.6454
        46.000          40.000
 112907389.01147  87979769.14847  21485573.0084   21485577.9484   21485573.0924
        53.000          46.000
 128177433.28547  99878494.41447  24391374.3914   24391378.9474   24391374.3364
        43.000          38.000
 115151969.63647  89728798.44647  21912697.9644   21912701.1344   21912698.1794
        51.000          45.000
 123037269.50447  95873181.71547  23413224.5874   23413229.0334   23413224.1014
        47.000          41.000
 116435033.97347  90728587.32947  22156856.6554   22156860.4644   22156856.1564
        50.000          45.000
 125395570.56147  97710802.48747  23862008.1224   23862011.2484   23862008.1464
        45.000          39.000
 107692590.20747  83916297.48447  20493221.3214   20493223.4664   20493221.7454
        55.000          49.000
 09  1 14  0  3 30.0000000  0 12G 9G22G 5G 6G18G24G12G14G30G29G31G21
 115921418.61847  90328373.04147  22059116.5214   22059120.1414   22059116.5254
        50.000          44.000
 127426548.29047  99293416.23847  24248464.1714   24248465.4584   24248463.8034
        43.000          38.000
 124773510.89147  97226089.18447  23743627.9254   23743632.8164   23743628.5684
        46.000          39.000
 130588313.97447 101757097.43447  24850154.1604   24850159.0774   24850153.1184
        41.000          35.000
 124040824.70447  96655170.95147  23604195.8894   23604198.3414   23604196.0764
        46.000          40.000
 112933352.44747  88000000.39847  21490513.7184   21490518.8704   21490513.9114
        53.000          46.000
 128178479.67447  99879309.79747  24391573.3414   24391578.3594   24391573.1814
        43.000          38.000
 115153790.84547  89730217.59847  21913044.2204   21913047.7534   21913044.5554
        51.000          45.000
 123017249.02147  95857581.38447  23409414.8704   23409419.2724   23409414.6504
        47.000          41.000
 116509205.64047  90786383.43147  22170971.1164   22170974.8864   22170970.9924
        50.000          45.000
 125291874.98547  97630000.84547  23842275.3774   23842278.7704   23842275.1684
        45.000          40.000
 107638263.98347  83873965.37747  20482883.4224   20482885.5714   20482883.8434
        55.000          49.000
 09  1 14  0  4  0.0000000  0 12G 9G22G 5G 6G18G24G12G14G30G29G31G21
 115980063.45347  90374070.34147  22070276.1944   22070279.6974   22070276.1674
        50.000          44.000
 127408761.14147  99279556.11547  24245079.1454   24245081.2474   24245078.8734
        43.000          37.000
 124759644.87947  97215284.51247  23740988.5894   23740994.4834   23740989.0814
        45.000          39.000
 130531863.44447 101713110.04047  24839411.9484   24839416.2014   24839411.3444
        41.000          35.000
 124021166.25947  96639852.68847  23600455.1564   23600457.4674   23600455.5804
        46.000          39.000
 112959787.62647  88020599.23547  21495544.1484   21495548.9704   21495544.3104
        52.000          46.000
 128179495.70147  99880101.51447  24391767.1414   24391771.9094   24391766.6644
        43.000          38.000
 115156029.51547  89731962.04747  21913470.5844   21913473.4994   21913470.8404
        51.000          45.000
 122997072.60847  95841859.52947  23405575.4754   23405579.8724   23405575.1684
        47.000          41.000
 116583461.26747  90844244.95147  22185101.6024   22185105.4114   22185101.2434
        50.000          45.000
 125188205.73847  97549219.73447  23822547.7924   23822551.6054   23822547.2384
        45.000          40.000
 107584376.91847  83831975.46847  20472628.9884   20472631.1034   20472629.3574
        55.000          49.000
 09  1 14  0  4 30.0000000  0 12G 9G22G 5G 6G18G24G12G14G30G29G31G21
 116039201.67047  90420152.08647  22081529.5514   22081533.2844   22081529.6524
        50.000          44.000
 127390758.18647  99265528.00647  24241653.9014   24241654.6954   24241653.6124
        44.000          38.000
 124745749.32147  97204456.82347  23738344.6484   23738350.3974   23738345.0054
        45.000          39.000
 130475713.53347 101669356.89147  24828725.9214   24828731.2704   24828726.0134
        41.000          35.000
 124001299.24647  96624371.90847  23596674.5184   23596676.7004   23596674.9314
        46.000          39.000
 112986696.47347  88041567.16847  21500664.5374   21500669.5324   21500664.7314
        52.000          46.000
 128180485.57847  99880872.84947  24391954.8514   24391960.9724   24391955.0234
        43.000          38.000
 115158686.57647  89734032.51147  21913975.9014   21913979.2254   21913976.0704
        51.000          45.000
 122976743.59247  95826018.77847  23401706.6954   23401711.3234   23401706.3314
        47.000          41.000
 116657800.63047  90902171.72047  22199247.9714   22199251.5294   22199247.3914
        50.000          45.000
 125084567.37547  97468462.67047  23802825.6704   23802829.6164   23802825.5974
        45.000          40.000
 107530933.67647  83790331.39947  20462458.8934   20462461.2754   20462459.2224
        54.000          49.000
 09  1 14  0  5  0.0000000  0 12G 9G22G 5G 6G18G24G12G14G30G29G31G21
 116098830.70447  90466616.30347  22092876.5784   22092880.4474   22092876.5824
        50.000          44.000
 127372537.36947  99251330.05647  24238186.4224   24238187.6554   24238186.6154
        44.000          38.000
 124731824.99947  97193606.71747  23735694.9694   23735700.6864   23735695.5684
        45.000          39.000
 130419863.63647 101625837.52847  24818098.6894   24818103.0624   24818098.1174
        42.000          36.000
 123981223.00147  96608728.08747  23592854.3904   23592856.1724   23592855.0484
        47.000          40.000
 113014078.28847  88062903.63747  21505875.3504   21505880.3494   21505875.4994
        52.000          46.000
 128181449.15247  99881623.69647  24392138.3384   24392143.5084   24392138.0194
        44.000          38.000
 115161759.30947  89736426.88147  21914560.7314   21914563.7914   21914560.7364
        51.000          45.000
 122956262.38847  95810059.43547  23397809.8184   23397813.9214   23397809.4754
        48.000          41.000
 116732219.20447  90960160.22547  22213409.3364   22213412.7654   22213408.9374
        51.000          45.000
 124980961.32047  97387730.80547  23783110.0294   23783113.8164   23783109.8104
        44.000          40.000
 107477935.81047  83749034.37547  20452373.7264   20452376.1394   20452374.0624
        55.000          49.000
 09  1 14  0  5 30.0000000  0 12G 9G22G 5G 6G18G24G12G14G30G29G31G21
 116158950.54847  90513462.95047  22104316.9824   22104321.1594   22104317.0554
        50.000          44.000
 127354099.07747  99236962.45847  24234677.3684   24234678.8834   24234677.4114
        43.000          38.000
 124717875.17647  97182736.75547  23733039.9844   23733045.7704   23733040.4814
        45.000          39.000
 130364315.22347 101582553.07847  24807527.9944   24807532.9864   24807528.2524
        42.000          36.000
 123960939.13747  96592922.50047  23588994.1674   23588996.3724   23588994.6644
        47.000          40.000
 113041933.85147  88084609.26947  21511176.1224   21511180.8624   21511176.3434
        53.000          46.000
 128182389.89547  99882356.76647  24392317.0064   24392323.0684   24392316.9044
        43.000          38.000
 115165247.03247  89739144.61147  21915224.2794   21915227.3984   21915224.5444
        51.000          45.000
 122935631.47847  95793983.42847  23393884.0694   23393887.6694   23393883.9254
        47.000          41.000
 116806715.90947  91018209.59947  22227585.8404   22227589.0324   22227585.8804
        50.000          45.000
 124877391.35447  97307027.05547  23763401.2174   23763405.2244   23763400.6424
        45.000          40.000
 107425387.17647  83708087.40547  20442374.0364   20442376.2794   20442374.3994
        54.000          49.000
 09  1 14  0  6  0.0000000  0 12G 9G22G 5G 6G18G24G12G14G30G29G31G21
 116219558.02547  90560689.57447  22115850.2294   22115854.2644   22115850.3554
        50.000          44.000
 127335441.99847  99222424.52347  24231126.9184   24231128.1624   24231127.0084
        43.000          38.000
 124703899.88847  97171846.94347  23730380.8934   23730386.3224   23730380.9734
        45.000          39.000
 130309066.98147 101539502.54047  24797014.3704   24797020.2994   24797014.1464
        41.000          36.000
 123940446.54147  96576954.24747  23585094.4334   23585097.1054   23585094.7884
        47.000          40.000
 113070261.59247  88106682.83647  21516566.4634   21516571.5854   21516566.5714
        53.000          46.000
 128183307.77047  99883071.99247  24392492.1224   24392497.4534   24392491.6824
        43.000          38.000
 115169146.52047  89742183.21147  21915966.3904   21915969.4624   21915966.6714
        51.000          45.000
 122914850.34747  95777790.36347  23389929.2834   23389932.8074   23389928.9134
        47.000          41.000
 116881286.66447  91076316.68247  22241776.0644   22241779.4244   22241776.0234
        50.000          45.000
 124773858.51447  97226352.22647  23743699.4064   23743703.3304   23743698.8424
        45.000          40.000
 107373288.87847  83667491.34047  20432460.0744   20432462.4764   20432460.4544
        55.000          49.000
 09  1 14  0  6 30.0000000  0 12G 9G22G 5G 6G18G24G12G14G30G29G31G21
 116280652.03447  90608295.32247  22127476.1804   22127479.7574   22127476.2474
        50.000          44.000
 127316565.76747  99207715.97647  24227534.8774   24227536.1134   24227534.3604
        43.000          38.000
 124689901.62247  97160939.25547  23727717.1324   23727722.9934   23727717.9354
        45.000          39.000
 130254119.73247 101496686.54147  24786558.1624   24786563.4194   24786557.8754
        41.000          35.000
 123919746.42047  96560824.29447  23581155.7054   23581158.0734   23581156.0694
        47.000          40.000
 113099061.76647  88129124.52447  21522047.0914   21522052.0554   21522047.3944
        53.000          46.000
 128184205.18247  99883771.29447  24392662.7924   24392668.2744   24392662.6914
        44.000          38.000
 115173456.44047  89745541.62447  21916786.4924   21916789.6154   21916786.6774
        51.000          45.000
 122893920.46547  95761481.37847  23385946.3284   23385950.5304   23385945.7664
        47.000          41.000
 116955929.14047  91134479.65147  22255980.0844   22255983.3094   22255979.7834
        50.000          45.000
 124670365.83447  97145708.69947  23724005.7224   23724009.2254   23724005.5034
        46.000          40.000
 107321644.22747  83627248.76847  20422632.6014   20422634.7424   20422633.0144
        55.000          49.000
 09  1 14  0  7  0.0000000  0 12G 9G22G 5G 6G18G24G12G14G30G29G31G21
 116342232.92647  90656280.45347  22139194.3404   22139198.2314   22139194.5274
        50.000          44.000
 127297471.03147  99192836.96547  24223900.6324   24223902.7704   24223900.4274
        43.000          37.000
 124675883.77547  97150016.29247  23725049.6314   23725055.0974   23725050.0624
        45.000          39.000
 130199475.48947 101454106.63547  24776160.0144   24776164.2334   24776159.6974
        42.000          36.000
 123898841.13047  96544534.47247  23577177.2024   23577179.8554   23577177.8284
        47.000          40.000
 113128336.08547  88151935.68847  21527617.8204   21527622.8234   21527617.9954
        52.000          46.000
 128185085.75147  99884457.45347  24392830.4664   24392835.3684   24392830.1294
        44.000          39.000
 115178176.61747  89749219.71747  21917684.6614   21917687.6874   21917684.9744
        51.000          45.000
 122872844.68147  95745058.70547  23381935.4744   23381939.8304   23381935.5844
        47.000          41.000
 117030642.25847  91192697.65747  22270197.7084   22270200.8394   22270197.3864
        50.000          45.000
 124566917.34047  97065099.59847  23704320.1374   23704323.6594   23704319.8034
        46.000          41.000
 107270457.42047  83587362.96347  20412891.9324   20412894.2174   20412892.3544
        55.000          49.000
 09  1 14  0  7 30.0000000  0 12G 9G22G 5G 6G18G24G12G14G30G29G31G21
 116404298.14347  90704642.97947  22151005.2344   22151009.0024   22151005.2004
        50.000          44.000
 127278156.51947  99177786.74847  24220226.1274   24220227.1174   24220226.0324
        44.000          38.000
 124661847.21147  97139078.74747  23722378.1754   23722384.1134   23722379.0364
        45.000          39.000
 130145133.41347 101411762.20947  24765818.5874   24765823.9334   24765818.8744
        42.000          36.000
 123877730.08647  96528084.33047  23573159.9394   23573162.5444   23573160.5124
        46.000          40.000
 113158083.18747  88175115.24647  21533278.6744   21533283.5564   21533278.9254
        53.000          46.000
 128185949.70147  99885130.67347  24392995.3334   24393000.2414   24392994.5524
        43.000          39.000
 115183304.38947  89753215.42047  21918660.3704   21918663.3854   21918660.6094
        51.000          45.000
 122851623.28347  95728522.56647  23377897.2294   23377901.4234   23377896.9654
        47.000          41.000
 117105422.22647  91250967.75747  22284427.7534   22284431.2874   22284427.1884
        50.000          45.000
 124463515.00147  96984526.44947  23684643.3574   23684646.7454   23684643.0214
        46.000          41.000
 107219729.60547  83547834.80147  20403238.7324   20403240.9884   20403239.0174
        55.000          49.000
 09  1 14  0  8  0.0000000  0 12G 9G22G 5G 6G18G24G12G14G30G29G31G21
 116466836.50747  90753374.19847  22162905.7434   22162909.8864   22162906.0184
        50.000          44.000
 127258612.22447  99162557.48147  24216506.5644   24216507.7084   24216506.4154
        43.000          38.000
 124647784.33547  97128120.69547  23719702.3554   23719708.2674   23719702.8244
        45.000          39.000
 130091084.15947 101369645.94547  24755533.9534   24755538.6204   24755533.6854
        42.000          36.000
 123856404.29847  96511466.85347  23569101.8154   23569104.4174   23569102.2644
        46.000          40.000
 113188293.48447  88198655.73747  21539027.6504   21539032.3894   21539027.8654
        53.000          46.000
 128186789.64647  99885785.20247  24393155.0814   24393160.3164   24393154.9844
        44.000          39.000
 115188828.31647  89757519.82547  21919711.4324   21919714.7434   21919711.7244
        51.000          45.000
 122830248.38147  95711866.83847  23373829.4954   23373834.1084   23373829.2514
        47.000          41.000
 117180256.96647  91309280.53747  22298668.2884   22298671.8154   22298668.3164
        50.000          45.000
 124360151.97847  96903983.93547  23664973.9444   23664977.1394   23664973.5424
        47.000          41.000
 107169454.24247  83508659.20147  20393671.5674   20393673.7684   20393671.9264
        54.000          49.000
 09  1 14  0  8 30.0000000  0 12G 9G22G 5G 6G18G24G12G14G30G29G31G21
 116529863.85747  90802486.44047  22174899.4184   22174903.7594   22174899.4624
        50.000          44.000
 127238855.32547  99147162.55547  24212746.4434   24212747.8864   24212746.3114
        44.000          38.000
 124633714.70847  97117157.38947  23717024.8444   23717030.5144   23717025.4374
        45.000          39.000
 130037345.79547 101327771.92547  24745307.8904   24745312.5164   24745307.7914
        43.000          37.000
 123834882.03647  96494696.30047  23565006.2354   23565008.4234   23565006.8474
        47.000          40.000
 113218984.27947  88222570.64947  21544867.6974   21544872.8374   21544867.9364
        52.000          46.000
 128187624.92647  99886436.09947  24393314.3874   24393319.0784   24393313.8914
        43.000          39.000
 115194764.29547  89762145.30347  21920840.7894   21920844.2554   21920840.9924
        51.000          45.000
 122808738.81947  95695106.16947  23369736.8014   23369740.7054   23369736.4154
        48.000          41.000
 117255161.73447  91367647.88047  22312922.4414   22312925.7704   22312922.3254
        50.000          45.000
 124256848.29747  96823487.65847  23645315.8174   23645318.9764   23645315.5164
        47.000          41.000
 107119651.54847  83469851.92247  20384194.3994   20384196.6854   20384194.7534
        55.000          49.000
 09  1 14  0  9  0.0000000  0 12G 9G22G 5G 6G18G24G12G14G30G29G31G21
 116593372.57447  90851973.78447  22186984.8084   22186988.5774   22186984.6504
        50.000          44.000
 127218878.96347  99131596.64147  24208945.4784   24208946.4564   24208945.5174
        44.000          38.000
 124619634.03547  97106185.46047  23714345.6264   23714351.2254   23714346.0194
        45.000          39.000
 129983912.16847 101286135.34647  24735139.8144   24735144.2334   24735139.6034
        42.000          37.000
 123813157.71047  96477768.27447  23560872.5854   23560874.3994   23560872.8324
        47.000          40.000
 113250149.13347  88246854.95147  21550798.0904   21550803.0484   21550798.3474
        52.000          46.000
 128188450.87447  99887079.70847  24393471.4084   24393476.3914   24393470.8674
        44.000          39.000
 115201104.49647  89767085.75947  21922047.4934   21922050.7434   21922047.6354
        51.000          45.000
 122787090.21447  95678237.16847  23365617.0074   23365621.3444   23365616.7474
        48.000          41.000
 117330127.22347  91426062.54347  22327187.6354   22327191.3634   22327187.2424
        50.000          45.000
 124153600.62247  96743035.02347  23625668.4334   23625671.0144   23625668.2074
        46.000          41.000
 107070317.89147  83431410.12747  20374806.5914   20374808.7444   20374806.9924
        54.000          49.000
 09  1 14  0  9 30.0000000  0 12G 9G22G 5G 6G18G24G12G14G30G29G31G21
 116657358.19247  90901832.74747  22199160.5644   22199164.3494   22199160.7804
        50.000          44.000
 127198680.05847  99115857.20547  24205101.7424   24205102.8484   24205101.8304
        43.000          37.000
 124605541.40147  97095204.19747  23711663.7104   23711669.3654   23711664.3364
        46.000          39.000
 129930780.88347 101244734.39047  24725028.9284   24725034.1494   24725028.5924
        41.000          36.000
 123791229.31047  96460681.23447  23556699.3904   23556701.8404   23556699.9084
        47.000          40.000
 113281785.15547  88271506.40647  21556818.2664   21556823.1544   21556818.3644
        52.000          46.000
 128189266.76147  99887715.48447  24393626.1754   24393631.4664   24393626.1734
        43.000          38.000
 115207844.13347  89772337.46747  21923330.0694   21923332.9914   21923330.3874
        51.000          45.000
 122765300.79247  95661258.43947  23361470.8014   23361474.6664   23361470.6934
        48.000          41.000
 117405148.36347  91484520.57847  22341463.5704   22341467.2914   22341463.1544
        50.000          45.000
 124050409.13547  96662626.16347  23606031.0774   23606034.4604   23606030.9434
        46.000          40.000
 107021452.94047  83393333.54947  20365507.7644   20365510.0524   20365508.1564
        55.000          49.000
 09  1 14  0 10  0.0000000  0 12G 9G22G 5G 6G18G24G12G14G30G29G31G21
 116721819.45647  90952062.32347  22211427.2344   22211431.2704   22211427.4344
        50.000          43.000
 127178258.68547  99099944.44347  24201215.0944   24201216.6924   24201215.5444
        44.000          38.000
 124591439.27247  97084215.55747  23708979.9044   23708986.2384   23708980.4404
        45.000          39.000
 129877952.65747 101203569.55947  24714976.2484   24714982.0514   24714976.4114
        42.000          37.000
 123769098.02847  96443436.09147  23552487.7874   23552490.1914   23552488.2634
        47.000          40.000
 113313892.56547  88296525.17147  21562928.1594   21562933.2124   21562928.3544
        53.000          46.000
 128190074.83747  99888345.14847  24393779.9304   24393785.6864   24393779.8684
        44.000          39.000
 115214981.97847  89777899.45947  21924688.3364   21924691.3144   21924688.6274
        51.000          45.000
 122743372.45247  95644171.45847  23357298.0664   23357301.7024   23357297.8424
        48.000          41.000
 117480223.22247  91543020.46947  22355749.9684   22355753.6814   22355749.8194
        50.000          45.000
 123947276.46447  96582263.13747  23586405.2974   23586408.7754   23586404.9794
        44.000          40.000
 106973059.92947  83355624.71547  20356299.0524   20356301.2104   20356299.3604
        55.000          49.000
 09  1 14  0 10 30.0000000  0 12G 9G22G 5G 6G18G24G12G14G30G29G31G21
 116786756.02347  91002662.28347  22223784.2024   22223787.7944   22223784.3504
        49.000          43.000
 127157615.80547  99083859.16547  24197287.3964   24197288.6324   24197287.8034
        44.000          38.000
 124577331.00247  97073222.13047  23706295.0214   23706301.2874   23706295.4314
        45.000          39.000
 129825429.04747 101162642.09747  24704981.2074   24704985.8014   24704981.1404
        43.000          37.000
 123746765.90347  96426034.45747  23548238.4334   23548240.4744   23548238.6774
        47.000          40.000
 113346472.50947  88321912.15147  21569128.0134   21569132.9084   21569128.2094
        52.000          46.000
 128190878.16647  99888971.12947  24393933.6354   24393938.9504   24393932.9734
        45.000          39.000
 115222517.54447  89783771.36147  21926122.2764   21926125.3374   21926122.3484
        51.000          45.000
 122721307.87447  95626978.31547  23353099.1494   23353103.3624   23353098.8134
        48.000          41.000
 117555350.43647  91601561.15247  22370046.3174   22370049.8954   22370046.1144
        50.000          45.000
 123844207.04547  96501949.40147  23566791.7614   23566795.4024   23566790.3254
        45.000          40.000
 106925142.52247  83318286.49447  20347180.5604   20347182.8464   20347180.9564
        55.000          49.000
 09  1 14  0 11  0.0000000  0 12G 9G22G 5G 6G18G24G12G14G30G29G31G21
 116852166.38647  91053631.42847  22236231.5624   22236235.0024   22236231.3294
        50.000          44.000
 127136751.01547  99067600.97847  24193316.4714   24193318.0654   24193316.8314
        44.000          38.000
 124563218.49747  97062225.41447  23703609.7334   23703615.6634   23703610.3004
        44.000          39.000
 129773210.24547 101121952.15547  24695043.8684   24695048.7844   24695043.7964
        42.000          37.000
 123724233.55247  96408476.78647  23543950.4954   23543952.7284   23543950.9514
        47.000          40.000
 113379524.61347  88347667.04047  21575417.3784   21575422.4404   21575417.4204
        52.000          46.000
 128191678.75047  99889594.96947  24394085.3504   24394090.2364   24394085.4384
        44.000          38.000
 115230448.94347  89789951.70947  21927631.1894   21927634.3624   21927631.4944
        51.000          45.000
 122699108.50447  95609680.14647  23348874.4144   23348878.8444   23348874.1314
        48.000          41.000
 117630527.38947  91660140.60147  22384352.0954   22384355.3994   22384351.8944
        50.000          44.000
 123741203.37547  96421686.88947  23547190.7174   23547194.1174   23547189.6684
        46.000          40.000
 106877703.63547  83281321.13547  20338153.3864   20338155.5314   20338153.7844
        55.000          49.000
 09  1 14  0 11 30.0000000  0 12G 9G22G 5G 6G18G24G12G14G30G29G31G21
 116918046.31347  91104966.47447  22248768.2234   22248771.7224   22248768.4064
        50.000          43.000
 127115661.16147  99051167.32847  24189303.5924   24189304.7884   24189303.3864
        44.000          38.000
 124549101.12647  97051224.87647  23700922.7544   23700929.3764   23700923.2194
        45.000          39.000
 129721293.90847 101081497.89347  24685164.3884   24685169.8504   24685164.9394
        43.000          37.000
 123701499.32247  96390761.82047  23539624.6884   23539626.9384   23539624.9034
        47.000          40.000
 113413046.21747  88373787.77647  21581796.5404   21581801.2364   21581796.6524
        53.000          46.000
 128192475.78647  99890216.05447  24394236.6834   24394242.4504   24394236.4654
        43.000          38.000
 115238771.89247  89796437.16247  21929215.0284   21929218.1694   21929215.1334
        50.000          45.000
 122676772.85847  95592275.78747  23344623.9164   23344628.5324   23344623.2614
        47.000          41.000
 117705749.06447  91718754.89247  22398666.1144   22398669.6114   22398665.9324
        50.000          44.000
 123638265.67347  96341475.78147  23527602.3414   23527605.9404   23527601.7744
        46.000          41.000
 106830742.97247  83244728.42347  20329216.9274   20329219.1064   20329217.2104
        54.000          49.000
 09  1 14  0 12  0.0000000  0 12G 9G22G 5G 6G18G24G12G14G30G29G31G21
 116984397.01747  91156668.36547  22261394.2164   22261397.7614   22261394.4184
        50.000          43.000
 127094349.26247  99034560.65247  24185248.3944   24185249.3104   24185247.8864
        44.000          38.000
 124534983.99147  97040224.54647  23698236.8504   23698242.4914   23698237.7404
        45.000          39.000
 129669683.29147 101041281.84247  24675343.6924   24675348.0224   24675343.6904
        42.000          37.000
 123678566.88747  96372892.40047  23535260.4844   23535262.9644   23535261.0884
        47.000          40.000
 113447039.90047  88400276.36647  21588265.3434   21588270.0854   21588265.5334
        52.000          46.000
 128193274.05147  99890838.08247  24394388.3974   24394394.3244   24394388.5684
        44.000          38.000
 115247487.79747  89803228.80447  21930873.7564   21930876.9814   21930874.0404
        51.000          45.000
 122654305.62147  95574768.87247  23340348.4564   23340353.4174   23340348.0124
        47.000          41.000
 117781015.66947  91777404.19547  22412988.9604   22412992.0364   22412988.6074
        50.000          44.000
 123535399.84647  96261320.68647  23508027.1744   23508031.2884   23508027.0504
        46.000          41.000
 106784266.12047  83208512.70747  20320372.5834   20320374.8274   20320373.0014
        54.000          49.000
 09  1 14  0 12 30.0000000  0 12G 9G22G 5G 6G18G24G12G14G30G29G31G21
 117051216.85547  91208735.80947  22274109.2774   22274113.2234   22274109.1754
        49.000          43.000
 127072814.89947  99017780.69547  24181150.0724   24181151.5274   24181150.4204
        44.000          38.000
 124520869.03747  97029225.92347  23695550.8584   23695556.5964   23695551.2564
        45.000          39.000
 129618378.58047 101001304.16147  24665580.4724   24665585.5484   24665580.5574
        43.000          37.000
 123655436.91347  96354869.07047  23530858.6694   23530861.2924   23530858.9584
        47.000          40.000
 113481505.39047  88427132.59947  21594823.7884   21594828.7714   21594823.8634
        52.000          46.000
 128194075.43447  99891462.55047  24394541.7734   24394546.5284   24394541.4024
        43.000          38.000
 115256594.29247  89810324.80947  21932606.7314   21932609.6504   21932606.9644
        51.000          45.000
 122631708.41747  95557160.69047  23336048.4214   23336052.7714   23336048.5094
        47.000          41.000
 117856324.97947  91836086.77247  22427319.5834   22427322.7164   22427319.2704
        49.000          44.000
 123432608.67747  96181223.76147  23488466.9504   23488470.5374   23488466.1234
        45.000          41.000
 106738275.42547  83172675.81747  20311620.7634   20311623.1304   20311621.1084
        55.000          49.000
 09  1 14  0 13  0.0000000  0 12G 9G22G 5G 6G18G24G12G14G30G29G31G21
 117118501.59547  91261165.52447  22286913.4214   22286917.0854   22286913.5204
        49.000          43.000
 127051055.46247  99000825.40847  24177009.6284   24177010.2094   24177010.1184
        44.000          38.000
 124506755.66047  97018228.52647  23692865.0734   23692871.1594   23692865.9604
        45.000          39.000
 129567377.25247 100961562.87547  24655875.2834   24655880.4584   24655875.5744
        42.000          37.000
 123632107.65647  96336690.44147  23526419.4344   23526421.9184   23526419.6324
        47.000          40.000
 113516439.74047  88454354.17547  21601471.4114   21601476.5754   21601471.6364
        52.000          46.000
 128194879.28347  99892088.93647  24394694.0624   24394699.7894   24394693.8614
        43.000          38.000
 115266087.02447  89817721.77547  21934413.0194   21934416.3234   21934413.3984
        51.000          45.000
 122608980.13447  95539450.36547  23331723.6804   23331727.9734   23331723.5504
        48.000          41.000
 117931671.94347  91894798.69147  22441657.8774   22441661.1354   22441657.6054
        50.000          44.000
 123329892.28847  96101185.10547  23468920.8704   23468923.9724   23468920.1174
        46.000          41.000
 106692770.95347  83137217.80147  20302961.8014   20302963.9494   20302962.2524
        55.000          49.000
 09  1 14  0 13 30.0000000  0 12G 9G22G 5G 6G18G24G12G14G30G29G31G21
 117186251.23547  91313957.46347  22299805.3244   22299809.9644   22299805.5584
        49.000          43.000
 127029071.67147  98983695.17947  24172826.1834   24172827.0844   24172826.3584
        44.000          38.000
 124492647.53947  97007235.21547  23690180.2204   23690186.1674   23690180.6364
        46.000          39.000
 129516681.15747 100922059.43647  24646228.4664   24646233.4314   24646228.3574
        42.000          37.000
 123608581.51547  96318358.41247  23521942.6334   23521944.9644   23521943.0264
        47.000          39.000
 113551843.99947  88481941.91947  21608208.7094   21608213.4684   21608208.7664
        52.000          46.000
 128195688.99047  99892719.87847  24394848.1644   24394853.3644   24394847.9254
        42.000          38.000
 115275965.77147  89825419.53247  21936292.9634   21936295.9134   21936293.1244
        51.000          45.000
 122586124.17047  95521640.55147  23327373.9524   23327378.3104   23327373.5754
        47.000          41.000
 118007055.46347  91953539.08747  22456002.7384   22456005.9804   22456002.9834
        50.000          44.000
 123227255.09147  96021208.16947  23449389.5764   23449392.7604   23449389.2964
        46.000          41.000
 106647756.67847  83102141.75347  20294395.7594   20294397.9694   20294396.1514
        55.000          49.000
 09  1 14  0 14  0.0000000  0 12G 9G22G 5G 6G18G24G12G14G30G29G31G21
 117254463.75747  91367110.10247  22312785.9814   22312790.1434   22312786.1704
        49.000          43.000
 127006863.12247  98966389.85847  24168599.7034   24168601.1764   24168599.8124
        44.000          38.000
 124478546.28347  96996247.24547  23687496.8444   23687502.5564   23687497.2884
        45.000          39.000
 129466290.34047 100882793.87647  24636639.0704   24636644.7414   24636639.0364
        42.000          37.000
 123584859.11747  96299873.45147  23517428.4144   23517430.7664   23517429.1284
        47.000          39.000
 113587717.70447  88509895.47547  21615035.3424   21615040.1614   21615035.5264
        53.000          46.000
 128196506.57447  99893356.97847  24395003.5494   24395009.4124   24395003.4584
        43.000          38.000
 115286228.28547  89833416.32947  21938245.7004   21938248.6804   21938246.0404
        51.000          45.000
 122563141.31547  95503731.88147  23323000.8664   23323005.0404   23323000.4284
        47.000          41.000
 118082472.91247  92012305.93147  22470354.3984   22470357.2424   22470353.9904
        50.000          44.000
 123124699.69447  95941294.96447  23429873.8734   23429876.6684   23429873.9284
        46.000          41.000
 106603235.06347  83067449.60347  20285923.5504   20285925.8394   20285923.8964
        54.000          49.000
 09  1 14  0 14 30.0000000  0 12G 9G22G 5G 6G18G24G12G14G30G29G31G21
 117323138.14247  91420622.65147  22325854.6434   22325858.2314   22325854.7904
        50.000          43.000
 126984430.54147  98948909.95347  24164331.0964   24164331.9784   24164331.5314
        45.000          38.000
 124464455.16147  96985267.18247  23684815.7804   23684820.9654   23684816.1664
        45.000          39.000
 129416205.78347 100843766.97347  24627107.7284   24627113.3674   24627107.7704
        41.000          36.000
 123560942.49847  96281237.13647  23512876.8174   23512879.6224   23512877.3704
        47.000          39.000
 113624061.47147  88538215.30247  21621951.3514   21621956.5514   21621951.4014
        52.000          46.000
 128197334.44447  99894002.09347  24395161.3374   24395166.8134   24395160.9954
        44.000          38.000
 115296873.89447  89841711.64847  21940271.5044   21940274.5994   21940271.7744
        51.000          45.000
 122540034.17147  95485726.37147  23318603.7074   23318607.9594   23318604.0384
        48.000          41.000
 118157922.48747  92071097.81647  22484712.0674   22484715.0674   22484711.6404
        49.000          44.000
 123022229.64547  95861448.26747  23410374.4204   23410377.2504   23410374.5804
        46.000          41.000
 106559209.50947  83033143.98847  20277545.7164   20277548.0684   20277546.0314
        55.000          49.000
 09  1 14  0 15  0.0000000  0 12G 9G22G 5G 6G18G24G12G14G30G29G31G21
 117392269.57047  91474491.32947  22339009.6424   22339013.1034   22339009.7144
        49.000          43.000
 126961771.04847  98931253.18647  24160019.5664   24160019.5574   24160019.5304
        45.000          38.000
 124450373.11347  96974294.21347  23682136.0654   23682141.4344   23682136.5924
        45.000          39.000
 129366424.59947 100804976.44447  24617635.6514   24617640.4574   24617635.4294
        41.000          36.000
 123536829.30947  96262447.65447  23508288.3914   23508290.7984   23508288.8764
        46.000          39.000
 113660871.69347  88566898.59547  21628956.0694   21628961.0844   21628956.2224
        52.000          46.000
 128198171.72347  99894654.53947  24395320.3814   24395325.9954   24395320.4794
        43.000          38.000
 115307897.70347  89850301.66747  21942369.0264   21942372.0524   21942369.1474
        50.000          45.000
 122516801.70347  95467623.19647  23314182.8224   23314186.5904   23314182.3354
        48.000          41.000
 118233399.22247  92129910.85247  22499074.3254   22499077.8804   22499073.7924
        49.000          44.000
 122919845.14347  95781668.23147  23390891.0584   23390894.1254   23390891.0094
        47.000          41.000
 106515679.20747  82999224.28947  20269262.0664   20269264.4654   20269262.4484
        54.000          49.000
 09  1 14  0 15 30.0000000  0 12G 9G22G 5G 6G18G24G12G14G30G29G31G21
 117461861.34447  91528718.72047  22352252.2854   22352256.1184   22352252.6284
        49.000          43.000
 126938889.06547  98913423.14747  24155665.0994   24155665.1934   24155664.6864
        44.000          38.000
 124436307.01947  96963333.63747  23679458.8314   23679465.2024   23679459.4924
        45.000          39.000
 129316951.95847 100766426.35647  24608220.7394   24608226.1414   24608220.9514
        42.000          36.000
 123512524.88947  96243509.17247  23503663.4914   23503665.9814   23503664.0634
        47.000          40.000
 113698153.06247  88595949.02047  21636050.4994   21636055.3834   21636050.5874
        52.000          46.000
 128199024.95247  99895319.40447  24395483.4724   24395488.1034   24395483.2444
        44.000          38.000
 115319302.58247  89859188.62847  21944539.3274   21944542.5304   21944539.6544
        50.000          45.000
 122493450.04947  95449427.13447  23309739.2944   23309742.7734   23309738.9604
        48.000          41.000
 118308905.34347  92188746.78347  22513442.7964   22513446.2794   22513442.6744
        50.000          44.000
 122817553.71547  95701960.72247  23371425.5764   23371428.6004   23371425.4704
        46.000          41.000
 106472651.77747  82965696.44247  20261074.2784   20261076.5884   20261074.6864
        54.000          49.000
 09  1 14  0 16  0.0000000  0 12G 9G22G 5G 6G18G24G12G14G30G29G31G21
 117531907.05847  91583299.81847  22365581.8114   22365585.3954   22365581.9814
        49.000          43.000
 126915779.61247  98895415.86547  24151267.6514   24151268.0224   24151267.1464
        44.000          38.000
 124422254.63047  96952383.77147  23676784.9224   23676790.7834   23676785.4134
        45.000          39.000
 129267783.57147 100728113.35847  24598863.9904   24598869.5834   24598863.8554
        41.000          36.000
 123488026.26347  96224419.35047  23499001.1734   23499003.8454   23499001.6744
        47.000          40.000
 113735900.89347  88625362.91847  21643233.5894   21643238.6584   21643233.7434
        52.000          46.000
 128199891.90347  99895994.97047  24395648.2764   24395653.1824   24395648.3024
        44.000          38.000
 115331082.19847  89868367.59547  21946780.7284   21946783.9914   21946780.8054
        51.000          45.000
 122469976.32147  95431135.96147  23305272.3874   23305275.6974   23305272.0094
        48.000          41.000
 118384434.02447  92247600.28947  22527815.8694   22527819.1244   22527815.8784
        50.000          44.000
 122715353.98747  95622324.66747  23351977.5614   23351980.7074   23351976.9894
        46.000          41.000
 106430125.02947  82932558.73647  20252981.6024   20252983.9214   20252981.9564
        55.000          49.000
 09  1 14  0 16 30.0000000  0 12G 9G22G 5G 6G18G24G12G14G30G29G31G21
 117602407.07447  91638234.91747  22378997.2694   22379000.9534   22378997.3414
        49.000          43.000
 126892444.36147  98877232.52047  24146826.3814   24146827.7224   24146826.2534
        44.000          38.000
 124408219.98447  96941447.71247  23674114.1574   23674119.9554   23674114.5644
        45.000          39.000
 129218921.26347 100690038.84547  24589566.3784   24589571.5064   24589566.5274
        42.000          37.000
 123463336.14547  96205180.31747  23494303.4414   23494305.2794   23494303.9174
        47.000          40.000
 113774116.30547  88655141.16447  21650505.7824   21650510.5284   21650505.8664
        52.000          46.000
 128200776.28147  99896684.12247  24395816.4314   24395821.9554   24395816.5904
        44.000          39.000
 115343236.41847  89877838.45547  21949093.8114   21949096.6574   21949094.0824
        50.000          45.000
 122446383.81247  95412752.23747  23300782.3114   23300786.5464   23300782.2374
        47.000          41.000
 118459985.01447  92306471.19047  22542192.9334   22542196.1344   22542192.5964
        50.000          44.000
 122613250.52447  95542763.62747  23332548.0134   23332551.1154   23332547.5434
        46.000          41.000
 106388103.42247  82899814.64347  20244985.3404   20244987.4664   20244985.7214
        55.000          49.000
 09  1 14  0 17  0.0000000  0 12G 9G22G 5G 6G18G24G12G14G30G29G31G21
 117673359.25247  91693522.36847  22392499.0804   22392502.6714   22392499.2924
        50.000          43.000
 126868883.27447  98858873.22547  24142343.0134   24142344.5704   24142343.3694
        45.000          38.000
 124394204.71447  96930526.74947  23671447.2854   23671452.4884   23671447.7194
        45.000          39.000
 129170364.96347 100652202.78747  24580326.3174   24580331.7994   24580326.2544
        42.000          37.000
 123438455.40547  96185792.76147  23489568.7994   23489570.4934   23489569.0254
        48.000          40.000
 113812798.80847  88685283.37347  21657866.6784   21657871.7394   21657866.9934
        52.000          46.000
 128201679.65647  99897388.05547  24395988.2674   24395993.7824   24395988.6854
        43.000          38.000
 115355762.72947  89887599.25747  21951477.4704   21951480.5444   21951477.6164
        50.000          45.000
 122422673.95047  95394277.06347  23296270.2894   23296274.7214   23296269.6104
        47.000          41.000
 118535555.38447  92365357.20147  22556573.3614   22556576.5874   22556573.0074
        50.000          44.000
 122511245.73947  95463279.47147  23313137.3244   23313140.2044   23313136.6934
        47.000          41.000
 106346588.92347  82867465.70647  20237085.3714   20237087.5824   20237085.7904
        54.000          49.000
 09  1 14  0 17 30.0000000  0 12G 9G22G 5G 6G18G24G12G14G30G29G31G21
 117744760.40047  91749159.66547  22406086.6784   22406089.5454   22406086.7974
        50.000          43.000
 126845095.05847  98840337.03347  24137816.5294   24137817.6144   24137816.6504
        45.000          38.000
 124380209.80647  96919621.63547  23668784.2044   23668789.3804   23668784.4364
        44.000          39.000
 129122113.69947 100614604.43247  24571143.2324   24571149.8784   24571143.7054
        42.000          37.000
 123413383.46847  96166256.20647  23484797.8014   23484799.4834   23484798.2644
        47.000          39.000
 113851946.61347  88715788.15947  21665316.3024   21665321.2324   21665316.4034
        52.000          46.000
 128202602.91447  99898107.53047  24396163.8024   24396169.3724   24396163.4194
        44.000          38.000
 115368658.45847  89897647.92247  21953931.0704   21953934.3814   21953931.3074
        50.000          44.000
 122398847.51747  95375711.06747  23291735.9554   23291740.4684   23291735.8104
        47.000          41.000
 118611141.79847  92424255.70847  22570956.9964   22570960.3804   22570956.8554
        49.000          44.000
 122409341.62747  95383873.76047  23293745.5274   23293748.2664   23293745.0794
        47.000          41.000
 106305582.44847  82835512.62947  20229282.0464   20229284.1034   20229282.4134
        55.000          49.000
 09  1 14  0 18  0.0000000  0 12G 9G22G 5G 6G18G24G12G14G30G29G31G21
 117816611.49747  91805147.56547  22419759.4184   22419762.4754   22419759.2844
        50.000          43.000
 126821082.69947  98821626.11647  24133246.4364   24133247.9204   24133246.6124
        44.000          38.000
 124366240.32847  96908736.36247  23666125.5544   23666131.1274   23666126.1544
        45.000          39.000
 129074170.45247 100577246.08247  24562021.0884   24562026.1394   24562021.2224
        42.000          37.000
 123388124.38147  96146573.84247  23479991.0044   23479992.6314   23479991.3164
        47.000          39.000
 113891562.17647  88746657.43447  21672855.1404   21672859.6964   21672855.1594
        52.000          46.000
 128203551.26447  99898846.52247  24396344.5114   24396349.5244   24396343.9324
        44.000          39.000
 115381924.56647  89907985.18847  21956455.8844   21956458.4874   21956456.1904
        51.000          45.000
 122374909.06847  95357057.76847  23287180.9564   23287185.3544   23287180.8804
        48.000          41.000
 118686744.52047  92483166.91347  22585343.7174   22585347.3214   22585343.5234
        49.000          44.000
 122307544.01147  95304551.02147  23274374.4014   23274376.8714   23274373.8584
        48.000          42.000
 106265090.13447  82803960.19447  20221576.7634   20221578.7484   20221577.2444
        55.000          49.000
 09  1 14  0 18 30.0000000  0 12G 9G22G 5G 6G18G24G12G14G30G29G31G21
 117888907.85947  91861482.42647  22433516.4144   22433519.5164   22433516.4624
        49.000          43.000
 126796842.46047  98802737.65147  24128634.0224   24128634.9184   24128633.2314
        44.000          39.000
 124352295.37747  96897870.18747  23663472.0504   23663477.9064   23663472.5794
        45.000          39.000
 129026532.14647 100540125.36947  24552955.3174   24552961.1714   24552955.7624
        42.000          37.000
 123362676.10147  96126744.02147  23475148.3294   23475150.0224   23475148.7404
        47.000          39.000
 113931641.79247  88777888.31447  21680481.9074   21680486.6174   21680481.9994
        52.000          46.000
 128204523.34647  99899604.01947  24396529.5054   24396534.7394   24396529.3814
        44.000          38.000
 115395556.10047  89918607.19547  21959049.9504   21959052.4804   21959050.3004
        51.000          45.000
 122350856.83347  95338315.79947  23282604.2294   23282608.4394   23282603.7554
        48.000          41.000
 118762358.20047  92542086.65747  22599732.4184   22599735.9164   22599732.3474
        49.000          44.000
 122205852.41347  95225310.89447  23255022.9634   23255025.4864   23255022.9894
        48.000          42.000
 106225110.67047  82772807.38747  20213968.7474   20213970.8394   20213969.1864
        55.000          49.000
 09  1 14  0 19  0.0000000  0 12G 9G22G 5G 6G18G24G12G14G30G29G31G21
 117961646.29847  91918161.75847  22447357.9324   22447361.4864   22447357.8304
        49.000          42.000
 126772373.32547  98783670.81347  24123977.9294   24123978.3194   24123977.7084
        45.000          39.000
 124338376.18647  96887024.09747  23660823.2484   23660829.1714   23660823.4524
        45.000          39.000
 128979198.04947 100503241.69747  24543948.5854   24543953.0364   24543948.6544
        43.000          37.000
 123337038.97047  96106767.05847  23470269.3254   23470271.3774   23470269.9384
        47.000          39.000
 113972184.20047  88809479.80547  21688196.7204   21688201.6564   21688196.8274
        52.000          45.000
 128205520.23047  99900380.81947  24396718.7274   24396723.9394   24396718.2764
        44.000          38.000
 115409549.81247  89929511.42747  21961712.6834   21961715.4894   21961713.0074
        51.000          45.000
 122326691.82847  95319485.95847  23278005.5454   23278009.9574   23278005.2594
        47.000          41.000
 118837979.73947  92601012.53047  22614122.2874   22614126.0294   22614122.0454
        49.000          43.000
 122104269.20447  95146155.22547  23235692.2014   23235694.5714   23235691.9814
        47.000          42.000
 106185645.47447  82742055.29847  20206458.8874   20206460.8074   20206459.2754
        55.000          49.000
 09  1 14  0 19 30.0000000  0 12G 9G22G 5G 6G18G24G12G14G30G29G31G21
 118034829.69047  91975187.80147  22461284.0624   22461287.8694   22461284.3864
        49.000          42.000
 126747679.89447  98764429.18047  24119278.7384   24119279.9154   24119279.1904
        45.000          39.000
 124324489.08047  96876202.99547  23658180.4564   23658186.1944   23658180.9344
        45.000          39.000
 128932172.46547 100466598.42947  24534999.1594   24535004.4784   24534999.0894
        42.000          37.000
 123311217.79647  96086646.69347  23465355.7534   23465358.0614   23465356.2994
        47.000          40.000
 114013192.94347  88841434.67447  21696000.5464   21696005.2904   21696000.8364
        52.000          46.000
 128206547.84747  99901181.55947  24396914.5434   24396919.5684   24396914.1334
        44.000          38.000
 115423908.08847  89940699.72547  21964444.9994   21964447.8414   21964445.2214
        51.000          45.000
 122302420.10347  95300572.96047  23273386.6044   23273391.0334   23273386.2694
        48.000          41.000
 118913611.08547  92659946.04247  22628514.6774   22628518.0854   22628513.8784
        48.000          44.000
 122002801.32847  95067089.41647  23216383.0114   23216386.1064   23216382.6224
        47.000          42.000
 106146700.89947  82711708.89747  20199047.8314   20199050.0144   20199048.1854
        55.000          49.000
 09  1 14  0 20  0.0000000  0 12G 9G22G 5G 6G18G24G12G14G30G29G31G21
 118108452.78547  92032556.47247  22475294.2864   22475297.8374   22475294.5174
        49.000          42.000
 126722758.71947  98745010.12347  24114536.2084   24114537.6424   24114536.7494
        45.000          38.000
 124310632.72147  96865405.85947  23655543.8784   23655549.0704   23655544.1514
        45.000          39.000
 128885451.91447 100430192.83547  24526108.8954   24526113.8334   24526109.1284
        43.000          37.000
 123285210.35947  96066381.18947  23460406.8804   23460408.6014   23460407.3164
        48.000          40.000
 114054664.18147  88873749.93147  21703892.3424   21703897.0144   21703892.5544
        52.000          45.000
 128207604.92747  99902005.27447  24397115.8414   24397121.5824   24397115.3924
        45.000          39.000
 115438625.66147  89952167.99647  21967245.8084   21967248.7184   21967246.0254
        51.000          45.000
 122278039.88547  95281575.41347  23268747.4804   23268751.6904   23268747.1684
        47.000          41.000
 118989246.31847  92718882.58347  22642907.4574   22642911.0084   22642906.8594
        49.000          44.000
 121901448.46247  94988113.24047  23197096.0534   23197099.1354   23197095.6204
        47.000          42.000
 106108276.68147  82681767.96147  20191736.1074   20191737.8664   20191736.4544
        55.000          49.000
 09  1 14  0 20 30.0000000  0 12G 9G22G 5G 6G18G24G12G14G30G29G31G21
 118182513.84547  92090266.43047  22489387.7754   22489391.2494   22489388.1134
        48.000          42.000
 126697609.74847  98725413.56247  24109750.2694   24109751.7014   24109750.6394
        45.000          38.000
 124296809.87047  96854634.82447  23652913.4274   23652919.0774   23652914.0174
        45.000          39.000
