     2.11           OBSERVATION DATA    G (GPS)             RINEX VERSION / TYPE
teqc  2008Oct2      gpsops              20090112 00:09:39UTCPGM / RUN BY / DATE
    30.0000                                                 INTERVAL
     1     1                                                WAVELENGTH FACT L1/2
     7    L1    L2    P1    P2    C1    S1    S2            # / TYPES OF OBSERV
Linux 2.4.20-8|Pentium IV|gcc -static|Linux|486/DX+         COMMENT
     2.10           OBSERVATION DATA    GPS                 COMMENT
soc2rnx ver 1.20    gpsops              12-Jan-2009 00:09:32COMMENT
S1, if present, is the SNR for the C/A data stream on L1.   COMMENT
 SNR is mapped to RINEX snr flag value [1,4-9]              COMMENT
    SNR:   >316  >100  >31.6  >10  >3.2    >0 bad=0         COMMENT
L1 & L2:      9     8     7     6     5     4     1         COMMENT
                                                            COMMENT
This data is provided as a public service by NASA/JPL.      COMMENT
No warranty is expressed or implied regarding suitability   COMMENT
for use.  For further information, contact:                 COMMENT
Dave Stowers, NASA/JPL m/s 238-600                          COMMENT
4800 Oak Grove Drive, Pasadena CA 91109 USA                 COMMENT
                                                            COMMENT
Forced Modulo Decimation to 30 seconds                      COMMENT
  2009     1    11     0     0    0.0000000     GPS         TIME OF FIRST OBS
GGN                 JPL                                     OBSERVER / AGENCY
CR519992104         ASH701945B_M    SCIT                    ANT # / TYPE
   -33801.4662 -6377516.5323   -82154.3508                  APPROX POSITION XYZ
        0.0083        0.0000        0.0000                  ANTENNA: DELTA H/E/N
ZR220013847         ASHTECH UZ-12       CQ00                REC # / TYPE / VERS
GLPS                                                        MARKER NAME
42005M002                                                   MARKER NUMBER
                                                            END OF HEADER
 09  1 11  0  0  0.0000000  0 11G22G 5G30G24G 9G29G14G31G18G21G12
 127886520.09747  99651828.28747  24335999.9114   24336000.9254   24335999.3444
        44.000          38.000
 125157962.20247  97525656.32847  23816789.6304   23816795.2844   23816791.0764
        45.000          39.000
 123571015.78847  96289090.77847  23514790.1554   23514795.2164   23514790.2894
        47.000          40.000
 112334633.17947  87533463.33147  21376581.8924   21376586.4164   21376582.1704
        53.000          47.000
 114321495.30947  89081669.78947  21754669.8654   21754673.3294   21754669.7634
        51.000          45.000
 114250867.99547  89026638.08547  21741224.9554   21741228.9714   21741225.2494
        52.000          46.000
 115342776.48447  89877481.49347  21949004.0234   21949008.4864   21949004.4524
        50.000          44.000
 128600270.64347 100207985.69947  24471830.7554   24471834.4454   24471829.7524
        42.000          37.000
 124549200.03047  97051323.79247  23700924.5774   23700929.5034   23700926.3094
        47.000          39.000
 109560775.86547  85372027.32447  20848727.0654   20848729.2774   20848727.5354
        54.000          48.000
 128149478.29747  99856708.63947  24386058.4034   24386062.4724   24386058.1104
        43.000          38.000
 09  1 11  0  0 30.0000000  0 11G22G 5G30G24G 9G29G14G31G18G21G12
 127875262.81347  99643056.40647  24333857.1664   24333858.4904   24333857.2834
        44.000          38.000
 125145975.67447  97516316.20547  23814509.8264   23814514.9734   23814510.5634
        45.000          39.000
 123556281.88847  96277609.85447  23511987.1734   23511991.4214   23511986.7174
        47.000          40.000
 112346208.38047  87542482.95747  21378784.7664   21378789.3894   21378784.8474
        53.000          47.000
 114363976.89447  89114772.34047  21762753.5704   21762756.8254   21762753.6504
        52.000          45.000
 114321250.84847  89081481.83247  21754618.8854   21754622.5254   21754618.6684
        51.000          46.000
 115330920.35447  89868242.96547  21946748.1184   21946750.9884   21946748.3814
        50.000          44.000
 128496992.81947 100127509.55847  24452176.8984   24452181.5324   24452175.8634
        42.000          38.000
 124536383.96347  97041337.26147  23698487.0184   23698489.2904   23698487.6254
        47.000          38.000
 109494286.99347  85320217.81947  20836074.6054   20836076.7704   20836074.8654
        54.000          48.000
 128152271.44647  99858885.20847  24386589.6304   24386594.2844   24386589.4074
        42.000          38.000
 09  1 11  0  1  0.0000000  0 11G22G 5G30G24G 9G29G14G31G18G21G12
 127863810.20347  99634132.33547  24331677.8494   24331679.3194   24331677.6634
        43.000          38.000
 125133901.76047  97506907.98547  23812212.0964   23812217.1274   23812212.7244
        45.000          38.000
 123541358.96747  96265981.64147  23509147.4474   23509151.5804   23509147.1364
        47.000          40.000
 112358245.02147  87551862.15447  21381074.9694   21381079.6174   21381075.1284
        53.000          47.000
 114406982.97547  89148283.58947  21770937.4494   21770940.8324   21770937.7344
        51.000          45.000
 114391800.49747  89136455.56347  21768044.2254   21768047.8624   21768043.9964
        52.000          46.000
 115319522.14347  89859361.25847  21944579.0264   21944582.4174   21944579.1694
        50.000          45.000
 128393664.24147 100046993.85847  24432513.6094   24432518.3294   24432513.2834
        42.000          38.000
 124523346.59047  97031178.28247  23696006.5894   23696007.8254   23696006.8514
        47.000          39.000
 109428148.05147  85268680.99347  20823488.8574   20823490.8704   20823489.3294
        54.000          48.000
 128154983.43247  99860998.52847  24387105.4584   24387110.9084   24387105.2564
        42.000          37.000
 09  1 11  0  1 30.0000000  0 11G22G 5G30G24G 9G29G14G31G18G21G12
 127852160.62247  99625054.73447  24329460.8824   24329462.5204   24329460.6814
        44.000          38.000
 125121741.90547  97497432.78947  23809897.9234   23809903.7104   23809898.4414
        44.000          38.000
 123526247.95547  96254206.85747  23506271.7514   23506275.8264   23506271.3704
        47.000          40.000
 112370743.42647  87561601.16447  21383453.5174   21383458.0214   21383453.5064
        53.000          47.000
 114450512.14547  89182202.43847  21779220.2864   21779224.5544   21779220.4844
        51.000          45.000
 114462513.83647  89191556.84347  21781500.4354   21781503.9904   21781500.1214
        51.000          46.000
 115308580.69847  89850835.47947  21942496.9734   21942500.1624   21942496.9424
        50.000          45.000
 128290287.01447  99966440.25347  24412842.1164   24412846.5484   24412841.3964
        43.000          38.000
 124510087.22347  97020846.33347  23693483.4044   23693485.0834   23693483.7034
        47.000          39.000
 109362361.83847  85217419.01947  20810970.1214   20810972.1364   20810970.4004
        54.000          48.000
 128157616.05347  99863049.99647  24387605.8984   24387611.9534   24387605.9684
        42.000          37.000
 09  1 11  0  2  0.0000000  0 11G22G 5G30G24G 9G29G14G31G18G21G12
 127840314.96247  99615824.39447  24327207.2854   24327207.7314   24327207.0834
        44.000          38.000
 125109498.61947  97487892.59247  23807568.3454   23807574.3104   23807568.7624
        44.000          38.000
 123510950.02447  96242286.42947  23503360.7174   23503365.0484   23503360.5344
        47.000          40.000
 112383705.02047  87571701.09847  21385920.0114   21385924.5974   21385920.1074
        53.000          47.000
 114494564.75647  89216529.17347  21787603.3674   21787607.0594   21787603.5814
        52.000          45.000
 114533389.07747  89246784.27947  21794987.4804   21794991.1814   21794987.1694
        51.000          46.000
 115298095.71547  89842665.38147  21940501.7494   21940504.8874   21940501.9534
        50.000          44.000
 128186864.32347  99885851.21447  24393161.4634   24393166.0604   24393160.6104
        42.000          38.000
 124496607.09847  97010342.36547  23690918.0724   23690919.8634   23690918.3694
        47.000          39.000
 109296932.32547  85166434.99147  20798519.4764   20798521.3644   20798519.9374
        54.000          48.000
 128160170.87047  99865040.83347  24388093.1854   24388098.2354   24388092.3894
        42.000          38.000
 09  1 11  0  2 30.0000000  0 11G22G 5G30G24G 9G29G14G31G18G21G12
 127828271.98647  99606440.28047  24324915.7144   24324916.6504   24324915.4774
        44.000          38.000
 125097173.61047  97478288.71047  23805223.1274   23805227.9534   23805224.0154
        44.000          38.000
 123495466.60247  96230221.43747  23500414.2394   23500418.4954   23500413.9904
        47.000          40.000
 112397130.27347  87582162.34047  21388474.8684   21388479.3884   21388475.0704
        53.000          47.000
 114539140.45047  89251263.49747  21796086.1644   21796089.3884   21796086.4464
        51.000          45.000
 114604423.72247  89302135.91947  21808504.9414   21808508.6154   21808504.8154
        51.000          46.000
 115288066.25247  89834850.22847  21938593.1014   21938596.2144   21938593.3834
        51.000          44.000
 128083398.74747  99805228.75647  24373472.5424   24373476.8044   24373472.0694
        43.000          38.000
 124482906.56247  96999666.65747  23688310.5624   23688312.9854   23688311.2314
        46.000          39.000
 109231862.74547  85115731.43347  20786137.1344   20786139.0524   20786137.5714
        54.000          48.000
 128162649.90747  99866972.62747  24388563.9034   24388569.4224   24388563.8404
        43.000          38.000
 09  1 11  0  3  0.0000000  0 11G22G 5G30G24G 9G29G14G31G18G21G12
 127816030.29647  99596901.30947  24322585.7164   24322586.5814   24322586.0074
        44.000          38.000
 125084767.80047  97468621.86747  23802861.8294   23802867.7694   23802862.3344
        45.000          38.000
 123479797.81947  96218012.01647  23497432.2384   23497436.8754   23497431.9084
        47.000          40.000
 112411019.05047  87592984.76147  21391117.7684   21391122.2624   21391118.0084
        53.000          47.000
 114584237.41247  89286404.00747  21804667.7244   21804671.2994   21804667.8464
        52.000          45.000
 114675613.88947  89357608.74647  21822051.9984   21822055.4784   21822051.5784
        52.000          46.000
 115278490.61147  89827388.71147  21936770.9804   21936773.8734   21936771.0544
        50.000          44.000
 127979891.77047  99724574.05047  24353775.6864   24353779.6694   24353774.9384
        43.000          38.000
 124468985.05047  96988818.75747  23685661.3064   23685663.3794   23685661.6594
        46.000          39.000
 109167155.21147  85065309.99047  20773823.5354   20773825.5094   20773824.0224
        54.000          48.000
 128165054.21947  99868846.20747  24389021.5184   24389026.5694   24389021.2634
        43.000          38.000
 09  1 11  0  3 30.0000000  0 11G22G 5G30G24G 9G29G14G31G18G21G12
 127803588.90747  99587206.75147  24320217.4084   24320218.9654   24320218.1804
        44.000          38.000
 125072283.01447  97458893.50647  23800486.4864   23800491.6734   23800487.4924
        45.000          39.000
 123463944.88347  96205659.12047  23494415.8184   23494419.9174   23494415.6244
        47.000          40.000
 112425372.23647  87604169.06447  21393849.0804   21393853.6364   21393849.2614
        53.000          47.000
 114629855.13447  89321950.30947  21813348.5894   21813351.7814   21813348.7084
        52.000          45.000
 114746957.05447  89413200.79347  21835628.3894   21835631.5444   21835628.2134
        51.000          46.000
 115269367.78347  89820280.03247  21935035.0264   21935037.8144   21935035.2104
        50.000          44.000
 127876346.07147  99643889.17247  24334071.3624   24334076.1384   24334071.0104
        43.000          38.000
 124454842.81447  96977798.86547  23682970.5524   23682972.2874   23682970.7064
        46.000          39.000
 109102812.76347  85015173.02747  20761579.6334   20761581.4274   20761579.9674
        54.000          48.000
 128167385.56447  99870662.90347  24389465.6284   24389470.1634   24389465.3484
        43.000          38.000
 09  1 11  0  4  0.0000000  0 11G22G 5G30G24G 9G29G14G31G18G21G12
 127790947.31547  99577356.19547  24317812.3234   24317814.0254   24317812.3014
        44.000          38.000
 125059721.14547  97449105.03247  23798096.2944   23798101.1214   23798096.6244
        45.000          39.000
 123447909.09347  96193163.71747  23491364.3774   23491368.3534   23491364.0424
        47.000          40.000
 112440190.73547  87615715.94747  21396669.1704   21396673.5854   21396669.3884
        53.000          47.000
 114675993.12147  89357902.01147  21822128.0994   21822131.6174   21822128.3674
        51.000          45.000
 114818450.51247  89468909.95247  21849233.0044   21849236.2994   21849232.7104
        51.000          46.000
 115260696.92047  89813523.53447  21933384.5814   21933387.8984   21933384.7594
        50.000          44.000
 127772764.40447  99563176.26347  24314360.3294   24314364.6564   24314359.8594
        42.000          37.000
 124440480.44747  96966607.43847  23680237.5344   23680239.4924   23680237.8084
        46.000          39.000
 109038839.13447  84965323.46347  20749405.8374   20749407.7994   20749406.3014
        54.000          48.000
 128169645.20347  99872423.71747  24389895.2714   24389899.8054   24389895.3864
        43.000          38.000
 09  1 11  0  4 30.0000000  0 11G22G 5G30G24G 9G29G14G31G18G21G12
 127778104.04947  99567348.45247  24315368.7224   24315370.0134   24315368.6404
        44.000          38.000
 125047083.46247  97439257.51147  23795691.1804   23795696.2174   23795692.1494
        45.000          39.000
 123431690.59747  96180525.94847  23488277.9234   23488282.1934   23488277.7824
        47.000          41.000
 112455474.70147  87627625.53247  21399577.4454   21399581.8524   21399577.5774
        53.000          47.000
 114722649.94347  89394257.98447  21831006.7284   21831010.1154   21831006.7874
        51.000          45.000
 114890091.27347  89524733.88547  21862865.9424   21862869.1694   21862865.8564
        52.000          46.000
 115252476.31147  89807117.89447  21931820.6394   21931823.2414   21931820.8544
        50.000          44.000
 127669148.54147  99482436.69247  24294643.1244   24294647.3334   24294642.6594
        43.000          37.000
 124425897.87947  96955244.43747  23677462.3544   23677464.8224   23677462.7274
        46.000          39.000
 108975236.21747  84915762.75847  20737302.5824   20737304.5874   20737302.8904
        54.000          48.000
 128171834.78647  99874129.95647  24390311.7704   24390316.8184   24390311.2364
        43.000          38.000
 09  1 11  0  5  0.0000000  0 11G22G 5G30G24G 9G29G14G31G18G21G12
 127765059.45947  99557183.84647  24312886.6324   24312887.0044   24312886.7174
        44.000          38.000
 125034373.20647  97429353.43347  23793272.6254   23793277.1614   23793273.1324
        45.000          39.000
 123415292.14347  96167747.96647  23485157.7704   23485161.8114   23485157.3024
        47.000          41.000
 112471226.21547  87639899.44047  21402574.7624   21402579.3114   21402574.9674
        53.000          47.000
 114769826.39047  89431018.87247  21839984.1394   21839987.3624   21839984.3614
        51.000          45.000
 114961878.01947  89580671.59147  21876526.4144   21876529.7624   21876526.0724
        51.000          46.000
 115244706.35747  89801063.40147  21930341.9104   21930344.8144   21930342.0644
        50.000          44.000
 127565502.46147  99401673.60547  24274919.7314   24274924.3794   24274919.4744
        43.000          37.000
 124411096.44547  96943710.87847  23674645.7474   23674647.9494   23674645.9264
        46.000          39.000
 108912008.66947  84866494.54547  20725270.7484   20725272.5124   20725271.2194
        54.000          48.000
 128173957.36147  99875783.95247  24390715.5664   24390721.2554   24390715.1004
        43.000          38.000
 09  1 11  0  5 30.0000000  0 11G22G 5G30G24G 9G29G14G31G18G21G12
 127751812.13647  99546861.27747  24310365.7864   24310366.1814   24310366.0154
        45.000          38.000
 125021590.47947  97419392.87647  23790840.3034   23790845.7974   23790840.5774
        45.000          39.000
 123398713.14047  96154829.28547  23482002.4544   23482007.0264   23482002.1544
        47.000          41.000
 112487443.98247  87652536.67047  21405660.8854   21405665.3654   21405660.9814
        53.000          46.000
 114817520.57947  89468183.19047  21849059.6614   21849063.5404   21849059.7364
        51.000          45.000
 115033806.34747  89636719.62547  21890213.6694   21890217.3224   21890213.1184
        51.000          46.000
 115237384.24947  89795357.88447  21928948.5864   21928951.5164   21928948.9904
        50.000          44.000
 127461826.98047  99320887.60247  24255190.4854   24255195.0674   24255190.1384
        43.000          38.000
 124396075.06047  96932005.93347  23671787.1334   23671789.3474   23671787.8274
        46.000          39.000
 108849158.15547  84817520.13147  20713310.6594   20713312.6264   20713310.9734
        54.000          48.000
 128176013.15147  99877385.91047  24391106.8414   24391111.6174   24391106.8584
        43.000          38.000
 09  1 11  0  6  0.0000000  0 11G22G 5G30G24G 9G29G14G31G18G21G12
 127738362.75447  99536381.26047  24307806.1064   24307806.7944   24307806.5034
        45.000          38.000
 125008738.97547  97409378.72747  23788394.8574   23788400.3524   23788395.1584
        46.000          39.000
 123381956.33547  96141772.05947  23478813.7074   23478818.1464   23478813.1184
        46.000          40.000
 112504130.38447  87665539.07047  21408836.2214   21408840.7244   21408836.4414
        53.000          47.000
 114865733.21947  89505751.49947  21858234.5094   21858237.8894   21858234.4024
        51.000          45.000
 115105875.46547  89692877.35747  21903928.0504   21903931.7974   21903928.0194
        51.000          46.000
 115230510.88647  89790002.03447  21927640.5364   21927643.5384   21927640.6714
        51.000          44.000
 127358126.69247  99240082.25847  24235456.6994   24235461.7584   24235455.9624
        42.000          38.000
 124380835.75547  96920131.17147  23668887.0624   23668889.1494   23668887.5384
        46.000          39.000
 108786689.34747  84768843.14847  20701423.2694   20701425.3774   20701423.5404
        55.000          48.000
 128178005.56047  99878938.45647  24391485.9724   24391491.3714   24391485.1604
        44.000          38.000
 09  1 11  0  6 30.0000000  0 11G22G 5G30G24G 9G29G14G31G18G21G12
 127724708.18047  99525741.35547  24305207.6474   24305208.7184   24305207.7494
        45.000          39.000
 124995818.64547  97399310.94647  23785935.8874   23785941.1084   23785936.4534
        45.000          39.000
 123365020.89347  96128575.64847  23475590.5614   23475595.4234   23475590.2984
        47.000          41.000
 112521284.22647  87678905.70747  21412100.4754   21412105.0224   21412100.6194
        53.000          47.000
 114914460.98347  89543721.21447  21867506.9904   21867510.5044   21867507.2704
        51.000          45.000
 115178080.83147  89749141.25447  21917668.4044   21917671.9624   21917668.4414
        51.000          46.000
 115224083.34947  89784993.58547  21926417.4784   21926420.5704   21926417.6654
        51.000          44.000
 127254402.07047  99159257.98147  24215718.9484   24215723.6684   24215717.3914
        43.000          38.000
 124365377.21647  96908085.58147  23665945.3734   23665947.3614   23665945.7494
        46.000          39.000
 108724603.43747  84720464.51847  20689608.8524   20689610.6384   20689609.2994
        54.000          48.000
 128179934.49647  99880441.55147  24391852.6894   24391858.2184   24391852.3364
        43.000          38.000
 09  1 11  0  7  0.0000000  0 11G22G 5G30G24G 9G29G14G31G18G21G12
 127710847.67847  99514940.97547  24302570.1284   24302570.9854   24302570.7464
        45.000          39.000
 124982830.75947  97389190.53147  23783464.4134   23783469.7024   23783464.7104
        45.000          39.000
 123347907.53847  96115240.58947  23472334.3474   23472339.3704   23472334.2634
        47.000          41.000
 112538905.45847  87692636.55247  21415453.7494   21415458.0624   21415453.8114
        53.000          46.000
 114963702.93947  89582091.58447  21876877.5154   21876881.1494   21876877.5234
        51.000          45.000
 115250419.23547  89805508.83047  21931433.8614   21931437.4414   21931433.3064
        51.000          46.000
 115218099.88647  89780331.16247  21925278.6634   21925281.9204   21925278.8704
        50.000          45.000
 127150655.28547  99078416.43147  24195976.5034   24195981.0624   24195975.7804
        44.000          39.000
 124349699.28547  96895869.03647  23662962.0124   23662963.9454   23662962.3074
        46.000          39.000
 108662902.82047  84672386.12847  20677867.3454   20677869.2944   20677867.7674
        55.000          48.000
 128181801.27947  99881896.18947  24392208.4854   24392213.3064   24392207.9104
        42.000          38.000
 09  1 11  0  7 30.0000000  0 11G22G 5G30G24G 9G29G14G31G18G21G12
 127696783.73247  99503982.06647  24299893.6844   24299894.5754   24299893.5454
        45.000          38.000
 124969779.58447  97379020.79947  23780980.3664   23780986.0184   23780980.6304
        45.000          39.000
 123330619.96847  96101769.79147  23469044.3304   23469049.4714   23469044.3414
        47.000          40.000
 112556997.39047  87706734.17247  21418896.2364   21418900.9004   21418896.2864
        53.000          46.000
 115013460.84347  89620864.00247  21886346.0264   21886349.7104   21886346.1814
        51.000          45.000
 115322890.30347  89861979.76747  21945224.7654   21945228.3174   21945224.6624
        51.000          46.000
 115212561.51147  89776015.55947  21924225.0274   21924228.0094   21924225.2154
        51.000          45.000
 127046890.94047  98997561.18847  24176230.7454   24176235.2084   24176231.0114
        44.000          39.000
 124333804.93247  96883483.84947  23659937.2254   23659939.3514   23659937.4784
        46.000          39.000
 108601593.02347  84624612.26847  20666200.6154   20666202.5494   20666200.9044
        54.000          48.000
 128183609.84847  99883305.45847  24392552.2814   24392557.0264   24392551.7764
        43.000          38.000
 09  1 11  0  8  0.0000000  0 11G22G 5G30G24G 9G29G14G31G18G21G12
 127682512.36047  99492861.53547  24297178.4164   24297179.1534   24297177.9474
        45.000          39.000
 124956664.77547  97368801.47947  23778484.6954   23778490.2004   23778485.2104
        44.000          39.000
 123313157.32547  96088162.56747  23465721.4334   23465726.3244   23465721.2854
        47.000          41.000
 112575558.04647  87721197.02747  21422428.2354   21422432.9064   21422428.3344
        53.000          46.000
 115063731.39247  89660035.87847  21895912.3234   21895915.6484   21895912.4064
        51.000          45.000
 115395489.24547  89918550.35347  21959040.2484   21959043.7124   21959040.0364
        51.000          46.000
 115207464.98547  89772044.25647  21923255.0774   21923258.2554   21923255.2464
        50.000          45.000
 126943109.66247  98916692.76747  24156481.8774   24156486.2524   24156482.4114
        44.000          39.000
 124317692.32047  96870928.57547  23656871.1534   23656873.7064   23656871.4714
        46.000          39.000
 108540674.71147  84577143.46547  20654608.0704   20654609.9064   20654608.4684
        54.000          48.000
 128185360.08747  99884669.33047  24392885.6094   24392890.4654   24392885.1684
        43.000          38.000
 09  1 11  0  8 30.0000000  0 11G22G 5G30G24G 9G29G14G31G18G21G12
 127668033.18947  99481579.09747  24294422.6884   24294423.6694   24294423.1134
        44.000          39.000
 124943487.86847  97358533.78247  23775977.6234   23775983.0104   23775977.4184
        44.000          38.000
 123295520.21847  96074419.38347  23462365.2864   23462369.6194   23462364.8084
        47.000          41.000
 112594587.21847  87736024.96347  21426049.5434   21426054.1014   21426049.5304
        53.000          47.000
 115114513.44747  89699606.33447  21905575.5814   21905578.8934   21905575.8444
        51.000          44.000
 115468213.34147  89975218.46047  21972878.8554   21972882.7794   21972878.4934
        51.000          46.000
 115202809.12647  89768416.32147  21922369.0584   21922372.3484   21922369.2654
        51.000          45.000
 126839313.98347  98835813.12047  24136730.1674   24136734.4734   24136729.9264
        44.000          39.000
 124301361.14047  96858203.00047  23653763.5274   23653765.6994   23653763.8644
        46.000          39.000
 108480151.33947  84529982.39347  20643091.1184   20643092.8004   20643091.5024
        55.000          48.000
 128187053.34247  99885988.76447  24393207.4454   24393213.0264   24393207.2574
        42.000          38.000
 09  1 11  0  9  0.0000000  0 11G22G 5G30G24G 9G29G14G31G18G21G12
 127653348.25447  99470136.29147  24291627.7454   24291629.4724   24291627.7854
        43.000          38.000
 124930253.26447  97348221.11147  23773458.0844   23773464.0404   23773458.4744
        44.000          39.000
 123277712.13047  96060542.96947  23458976.7094   23458981.3294   23458976.3714
        47.000          41.000
 112614088.17447  87751220.52047  21429760.3704   21429764.9494   21429760.6234
        53.000          47.000
 115165808.61047  89739576.60847  21915336.8324   21915340.2454   21915337.0334
        51.000          44.000
 115541062.14947  90031983.75047  21986741.6494   21986745.3724   21986741.4594
        51.000          46.000
 115198594.86647  89765132.49647  21921566.9764   21921570.0964   21921567.1844
        51.000          44.000
 126735508.67447  98754925.96747  24116976.5264   24116980.9244   24116975.6214
        44.000          39.000
 124284814.72247  96845309.71047  23650614.9044   23650616.7724   23650614.9904
        46.000          39.000
 108420027.77847  84483132.86747  20631650.0264   20631651.8044   20631650.4304
        55.000          49.000
 128188693.89847  99887267.12847  24393519.9964   24393524.5614   24393519.5554
        43.000          38.000
 09  1 11  0  9 30.0000000  0 11G22G 5G30G24G 9G29G14G31G18G21G12
 127638453.70347  99458530.15447  24288794.1214   24288795.0304   24288793.9734
        44.000          38.000
 124916960.13247  97337862.82947  23770928.9444   23770934.7164   23770929.6884
        45.000          39.000
 123259732.08447  96046532.56347  23455555.1964   23455560.0774   23455555.3434
        47.000          41.000
 112634058.47747  87766781.80847  21433560.5024   21433565.1764   21433560.5984
        53.000          47.000
 115217613.31147  89779943.92747  21925194.9134   21925198.0574   21925195.1024
        51.000          44.000
 115614030.65047  90088842.31047  22000626.9994   22000630.8854   22000626.9024
        51.000          46.000
 115194818.27147  89762189.70247  21920848.4874   21920851.3794   21920848.7884
        51.000          45.000
 126631693.80047  98674031.34647  24097221.6024   24097225.8324   24097220.2294
        43.000          39.000
 124268050.75547  96832246.88947  23647424.5194   23647426.5584   23647425.0384
        46.000          39.000
 108360304.53647  84436595.27947  20620284.9954   20620286.8784   20620285.3564
        55.000          49.000
 128190281.24947  99888504.06447  24393821.3184   24393826.5544   24393821.6574
        42.000          38.000
 09  1 11  0 10  0.0000000  0 11G22G 5G30G24G 9G29G14G31G18G21G12
 127623349.89547  99446760.99247  24285919.6274   24285920.2114   24285919.3044
        44.000          38.000
 124903610.99747  97327460.91447  23768389.1814   23768394.4224   23768389.3884
        45.000          39.000
 123241581.93447  96032389.60847  23452100.7814   23452105.9774   23452100.7814
        46.000          40.000
 112654499.18347  87782709.63647  21437450.5204   21437455.1604   21437450.6534
        53.000          47.000
 115269927.21047  89820708.02247  21935149.9434   21935153.1984   21935150.0124
        51.000          44.000
 115687116.48547  90145792.29747  22014534.9734   22014538.6644   22014534.7144
        51.000          46.000
 115191478.92647  89759587.62347  21920212.9884   21920216.0934   21920212.9974
        50.000          44.000
 126527872.57547  98593131.79147  24077464.9504   24077468.6254   24077464.4794
        44.000          39.000
 124251070.42047  96819015.48047  23644193.8594   23644195.3764   23644194.0424
        47.000          40.000
 108300985.13447  84390372.37047  20608997.0704   20608998.6994   20608997.5404
        55.000          49.000
 128191817.14747  99889700.89047  24394113.3404   24394119.1274   24394113.6354
        42.000          38.000
 09  1 11  0 10 30.0000000  0 11G22G 5G30G24G 9G29G14G31G18G21G12
 127608036.15247  99434828.22947  24283005.6334   24283006.5544   24283005.8964
        45.000          38.000
 124890207.81247  97317016.88647  23765838.5294   23765843.8954   23765838.9794
        45.000          39.000
 123223262.66247  96018114.88147  23448614.4584   23448619.3454   23448614.1144
        46.000          40.000
 112675411.16047  87799004.69947  21441429.9504   21441434.3444   21441430.1524
        53.000          46.000
 115322749.32147  89861868.12347  21945201.5114   21945205.2514   21945201.6454
        51.000          44.000
 115760317.27647  90202831.85847  22028464.2284   22028468.5584   22028464.2434
        50.000          46.000
 115188575.46947  89757325.19947  21919660.4844   21919663.4464   21919660.9804
        51.000          45.000
 126424047.74247  98512229.42147  24057707.9164   24057711.3594   24057708.0224
        44.000          39.000
 124233874.24047  96805615.87847  23640921.2124   23640923.2914   23640921.6174
        46.000          39.000
 108242072.51247  84344466.43447  20597786.1314   20597788.1624   20597786.5134
        54.000          49.000
 128193303.83047  99890859.37247  24394396.9564   24394402.3604   24394396.5404
        43.000          38.000
 09  1 11  0 11  0.0000000  0 11G22G 5G30G24G 9G29G14G31G18G21G12
 127592512.76747  99422732.10247  24280051.8464   24280052.5164   24280051.9004
        44.000          38.000
 124876753.35347  97306532.91547  23763278.1564   23763284.1814   23763278.6314
        45.000          39.000
 123204776.54647  96003710.13047  23445096.6984   23445101.8304   23445096.2944
        47.000          40.000
 112696795.34447  87815667.71547  21445499.0454   21445503.6404   21445499.3264
        52.000          46.000
 115376079.47847  89903424.09847  21955349.7754   21955353.2814   21955349.8164
        50.000          44.000
 115833631.22947  90259959.59547  22042415.4504   22042419.5944   22042415.1174
        50.000          46.000
 115186107.54747  89755402.15147  21919190.9614   21919193.9274   21919190.8524
        51.000          45.000
 126320222.59247  98431326.79747  24037951.0644   24037954.0194   24037951.4874
        45.000          39.000
 124216463.79347  96792049.32347  23637608.1184   23637610.1224   23637608.5184
        47.000          39.000
 108183570.63447  84298880.55947  20586653.7454   20586655.8274   20586654.1714
        55.000          49.000
 128194743.73247  99891981.40647  24394671.2014   24394675.6714   24394670.9824
        44.000          38.000
 09  1 11  0 11 30.0000000  0 11G22G 5G30G24G 9G29G14G31G18G21G12
 127576777.41647  99410470.80947  24277057.4034   24277057.9524   24277057.4914
        45.000          38.000
 124863247.66947  97296009.04447  23760708.0104   23760713.5834   23760708.8454
        45.000          39.000
 123186122.51947  95989174.55447  23441547.5984   23441551.9744   23441547.6134
        47.000          41.000
 112718650.29347  87832697.55947  21449657.6804   21449662.2434   21449657.8874
        52.000          46.000
 115429914.73547  89945373.66347  21965594.5534   21965597.8094   21965594.3754
        50.000          44.000
 115907053.96447  90317172.11047  22056387.3754   22056391.1634   22056386.7654
        50.000          45.000
 115184072.07547  89753816.07047  21918803.7204   21918806.2824   21918803.7534
        51.000          45.000
 126216398.19647  98350424.77347  24018193.4194   24018197.1094   24018193.9774
        44.000          39.000
 124198837.82947  96778314.81547  23634253.8624   23634255.8474   23634254.7704
        47.000          39.000
 108125480.57047  84253615.57847  20575599.5044   20575601.5344   20575599.9224
        54.000          49.000
 128196136.83747  99893066.99747  24394936.0724   24394940.8564   24394935.5954
        43.000          38.000
 09  1 11  0 12  0.0000000  0 11G22G 5G30G24G 9G29G14G31G18G21G12
 127560831.71847  99398045.62147  24274023.1424   24274023.8624   24274023.4594
        45.000          39.000
 124849694.70347  97285448.30447  23758129.4584   23758134.6884   23758129.7704
        46.000          39.000
 123167304.30947  95974511.04847  23437966.0934   23437971.1944   23437966.0284
        47.000          41.000
 112740978.17947  87850095.92347  21453906.6824   21453911.2244   21453906.8714
        52.000          46.000
 115484256.06947  89987717.56947  21975935.4164   21975938.9494   21975935.1874
        50.000          44.000
 115980584.88547  90374468.91747  22070379.8984   22070383.5894   22070379.6594
        50.000          45.000
 115182469.54647  89752567.34847  21918498.5724   21918501.6214   21918498.7334
        51.000          45.000
 126112579.26647  98269527.00647  23998437.2684   23998440.5824   23998436.5764
        44.000          39.000
 124180998.13747  96764413.76147  23630859.3684   23630861.1424   23630859.5904
        46.000          39.000
 108067807.36347  84208675.42547  20564624.4664   20564626.5944   20564624.6854
        55.000          49.000
 128197487.27447  99894119.33947  24395192.6654   24395197.7704   24395192.6194
        43.000          38.000
 09  1 11  0 12 30.0000000  0 11G22G 5G30G24G 9G29G14G31G18G21G12
 127544672.80747  99385454.28547  24270947.9314   24270949.2404   24270948.1054
        44.000          38.000
 124836094.18247  97274850.53447  23755541.5194   23755546.7124   23755542.1514
        45.000          39.000
 123148320.80047  95959718.73147  23434353.8524   23434358.9124   23434353.4954
        47.000          41.000
 112763777.19947  87867861.40347  21458245.1804   21458249.7644   21458245.1124
        52.000          46.000
 115539100.38247  90030453.40747  21986371.5744   21986375.3584   21986371.6824
        50.000          44.000
 116054219.25247  90431846.32447  22084392.0734   22084395.9294   22084391.9564
        50.000          45.000
 115181296.54247  89751653.32947  21918275.4254   21918278.3994   21918275.6564
        51.000          45.000
 126008765.96647  98188633.59047  23978682.0594   23978685.4444   23978681.6804
        45.000          39.000
 124162943.57047  96750345.28747  23627423.0374   23627425.7334   23627423.2474
        46.000          39.000
 108010551.73547  84164060.65447  20553729.2874   20553731.2104   20553729.6704
        54.000          49.000
 128198794.61747  99895138.07547  24395441.9424   24395446.8574   24395441.7394
        43.000          38.000
 09  1 11  0 13  0.0000000  0 11G22G 5G30G24G 9G29G14G31G18G21G12
 127528300.49247  99372696.63747  24267832.7014   24267833.2384   24267832.5664
        44.000          38.000
 124822448.16947  97264217.30747  23752944.3894   23752949.7674   23752944.7174
        45.000          39.000
 123129173.72947  95944798.94247  23430710.3864   23430715.1884   23430709.8604
        47.000          41.000
 112787047.72247  87885994.28547  21462673.5664   21462678.0804   21462673.7994
        53.000          46.000
 115594446.69147  90073580.41647  21996903.8994   21996907.1364   21996904.0924
        50.000          44.000
 116127954.78347  90489302.55847  22098423.7764   22098427.2374   22098423.4454
        50.000          45.000
 115180551.73347  89751072.95847  21918133.8254   21918136.6224   21918133.9634
        51.000          45.000
 125904961.39547  98107746.99347  23958928.3944   23958932.0824   23958928.6514
        45.000          39.000
 124144674.62447  96736109.75947  23623946.9654   23623949.3554   23623947.1014
        46.000          39.000
 107953716.82247  84119773.71747  20542913.7604   20542915.8514   20542914.1904
        54.000          48.000
 128200060.85747  99896124.80747  24395682.4744   24395687.2854   24395682.3644
        44.000          38.000
 09  1 11  0 13 30.0000000  0 11G22G 5G30G24G 9G29G14G31G18G21G12
 127511716.35647  99359773.97047  24264677.0524   24264677.3234   24264676.8034
        43.000          38.000
 124808760.80847  97253551.88647  23750339.4664   23750344.7804   23750340.1924
        46.000          39.000
 123109866.15847  95929754.10547  23427036.6014   23427041.2634   23427036.8254
        47.000          41.000
 112810792.24847  87904496.52647  21467191.8534   21467196.5024   21467192.1154
        53.000          46.000
 115650295.85747  90117099.26847  22007531.5234   22007534.7254   22007531.5814
        50.000          44.000
 116201790.76447  90546837.06847  22112474.2034   22112477.7404   22112473.6214
        50.000          45.000
 115180236.02647  89750826.96047  21918073.7584   21918076.6054   21918074.0834
        51.000          45.000
 125801170.20747  98026870.82547  23939177.1704   23939181.2234   23939177.1294
        45.000          39.000
 124126194.12647  96721709.39647  23620429.9444   23620432.4434   23620430.3934
        46.000          39.000
 107897307.59947  84075818.47847  20532179.4904   20532181.4694   20532179.8474
        54.000          49.000
 128201289.79147  99897082.47747  24395916.2394   24395920.8774   24395916.2744
        43.000          38.000
 09  1 11  0 14  0.0000000  0 12G22G 5G30G 6G24G 9G29G14G31G18G21G12
 127494916.76247  99346683.41647  24261478.8874   24261480.9034   24261478.9694
        42.000          37.000
 124795030.89147  97242853.27847  23747727.0604   23747732.6054   23747727.4544
        45.000          39.000
 123090396.49547  95914582.95047  23423331.1884   23423336.1104   23423331.0614
        47.000          41.000
 130765764.31047 101895383.33947  24883910.9704   24883915.3044   24883909.9664
        41.000          35.000
 112835008.04147  87923365.98047  21471799.9734   21471804.5204   21471800.2044
        52.000          46.000
 115706643.65147  90161006.65247  22018254.2274   22018257.6164   22018254.3214
        51.000          44.000
 116275721.35647  90604445.29247  22126542.7014   22126546.3954   22126542.4914
        50.000          45.000
 115180344.73147  89750911.67847  21918094.1784   21918097.0584   21918094.4804
        51.000          45.000
 125697391.95347  97946004.70947  23919428.8664   23919432.6954   23919427.8654
        44.000          39.000
 124107500.12747  96707142.64147  23616872.9054   23616875.0754   23616873.3144
        46.000          40.000
 107841323.85947  84032194.79047  20521526.1384   20521528.1064   20521526.4684
        54.000          49.000
 128202480.42547  99898010.31147  24396142.7754   24396147.4684   24396142.8084
        44.000          38.000
 09  1 11  0 14 30.0000000  0 12G22G 5G30G 6G24G 9G29G14G31G18G21G12
 127477903.57647  99333426.42147  24258241.2844   24258242.7794   24258241.9874
        43.000          37.000
 124781262.96647  97232125.06047  23745106.7074   23745112.3084   23745107.3944
        45.000          39.000
 123070768.75347  95899288.64747  23419596.2394   23419600.8914   23419595.9354
        47.000          41.000
 140708309.14557  91850621.67057  24872970.4195   24872974.4185   24872970.3015
        42.000          35.000
 112859697.86747  87942604.81847  21476498.3034   21476502.9604   21476498.4314
        52.000          46.000
 115763491.81147  90205303.94747  22029072.1584   22029075.5484   22029072.4954
        51.000          44.000
 116349746.64647  90662127.31247  22140629.2804   22140632.6974   22140629.2414
        50.000          45.000
 115180879.45047  89751328.36247  21918195.8924   21918198.8574   21918196.0854
        51.000          45.000
 125593632.00147  97865152.85647  23899683.8944   23899687.7954   23899682.9404
        44.000          39.000
 124088595.09147  96692411.47247  23613275.2104   23613277.5624   23613275.6074
        46.000          40.000
 107785771.27847  83988907.07447  20510954.7734   20510956.7484   20510955.0084
        55.000          49.000
 128203637.36547  99898911.88647  24396363.2224   24396367.8504   24396363.1104
        44.000          38.000
 09  1 11  0 15  0.0000000  0 12G22G 5G30G 6G24G 9G29G14G31G18G21G12
 127460674.84047  99320001.46647  24254963.0764   24254964.3914   24254962.8484
        43.000          37.000
 124767457.60147  97221367.68047  23742479.7544   23742484.9904   23742480.0974
        44.000          39.000
 123050982.56547  95883870.87147  23415831.1424   23415835.3494   23415830.4884
        47.000          41.000
 140651118.16247  91806057.23247  24862087.6224   24862091.0244   24862087.0874
        42.000          35.000
 112884860.33747  87962211.94647  21481286.6264   21481291.1804   21481286.7244
        52.000          46.000
 115820837.19347  90249988.67247  22039984.5134   22039987.8564   22039984.7094
        50.000          44.000
 116423862.84647  90719880.18647  22154732.9374   22154736.5024   22154732.3894
        50.000          45.000
 115181836.81147  89752074.37147  21918377.9934   21918381.4474   21918378.3704
        51.000          45.000
 125489891.55847  97784316.21747  23879942.9034   23879946.5404   23879942.7274
        45.000          39.000
 124069478.19447  96677515.19647  23609637.2044   23609639.8004   23609637.4424
        46.000          40.000
 107730651.12747  83945956.31047  20500466.0244   20500467.8234   20500466.4734
        54.000          49.000
 128204760.32147  99899786.96847  24396576.6994   24396581.2914   24396576.7114
        45.000          38.000
 09  1 11  0 15 30.0000000  0 12G22G 5G30G 6G24G 9G29G14G31G18G21G12
 127443230.18747  99306408.24147  24251643.1654   24251644.1584   24251643.3804
        43.000          38.000
 124753616.74647  97210582.62947  23739845.7164   23739851.1484   23739846.1574
        45.000          39.000
 123031039.60047  95868330.92847  23412036.3934   23412040.1474   23412036.2884
        48.000          41.000
 140594225.71247  91761725.44347  24851261.0794   24851265.3074   24851260.9064
        42.000          35.000
 112910495.70647  87982187.56647  21486164.8444   21486169.3444   21486164.9564
        52.000          46.000
 115878679.00747  90295060.21747  22050991.3544   22050994.8404   22050991.5574
        50.000          44.000
 116498067.29647  90777701.81447  22168853.6784   22168857.6064   22168853.1184
        50.000          45.000
 115183215.66547  89753148.81647  21918640.6434   21918643.5794   21918640.8254
        51.000          45.000
 125386173.61547  97703497.09847  23860205.9304   23860209.5624   23860206.0184
        45.000          40.000
 124050150.52047  96662454.67747  23605959.3394   23605961.5424   23605959.4934
        47.000          40.000
 107675966.39947  83903344.84147  20490059.6714   20490061.6434   20490060.0134
        54.000          49.000
 128205851.40847  99900637.23647  24396784.4954   24396788.6204   24396784.2714
        44.000          38.000
 09  1 11  0 16  0.0000000  0 12G22G 5G30G 6G24G 9G29G14G31G18G21G12
 127425568.52547  99292645.94647  24248282.8874   24248283.8694   24248282.6354
        43.000          37.000
 124739741.63447  97199770.90047  23737205.6784   23737210.6784   23737206.4174
        45.000          39.000
 123010940.32847  95852669.19947  23408211.5944   23408215.2184   23408211.5154
        47.000          41.000
 140537631.85547  91717626.36547  24840491.8034   24840495.7004   24840491.5794
        41.000          35.000
 112936603.31247  88002531.16547  21491132.9154   21491137.3894   21491133.0204
        53.000          46.000
 115937015.13447  90340516.96247  22062092.4714   22062095.5404   22062092.6534
        50.000          44.000
 116572356.71547  90835589.64447  22182990.5094   22182994.3524   22182990.3844
        50.000          45.000
 115185013.93247  89754550.08147  21918982.7224   21918985.8084   21918982.9694
        51.000          45.000
 125282480.05947  97622696.97647  23840473.8404   23840477.4894   23840473.3884
        45.000          40.000
 124030611.62847  96647229.57847  23602241.5604   23602243.5394   23602242.0274
        46.000          40.000
 107621719.33247  83861074.40647  20479736.9494   20479738.8114   20479737.3534
        55.000          49.000
 128206911.85347  99901463.62347  24396986.0614   24396990.6054   24396985.8314
        44.000          38.000
 09  1 11  0 16 30.0000000  0 12G22G 5G30G 6G24G 9G29G14G31G18G21G12
 127407690.87847  99278715.32747  24244880.5234   24244881.6784   24244880.2294
        43.000          37.000
 124725835.73747  97188935.17347  23734559.1564   23734564.8424   23734559.9244
        45.000          39.000
 122990687.48747  95836887.79747  23404357.4314   23404361.3014   23404356.9294
        47.000          41.000
 140481338.60247  91673761.47447  24829779.5494   24829783.4644   24829779.4524
        41.000          35.000
 112963184.85847  88023244.06547  21496191.2474   21496195.5504   21496191.3804
        52.000          46.000
 115995845.70247  90386358.98947  22073287.4754   22073290.6444   22073287.5284
        50.000          44.000
 116646729.90647  90893542.76247  22197143.4834   22197146.9084   22197143.3194
        50.000          45.000
 115187231.29647  89756277.92147  21919404.8324   21919407.6754   21919405.0914
        51.000          45.000
 125178815.02347  97541919.07647  23820746.9494   23820750.5994   23820746.5424
        45.000          40.000
 124010863.81547  96631841.68447  23598483.5094   23598485.3364   23598484.2524
        46.000          39.000
 107567914.04947  83819148.20947  20469498.0544   20469499.8234   20469498.3744
        54.000          49.000
 128207945.40647  99902269.03047  24397182.9584   24397187.7854   24397182.5104
        44.000          38.000
 09  1 11  0 17  0.0000000  0 12G22G 5G30G 6G24G 9G29G14G31G18G21G12
 127389595.54747  99264615.10747  24241437.5994   24241438.1544   24241437.3844
        44.000          38.000
 124711899.87047  97178076.09547  23731907.4024   23731912.9154   23731908.2024
        45.000          39.000
 122970281.39347  95820987.00147  23400474.0174   23400478.1464   23400473.6604
        47.000          41.000
 140425345.09847  91630130.19947  24819123.3064   24819128.0604   24819123.4754
        41.000          35.000
 112990238.98847  88044325.21047  21501339.4554   21501343.9774   21501339.4734
        53.000          46.000
 116055168.02547  90432584.20247  22084576.0444   22084579.1864   22084576.1014
        50.000          43.000
 116721183.45447  90951558.49047  22211311.4844   22211314.8824   22211310.9094
        50.000          45.000
 115189864.96547  89758330.15347  21919905.7574   21919908.7094   21919905.9574
        51.000          45.000
 125075179.91547  97461164.50447  23801025.4064   23801029.7654   23801025.2734
        45.000          40.000
 123990906.63647  96616290.64247  23594685.9994   23594688.0104   23594686.3404
        46.000          39.000
 107514551.84547  83777567.27647  20459343.3824   20459345.3734   20459343.7464
        54.000          49.000
 128208953.01447  99903054.23147  24397374.3084   24397378.7734   24397374.0544
        44.000          38.000
 09  1 11  0 17 30.0000000  0 12G22G 5G30G 6G24G 9G29G14G31G18G21G12
 127371282.74047  99250345.41747  24237952.3494   24237953.2644   24237953.0984
        44.000          37.000
 124697936.71547  97167195.73947  23729250.8624   23729255.7464   23729251.1494
        45.000          39.000
 122949723.98147  95804968.27747  23396562.3734   23396566.6344   23396562.0224
        47.000          41.000
 140369652.38247  91586733.25947  24808526.1044   24808530.7644   24808526.3984
        41.000          35.000
 113017766.98447  88065775.59847  21506577.8684   21506582.2964   21506578.0794
        53.000          46.000
 116114981.85447  90479192.39647  22095958.4224   22095961.6184   22095958.3914
        50.000          44.000
 116795715.41047  91009635.31247  22225494.5564   22225497.9604   22225494.3414
        50.000          45.000
 115192914.43447  89760706.39447  21920486.0534   21920489.0524   21920486.1584
        51.000          45.000
 124971578.45447  97380436.14447  23781310.8634   23781315.0734   23781310.4464
        45.000          40.000
 123970741.19947  96600577.32847  23590848.3864   23590850.5434   23590848.7454
        47.000          40.000
 107461636.65447  83736334.66147  20449273.9614   20449275.9694   20449274.2874
        54.000          49.000
 128209935.96947  99903820.23547  24397560.8854   24397565.7624   24397560.6414
        43.000          38.000
 09  1 11  0 18  0.0000000  0 12G22G 5G30G 6G24G 9G29G14G31G18G21G12
 127352750.47547  99235904.69647  24234426.0574   24234427.0074   24234425.7854
        43.000          37.000
 124683946.63747  97156294.41747  23726587.7374   23726592.9844   23726588.3334
        45.000          39.000
 122929015.01747  95788831.45447  23392621.1894   23392625.5854   23392621.0274
        47.000          41.000
 140314259.44347  91543569.96447  24797984.8184   24797989.4344   24797985.2204
        41.000          36.000
 113045766.92447  88087593.73747  21511906.0394   21511910.4534   21511906.1184
        52.000          46.000
 116175284.06147  90526181.15247  22107433.3974   22107436.8904   22107433.3814
        50.000          43.000
 116870321.48147  91067769.88547  22239691.4254   22239694.9024   22239691.4064
        50.000          45.000
 115196376.36347  89763404.02847  21921144.6294   21921147.7124   21921145.0074
        51.000          45.000
 124868011.61447  97299734.75647  23761602.5254   23761607.0014   23761602.1314
        45.000          40.000
 123950366.73447  96584701.12847  23586971.4174   23586973.6174   23586971.8464
        47.000          39.000
 107409169.68247  83695451.31247  20439289.7404   20439291.7784   20439290.1484
        54.000          49.000
 128210895.24847  99904567.78047  24397743.8764   24397748.2834   24397743.0614
        43.000          38.000
 09  1 11  0 18 30.0000000  0 12G22G 5G30G 6G24G 9G29G14G31G18G21G12
 127334000.96247  99221294.71547  24230858.0954   24230858.8014   24230857.7744
        43.000          38.000
 124669934.20847  97145375.67847  23723921.5514   23723927.1124   23723921.8904
        45.000          39.000
 122908158.75047  95772579.85747  23388652.1174   23388656.6234   23388651.6394
        46.000          41.000
 140259169.53647  91500642.76547  24787501.2294   24787506.0724   24787501.8154
        40.000          35.000
 113074241.64547  88109781.83947  21517324.3964   21517329.1564   21517324.5474
        53.000          46.000
 116236075.86147  90573551.41147  22119001.7594   22119004.9564   22119001.8914
        50.000          43.000
 116945001.81047  91125962.31747  22253902.7874   22253906.3514   22253902.5834
        50.000          45.000
 115200251.86647  89766423.92647  21921882.4514   21921885.2294   21921882.6434
        51.000          45.000
 124764484.65147  97219064.45547  23741902.0444   23741906.3124   23741901.4494
        44.000          40.000
 123929786.46947  96568664.55347  23583055.2894   23583057.1654   23583055.6494
        46.000          40.000
 107357156.11047  83654921.26247  20429391.9874   20429394.1084   20429392.2944
        55.000          49.000
 128211835.42147  99905300.46547  24397922.8564   24397927.3334   24397922.7344
        44.000          38.000
 09  1 11  0 19  0.0000000  0 12G22G 5G30G 6G24G 9G29G14G31G18G21G12
 127315031.70047  99206513.53347  24227247.9664   24227249.1284   24227247.4734
        42.000          38.000
 124655899.53847  97134439.59047  23721250.8564   23721256.4804   23721251.2974
        45.000          39.000
 122887154.73947  95756213.13147  23384655.2714   23384659.4854   23384654.9194
        47.000          41.000
 140204380.77247  91457950.22947  24777075.6574   24777080.3324   24777075.5744
        41.000          35.000
 113103189.04047  88132338.25247  21522833.2104   21522837.4984   21522833.4164
        53.000          46.000
 116297353.95047  90621300.59547  22130662.4564   22130665.7374   22130662.4804
        50.000          44.000
 117019751.99147  91184209.18147  22268127.6134   22268130.8214   22268127.4074
        50.000          45.000
 115204537.59847  89769763.48647  21922697.9144   21922700.8434   21922698.2384
        51.000          45.000
 124660998.56247  97138425.99147  23722209.2974   23722213.3774   23722209.3044
        46.000          40.000
 123908999.35447  96552466.80047  23579099.4464   23579101.6694   23579100.0674
        47.000          40.000
 107305596.99447  83614745.33247  20419580.7704   20419582.6354   20419581.2214
        55.000          49.000
 128212756.53247  99906018.27647  24398098.4654   24398102.3984   24398098.1314
        44.000          38.000
 09  1 11  0 19 30.0000000  0 12G22G 5G30G 6G24G 9G29G14G31G18G21G12
 127295840.53747  99191559.39347  24223595.8134   24223597.7214   24223596.0574
        44.000          37.000
 124641842.41547  97123486.01047  23718575.9024   23718581.4084   23718576.3304
        45.000          39.000
 122866001.95547  95739730.47747  23380630.3004   23380634.4084   23380630.4014
        47.000          41.000
 140149891.77247  91415491.25447  24766707.2264   24766711.8564   24766706.9894
        42.000          36.000
 113132606.95147  88155261.29747  21528431.1544   21528435.6654   21528431.3224
        53.000          46.000
 116359115.04847  90669426.13547  22142414.8984   22142418.3684   22142415.1084
        49.000          43.000
 117094567.29447  91242506.79347  22282364.3524   22282368.1224   22282363.8424
        50.000          45.000
 115209229.27147  89773419.36347  21923590.5464   21923593.4674   21923590.7394
        51.000          45.000
 124557554.03547  97057819.91747  23702524.7014   23702529.0244   23702524.3504
        45.000          40.000
 123888003.54247  96536106.42447  23575103.9224   23575106.2164   23575104.4534
        47.000          40.000
 107254492.72147  83574923.81947  20409855.8494   20409857.8584   20409856.2714
        54.000          49.000
 128213657.85547  99906720.66047  24398269.6644   24398274.0104   24398269.3124
        44.000          39.000
 09  1 11  0 20  0.0000000  0 12G22G 5G30G 6G24G 9G29G14G31G18G21G12
 127276428.90947  99176433.48847  24219902.6274   24219903.3714   24219902.5444
        44.000          38.000
 124627767.00447  97112518.19947  23715897.0844   23715902.9704   23715897.6944
        45.000          39.000
 122844704.14047  95723134.80747  23376576.9864   23376581.6084   23376576.6754
        46.000          41.000
 140095704.62547  91373267.53347  24756395.1734   24756400.9264   24756395.6184
        41.000          36.000
 113162497.59847  88178552.71147  21534119.2824   21534123.6884   21534119.4304
        53.000          46.000
 116421359.67547  90717928.46047  22154259.8894   22154263.0774   22154260.1474
        49.000          43.000
 117169447.15047  91300854.70747  22296613.5864   22296617.2444   22296613.2904
        50.000          45.000
 115214327.48047  89777392.02547  21924560.7604   21924563.6604   21924560.8424
        51.000          45.000
 124454155.80347  96977249.90647  23682848.8634   23682852.4624   23682848.1284
        46.000          40.000
 123866802.18147  96519585.89047  23571069.3594   23571071.5514   23571069.7284
        47.000          39.000
 107203848.19547  83535460.55047  20400218.5144   20400220.4604   20400218.8434
        54.000          49.000
 128214543.90547  99907411.14747  24398438.1644   24398442.7934   24398437.9564
        43.000          39.000
 09  1 11  0 20 30.0000000  0 12G22G 5G30G 6G24G 9G29G14G31G18G21G12
 127256798.99147  99161137.46047  24216167.2334   24216167.7564   24216167.0724
        43.000          38.000
 124613677.82647  97101539.65747  23713216.3064   23713221.9104   23713217.1444
        45.000          39.000
 122823264.98047  95706428.99847  23372497.4104   23372501.6264   23372496.7284
        47.000          40.000
 140041822.51247  91331281.48647  24746141.9724   24746146.6574   24746142.2194
        43.000          36.000
 113192863.42547  88202214.39547  21539897.5624   21539902.1214   21539897.8944
        52.000          46.000
 116484088.80047  90766808.30947  22166197.0334   22166200.2284   22166197.0894
        49.000          43.000
 117244391.68747  91359253.01347  22310875.1174   22310878.6294   22310875.0974
        50.000          45.000
 115219833.39147  89781682.37947  21925608.3924   21925611.4294   21925608.6304
        51.000          45.000
 124350809.16847  96896720.10847  23663182.4804   23663186.1154   23663181.9984
        45.000          40.000
 123845398.25547  96502907.53247  23566996.5064   23566998.0244   23566997.3794
        48.000          40.000
 107153668.97447  83496359.85847  20390669.5674   20390671.5344   20390669.9054
        54.000          49.000
 128215418.96247  99908093.07547  24398604.6754   24398609.1244   24398604.3334
        44.000          39.000
 09  1 11  0 21  0.0000000  0 12G22G 5G30G 6G24G 9G29G14G31G18G21G12
 127236946.43047  99145667.97847  24212389.4814   24212390.0634   24212389.3094
        43.000          37.000
 124599573.11347  97090548.98947  23710532.1664   23710537.4294   23710532.4604
        45.000          39.000
 122801682.30947  95689611.36447  23368390.5704   23368394.3054   23368390.4814
        47.000          41.000
 139988242.04147  91289530.45147  24735946.7244   24735950.2734   24735946.7244
        41.000          36.000
 113223700.51247  88226243.29047  21545765.7234   21545770.2524   21545765.8224
        53.000          46.000
 116547297.25047  90816061.66447  22178225.1724   22178228.1454   22178225.3384
        50.000          43.000
 117319394.72247  91417696.90247  22325147.8254   22325151.3214   22325147.5244
        50.000          45.000
 115225741.32847  89786286.00647  21926732.5254   21926735.5364   21926732.8704
        50.000          45.000
 124247513.16247  96816229.75747  23643526.1644   23643529.3904   23643525.5504
        46.000          40.000
 123823789.08047  96486069.23147  23562884.5494   23562886.4354   23562885.0534
        47.000          40.000
 107103953.71047  83457620.69647  20381209.2904   20381211.0434   20381209.6894
        54.000          49.000
 128216280.70647  99908764.61147  24398768.5454   24398773.6004   24398768.4564
        44.000          38.000
 09  1 11  0 21 30.0000000  0 12G22G 5G30G 6G24G 9G29G14G31G18G21G12
 127216875.62047  99130028.44347  24208569.4634   24208570.2704   24208569.5294
        44.000          37.000
 124585459.19847  97079551.15947  23707846.6124   23707851.7184   23707847.2494
        46.000          40.000
 122779961.97247  95672686.47747  23364257.3524   23364261.0074   23364256.9164
        47.000          41.000
 139934967.82547  91248018.07847  24725808.4724   24725812.5294   24725808.3674
        42.000          36.000
 113255012.95747  88250642.59147  21551724.2644   21551728.6074   21551724.5694
        52.000          46.000
 116610987.53247  90865690.48447  22190344.8334   22190347.6554   22190345.0294
        50.000          43.000
 117394458.03647  91476187.77747  22339431.7774   22339435.1824   22339431.3814
        50.000          45.000
