     2.11           OBSERVATION DATA    G (GPS)             RINEX VERSION / TYPE
teqc  2013Mar15     gpsops              20140512 00:23:20UTCPGM / RUN BY / DATE
Linux 2.4.21-27.ELsmp|Opteron|gcc -static|Linux x86_64|=+   COMMENT
BIT 2 OF LLI FLAGS DATA COLLECTED UNDER A/S CONDITION       COMMENT
GLPS                                                        MARKER NAME
42005M002                                                   MARKER NUMBER
GGN                 JPL                                     OBSERVER / AGENCY
ZR220013847         ASHTECH UZ-12       CQ00                REC # / TYPE / VERS
CR519992104         ASH701945B_M    SCIT                    ANT # / TYPE
   -33801.4662 -6377516.5323   -82154.3508                  APPROX POSITION XYZ
        0.0083        0.0000        0.0000                  ANTENNA: DELTA H/E/N
     1     1                                                WAVELENGTH FACT L1/2
     7    L1    L2    P1    P2    C1    S1    S2            # / TYPES OF OBSERV
    30.0000                                                 INTERVAL
                                                            COMMENT
This data is provided as a public service by NASA/JPL.      COMMENT
No warranty is expressed or implied regarding suitability   COMMENT
for use.  For further information, contact:                 COMMENT
Dave Stowers, NASA/JPL m/s 238-600                          COMMENT
4800 Oak Grove Drive, Pasadena CA 91109 USA                 COMMENT
                                                            COMMENT
Forced Modulo Decimation to 30 seconds                      COMMENT
 SNR is mapped to RINEX snr flag value [0-9]                COMMENT
  L1 & L2: min(max(int(snr_dBHz/6), 0), 9)                  COMMENT
pseudorange smoothing corrections not applied               COMMENT
  2014     5    11     0    15    0.0000000     GPS         TIME OF FIRST OBS
                                                            END OF HEADER
 14  5 11  0 15  0.0000000  0 10G20G09G07G28G01G10G08G13G17G04
  -3956480.29547  -3022623.91546  23641418.8084   23641429.0494   23641419.708
        42.0004         37.0004
 -13364354.38349 -10404300.35048  20100410.5944   20100418.2204   20100410.621
        54.0004         49.0004
 -23309514.32048 -18127237.46948  20369379.0774   20369385.0814   20369378.919
        53.0004         48.0004
  -1618017.18347  -1260921.28346  23727145.0144   23727156.5504   23727145.217
        43.0004         39.0004
  -5200497.96747  -4020683.37946  23618877.1954   23618890.7914   23618875.968
        44.0004         40.0004
  -8136830.23347  -6329079.69546  24157881.6924   24157894.1804   24157882.519
        43.0004         38.0004
 -20971993.14749 -16323142.71948  20005107.6954   20005115.2924   20005108.088
        54.0004         49.0004
  -2120668.39647  -1636547.26446  23969397.7134   23969405.8174   23969397.549
        42.0004         37.0004
 -12784050.75948  -9901576.20247  22516347.6514   22516357.8634   22516347.871
        50.0004         45.0004
 -20060833.80448 -15573204.87947  21454658.7384   21454667.4934   21454658.282
        51.0004         46.0004
 14  5 11  0 15 30.0000000  0 10G20G09G07G28G01G10G08G13G17G04
  -3948499.55546  -3016405.12046  23642937.9064   23642949.8434   23642939.032
        41.0004         37.0004
 -13391654.10049 -10425572.77048  20095215.6894   20095223.0144   20095215.529
        54.0004         49.0004
 -23269823.89748 -18096309.82148  20376931.8284   20376938.4444   20376931.302
        53.0004         48.0004
  -1664525.84147  -1297161.70046  23718295.4194   23718305.9584   23718295.158
        43.0004         39.0004
  -5102432.72947  -3944268.96946  23637537.3874   23637552.0364   23637537.247
        44.0004         40.0004
  -8190775.16347  -6371114.49946  24147617.2424   24147628.3604   24147617.133
        43.0004         38.0004
 -21001177.50349 -16345883.69748  19999553.9674   19999561.5444   19999554.237
        54.0004         49.0004
  -2045925.94647  -1578306.31146  23983620.6804   23983628.4174   23983620.147
        42.0004         37.0004
 -12743026.29548  -9869609.09147  22524155.0994   22524164.8704   22524154.378
        50.0004         45.0004
 -20136721.09948 -15632337.73447  21440218.7084   21440225.7584   21440218.333
        51.0004         46.0004
 14  5 11  0 16  0.0000000  0 10G20G09G07G28G01G10G08G13G17G04
  -3940289.74746  -3010007.83846  23644500.4584   23644511.0584   23644501.551
        41.0004         37.0004
 -13418361.21749 -10446383.42448  20090133.4364   20090140.6624   20090133.250
        54.0004         49.0004
 -23229561.26648 -18064936.29948  20384593.7254   20384599.4544   20384593.469
        53.0004         49.0004
  -1711247.90847  -1333568.39446  23709404.4844   23709415.0814   23709404.195
        44.0004         39.0004
  -5004146.96747  -3867682.71346  23656240.9124   23656254.8114   23656240.470
        44.0004         40.0004
  -8244942.63747  -6413322.69746  24137307.8434   24137319.8444   24137309.499
        43.0004         38.0004
 -21029740.60149 -16368140.58248  19994118.3064   19994126.0474   19994118.608
        54.0004         49.0004
  -1971355.73047  -1520199.56846  23997811.4084   23997817.3474   23997810.495
        42.0004         37.0004
 -12701918.91348  -9837577.37047  22531977.8214   22531987.3744   22531977.168
        50.0004         45.0004
 -20212234.39548 -15691179.16647  21425848.6314   21425856.9414   21425847.770
        51.0004         46.0004
 14  5 11  0 16 30.0000000  0 11G20G26G09G07G28G01G10G08G13G17G04
  -3931856.34447  -3003436.34046  23646105.4844   23646116.4564   23646106.788
        42.0004         37.0004
   -215097.00948   -153103.40846  24120569.8024   24120588.3064   24120570.115
        48.0004         37.0004
 -13444481.81449 -10466737.05248  20085162.6174   20085170.0554   20085162.618
        54.0004         49.0004
 -23188735.43248 -18033123.91448  20392362.5074   20392368.3944   20392362.004
        53.0004         49.0004
  -1758189.62247  -1370146.23946  23700471.8574   23700481.1684   23700471.840
        44.0004         39.0004
  -4905650.72547  -3790932.45146  23674984.5554   23674998.1464   23674983.863
        44.0004         40.0004
  -8299339.01847  -6455709.24946  24126956.2334   24126967.9744   24126958.034
        43.0004         38.0004
 -21057687.78249 -16389917.53248  19988800.3424   19988807.8154   19988800.580
        54.0004         49.0004
  -1896966.24247  -1462233.64046  24011966.3014   24011974.2094   24011966.516
        42.0004         37.0004
 -12660738.43748  -9805488.68447  22539813.4124   22539824.2534   22539813.117
        49.0004         45.0004
 -20287378.39948 -15749732.84147  21411548.9664   21411556.9024   21411548.599
        51.0004         46.0004
 14  5 11  0 17  0.0000000  0 11G20G26G09G07G28G01G10G08G13G17G04
  -3923189.14846  -2996682.63346  23647754.0084   23647766.1174   23647754.926
        41.0004         37.0004
   -231033.73047   -165521.38046  24117536.7284   24117555.1044   24117537.559
        44.0004         38.0004
 -13470006.17949 -10486626.08048  20080305.7294   20080312.8354   20080305.436
        54.0004         49.0004
 -23147339.04948 -18000866.95148  20400239.9804   20400246.3454   20400239.508
        53.0004         49.0004
  -1805340.49247  -1406887.06046  23691499.1284   23691508.2914   23691499.525
        44.0004         39.0004
  -4806937.90947  -3714013.43546  23693768.2314   23693782.9924   23693768.294
        44.0004         39.0004
  -8353954.69747  -6498266.69946  24116562.6344   24116574.9754   24116564.596
        43.0004         38.0004
 -21085008.83549 -16411206.58448  19983601.3404   19983609.0104   19983601.448
        54.0004         49.0004
  -1822750.62447  -1404403.19846  24026089.3794   24026096.8084   24026088.924
        42.0004         37.0004
 -12619478.90148  -9773338.39547  22547665.8894   22547675.0474   22547664.742
        49.0004         45.0004
 -20362141.96648 -15807990.06547  21397322.3194   21397329.6864   21397321.592
        51.0004         46.0004
 14  5 11  0 17 30.0000000  0 11G20G26G09G07G28G01G10G08G13G17G04
  -3914288.80347  -2989747.27746  23649449.1504   23649457.2804   23649450.079
        42.0004         37.0004
   -246624.25547   -177669.60046  24114570.4154   24114586.7214   24114570.310
        43.0004         37.0004
 -13494935.60449 -10506051.52348  20075561.5784   20075568.9344   20075561.590
        54.0004         49.0004
 -23105375.76948 -17968168.24948  20408225.0674   20408231.1464   20408224.801
        53.0004         49.0004
  -1852701.67647  -1443791.76346  23682485.9824   23682496.2624   23682486.283
        44.0004         39.0004
  -4708013.37647  -3636929.43646  23712593.7744   23712608.2504   23712593.338
        44.0004         39.0004
  -8408791.42147  -6540996.37146  24106128.3264   24106138.9084   24106128.868
        43.0004         38.0004
 -21111704.71249 -16432008.48648  19978520.6964   19978528.4114   19978521.311
        54.0004         49.0004
  -1748713.00047  -1346711.46746  24040178.0674   24040185.8384   24040177.567
        42.0004         37.0004
 -12578145.14948  -9741130.26647  22555530.9854   22555540.7164   22555530.419
        49.0004         45.0004
 -20436524.73648 -15865950.57547  21383167.3084   21383175.2594   21383166.864
        51.0004         46.0004
 14  5 11  0 18  0.0000000  0 11G20G26G09G07G28G01G10G08G13G17G04
  -3905151.54847  -2982627.31146  23651187.9214   23651198.3444   23651188.430
        42.0004         37.0004
   -261867.64047   -189547.31146  24111670.5634   24111687.8624   24111669.146
        42.0004         37.0004
 -13519266.88049 -10525010.88148  20070931.1284   20070938.5114   20070931.188
        54.0004         49.0004
 -23062844.80148 -17935027.19248  20416318.7394   20416324.6634   20416318.219
        53.0004         49.0004
  -1900269.35147  -1480857.37246  23673433.8984   23673444.5044   23673434.723
        43.0004         39.0004
  -4608877.53447  -3559680.77846  23731458.6614   23731472.4774   23731458.177
        44.0004         40.0004
  -8463845.84247  -6583895.70346  24095652.0324   24095663.5024   24095652.318
        43.0004         38.0004
 -21137771.26949 -16452320.01148  19973560.5884   19973568.2794   19973560.888
        54.0004         49.0004
  -1674852.34646  -1289157.62046  24054233.0134   24054241.9294   24054232.655
        41.0004         37.0004
 -12536737.13248  -9708864.26347  22563409.8854   22563420.1504   22563409.750
        49.0004         45.0004
 -20510522.08148 -15923610.74447  21369085.4924   21369094.2054   21369085.545
        51.0004         46.0004
 14  5 11  0 18 30.0000000  0 11G20G26G09G07G28G01G10G08G13G17G04
  -3895778.48047  -2975323.60246  23652971.1014   23652981.2284   23652971.975
        42.0004         37.0004
   -276767.79047   -201157.56346  24108833.0994   24108850.7634   24108834.182
        42.0004         38.0004
 -13543001.63749 -10543505.41448  20066414.3574   20066422.0614   20066414.604
        54.0004         49.0004
 -23019750.14148 -17901446.89748  20424518.8594   20424525.5054   20424518.590
        53.0004         48.0004
  -1948044.97347  -1518085.02246  23664343.3514   23664351.9404   23664343.160
        43.0004         38.0004
  -4509535.73847  -3482271.63946  23750362.2694   23750376.2184   23750361.869
        44.0004         40.0004
  -8519119.96647  -6626966.21846  24085132.7714   24085144.4934   24085133.927
        43.0004         38.0004
 -21163209.55549 -16472141.96948  19968719.9674   19968727.1864   19968720.367
        54.0004         49.0004
  -1601172.71846  -1231744.84946  24068255.2034   24068261.6054   24068253.370
        41.0004         36.0004
 -12495259.76048  -9676544.23047  22571302.8884   22571312.8974   22571302.794
        49.0004         44.0004
 -20584134.20848 -15980970.75347  21355078.2904   21355085.8214   21355077.646
        51.0004         46.0004
 14  5 11  0 19  0.0000000  0 11G20G26G09G07G28G01G10G08G13G17G04
  -3886167.40447  -2967834.41146  23654800.7334   23654810.6544   23654800.032
        42.0004         37.0004
   -291325.34947   -212500.85646  24106063.9424   24106080.4314   24106062.537
        42.0004         37.0004
 -13566138.29249 -10561533.89548  20062011.7654   20062019.1514   20062011.756
        54.0004         49.0004
 -22976092.90748 -17867428.23148  20432827.0504   20432833.1134   20432826.563
        53.0004         49.0004
  -1996026.50347  -1555473.12146  23655212.8984   23655222.0194   23655212.024
        43.0004         39.0004
  -4409989.96147  -3404703.55846  23769305.8934   23769319.8244   23769304.478
        44.0004         39.0004
  -8574612.29747  -6670206.76846  24074573.7704   24074584.9834   24074574.622
        43.0004         38.0004
 -21188017.56649 -16491472.81148  19963999.2324   19964006.5954   19963999.253
        54.0004         49.0004
  -1527675.13446  -1174473.92546  24082240.3824   24082247.1674   24082239.250
        41.0004         37.0004
 -12453714.94748  -9644171.63947  22579208.7644   22579218.3984   22579208.532
        49.0004         44.0004
 -20657357.98348 -16038028.14147  21341143.4534   21341151.5654   21341143.065
        51.0004         46.0004
 14  5 11  0 19 30.0000000  0 11G20G26G09G07G28G01G10G08G13G17G04
  -3876315.74247  -2960157.75546  23656674.9644   23656684.4294   23656675.219
        42.0004         37.0004
   -305541.09447   -223577.82046  24103357.9764   24103373.9404   24103357.945
        42.0004         37.0004
 -13588675.49549 -10579095.26948  20057723.5244   20057730.2584   20057722.971
        54.0004         49.0004
 -22931874.03648 -17832971.92748  20441241.4094   20441247.4224   20441241.006
        53.0004         49.0004
  -2044211.78847  -1593019.98946  23646042.2894   23646053.6534   23646043.039
        43.0004         39.0004
  -4310242.40747  -3326978.25046  23788286.3954   23788301.7894   23788285.732
        44.0004         39.0004
  -8630321.61847  -6713616.40146  24063971.1504   24063984.1724   24063973.233
        43.0004         38.0004
 -21212193.05149 -16510310.76948  19959398.5324   19959406.2904   19959398.957
        54.0004         49.0004
  -1454360.38346  -1117345.44446  24096190.9954   24096200.7014   24096190.644
        41.0004         36.0004
 -12412104.86448  -9611748.17747  22587128.1064   22587136.5484   22587126.658
        49.0004         44.0004
 -20730190.71448 -16094780.82147  21327284.4084   21327291.9264   21327283.588
        51.0004         46.0004
 14  5 11  0 20  0.0000000  0 11G20G26G09G07G28G01G10G08G13G17G04
  -3866226.33647  -2952295.85346  23658595.7174   23658605.0534   23658596.027
        42.0004         37.0004
   -319420.44147   -234392.63346  24100717.0054   24100734.5994   24100716.271
        42.0004         37.0004
 -13610616.44249 -10596192.03248  20053547.8004   20053554.9114   20053547.841
        54.0004         49.0004
 -22887098.99848 -17798082.24248  20449761.7194   20449768.0614   20449761.232
        53.0004         48.0004
  -2092603.50447  -1630727.71646  23636834.1764   23636844.5784   23636834.508
        44.0004         39.0004
  -4210299.73947  -3249100.90746  23807304.6414   23807319.2234   23807304.145
        44.0004         39.0004
  -8686251.03647  -6757197.53346  24053327.9454   24053340.2214   24053329.457
        43.0004         38.0004
 -21235738.85049 -16528658.06648  19954917.9274   19954925.4534   19954918.100
        54.0004         49.0004
  -1381234.39146  -1060364.08246  24110106.4704   24110115.1184   24110105.852
        41.0004         37.0004
 -12370436.24648  -9579279.10347  22595056.0114   22595067.3464   22595055.949
        49.0004         44.0004
 -20802633.34948 -16151229.52747  21313498.1734   21313506.6174   21313497.873
        51.0004         46.0004
 14  5 11  0 20 30.0000000  0 11G20G26G09G07G28G01G10G08G13G17G04
  -3855890.44246  -2944241.87546  23660561.8594   23660570.4774   23660562.211
        41.0004         37.0004
   -332957.64147   -244940.82946  24098139.7814   24098157.2854   24098141.042
        42.0004         38.0004
 -13631953.00349 -10612817.84348  20049487.6074   20049494.9304   20049487.655
        54.0004         49.0004
 -22841762.54248 -17762755.09348  20458388.9104   20458395.4414   20458388.552
        53.0004         48.0004
  -2141193.11347  -1668589.62546  23627587.5304   23627597.8544   23627587.541
        44.0004         39.0004
  -4110157.50047  -3171068.05646  23826361.6304   23826375.5184   23826360.546
        44.0004         39.0004
  -8742392.55847  -6800943.93546  24042644.0814   24042656.6284   24042646.552
        43.0004         38.0004
 -21258646.24449 -16546507.90448  19950558.7624   19950566.2134   19950559.065
        54.0004         49.0004
  -1308291.50146  -1003525.37746  24123986.8964   24123995.0074   24123987.167
        41.0004         37.0004
 -12328704.35148  -9546760.71947  22602997.9114   22603007.3924   22602996.991
        49.0004         44.0004
 -20874677.17848 -16207367.47647  21299788.9134   21299796.7304   21299788.695
        51.0004         46.0004
 14  5 11  0 21  0.0000000  0 12G20G26G09G07G28G02G01G10G08G13G17G04
  -3845312.54246  -2935999.32546  23662573.6794   23662585.2164   23662575.189
        41.0004         37.0004
   -346160.00747   -255228.13446  24095628.2744   24095644.7184   24095627.098
        42.0004         37.0004
 -13652690.84949 -10628977.12448  20045541.2864   20045548.2384   20045541.207
        54.0004         49.0004
 -22795872.34448 -17726996.45648  20467121.3614   20467127.3314   20467121.107
        53.0004         48.0004
  -2189985.33447  -1706609.41446  23618302.5224   23618311.9254   23618302.802
        44.0004         39.0004
  -1782240.77348  -1328911.91746  24066518.5464   24066529.3874   24066518.657
        51.0004         38.0004
  -4009824.44547  -3092886.52446  23845453.9424   23845467.1944   23845453.577
        44.0004         39.0004
  -8798751.35547  -6844859.64146  24031920.5144   24031930.2574   24031921.499
        42.0004         38.0004
 -21280920.08049 -16563864.06348  19946319.9144   19946327.8734   19946320.254
        54.0004         49.0004
  -1235539.30946   -946835.26746  24137830.4314   24137840.2114   24137830.795
        41.0004         36.0004
 -12286917.61148  -9514199.60147  22610950.2974   22610958.6674   22610949.173
        49.0004         44.0004
 -20946325.61048 -16263197.32747  21286154.3094   21286162.3424   21286154.495
        51.0004         46.0004
 14  5 11  0 21 30.0000000  0 12G20G26G09G07G28G02G01G10G08G13G17G04
  -3834488.01446  -2927564.60246  23664635.3914   23664644.8744   23664634.654
        41.0004         37.0004
   -359025.78746   -265253.14646  24093178.1174   24093195.7254   24093179.567
        41.0004         37.0004
 -13672825.43849 -10644666.33348  20041709.5414   20041716.5504   20041709.671
        54.0004         49.0004
 -22749426.23448 -17690804.64248  20475959.6684   20475965.9564   20475959.293
        53.0004         48.0004
  -2238975.10147  -1744783.12146  23608979.7194   23608991.3124   23608980.591
        44.0004         39.0004
  -1875859.94147  -1401861.59346  24048703.9274   24048713.2484   24048702.840
        46.0004         38.0004
  -3909299.89347  -3014555.76046  23864584.3434   23864596.6934   23864583.134
        44.0004         39.0004
  -8855323.11947  -6888941.31646  24021154.1864   24021165.9894   24021154.665
        42.0004         38.0004
 -21302555.65449 -16580722.87348  19942202.9754   19942210.4064   19942203.297
        54.0004         49.0004
  -1162975.88946   -890292.25646  24151639.8084   24151648.2944   24151639.284
        41.0004         36.0004
 -12245074.99948  -9481594.93847  22618911.6004   22618922.2634   22618911.486
        49.0004         44.0004
 -21017572.86748 -16318714.57547  21272597.1774   21272604.1064   21272596.481
        51.0004         47.0004
 14  5 11  0 22  0.0000000  0 12G20G26G09G07G28G02G01G10G08G13G17G04
  -3823416.50446  -2918937.41546  23666742.1784   23666751.5114   23666741.749
        41.0004         37.0004
   -371557.62246   -275017.96046  24090793.2374   24090808.6954   24090793.496
        41.0004         37.0004
 -13692357.49949 -10659886.03648  20037992.7754   20037999.8864   20037992.824
        54.0004         49.0004
 -22702427.82948 -17654182.46848  20484903.3974   20484909.8484   20484902.756
        53.0004         48.0004
  -2288162.53547  -1783110.84446  23599619.2884   23599629.9784   23599619.659
        44.0004         39.0004
  -1969319.40347  -1474686.83046  24030918.3484   24030928.8804   24030918.577
        44.0004         38.0004
  -3808587.93247  -2936078.97146  23883749.0594   23883762.9274   23883748.015
        43.0004         39.0004
  -8912108.22547  -6933189.22346  24010348.3984   24010360.1444   24010349.059
        42.0004         38.0004
 -21323553.24049 -16597084.54748  19938206.9954   19938214.3224   19938207.358
        54.0004         49.0004
  -1090603.99446   -833898.48946  24165412.0374   24165419.0954   24165411.406
        41.0004         36.0004
 -12203180.60348  -9448949.92747  22626883.8094   22626894.1054   22626883.444
        49.0004         44.0004
 -21088417.85648 -16373918.36647  21259115.2324   21259122.6154   21259115.139
        51.0004         47.0004
 14  5 11  0 22 30.0000000  0 12G20G26G09G07G28G02G01G10G08G13G17G04
  -3812095.89246  -2910116.13846  23668895.2864   23668905.9894   23668895.077
        41.0004         36.0004
   -383756.18946   -284523.06346  24088472.9394   24088489.9774   24088472.792
        41.0004         37.0004
 -13711285.59049 -10674635.11748  20034390.9004   20034398.1504   20034390.703
        54.0004         49.0004
 -22654877.89748 -17617130.53548  20493951.7364   20493957.7564   20493951.398
        53.0004         48.0004
  -2337545.18347  -1821590.68146  23590223.2504   23590232.4874   23590223.058
        44.0004         39.0004
  -2062616.34647  -1547385.41146  24013164.0924   24013174.0734   24013165.078
        43.0004         38.0004
  -3707690.41047  -2857457.56546  23902948.5754   23902963.0954   23902948.359
        43.0004         39.0004
  -8969105.10747  -6977602.15746  23999501.6834   23999512.4484   23999502.913
        42.0004         38.0004
 -21343910.27249 -16612947.09148  19934333.5464   19934340.6104   19934333.785
        54.0004         50.0004
  -1018424.41446   -777654.55846  24179147.6094   24179154.6434   24179147.075
        41.0004         36.0004
 -12161235.83348  -9416265.65847  22634865.2944   22634875.1764   22634865.438
        49.0004         44.0004
 -21158857.69248 -16428806.45547  21245710.1184   21245718.8414   21245710.770
        51.0004         46.0004
 14  5 11  0 23  0.0000000  0 12G20G26G09G07G28G02G01G10G08G13G17G04
  -3800524.04346  -2901099.07746  23671097.5754   23671105.6174   23671097.018
        41.0004         36.0004
   -395622.32646   -293769.16146  24086214.6744   24086229.8324   24086215.026
        41.0004         37.0004
 -13729608.39249 -10688912.54148  20030903.8994   20030911.0794   20030903.903
        54.0004         49.0004
 -22606777.43748 -17579649.61848  20503104.9544   20503110.9754   20503104.670
        53.0004         48.0004
  -2387121.21047  -1860221.19546  23580787.7414   23580799.0594   23580788.614
        44.0004         39.0004
  -2155747.69247  -1619954.96646  23995441.2134   23995449.7084   23995442.829
        43.0004         38.0004
  -3606609.41247  -2778693.19246  23922184.9314   23922198.9064   23922183.641
        44.0004         39.0004
  -9026312.35847  -7022179.00446  23988617.9284   23988627.7444   23988616.698
        43.0004         38.0004
 -21363625.21749 -16628309.30148  19930581.6704   19930589.1304   19930582.050
        54.0004         49.0004
   -946438.09346   -721561.24246  24192842.2954   24192852.3814   24192844.460
        41.0004         36.0004
 -12119242.85248  -9383543.83147  22642856.6744   22642866.6924   22642856.014
        49.0004         44.0004
 -21228889.43848 -16483376.54647  21232384.2884   21232391.2014   21232383.971
        51.0004         47.0004
 14  5 11  0 23 30.0000000  0 12G20G26G09G07G28G02G01G10G08G13G17G04
  -3788700.70446  -2891886.04146  23673346.4944   23673356.9824   23673347.352
        41.0004         36.0004
   -407158.82946   -302758.36946  24084019.4034   24084035.3694   24084019.298
        41.0004         37.0004
 -13747326.50249 -10702718.78348  20027532.6394   20027539.4624   20027532.289
        54.0004         49.0004
 -22558129.86048 -17541742.37948  20512362.3304   20512368.2484   20512361.886
        53.0004         48.0004
  -2436890.36847  -1899002.20246  23571317.5034   23571327.0034   23571317.614
        44.0004         39.0004
  -2248712.55947  -1692394.80846  23977750.3224   23977760.9314   23977751.596
        42.0004         38.0004
  -3505349.06947  -2699789.07546  23941452.3944   23941467.5624   23941452.444
        44.0004         39.0004
  -9083730.33647  -7066920.05146  23977688.7014   23977699.7164   23977690.337
        43.0004         38.0004
 -21382698.08049 -16643171.19648  19926952.0734   19926959.3214   19926952.566
        54.0004         49.0004
   -874647.46946   -665620.38846  24206505.0924   24206512.6664   24206506.235
        41.0004         36.0004
 -12077205.38548  -9350787.33847  22650857.0414   22650865.7074   22650855.741
        49.0004         44.0004
 -21298511.79548 -16537627.63947  21219135.5014   21219143.5604   21219135.162
        51.0004         47.0004
 14  5 11  0 24  0.0000000  0 12G20G26G09G07G28G02G01G10G08G13G17G04
  -3776622.84746  -2882474.67446  23675645.6744   23675657.4964   23675646.254
        41.0004         36.0004
   -418365.45946   -311490.55046  24081887.0874   24081902.2274   24081885.433
        41.0004         36.0004
 -13764437.75849 -10716052.13948  20024275.9334   20024283.4524   20024276.294
        54.0004         49.0004
 -22508935.10448 -17503408.75948  20521723.8254   20521729.9334   20521723.409
        53.0004         48.0004
  -2486849.62947  -1937931.32846  23561810.3254   23561820.0704   23561810.496
        44.0004         39.0004
  -2341506.91747  -1764701.78146  23960092.4204   23960101.3024   23960092.737
        43.0004         38.0004
  -3403910.34647  -2620745.96446  23960756.6904   23960770.0274   23960755.939
        44.0004         39.0004
  -9141356.31247  -7111823.17546  23966723.5534   23966734.8874   23966724.265
        43.0004         38.0004
 -21401125.99949 -16657530.53948  19923445.5484   19923452.5364   19923445.843
        54.0004         49.0004
   -803052.71946   -609832.18446  24220130.8124   24220137.4954   24220129.055
        41.0004         36.0004
 -12035124.16248  -9317996.74447  22658864.5334   22658874.8674   22658863.618
        49.0004         44.0004
 -21367721.15048 -16591556.91647  21205965.9904   21205973.3974   21205965.286
        51.0004         47.0004
 14  5 11  0 24 30.0000000  0 12G20G26G09G07G28G02G01G10G08G13G17G04
  -3764289.81046  -2872864.47346  23677992.7914   23678002.0004   23677992.860
        41.0004         36.0004
   -429244.57146   -319967.51846  24079816.3354   24079831.9614   24079816.717
        41.0004         37.0004
 -13780942.44349 -10728912.85348  20021135.3144   20021142.5824   20021135.267
        54.0004         49.0004
 -22459195.56748 -17464650.64448  20531188.8854   20531194.8554   20531188.454
        53.0004         48.0004
  -2536997.89747  -1977007.72746  23552267.3754   23552277.3424   23552266.934
        44.0004         39.0004
  -2434129.41147  -1836874.84046  23942466.8814   23942476.2124   23942466.852
        43.0004         38.0004
  -3302296.77547  -2541566.60546  23980092.6374   23980107.4234   23980092.655
        44.0004         39.0004
  -9199190.07847  -7156888.21146  23955716.2764   23955728.2444   23955718.466
        43.0004         38.0004
 -21418908.64149 -16671387.06548  19920061.2814   19920068.6224   19920061.748
        54.0004         49.0004
   -731655.86946   -554198.16946  24233718.8634   24233724.3254   24233716.294
        41.0004         36.0004
 -11993002.26948  -9285174.46447  22666879.9344   22666889.6344   22666879.405
        49.0004         44.0004
 -21436515.97548 -16645163.17747  21192874.2014   21192881.9034   21192873.609
        51.0004         47.0004
 14  5 11  0 25  0.0000000  0 12G20G26G09G07G28G02G01G10G08G13G17G04
  -3751701.23546  -2863055.14846  23680389.4604   23680397.6834   23680388.814
        41.0004         36.0004
   -439798.58746   -328191.19246  24077806.5424   24077824.4304   24077806.000
        41.0004         37.0004
 -13796840.91649 -10741301.19048  20018109.9474   20018116.8184   20018110.114
        54.0004         50.0004
 -22408914.33748 -17425470.42848  20540757.0334   20540763.0024   20540756.601
        53.0004         48.0004
  -2587335.01247  -2016231.28346  23542687.7064   23542698.1304   23542688.149
        44.0004         39.0004
  -2526578.48747  -1908912.75846  23924873.5534   23924883.0064   23924874.691
        43.0004         38.0004
  -3200512.04947  -2462253.86646  23999461.8194   23999476.6864   23999461.532
        44.0004         39.0004
  -9257231.98547  -7202115.43946  23944672.9964   23944683.4994   23944673.110
        43.0004         38.0004
 -21436045.85549 -16684740.66648  19916800.2974   19916807.2194   19916800.635
        54.0004         49.0004
   -660459.62646   -498720.48046  24247264.0364   24247272.6444   24247264.075
        40.0004         36.0004
 -11950843.50448  -9252323.44047  22674900.8894   22674912.2404   22674901.375
        49.0004         44.0004
 -21504894.96948 -16698445.41047  21179862.2024   21179869.8214   21179861.513
        51.0004         47.0004
 14  5 11  0 25 30.0000000  0 12G20G26G09G07G28G02G01G10G08G13G17G04
  -3738854.90546  -2853044.97946  23682830.5034   23682843.0464   23682832.496
        41.0004         36.0004
   -450028.47846   -336162.29146  24075859.5664   24075877.7284   24075860.941
        41.0004         36.0004
 -13812132.04149 -10753216.27048  20015199.9254   20015206.8994   20015199.892
        54.0004         50.0004
 -22358092.71148 -17385869.12048  20550428.1194   20550433.9334   20550427.310
        53.0004         48.0004
  -2637858.60547  -2055600.15646  23533074.3734   23533084.0314   23533074.522
        44.0004         40.0004
  -2618851.43347  -1980813.43046  23907314.9464   23907323.9874   23907315.312
        43.0004         38.0004
  -3098558.14547  -2382809.30746  24018863.4294   24018877.7004   24018862.850
        44.0004         39.0004
  -9315480.15047  -7247503.40346  23933588.9774   23933599.1684   23933588.635
        43.0004         39.0004
 -21452536.05049 -16697590.09648  19913662.4574   19913669.3684   19913662.644
        54.0004         49.0004
   -589464.30246   -443399.33045  24260773.8144   24260780.7144   24260774.144
        40.0004         35.0004
 -11908649.48548  -9219444.95147  22682931.2014   22682941.7104   22682930.161
        49.0004         44.0004
 -21572855.17748 -16751401.32347  21166929.5034   21166937.6484   21166929.301
        51.0004         47.0004
 14  5 11  0 26  0.0000000  0 12G20G26G09G07G28G02G01G10G08G13G17G04
  -3725748.05746  -2842831.80446  23685326.2624   23685337.0184   23685326.230
        41.0004         36.0004
   -459934.27746   -343880.84546  24073974.8674   24073992.0764   24073974.345
        41.0004         37.0004
 -13826814.06649 -10764656.72648  20012406.1894   20012413.0564   20012406.265
        54.0004         50.0004
 -22306730.61048 -17345846.66248  20560201.8574   20560207.5604   20560201.615
        53.0004         48.0004
  -2688565.73947  -2095112.03146  23523425.2604   23523435.3484   23523425.295
        44.0004         40.0004
  -2710944.44647  -2052573.90746  23889788.4394   23889798.9264   23889789.577
        42.0004         38.0004
  -2996436.39947  -2303233.95346  24038296.3734   24038310.9174   24038295.898
        44.0004         39.0004
  -9373932.09547  -7293050.15346  23922464.8604   23922474.8644   23922465.463
        43.0004         39.0004
 -21468376.80549 -16709933.47448  19910648.0464   19910654.7584   19910648.186
        54.0004         49.0004
   -518669.92646   -388234.78946  24274246.9874   24274253.9764   24274245.461
        40.0004         36.0004
 -11866421.41448  -9186539.93547  22690966.4584   22690976.7104   22690966.753
        49.0004         44.0004
 -21640392.98648 -16804028.09647  21154077.6564   21154085.2024   21154077.131
        51.0004         47.0004
 14  5 11  0 26 30.0000000  0 12G20G26G09G07G28G02G01G10G08G13G17G04
  -3712379.85246  -2832414.98846  23687870.7404   23687881.5264   23687870.092
        41.0004         36.0004
   -469518.33746   -351348.67246  24072153.1094   24072167.7694   24072151.699
        41.0004         37.0004
 -13840887.09949 -10775622.64148  20009728.0294   20009734.8464   20009727.857
        54.0004         50.0004
 -22254831.34148 -17305405.63648  20570077.8814   20570084.0914   20570077.227
        53.0004         48.0004
  -2739455.37447  -2134766.11246  23513740.3594   23513750.4404   23513740.564
        44.0004         40.0004
  -2802855.97947  -2124192.97546  23872299.7934   23872307.9414   23872299.269
        42.0004         38.0004
  -2894150.26847  -2223530.50546  24057761.4064   24057775.1214   24057760.922
        44.0004         39.0004
  -9432587.56247  -7338755.47946  23911303.5994   23911313.0824   23911303.813
        43.0004         39.0004
 -21483567.88049 -16721770.60248  19907756.8824   19907764.0154   19907757.173
        54.0004         49.0004
   -448078.72946   -333228.56146  24287677.1744   24287687.0544   24287679.126
        40.0004         36.0004
 -11824162.14348  -9153610.59647  22699008.5774   22699018.5414   22699008.332
        49.0004         44.0004
 -21707506.75448 -16856324.44947  21141306.0544   21141312.8344   21141305.797
        51.0004         47.0004
 14  5 11  0 27  0.0000000  0 12G20G26G09G07G28G02G01G10G08G13G17G04
  -3698749.21046  -2821793.64346  23690464.6914   23690473.4214   23690464.720
        41.0004         36.0004
   -478782.22646   -358567.03746  24070386.8044   24070404.3104   24070387.579
        41.0004         37.0004
 -13854350.78549 -10786113.74548  20007165.9404   20007172.5894   20007165.794
        54.0004         50.0004
 -22202396.46648 -17264547.25048  20580055.8984   20580061.8384   20580055.607
        53.0004         48.0004
  -2790526.30047  -2174561.46346  23504021.7274   23504031.2354   23504022.264
        45.0004         40.0004
  -2894583.77047  -2195668.85846  23854845.1674   23854853.2234   23854844.055
        43.0004         38.0004
  -2791702.40147  -2143701.02946  24077257.0304   24077270.3654   24077255.664
        44.0004         39.0004
  -9491445.77147  -7384618.78046  23900102.3584   23900112.8024   23900102.970
        44.0004         39.0004
 -21498108.03849 -16733100.51848  19904990.1474   19904996.8374   19904990.379
        54.0004         49.0004
   -377691.79746   -278381.50246  24301075.0314   24301082.3144   24301072.390
        40.0004         36.0004
 -11781874.29548  -9120659.00147  22707055.7184   22707064.8294   22707055.189
        49.0004         44.0004
 -21774194.25248 -16908288.64647  21128616.1484   21128622.8504   21128615.649
        52.0004         47.0004
 14  5 11  0 27 30.0000000  0 12G20G26G09G07G28G02G01G10G08G13G17G04
  -3684855.57846  -2810967.37846  23693105.3114   23693117.6934   23693107.374
        41.0004         36.0004
   -487728.44146   -365537.85746  24068686.1924   24068701.4654   24068685.210
        41.0004         37.0004
 -13867205.75249 -10796130.52448  20004719.4154   20004726.5934   20004719.708
        54.0004         49.0004
 -22149428.75148 -17223273.66548  20590135.4644   20590141.1944   20590134.894
        53.0004         48.0004
  -2841777.54547  -2214497.32446  23494268.7934   23494277.9844   23494269.246
        45.0004         40.0004
  -2986126.60647  -2267000.63046  23837424.0884   23837431.9694   23837424.527
        43.0004         38.0004
  -2689096.45847  -2063748.37946  24096781.6564   24096796.3324   24096780.923
        44.0004         39.0004
  -9550506.63147  -7430640.00146  23888862.7864   23888873.8814   23888863.962
        44.0004         39.0004
 -21511997.47549 -16743923.38648  19902347.0134   19902353.9914   19902347.189
        54.0004         49.0004
   -307511.88846   -223695.76546  24314428.0614   24314435.6344   24314427.827
        40.0004         36.0004
 -11739561.14848  -9087687.67947  22715107.6414   22715117.5054   22715107.100
        49.0004         44.0004
 -21840454.49848 -16959919.91747  21116006.9944   21116014.5804   21116006.677
        52.0004         47.0004
 14  5 11  0 28  0.0000000  0 12G20G26G09G07G28G02G01G10G08G13G17G04
  -3670696.07346  -2799933.96146  23695803.6364   23695814.2304   23695803.087
        41.0004         36.0004
   -496357.22347   -372261.34246  24067043.6274   24067059.3714   24067044.369
        42.0004         37.0004
 -13879449.97749 -10805671.39548  20002389.2674   20002396.1974   20002389.322
        54.0004         49.0004
 -22095929.20248 -17181585.66848  20600316.1374   20600322.3844   20600315.834
        53.0004         48.0004
  -2893206.41247  -2254571.60146  23484482.2114   23484491.7494   23484482.322
        45.0004         40.0004
  -3077480.77947  -2338185.40046  23820039.5534   23820046.9404   23820040.114
        43.0004         38.0004
  -2586333.85547  -1983673.65346  24116336.6584   24116351.3234   24116336.090
        44.0004         39.0004
  -9609767.46647  -7476817.05346  23877586.9754   23877597.2664   23877587.312
        44.0004         39.0004
 -21525234.21549 -16754237.65648  19899828.1804   19899834.8824   19899828.306
        54.0004         49.0004
   -237538.69846   -169171.11346  24327742.3104   24327750.3014   24327742.356
        40.0004         36.0004
 -11697223.98648  -9054697.65147  22723164.1384   22723174.4324   22723163.559
        49.0004         44.0004
 -21906284.04948 -17011215.57647  21103480.1814   21103487.5914   21103479.365
        52.0004         47.0004
 14  5 11  0 28 30.0000000  0 12G20G26G09G07G28G02G01G10G08G13G17G04
  -3656269.26746  -2788692.25546  23698548.7404   23698557.8384   23698547.946
        41.0004         36.0004
   -504670.16847   -378738.69946  24065461.0774   24065477.4744   24065461.694
        42.0004         37.0004
 -13891083.19149 -10814736.15848  20000175.7304   20000182.4074   20000175.759
        54.0004         49.0004
 -22041899.66048 -17139484.69048  20610597.4784   20610603.1004   20610596.895
        53.0004         48.0004
  -2944811.06047  -2294782.84746  23474662.1534   23474671.8064   23474662.053
        45.0004         40.0004
  -3168643.90247  -2409221.30946  23802690.7884   23802699.1064   23802692.142
        43.0004         38.0004
  -2483417.17647  -1903478.86046  24135921.4814   24135935.0014   24135920.460
        44.0004         39.0004
  -9669227.38847  -7523149.23046  23866271.9624   23866280.9684   23866272.392
        44.0004         39.0004
 -21537816.68549 -16764042.10548  19897433.5424   19897440.7404   19897434.007
        54.0004         49.0004
   -167773.61946   -114808.61046  24341019.2904   24341029.8494   24341018.628
        40.0004         36.0004
 -11654864.85048  -9021690.50647  22731225.1574   22731234.1504   22731224.264
        49.0004         44.0004
 -21971680.38848 -17062173.66747  21091035.2074   21091042.6444   21091034.938
        52.0004         47.0004
 14  5 11  0 29  0.0000000  0 12G20G26G09G07G28G02G01G10G08G13G17G04
  -3641575.01746  -2777242.15246  23701343.0584   23701353.2664   23701344.083
        41.0004         36.0004
   -512669.67047   -384971.81546  24063938.9444   24063954.6514   24063939.195
        42.0004         37.0004
 -13902106.03949 -10823325.31148  19998078.2934   19998085.1064   19998078.217
        54.0004         49.0004
 -21987343.09048 -17096973.03648  20620979.0184   20620984.8404   20620978.581
        53.0004         48.0004
  -2996590.93647  -2335130.63146  23464809.0304   23464817.8644   23464808.885
        45.0004         40.0004
  -3259614.60547  -2480107.26846  23785379.6714   23785388.1154   23785379.905
        43.0004         38.0004
  -2380350.02747  -1823166.83346  24155534.6474   24155548.5574   24155533.407
        44.0004         39.0004
  -9728886.21347  -7569636.39246  23854919.7234   23854928.7884   23854919.915
        44.0004         39.0004
 -21549745.18349 -16773336.97248  19895163.3184   19895170.3864   19895163.601
        54.0004         49.0004
    -98218.78646    -60609.93846  24354253.5014   24354262.1174   24354254.971
        40.0004         36.0004
 -11612487.16948  -8988668.89347  22739289.0354   22739298.3374   22739288.499
        49.0004         44.0004
 -22036642.24648 -17112793.20547  21078673.2814   21078680.7884   21078672.869
        52.0004         47.0004
 14  5 11  0 29 30.0000000  0 12G20G26G09G07G28G02G01G10G08G13G17G04
  -3626610.04646  -2765581.07846  23704189.1334   23704202.1984   23704191.550
        40.0004         36.0004
   -520355.76847   -390960.72746  24062476.1404   24062493.6444   24062475.961
        42.0004         37.0004
 -13912516.46149 -10831437.25248  19996096.9284   19996103.8374   19996096.871
        54.0004         50.0004
 -21932259.77148 -17054050.92648  20631461.0724   20631467.1944   20631460.500
        53.0004         48.0004
  -3048542.39447  -2375612.12546  23454923.4764   23454932.3094   23454922.779
        45.0004         40.0004
  -3350388.97747  -2550840.24946  23768105.9634   23768114.9574   23768106.598
        43.0004         38.0004
  -2277133.43847  -1742738.34246  24175175.5074   24175188.9844   24175174.919
        44.0004         39.0004
  -9788741.00647  -7616276.26746  23843528.6554   23843538.8124   23843529.541
        44.0004         39.0004
 -21561017.40349 -16782120.45448  19893018.4644   19893025.4264   19893018.808
        54.0004         49.0004
    -28873.75846     -6574.77046  24367451.9974   24367460.0574   24367450.881
        40.0004         36.0004
 -11570091.59048  -8955633.34347  22747356.3734   22747366.7704   22747356.195
        49.0004         44.0004
 -22101165.84248 -17163071.24347  21066395.0794   21066401.8884   21066394.507
        52.0004         47.0004
 14  5 11  0 30  0.0000000  0 12G20G26G09G07G28G02G01G10G08G13G17G04
  -3611375.60646  -2753710.05645  23707091.0434   23707103.4684   23707091.361
        40.0004         35.0004
   -527732.53047   -396708.58046  24061073.0684   24061088.1274   24061072.267
        42.0004         37.0004
 -13922316.70249 -10839073.72548  19994232.1184   19994238.9534   19994232.178
        54.0004         50.0004
 -21876654.22148 -17010721.88748  20642042.1864   20642048.1664   20642041.889
        53.0004         48.0004
  -3100666.39447  -2416228.06946  23445004.2164   23445013.3764   23445003.782
        45.0004         41.0004
  -3440967.34847  -2621420.50146  23750868.4584   23750876.5284   23750870.076
        43.0004         38.0004
  -2173772.56147  -1662197.42046  24194844.6254   24194858.9434   24194843.145
        43.0004         38.0004
  -9848793.17347  -7663069.95246  23832101.4384   23832110.8044   23832101.484
        44.0004         39.0004
 -21571634.75449 -16790393.64248  19890997.8324   19891005.2184   19890998.347
        54.0004         49.0004
     40257.72246     47294.03246  24380604.4834   24380612.0164   24380605.940
        40.0004         36.0004
 -11527682.91948  -8922587.59947  22755426.2004   22755436.4714   22755426.030
        49.0004         44.0004
 -22165251.61448 -17213008.11847  21054199.9924   21054206.7354   21054199.391
        52.0004         47.0004
 14  5 11  0 30 30.0000000  0 12G20G26G09G07G28G02G01G10G08G13G17G04
  -3595867.09546  -2741625.43846  23710042.6614   23710052.3204   23710042.209
        40.0004         36.0004
   -534798.46947   -402214.25146  24059727.2164   24059743.4334   24059726.943
        42.0004         37.0004
 -13931503.43849 -10846232.14248  19992483.5654   19992490.4564   19992483.523
        54.0004         49.0004
 -21820525.28148 -16966985.00548  20652723.0614   20652729.4934   20652723.121
        53.0004         48.0004
  -3152958.12947  -2456974.71146  23435051.2524   23435062.0514   23435052.879
        45.0004         41.0004
  -3531344.11947  -2691843.65446  23733671.7134   23733678.2804   23733670.787
        43.0004         38.0004
  -2070266.91547  -1581543.68846  24214540.7214   24214555.5044   24214539.782
        43.0004         38.0004
  -9909038.63347  -7710014.25746  23820637.3074   23820645.7934   23820637.575
        44.0004         39.0004
 -21581593.38549 -16798153.54748  19889102.9954   19889109.8694   19889103.062
        54.0004         49.0004
    109177.64546    100997.94046  24393720.7784   24393728.2874   24393720.806
        40.0004         36.0004
 -11485260.60348  -8889531.20647  22763499.3844   22763509.7664   22763498.818
        49.0004         44.0004
 -22228893.94148 -17262599.45347  21042088.8954   21042096.0014   21042088.647
        52.0004         47.0004
 14  5 11  0 31  0.0000000  0 12G20G26G09G07G28G02G01G10G08G13G17G04
  -3580084.81346  -2729327.53145  23713046.2454   23713054.6144   23713045.115
        40.0004         35.0004
   -541556.68447   -407480.11346  24058440.4444   24058456.5804   24058440.835
        42.0004         37.0004
 -13940078.12949 -10852913.64448  19990852.0114   19990858.6564   19990851.975
        54.0004         50.0004
 -21763876.44048 -16922843.00348  20663503.2334   20663509.0354   20663502.565
        53.0004         48.0004
  -3205417.40647  -2497851.91446  23425069.2644   23425079.1434   23425070.185
        45.0004         41.0004
  -3621518.64847  -2762109.23446  23716510.4334   23716518.7234   23716511.185
        43.0004         38.0004
  -1966620.74247  -1500780.44046  24234263.1754   24234277.0944   24234263.134
        43.0004         38.0004
  -9969477.68147  -7757109.41246  23809134.4824   23809145.1554   23809135.305
        44.0004         39.0004
 -21590894.01049 -16805400.71648  19887332.6854   19887339.7234   19887332.989
        54.0004         49.0004
    177882.70446    154534.46746  24406795.0444   24406801.5644   24406794.999
        40.0004         36.0004
 -11442828.20148  -8856466.95947  22771573.5094   22771583.4104   22771573.337
        49.0004         44.0004
 -22292092.47048 -17311844.96647  21030062.5444   21030069.5154   21030062.050
        52.0004         47.0004
 14  5 11  0 31 30.0000000  0 12G20G26G09G07G28G02G01G10G08G13G17G04
  -3564029.06446  -2716816.49445  23716100.3514   23716108.9184   23716101.140
        40.0004         35.0004
   -548010.40547   -412508.73546  24057212.4424   24057228.8754   24057212.177
        42.0004         37.0004
 -13948041.73049 -10859118.96648  19989336.3504   19989343.5094   19989336.496
        54.0004         49.0004
 -21706711.47748 -16878298.83948  20674381.3964   20674387.3654   20674381.197
        53.0004         48.0004
  -3258043.97147  -2538859.48446  23415056.2514   23415064.5844   23415055.672
        45.0004         41.0004
  -3711490.10847  -2832216.56946  23699390.2724   23699397.6164   23699390.123
        43.0004         38.0004
  -1862838.10047  -1419910.84846  24254011.9644   24254026.6014   24254012.335
        43.0004         38.0004
 -10030110.44547  -7804355.51246  23797595.6444   23797606.7354   23797597.402
        44.0004         39.0004
 -21599537.45749 -16812135.80448  19885688.1744   19885695.3514   19885688.521
        54.0004         49.0004
    246370.75846    207901.86646  24419827.3174   24419835.3624   24419827.191
        40.0004         36.0004
 -11400389.98048  -8823398.18247  22779650.2924   22779659.0774   22779649.097
        49.0004         44.0004
 -22354846.91848 -17360744.44247  21018120.4054   21018127.4674   21018120.533
        52.0004         47.0004
 14  5 11  0 32  0.0000000  0 12G20G26G09G07G28G02G01G10G08G13G17G04
  -3547695.16446  -2704088.72646  23719208.4884   23719216.8434   23719209.140
        40.0004         36.0004
   -554158.38147   -417299.10546  24056041.8304   24056057.9814   24056042.812
        42.0004         37.0004
 -13955391.41249 -10864845.92148  19987937.6314   19987944.3094   19987937.716
        54.0004         49.0004
 -21649029.68948 -16833351.95048  20685357.7444   20685363.6804   20685357.119
        53.0004         48.0004
  -3310832.82247  -2579993.51746  23405008.5424   23405017.8314   23405009.920
        45.0004         41.0004
  -3801253.09047  -2902161.46146  23682308.7794   23682315.4534   23682308.591
        43.0004         38.0004
  -1758918.83647  -1338934.79346  24273789.1974   24273802.6624   24273787.425
        42.0004         38.0004
 -10090933.25647  -7851749.69246  23786022.3534   23786031.9584   23786023.191
        44.0004         39.0004
 -21607520.19949 -16818356.05548  19884168.7384   19884175.9564   19884169.196
        54.0004         49.0004
    314643.61246    261101.57646  24432821.0704   24432827.2204   24432819.819
        40.0004         36.0004
 -11357944.93348  -8790324.08647  22787725.3584   22787735.8904   22787726.164
        49.0004         44.0004
 -22417151.83048 -17409293.63047  21006264.7124   21006271.6004   21006263.848
        52.0004         47.0004
 14  5 11  0 32 30.0000000  0 12G20G26G09G07G28G02G01G10G08G13G17G04
  -3531082.83546  -2691143.99746  23722368.5484   23722379.6214   23722370.668
        40.0004         36.0004
   -560003.14447   -421853.20246  24054929.9214   24054945.3994   24054929.902
        42.0004         38.0004
 -13962127.86849 -10870095.02748  19986655.9654   19986662.7114   19986655.917
        54.0004         50.0004
 -21590833.95048 -16788004.58148  20696432.1124   20696438.0544   20696431.857
        53.0004         48.0004
  -3363783.65747  -2621253.76246  23394932.6504   23394942.8994   23394933.615
        45.0004         40.0004
  -3890806.63947  -2971943.15546  23665267.3064   23665274.4344   23665267.062
        43.0004         38.0004
  -1654866.45647  -1257855.02246  24293588.4634   24293604.0184   24293588.087
        42.0004         37.0004
 -10151945.32547  -7899291.35446  23774411.3784   23774421.5434   23774412.818
        44.0004         39.0004
 -21614842.42349 -16824061.61848  19882775.3924   19882782.4624   19882775.881
        54.0004         49.0004
    382698.98246    314131.83946  24445770.2694   24445780.2944   24445769.124
        40.0004         36.0004
 -11315496.27848  -8757247.18447  22795803.5604   22795814.0694   22795803.666
        49.0004         44.0004
 -22479005.93248 -17457491.53447  20994493.9424   20994500.8754   20994493.374
        52.0004         47.0004
 14  5 11  0 33  0.0000000  0 12G20G26G09G07G28G02G01G10G08G13G17G04
  -3514192.57446  -2677982.70945  23725581.1234   23725591.0184   23725583.916
        40.0004         35.0004
   -565547.89647   -426173.51846  24053876.1294   24053889.8964   24053875.440
        42.0004         38.0004
 -13968252.53849 -10874867.42748  19985490.3074   19985496.6874   19985490.249
        54.0004         50.0004
 -21532127.90448 -16742259.56548  20707603.1244   20707608.8794   20707602.563
        53.0004         48.0004
  -3416896.10047  -2662639.93546  23384825.8694   23384835.7014   23384826.393
        45.0004         40.0004
  -3980149.70147  -3041560.83246  23648265.0344   23648272.9684   23648265.523
        43.0004         39.0004
  -1550685.14147  -1176674.78646  24313413.7694   24313429.2884   24313413.313
        42.0004         37.0004
 -10213147.29647  -7946980.98646  23762766.3974   23762774.5324   23762765.697
        44.0004         39.0004
 -21621505.22749 -16829253.34948  19881507.5194   19881514.7574   19881507.577
        54.0004         49.0004
    450534.14046    366990.50545  24458680.0374   24458686.8584   24458677.858
        40.0004         35.0004
 -11273047.82548  -8724170.43047  22803883.1684   22803891.4754   22803881.840
        49.0004         44.0004
 -22540408.99648 -17505337.98547  20982809.1654   20982816.3174   20982808.419
        52.0004         47.0004
 14  5 11  0 33 30.0000000  0 12G20G26G09G07G28G02G01G10G08G13G17G04
  -3497021.50846  -2664602.61946  23728850.8574   23728863.2924   23728851.910
        40.0004         36.0004
   -570793.13047   -430260.43746  24052878.0484   24052892.1564   24052876.321
        43.0004         38.0004
 -13973764.25649 -10879162.20048  19984441.7964   19984448.3924   19984441.714
        54.0004         50.0004
 -21472912.24048 -16696117.44748  20718871.7274   20718877.2684   20718871.454
        53.0004         48.0004
  -3470166.90247  -2704149.52246  23374689.7514   23374697.7974   23374689.597
        45.0004         40.0004
  -4069278.61947  -3111011.66246  23631304.6084   23631312.5864   23631304.894
        43.0004         39.0004
  -1446376.33947  -1095395.18746  24333263.8434   24333278.2594   24333262.763
        42.0004         37.0004
 -10274536.59647  -7994816.60346  23751083.2144   23751093.2554   23751083.650
        44.0004         39.0004
 -21627506.73749 -16833929.78548  19880365.4214   19880372.4504   19880365.926
        54.0004         49.0004
    518149.03746    419677.52046  24471544.6164   24471554.1154   24471544.661
        40.0004         36.0004
 -11230600.94248  -8691094.89247  22811959.6884   22811969.2884   22811958.735
        49.0004         44.0004
 -22601357.51448 -17552830.24747  20971211.2314   20971217.9164   20971210.690
        52.0004         47.0004
 14  5 11  0 34  0.0000000  0 12G20G26G09G07G28G02G01G10G08G13G17G04
  -3479568.64546  -2651002.94446  23732173.1764   23732183.0894   23732172.255
        40.0004         36.0004
   -575740.63047   -434115.36046  24051936.5074   24051951.1134   24051935.099
        43.0004         38.0004
 -13978662.86849 -10882979.23048  19983509.0804   19983515.7434   19983509.308
        54.0004         50.0004
 -21413189.53348 -16649580.22448  20730236.0964   20730242.3244   20730236.009
        53.0004         48.0004
  -3523594.36447  -2745781.14946  23364522.2204   23364531.8414   23364522.278
        45.0004         40.0004
  -4158191.32247  -3180294.00246  23614384.7194   23614392.2994   23614385.028
        44.0004         39.0004
  -1341942.72646  -1014018.33246  24353137.8794   24353150.7584   24353135.738
        41.0004         37.0004
 -10336111.95447  -8042797.19246  23739365.2654   23739374.4094   23739365.986
        44.0004         39.0004
 -21632846.47249 -16838090.55448  19879349.4714   19879356.4334   19879349.826
        54.0004         49.0004
    585542.83346    472192.24945  24484369.1304   24484376.3344   24484369.144
        40.0004         35.0004
 -11188157.76248  -8658022.25147  22820036.2374   22820045.7124   22820035.401
        49.0004         44.0004
 -22661849.62348 -17599966.86547  20959700.1054   20959707.1674   20959699.197
        52.0004         47.0004
 14  5 11  0 34 30.0000000  0 12G20G26G09G07G28G02G01G10G08G13G17G04
  -3461832.17146  -2637182.27546  23735546.5764   23735557.6374   23735548.382
        40.0004         36.0004
   -580391.58247   -437739.21946  24051050.3354   24051066.1014   24051049.823
        42.0004         38.0004
 -13982947.68149 -10886317.97348  19982693.4904   19982700.4004   19982693.710
        54.0004         50.0004
 -21352961.47048 -16602649.22848  20741697.6084   20741703.4844   20741697.188
        52.0004         48.0004
  -3577176.33047  -2787533.18046  23354325.3384   23354334.5964   23354325.687
        45.0004         40.0004
  -4246885.16947  -3249405.82546  23597506.1744   23597514.4184   23597506.250
        44.0004         39.0004
  -1237386.44146   -932545.90846  24373033.8514   24373047.2014   24373032.431
        41.0004         37.0004
 -10397871.63447  -8090921.38946  23727612.8534   23727623.0564   23727613.294
        44.0004         39.0004
 -21637523.35949 -16841734.82048  19878459.5014   19878466.3064   19878459.721
        54.0004         49.0004
    652714.75746    524534.11145  24497152.5474   24497160.3744   24497151.776
        40.0004         35.0004
 -11145720.16948  -8624953.94447  22828111.5234   22828121.6954   22828110.942
        49.0004         44.0004
 -22721882.66048 -17646745.76747  20948275.7074   20948282.5434   20948275.180
        52.0004         47.0004
 14  5 11  0 35  0.0000000  0 12G20G26G09G07G28G02G01G10G08G13G17G04
  -3443811.21546  -2623139.91646  23738976.9514   23738986.4254   23738977.141
        40.0004         36.0004
   -584748.05047   -441133.56046  24050220.9244   24050235.4454   24050220.938
        43.0004         38.0004
 -13986619.10049 -10889178.74848  19981995.2424   19982001.6084   19981995.273
        54.0004         50.0004
 -21292230.86648 -16555326.63048  20753254.2554   20753259.8724   20753253.972
        52.0004         48.0004
  -3630911.27647  -2829404.42346  23344100.7324   23344108.5224   23344100.342
        45.0004         40.0004
  -4335358.05947  -3318345.46346  23580670.0124   23580677.5794   23580670.515
        44.0004         39.0004
  -1132710.53046   -850980.24046  24392952.2864   24392965.8404   24392951.629
        41.0004         36.0004
 -10459815.01847  -8139188.75946  23715825.6654   23715834.8464   23715826.238
        44.0004         39.0004
 -21641537.17649 -16844862.40348  19877695.3654   19877702.5204   19877695.679
        54.0004         49.0004
    719663.26446    576701.86445  24509891.4204   24509899.5414   24509891.309
        40.0004         35.0004
 -11103290.80648  -8591892.06447  22836186.1034   22836195.6354   22836185.399
        49.0004         44.0004
 -22781455.18448 -17693165.81947  20936939.4874   20936946.6374   20936938.911
        52.0004         47.0004
 14  5 11  0 35 30.0000000  0 12G20G26G09G07G28G02G01G10G08G13G17G04
  -3425504.51646  -2608874.90846  23742459.3984   23742469.6144   23742460.689
        40.0004         36.0004
   -588811.73547   -444299.80946  24049448.1104   24049462.4744   24049447.273
        42.0004         38.0004
 -13989677.33549 -10891561.70948  19981412.9804   19981420.0974   19981413.137
        54.0004         50.0004
 -21230999.69948 -16507613.98848  20764905.9524   20764911.7794   20764905.582
        52.0004         48.0004
  -3684797.06447  -2871393.19946  23333846.2004   23333855.0304   23333846.207
        45.0004         40.0004
  -4423608.03247  -3387111.41146  23563876.8404   23563883.5194   23563877.516
        44.0004         39.0004
  -1027917.37546   -769323.24546  24412892.4594   24412906.8374   24412892.262
        41.0004         36.0004
 -10521940.37947  -8187597.93246  23704003.1424   23704012.5494   23704004.090
        44.0004         39.0004
 -21644887.41149 -16847472.91348  19877058.0024   19877064.8524   19877058.130
        54.0004         49.0004
    786387.33246    628694.71845  24522588.0104   24522596.7144   24522589.498
        40.0004         35.0004
 -11060871.77348  -8558838.23847  22844257.7554   22844267.4234   22844257.156
        49.0004         44.0004
 -22840564.81848 -17739225.18247  20925690.9864   20925697.9334   20925690.885
        52.0004         47.0004
 14  5 11  0 36  0.0000000  0 12G20G26G09G07G28G02G01G10G08G13G17G04
  -3406911.68646  -2594386.93646  23745997.0314   23746010.1294   23745999.191
        40.0004         36.0004
   -592585.14347   -447239.84446  24048729.0014   24048744.4734   24048728.974
        42.0004         38.0004
 -13992123.24749 -10893467.54748  19980947.1564   19980954.1624   19980947.276
        54.0004         49.0004
 -21169270.98948 -16459513.65448  20776652.2914   20776658.1104   20776652.010
        52.0004         48.0004
  -3738832.93947  -2913498.92146  23323562.8514   23323571.4464   23323563.516
        45.0004         40.0004
  -4511633.42247  -3455702.34246  23547125.3314   23547132.7364   23547125.657
        43.0004         39.0004
   -923010.74146   -687577.82146  24432854.7874   24432871.1244   24432855.126
        41.0004         36.0004
