     2.11           OBSERVATION DATA    G (GPS)             RINEX VERSION / TYPE
teqc  2008Oct2      gpsops              20090108 00:09:26UTCPGM / RUN BY / DATE
    30.0000                                                 INTERVAL
     1     1                                                WAVELENGTH FACT L1/2
     7    L1    L2    P1    P2    C1    S1    S2            # / TYPES OF OBSERV
Linux 2.4.20-8|Pentium IV|gcc -static|Linux|486/DX+         COMMENT
     2.10           OBSERVATION DATA    GPS                 COMMENT
soc2rnx ver 1.20    gpsops               8-Jan-2009 00:09:21COMMENT
S1, if present, is the SNR for the C/A data stream on L1.   COMMENT
 SNR is mapped to RINEX snr flag value [1,4-9]              COMMENT
    SNR:   >316  >100  >31.6  >10  >3.2    >0 bad=0         COMMENT
L1 & L2:      9     8     7     6     5     4     1         COMMENT
                                                            COMMENT
This data is provided as a public service by NASA/JPL.      COMMENT
No warranty is expressed or implied regarding suitability   COMMENT
for use.  For further information, contact:                 COMMENT
Dave Stowers, NASA/JPL m/s 238-600                          COMMENT
4800 Oak Grove Drive, Pasadena CA 91109 USA                 COMMENT
                                                            COMMENT
Forced Modulo Decimation to 30 seconds                      COMMENT
  2009     1     7     0     0    0.0000000     GPS         TIME OF FIRST OBS
GGN                 JPL                                     OBSERVER / AGENCY
CR519992104         ASH701945B_M    SCIT                    ANT # / TYPE
   -33801.4662 -6377516.5323   -82154.3508                  APPROX POSITION XYZ
        0.0083        0.0000        0.0000                  ANTENNA: DELTA H/E/N
ZR220013847         ASHTECH UZ-12       CQ00                REC # / TYPE / VERS
GLPS                                                        MARKER NAME
42005M002                                                   MARKER NUMBER
                                                            END OF HEADER
 09  1  7  0  0  0.0000000  0 11G24G12G22G 9G30G18G14G31G 5G29G21
 112203696.69247  87431427.97947  21351673.6834   21351677.6404   21351673.4894
        53.000          47.000
 128027709.52447  99761832.44547  24362875.9244   24362881.3294   24362875.7004
        42.000          38.000
 128156209.00947  99861978.92947  24387315.6654   24387317.3374   24387315.6024
        44.000          37.000
 113218368.66047  88222108.93247  21544734.3824   21544739.1034   21544735.0084
        52.000          46.000
 123937612.65147  96574744.32347  23584556.9844   23584560.3984   23584555.9204
        46.000          40.000
 124838791.22247  97276966.97347  23756040.4574   23756042.2894   23756040.6334
        45.000          39.000
 116049148.23147  90427890.15847  22083432.3544   22083437.6664   22083434.2034
        50.000          44.000
 131984426.48347 102844991.87947  25115812.7074   25115819.4524   25115812.3644
        40.000          36.000
 125445322.22647  97749588.73947  23871460.3564   23871466.8824   23871460.3424
        45.000          39.000
 112084799.89847  87338795.48447  21329033.8074   21329037.2624   21329033.8844
        53.000          48.000
 111924151.77847  87213617.14147  21298463.6144   21298465.4464   21298464.1024
        53.000          47.000
 09  1  7  0  0 30.0000000  0 11G24G12G22G 9G30G18G14G31G 5G29G21
 112200623.77947  87429033.51547  21351088.6374   21351093.0524   21351088.7154
        53.000          47.000
 128034033.76947  99766760.50247  24364079.9704   24364085.2764   24364080.0214
        43.000          38.000
 128150796.61347  99857761.54347  24386285.8364   24386286.4204   24386285.8554
        43.000          37.000
 113243486.92247  88241681.64147  21549514.6854   21549518.2054   21549514.7524
        52.000          46.000
 123929484.47347  96568410.71647  23583010.1814   23583014.7234   23583009.7174
        47.000          40.000
 124833250.75347  97272649.74047  23754986.0044   23754988.2214   23754986.6524
        46.000          39.000
 116021575.02647  90406404.60947  22078185.8054   22078189.7814   22078186.1894
        50.000          44.000
 131884081.51047 102766801.12747  25096717.6334   25096723.4794   25096716.9144
        39.000          35.000
 125437047.29447  97743140.78847  23869885.5774   23869891.7854   23869885.8204
        46.000          39.000
 112148351.12247  87388315.91547  21341127.6414   21341130.9904   21341127.3944
        53.000          48.000
 111847832.20247  87154147.35347  21283940.8384   21283943.0914   21283941.1054
        53.000          47.000
 09  1  7  0  1  0.0000000  0 11G24G12G22G 9G30G18G14G31G 5G29G21
 112197978.66747  87426972.40547  21350585.1364   21350589.6974   21350585.0984
        53.000          47.000
 128040229.59947  99771588.47947  24365259.1004   24365264.9884   24365258.8784
        44.000          39.000
 128145223.41247  99853418.83347  24385224.8404   24385226.7664   24385224.8334
        42.000          37.000
 113269136.17647  88261668.10747  21554395.3484   21554399.2054   21554395.2564
        52.000          46.000
 123921144.03947  96561911.71047  23581423.0444   23581427.9474   23581422.8874
        47.000          40.000
 124827490.06747  97268160.91247  23753889.8614   23753891.7324   23753890.3914
        45.000          39.000
 115994479.89747  90385291.58947  22073030.0644   22073033.6984   22073030.0624
        50.000          44.000
 131783613.45947 102688514.49847  25077600.4714   25077605.2444   25077598.2164
        40.000          35.000
 125428636.00247  97736586.57747  23868284.8394   23868291.1364   23868285.2684
        46.000          39.000
 112212160.11747  87438037.20747  21353270.1864   21353273.4914   21353270.0264
        53.000          48.000
 111771760.80347  87094870.95647  21269465.1514   21269467.0744   21269465.6474
        53.000          47.000
 09  1  7  0  1 30.0000000  0 11G24G12G22G 9G30G18G14G31G 5G29G21
 112195761.96247  87425245.11747  21350163.2314   21350167.9674   21350163.4054
        53.000          47.000
 128046297.46147  99776316.76447  24366414.3894   24366419.2384   24366413.9224
        44.000          39.000
 128139487.30847  99848949.18447  24384132.6574   24384134.7414   24384132.9234
        42.000          37.000
 113295315.91247  88282067.92947  21559377.4064   21559380.9314   21559377.3924
        52.000          46.000
 123912591.28347  96555247.22847  23579795.9174   23579800.1174   23579795.9334
        47.000          40.000
 124821508.28147  97263499.80047  23752751.8274   23752753.4974   23752752.4744
        46.000          39.000
 115967861.62647  90364550.16347  22067964.8764   22067968.4754   22067965.0904
        50.000          44.000
 131683023.55447 102610132.83047  25058459.0114   25058463.4064   25058456.6264
        39.000          35.000
 125420088.82747  97729926.49747  23866658.2694   23866664.3194   23866658.9424
        45.000          39.000
 112276223.37847  87487956.62847  21365460.8434   21365464.1714   21365460.5474
        53.000          47.000
 111695940.02547  87035789.84147  21255036.9164   21255038.7754   21255037.1514
        53.000          47.000
 09  1  7  0  2  0.0000000  0 11G24G12G22G 9G30G18G14G31G 5G29G21
 112193975.31547  87423852.94047  21349823.2694   21349827.7934   21349823.4254
        53.000          47.000
 128052239.28447  99780946.80147  24367545.0124   24367549.9574   24367545.0344
        43.000          39.000
 128133587.55947  99844352.05847  24383010.8694   24383012.5244   24383010.4914
        43.000          37.000
 113322026.56747  88302881.45047  21564460.3874   21564463.4974   21564460.5044
        52.000          46.000
 123903827.18647  96548418.07147  23578128.3084   23578132.4024   23578128.3374
        47.000          40.000
 124815305.57147  97258666.53447  23751571.4464   23751573.3794   23751571.9004
        45.000          39.000
 115941720.48447  90344180.53447  22062990.2784   22062993.7024   22062990.2934
        50.000          44.000
 131582314.20947 102531658.10947  25039294.3344   25039298.7984   25039292.0154
        40.000          35.000
 125411407.42147  97723161.80447  23865006.6534   23865012.0274   23865006.9194
        45.000          39.000
 112340538.29147  87538072.13847  21377699.5424   21377703.0254   21377699.1984
        53.000          47.000
 111620373.27947  86976906.67847  21240656.9884   21240658.9334   21240657.2744
        53.000          47.000
 09  1  7  0  2 30.0000000  0 11G24G12G22G 9G30G18G14G31G 5G29G21
 112192620.31347  87422797.11047  21349565.3534   21349569.9154   21349565.4904
        53.000          47.000
 128058056.09647  99785479.43647  24368651.7704   24368656.3454   24368651.3634
        43.000          39.000
 128127523.35647  99839626.78047  24381856.8224   24381858.5414   24381856.6504
        43.000          38.000
 113349268.65647  88324109.07847  21569644.2084   21569647.9494   21569644.1734
        52.000          46.000
 123894852.45947  96541424.79247  23576419.8374   23576424.3994   23576420.3114
        47.000          40.000
 124808881.79647  97253661.01747  23750348.9754   23750350.8574   23750349.3714
        46.000          39.000
 115916056.31547  90324182.57947  22058106.1444   22058109.8074   22058106.2304
        50.000          44.000
 131481487.73347 102453092.13047  25020107.2054   25020112.6694   25020105.5474
        40.000          36.000
 125402593.56147  97716293.92147  23863328.7994   23863334.6574   23863329.7614
        46.000          39.000
 112405102.45447  87588381.87747  21389985.9904   21389989.1074   21389985.7684
        53.000          48.000
 111545063.73347  86918223.93247  21226326.1574   21226328.0634   21226326.5334
        53.000          47.000
 09  1  7  0  3  0.0000000  0 11G24G12G22G 9G30G18G14G31G 5G29G21
 112191698.52947  87422078.84847  21349390.0924   21349394.3924   21349390.1994
        53.000          47.000
 128063749.81147  99789916.17347  24369735.2294   24369739.9094   24369734.4584
        43.000          38.000
 128121294.13447  99834772.89547  24380671.6694   24380672.7654   24380671.9924
        43.000          37.000
 113377042.59247  88345751.13247  21574929.5724   21574932.7384   21574929.6434
        52.000          46.000
 123885668.03447  96534268.10747  23574672.4834   23574676.4154   23574672.1634
        47.000          40.000
 124802237.61047  97248483.75847  23749084.5054   23749086.1974   23749085.2214
        46.000          39.000
 115890869.24347  90304556.39747  22053313.1154   22053317.1314   22053313.4034
        50.000          44.000
 131380546.46347 102374436.69347  25000898.9444   25000903.8364   25000896.6424
        40.000          36.000
 125393648.91647  97709324.12847  23861626.5514   23861632.8134   23861626.8964
        45.000          39.000
 112469913.39547  87638883.90747  21402319.2164   21402322.3714   21402318.9624
        53.000          47.000
 111470015.26347  86859744.62547  21212044.9074   21212046.7924   21212045.3164
        54.000          47.000
 09  1  7  0  3 30.0000000  0 11G24G12G22G 9G30G18G14G31G 5G29G21
 112191211.38147  87421699.26647  21349297.6544   21349301.7474   21349297.7524
        53.000          47.000
 128069322.15147  99794258.31347  24370795.1814   24370800.7964   24370794.8094
        45.000          39.000
 128114897.97247  99829788.94147  24379453.5874   24379455.5084   24379454.3804
        43.000          37.000
 113405348.46947  88367807.67847  21580315.9174   21580319.2224   21580316.1614
        53.000          46.000
 123876274.32847  96526948.35247  23572884.6704   23572889.1494   23572883.9484
        47.000          40.000
 124795372.43047  97243134.30947  23747778.2154   23747780.0764   23747778.6944
        46.000          39.000
 115866158.96947  90285301.75847  22048611.0384   22048614.5214   22048611.4324
        50.000          44.000
 131279492.36847 102295693.33547  24981668.4144   24981673.9794   24981666.7924
        40.000          36.000
 125384574.82547  97702253.44647  23859899.6894   23859905.6214   23859900.3374
        45.000          39.000
 112534968.14347  87689575.91747  21414698.6594   21414701.8274   21414698.3164
        53.000          47.000
 111395230.98647  86801471.18247  21197814.0504   21197815.7344   21197814.5584
        54.000          47.000
 09  1  7  0  4  0.0000000  0 11G24G12G22G 9G30G18G14G31G 5G29G21
 112191157.62847  87421657.39047  21349287.2524   21349291.5674   21349287.3714
        54.000          47.000
 128074771.50047  99798504.60847  24371832.8794   24371837.5304   24371832.9514
        44.000          39.000
 128108331.48747  99824672.26547  24378205.2394   24378205.6974   24378204.9194
        44.000          38.000
 113434183.68947  88390276.70947  21585803.1954   21585806.7254   21585803.3484
        52.000          46.000
 123866669.41547  96519464.02347  23571056.9714   23571061.5514   23571056.0574
        47.000          41.000
 124788283.52947  97237610.48747  23746429.1944   23746431.0914   23746429.5604
        46.000          39.000
 115841922.51247  90266416.32247  22043998.7504   22044002.6124   22043999.1714
        50.000          44.000
 131178325.19247 102216861.84447  24962417.6684   24962422.5194   24962416.3884
        42.000          36.000
 125375370.35147  97695081.16847  23858148.0414   23858153.9484   23858148.5994
        45.000          39.000
 112600261.61847  87740453.95147  21427123.3774   21427126.6024   21427123.1074
        53.000          47.000
 111320711.32847  86743403.92847  21183633.2294   21183635.0924   21183633.5964
        54.000          47.000
 09  1  7  0  4 30.0000000  0 11G24G12G22G 9G30G18G14G31G 5G29G21
 112191544.14647  87421958.59047  21349360.7004   21349364.9724   21349360.8944
        54.000          47.000
 128080105.40947  99802660.95847  24372848.0754   24372852.2414   24372847.7004
        44.000          39.000
 128101599.30547  99819426.49047  24376923.1284   24376924.4684   24376923.2974
        43.000          37.000
 113463554.52047  88413163.09947  21591391.8734   21591395.4214   21591391.9664
        52.000          46.000
 123856859.81647  96511820.20347  23569190.6344   23569194.8474   23569190.1694
        48.000          41.000
 124780976.65047  97231916.82547  23745038.9394   23745040.8824   23745039.4154
        46.000          39.000
 115818165.50447  90247904.47947  22039478.0104   22039481.7554   22039478.2584
        50.000          44.000
 131077052.71347 102137948.29647  24943145.7384   24943150.7964   24943145.2894
        41.000          36.000
 125366042.58947  97687812.81447  23856373.2704   23856379.3094   23856373.7474
        45.000          39.000
 112665796.87047  87791520.37347  21439594.3044   21439597.6254   21439594.2434
        52.000          47.000
 111246465.33947  86685549.93247  21169504.6214   21169506.6794   21169505.0784
        53.000          47.000
 09  1  7  0  5  0.0000000  0 11G24G12G22G 9G30G18G14G31G 5G29G21
 112192365.85347  87422598.89347  21349517.1814   21349521.3704   21349517.4204
        53.000          47.000
 128085319.26847  99806723.75347  24373839.5774   24373844.5764   24373839.4524
        43.000          38.000
 128094694.27947  99814045.97847  24375609.2004   24375610.3384   24375609.0264
        43.000          37.000
 113493454.75447  88436462.00547  21597081.6604   21597085.2834   21597081.6444
        52.000          46.000
 123846839.78547  96504012.41547  23567283.7664   23567288.3824   23567283.6604
        48.000          41.000
 124773445.33547  97226048.29747  23743605.5954   23743607.8964   23743605.9744
        47.000          39.000
 115794881.04147  90229760.85847  22035047.0134   22035050.4804   22035047.3834
        50.000          44.000
 130975671.03247 102058949.64647  24923853.5184   24923858.1514   24923853.3104
        42.000          36.000
 125356586.65447  97680444.60147  23854574.0334   23854579.7454   23854574.8424
        46.000          39.000
 112731564.99947  87842768.26147  21452109.6154   21452112.8324   21452109.0014
        52.000          47.000
 111172489.89347  86627906.74547  21155427.5904   21155429.4594   21155428.0194
        54.000          47.000
 09  1  7  0  5 30.0000000  0 11G24G12G22G 9G30G18G14G31G 5G29G21
 112193627.81047  87423582.25147  21349757.2854   21349761.4184   21349757.3894
        53.000          47.000
 128090417.73347  99810696.63647  24374809.8384   24374814.7054   24374809.4504
        44.000          38.000
 128087618.98647  99808532.81847  24374263.3354   24374264.8254   24374263.1884
        43.000          37.000
 113523888.14547  88460176.35847  21602872.8804   21602876.3454   21602872.9434
        52.000          46.000
 123836614.00847  96496044.29547  23565337.5874   23565342.8024   23565337.4034
        47.000          41.000
 124765693.45947  97220007.90247  23742130.4144   23742132.5344   23742130.7824
        46.000          39.000
 115772072.56647  90211988.13647  22030706.6384   22030710.1604   22030706.8524
        51.000          44.000
 130874185.89547 101979870.40147  24904541.4574   24904545.2374   24904541.2234
        42.000          36.000
 125347007.88347  97672980.66147  23852751.3654   23852757.0904   23852751.8114
        45.000          39.000
 112797566.51647  87894198.00647  21464669.2334   21464672.5854   21464669.0574
        52.000          47.000
 111098791.86947  86570479.73747  21141403.1544   21141405.3974   21141403.4894
        53.000          47.000
 09  1  7  0  6  0.0000000  0 11G24G12G22G 9G30G18G14G31G 5G29G21
 112195327.86347  87424906.97747  21350080.7824   21350084.9714   21350080.9614
        53.000          47.000
 128095399.22647  99814578.37047  24375758.2354   24375762.4064   24375757.8234
        44.000          38.000
 128080369.40947  99802883.82947  24372883.4934   24372884.4234   24372883.5104
        44.000          38.000
 113554851.47247  88484303.65047  21608765.2724   21608768.5034   21608765.1724
        52.000          46.000
 123826179.72947  96487913.71347  23563352.2194   23563356.9464   23563352.0784
        47.000          41.000
 124757717.42247  97213792.82547  23740612.3744   23740614.5784   23740612.6514
        46.000          39.000
 115749736.41547  90194583.44647  22026456.1484   22026459.4514   22026456.3274
        50.000          44.000
 130772595.96447 101900709.52147  24885208.8804   24885214.0994   24885208.7514
        41.000          37.000
 125337304.42347  97665419.56247  23850904.3104   23850910.5894   23850904.9334
        45.000          39.000
 112863795.54747  87945805.03847  21477272.3384   21477275.7784   21477272.2624
        52.000          47.000
 111025371.09447  86513268.76347  21127431.6574   21127433.8664   21127431.9794
        54.000          47.000
 09  1  7  0  6 30.0000000  0 11G24G12G22G 9G30G18G14G31G 5G29G21
 112197471.74047  87426577.54747  21350488.5924   21350493.0194   21350488.6894
        53.000          47.000
 128100269.84547  99818373.70847  24376684.4724   24376689.5604   24376684.4184
        44.000          38.000
 128072948.56947  99797101.41547  24371471.7074   24371471.8544   24371472.0694
        45.000          38.000
 113586348.92047  88508847.14647  21614758.8174   21614762.4684   21614759.0004
        52.000          46.000
 123815542.19447  96479624.75847  23561328.0074   23561332.5634   23561328.4594
        47.000          41.000
 124749521.83147  97207406.67447  23739052.9594   23739055.0124   23739053.0994
        46.000          39.000
 115727876.39747  90177549.77347  22022295.7994   22022299.5104   22022296.0844
        50.000          44.000
 130670908.46747 101821472.62847  24865858.7424   24865862.8314   24865858.4504
        42.000          36.000
 125327482.32547  97657766.00747  23849035.3764   23849040.9034   23849035.5074
        45.000          39.000
 112930253.75647  87997590.64847  21489918.9974   21489922.4124   21489918.5384
        52.000          47.000
 110952235.34747  86456279.88447  21113514.4654   21113516.4824   21113514.8334
        54.000          47.000
 09  1  7  0  7  0.0000000  0 11G24G12G22G 9G30G18G14G31G 5G29G21
 112200057.43947  87428592.38747  21350980.6554   21350984.7754   21350980.9074
        53.000          47.000
 128105027.08647  99822080.71447  24377589.9314   24377594.4624   24377589.8114
        44.000          38.000
 128065352.08347  99791182.13247  24370025.5774   24370027.0404   24370025.7194
        43.000          38.000
 113618377.43147  88533804.45947  21620853.8684   21620857.0554   21620853.8654
        52.000          46.000
 123804698.63047  96471175.25747  23559264.4404   23559269.2224   23559264.1584
        47.000          41.000
 124741103.09547  97200846.63147  23737450.6264   23737453.2624   23737451.2314
        46.000          39.000
 115706489.10647  90160884.44247  22018225.9644   22018229.7544   22018226.1024
        50.000          44.000
 130569121.93447 101742158.60547  24846489.2534   24846493.9114   24846488.5234
        41.000          36.000
 125317539.61647  97650018.48247  23847143.1794   23847149.5684   23847143.9784
        45.000          39.000
 112996934.99547  88049550.04847  21502607.9384   21502611.5164   21502607.6504
        52.000          47.000
 110879384.35947  86399512.89247  21099651.5174   21099653.2484   21099651.8994
        54.000          47.000
 09  1  7  0  7 30.0000000  0 11G24G12G22G 9G30G18G14G31G 5G29G21
 112203085.15647  87430951.66447  21351556.9314   21351560.9864   21351557.0424
        53.000          47.000
 128109672.34647  99825700.46547  24378473.4574   24378478.4484   24378473.0054
        43.000          38.000
 128057578.19447  99785124.61147  24368546.0474   24368547.8824   24368546.1644
        44.000          38.000
 113650936.01047  88559174.80847  21627049.5674   21627052.8134   21627049.6144
        52.000          46.000
 123793648.76247  96462565.00647  23557161.5754   23557166.4034   23557161.1224
        47.000          41.000
 124732460.67647  97194112.30747  23735806.3494   23735808.6704   23735806.8704
        46.000          39.000
 115685573.24347  90144586.46147  22014245.7764   22014249.2774   22014245.9044
        50.000          44.000
 130467237.34647 101662768.17447  24827101.0064   24827105.1424   24827099.8094
        43.000          36.000
 125307477.11347  97642177.61947  23845228.0024   23845234.2524   23845228.8814
        45.000          39.000
 113063835.84947  88101680.57047  21515338.7634   21515342.1574   21515338.7614
        52.000          47.000
 110806820.54847  86342969.67847  21085843.0764   21085844.6794   21085843.5174
        54.000          47.000
 09  1  7  0  8  0.0000000  0 11G24G12G22G 9G30G18G14G31G 5G29G21
 112206558.86347  87433658.45947  21352217.8054   21352221.8924   21352217.9084
        53.000          47.000
 128114209.59047  99829236.05147  24379336.7904   24379342.0084   24379336.6974
        42.000          38.000
 128049628.33547  99778929.96347  24367034.0344   24367034.8614   24367033.6944
        45.000          38.000
 113684027.52647  88584960.43447  21633346.7634   21633349.7294   21633346.8114
        52.000          46.000
 123782396.58547  96453797.11447  23555020.2814   23555024.9914   23555020.2904
        47.000          41.000
 124723597.14547  97187205.67147  23734119.3464   23734121.5924   23734119.5914
        46.000          39.000
 115665130.99047  90128657.51647  22010355.6354   22010359.1514   22010355.8884
        50.000          44.000
 130365260.39347 101583305.75347  24807695.3814   24807699.6854   24807694.2974
        41.000          36.000
 125297299.18447  97634246.80247  23843291.8674   23843297.4504   23843291.6144
        45.000          39.000
 113130956.49547  88153982.36047  21528111.1914   21528114.7854   21528110.9814
        52.000          47.000
 110734549.96347  86286654.95247  21072090.4234   21072092.1584   21072090.7344
        54.000          47.000
 09  1  7  0  8 30.0000000  0 11G24G12G22G 9G30G18G14G31G 5G29G21
 112210477.63547  87436712.05847  21352963.5414   21352967.6724   21352963.7074
        53.000          47.000
 128118638.45947  99832687.18747  24380179.8074   24380184.3914   24380179.5424
        43.000          38.000
 128041499.93047  99772596.18547  24365486.5394   24365487.8874   24365487.1754
        45.000          38.000
 113717649.78847  88611159.62947  21639744.5434   21639748.0284   21639744.6544
        52.000          46.000
 123770940.64947  96444870.44547  23552840.2464   23552845.1744   23552839.9844
        47.000          41.000
 124714510.57447  97180125.23947  23732390.2614   23732392.4314   23732390.8704
        46.000          39.000
 115645159.84847  90113095.67147  22006555.5454   22006558.8864   22006555.6534
        50.000          44.000
 130263191.14347 101503771.45647  24788271.8614   24788275.9244   24788271.3814
        41.000          36.000
 125287005.34947  97626225.66947  23841332.9004   23841338.5974   23841333.2374
        45.000          39.000
 113198291.97347  88206451.54947  21540924.6384   21540928.3254   21540924.2084
        52.000          47.000
 110662573.88847  86230569.71947  21058393.7124   21058395.6384   21058394.1994
        54.000          47.000
 09  1  7  0  9  0.0000000  0 11G24G12G22G 9G30G18G14G31G 5G29G21
 112214843.80447  87440114.28347  21353794.4844   21353798.6304   21353794.4854
        53.000          47.000
 128122961.75447  99836056.07547  24381002.5264   24381006.6984   24381002.5214
        43.000          38.000
 128033193.09947  99766123.38147  24363905.8424   24363907.0304   24363906.0874
        44.000          38.000
 113751803.68147  88637773.07247  21646244.0344   21646247.2714   21646243.9654
        52.000          46.000
 123759282.79347  96435786.43447  23550622.0724   23550626.8754   23550621.5194
        46.000          41.000
 124705201.98747  97172871.81947  23730619.0064   23730621.1344   23730619.7434
        46.000          39.000
 115625660.38247  90097901.36447  22002844.6134   22002848.1474   22002844.8104
        50.000          44.000
 130161033.01847 101424167.94047  24768831.5214   24768836.0024   24768831.4714
        40.000          36.000
 125276598.34047  97618116.36347  23839352.5154   23839357.7854   23839353.3144
        46.000          39.000
 113265840.65847  88259086.87147  21553778.7824   21553782.5184   21553778.6404
        52.000          47.000
 110590896.62647  86174717.33047  21044753.8944   21044756.0754   21044754.2164
        54.000          47.000
 09  1  7  0  9 30.0000000  0 12G24G12G22G 9G30G18G14G31G 5G29G21G 6
 112219659.16547  87443866.52847  21354710.8664   21354715.0964   21354711.0234
        53.000          47.000
 128127181.38847  99839344.15047  24381805.0354   24381810.0254   24381804.4554
        44.000          38.000
 128024707.08447  99759510.95047  24362290.6574   24362292.2224   24362290.7344
        44.000          38.000
 113786489.67447  88664801.14247  21652844.5954   21652847.6004   21652844.4724
        52.000          46.000
 123747424.31447  96426546.10547  23548365.0454   23548370.1274   23548364.8174
        47.000          41.000
 124695672.12847  97165445.98247  23728805.6554   23728808.0224   23728806.2484
        46.000          39.000
 115606632.38847  90083074.43147  21999223.5564   21999227.1504   21999223.7134
        50.000          44.000
 130058788.53447 101344497.12147  24749374.9074   24749380.0484   24749374.8214
        41.000          37.000
 125266080.17247  97609920.42147  23837351.5244   23837356.4634   23837351.7454
        45.000          39.000
 113333600.35347  88311886.62147  21566672.9794   21566676.7044   21566672.7754
        52.000          47.000
 110519521.62647  86119100.46647  21031171.5184   21031173.6924   21031171.9954
        54.000          47.000
 143399152.59157  93947373.97357  25385027.9065   25385033.1965   25385027.7995
        41.000          35.000
 09  1  7  0 10  0.0000000  0 12G24G12G22G 9G30G18G14G31G 5G29G21G 6
 112224921.88047  87447967.36247  21355712.2374   21355716.5744   21355712.3304
        53.000          47.000
 128131296.50447  99842550.83447  24382587.8914   24382593.1884   24382587.7354
        42.000          38.000
 128016038.17247  99752755.99247  24360641.3864   24360642.3784   24360641.2564
        44.000          38.000
 113821705.04647  88692241.71447  21659545.6584   21659548.8654   21659545.8004
        52.000          46.000
 123735363.21447  96417147.88347  23546070.1364   23546074.7484   23546069.9954
        47.000          41.000
 124685917.89347  97157845.29247  23726949.0244   23726951.5754   23726949.7164
        46.000          39.000
 115588072.67747  90068612.39647  21995691.9354   21995695.3064   21995692.4274
        50.000          44.000
 129956457.55747 101264758.92847  24729901.8154   24729906.4754   24729901.3604
        42.000          37.000
 125255449.57747  97601636.89347  23835328.4704   23835333.1854   23835328.4324
        46.000          39.000
 113401565.90747  88364846.78147  21579606.3764   21579610.0494   21579605.8454
        52.000          47.000
 110448449.32947  86063719.46847  21017647.0424   21017648.9684   21017647.4354
        54.000          47.000
 143329801.82847  93893334.39947  25371830.5834   25371835.8304   25371831.7114
        41.000          35.000
 09  1  7  0 10 30.0000000  0 12G24G12G22G 9G30G18G14G31G 5G29G21G 6
 112230634.77547  87452418.98447  21356799.0564   21356803.7964   21356799.1444
        53.000          47.000
 128135309.73247  99845678.08347  24383351.8784   24383356.5534   24383351.3744
        43.000          38.000
 128007187.27947  99745859.24247  24358956.7254   24358957.8734   24358956.9574
        43.000          37.000
 113857451.29547  88720095.95647  21666347.8774   21666351.3324   21666347.8844
        51.000          46.000
 123723102.05047  96407593.76047  23543736.7184   23543741.7164   23543736.7044
        47.000          41.000
 124675941.50347  97150071.50347  23725050.8694   23725052.9604   23725051.4544
        46.000          39.000
 115569982.77947  90054516.43147  21992249.4284   21992252.9644   21992249.5114
        50.000          44.000
 129854043.89547 101184956.28647  24710412.6864   24710417.3564   24710412.5564
        41.000          37.000
 125244710.22747  97593268.62647  23833284.4224   23833289.7734   23833284.6624
        46.000          39.000
 113469735.86947  88417966.21447  21592578.8654   21592582.5174   21592578.7294
        52.000          47.000
 110377684.96947  86008578.41847  21004181.1324   21004182.9684   21004181.5424
        54.000          47.000
 143260718.37447  93839503.12047  25358684.6114   25358690.7734   25358685.6814
        40.000          35.000
 09  1  7  0 11  0.0000000  0 12G24G12G22G 9G30G18G14G31G 5G29G21G 6
 112236798.49847  87457221.89747  21357972.0674   21357976.6624   21357972.1404
        53.000          47.000
 128139222.54447  99848727.10947  24384096.4624   24384101.2224   24384096.3894
        44.000          38.000
 127998153.29147  99738819.78947  24357237.8544   24357238.6434   24357238.0634
        44.000          38.000
 113893728.02347  88748363.56347  21673251.0324   21673254.2914   21673250.9924
        52.000          46.000
 123710641.56247  96397884.35447  23541365.3924   23541370.2244   23541364.7174
        46.000          40.000
 124665742.52947  97142124.27347  23723110.4464   23723111.7844   23723110.8724
        47.000          39.000
 115552361.71047  90040785.79147  21988896.0014   21988899.5994   21988896.3634
        50.000          44.000
 129751549.50347 101105090.74847  24690908.1604   24690912.9574   24690908.0874
        39.000          36.000
 125233863.12347  97584816.38647  23831220.1534   23831225.5114   23831220.9694
        45.000          39.000
 113538107.14247  88471242.51047  21605589.4904   21605593.1224   21605589.4134
        52.000          47.000
 110307231.01247  85953679.24647  20990774.2164   20990776.0444   20990774.5774
        54.000          48.000
 143191902.93747  93785880.66447  25345590.4574   25345594.5314   25345590.1874
        40.000          35.000
 09  1  7  0 11 30.0000000  0 12G24G12G22G 9G30G18G14G31G 5G29G21G 6
 112243413.76247  87462376.66547  21359230.9904   21359235.7114   21359231.1384
        53.000          47.000
 128143036.52547  99851699.13647  24384822.0604   24384827.0084   24384821.4174
        43.000          39.000
 127988934.98147  99731636.74347  24355483.4344   24355484.5354   24355483.1844
        44.000          38.000
 113930534.45347  88777043.92047  21680255.0364   21680258.3224   21680255.1704
        52.000          45.000
 123697981.95547  96388019.75247  23538956.4364   23538961.1454   23538955.9714
        46.000          41.000
 124655320.93947  97134003.58147  23721127.2514   23721128.9854   23721127.5964
        47.000          39.000
 115535208.33347  90027419.58647  21985631.9914   21985635.5514   21985632.1984
        50.000          44.000
 129648976.46947 101025163.91647  24671389.5094   24671393.3954   24671388.7424
        41.000          36.000
 125222909.84347  97576281.41247  23829135.8334   23829141.5394   23829136.5164
        44.000          39.000
 113606677.13847  88524673.65347  21618637.6994   21618641.4524   21618637.3524
        52.000          47.000
 110237090.66947  85899024.44847  20977427.0434   20977428.6794   20977427.6154
        54.000          48.000
 143123356.20547  93732467.60747  25332545.4074   25332550.0984   25332545.7744
        40.000          34.000
 09  1  7  0 12  0.0000000  0 12G24G12G22G 9G30G18G14G31G 5G29G21G 6
 112250482.50247  87467884.78947  21360576.0304   21360580.6944   21360576.2134
        53.000          47.000
 128146753.96747  99854595.91447  24385529.4024   24385534.0554   24385529.4024
        44.000          39.000
 127979532.11847  99724309.86747  24353694.3064   24353695.4644   24353694.3274
        45.000          38.000
 113967871.16047  88806137.48847  21687359.7964   21687363.2054   21687359.8634
        52.000          46.000
 123685125.07447  96378001.41947  23536509.9534   23536514.4754   23536509.8104
        47.000          41.000
 124644677.69947  97125710.17847  23719101.7554   23719103.6684   23719102.0274
        46.000          39.000
 115518522.82947  90014417.95547  21982456.4584   21982460.0944   21982456.7474
        50.000          44.000
 129546327.98347 100945178.26647  24651856.3804   24651859.8994   24651854.9714
        41.000          36.000
 125211852.64747  97567665.47747  23827031.8874   23827036.7114   23827031.7874
        45.000          39.000
 113675443.90847  88578258.12847  21631723.7684   21631727.4924   21631723.3644
        52.000          47.000
 110167267.83647  85844617.05847  20964140.0594   20964141.8394   20964140.4174
        54.000          48.000
 143055080.21247  93679265.48847  25319552.9954   25319558.5504   25319553.7614
        40.000          35.000
 09  1  7  0 12 30.0000000  0 12G24G12G22G 9G30G18G14G31G 5G29G21G 6
 112258004.02347  87473745.72847  21362007.5414   21362011.7834   21362007.7164
        53.000          47.000
 128150374.63947  99857417.29047  24386218.4924   24386223.1034   24386218.0194
        43.000          39.000
 127969941.88847  99716837.02147  24351869.5464   24351870.5314   24351869.6514
        44.000          38.000
 114005736.31547  88835642.83147  21694565.2894   21694568.8454   21694565.2454
        52.000          45.000
 123672070.13847  96367828.77247  23534025.5564   23534030.5314   23534025.7404
        47.000          41.000
 124633811.18147  97117242.77047  23717033.6984   23717035.9444   23717034.0004
        46.000          39.000
 115502302.83247  90001779.05247  21979370.2884   21979373.5344   21979370.5584
        50.000          44.000
 129443604.64747 100865134.28247  24632308.0714   24632311.9784   24632307.6734
        41.000          36.000
 125200691.56047  97558968.58947  23824907.6804   23824912.8154   23824908.3344
        45.000          39.000
 113744402.87747  88631992.36747  21644846.1244   21644849.6894   21644845.8004
        52.000          46.000
 110097763.97447  85790458.22647  20950913.6184   20950915.7034   20950913.9394
        54.000          48.000
 142987074.38547  93626273.88747  25306612.5864   25306617.8814   25306612.9764
        41.000          35.000
 09  1  7  0 13  0.0000000  0 12G24G12G22G 9G30G18G14G31G 5G29G21G 6
 112265980.27147  87479961.00047  21363525.2004   21363529.7084   21363525.3814
        53.000          47.000
 128153901.33247  99860165.43647  24386889.3744   24386893.6544   24386888.9694
        44.000          38.000
 127960164.74647  99709218.48347  24350008.5754   24350010.3974   24350008.6484
        44.000          38.000
 114044130.61547  88865560.50047  21701871.4564   21701874.6704   21701871.4314
        52.000          45.000
 123658819.12147  96357503.34747  23531503.8694   23531508.8504   23531503.7434
        47.000          40.000
 124622722.55047  97108602.29747  23714923.5424   23714925.9674   23714924.2334
        46.000          39.000
 115486548.74247  89989503.19047  21976372.1744   21976375.4434   21976372.3144
        50.000          44.000
 129340809.83747 100785034.59247  24612747.0334   24612750.5224   24612746.4684
        41.000          36.000
 125189429.24647  97550192.81647  23822764.7884   23822769.7784   23822765.1024
        45.000          39.000
 113813552.30047  88685875.01147  21658004.6984   21658008.5004   21658004.5234
        52.000          46.000
 110028583.36447  85736551.27447  20937749.1344   20937750.9654   20937749.5854
        54.000          48.000
 142919340.42147  93573494.15447  25293722.6294   25293728.2724   25293723.1004
        41.000          35.000
 09  1  7  0 13 30.0000000  0 12G24G12G22G 9G30G18G14G31G 5G29G21G 6
 112274412.51847  87486531.59247  21365129.6974   21365134.1174   21365129.8894
        53.000          47.000
 128157335.91247  99862841.82847  24387543.1874   24387547.2734   24387543.2784
        44.000          38.000
 127950199.98747  99701453.77247  24348112.7524   24348113.6664   24348112.8284
        45.000          39.000
 114083053.71747  88895890.22747  21709278.3484   21709281.7284   21709278.3034
        51.000          45.000
 123645373.28047  96347026.09647  23528945.0414   23528950.0604   23528944.5544
        47.000          41.000
 124611412.12247  97099789.01947  23712771.1474   23712773.3924   23712771.7954
        46.000          39.000
 115471260.26947  89977590.15247  21973463.0914   21973466.2074   21973463.3594
        51.000          44.000
 129237946.39747 100704881.40147  24593172.7544   24593176.6064   24593172.6574
        42.000          37.000
 125178067.74747  97541339.74547  23820602.9764   23820607.4314   23820603.3074
        45.000          39.000
 113882889.81747  88739904.22647  21671199.2254   21671202.9314   21671199.0214
        51.000          46.000
 109959729.64147  85682899.03747  20924646.7004   20924648.5654   20924647.0794
        54.000          48.000
 142851880.03347  93520927.57247  25280886.1704   25280891.0184   25280886.0054
        40.000          35.000
 09  1  7  0 14  0.0000000  0 12G24G12G22G 9G30G18G14G31G 5G29G21G 6
 112283302.11847  87493458.56547  21366821.2734   21366825.8774   21366821.3714
        53.000          47.000
 128160680.51047  99865448.07347  24388179.3284   24388183.6294   24388179.5124
        44.000          38.000
 127940047.08047  99693542.47847  24346180.3864   24346181.5484   24346180.6434
        45.000          39.000
 114122505.71347  88926632.08147  21716785.8214   21716789.2104   21716785.7804
        52.000          45.000
 123631733.72047  96336397.91447  23526349.9864   23526354.2234   23526349.7254
        47.000          40.000
 124599880.26147  97090803.18847  23710576.6904   23710578.4144   23710577.2994
        46.000          39.000
 115456436.82247  89966039.45847  21970642.0104   21970645.4864   21970642.0114
        50.000          44.000
 129135016.76047 100624676.60247  24573586.6114   24573589.7244   24573585.7294
        43.000          37.000
 125166608.97947  97532410.87847  23818421.4684   23818427.3384   23818422.4304
        45.000          39.000
 113952413.08947  88794078.18147  21684429.1804   21684432.9324   21684429.3464
        52.000          46.000
 109891206.22347  85629504.18247  20911607.0524   20911608.9354   20911607.4434
        54.000          48.000
 142784694.46247  93468575.14447  25268101.0204   25268106.4224   25268100.8534
        42.000          36.000
 09  1  7  0 14 30.0000000  0 12G24G12G22G 9G30G18G14G31G 5G29G21G 6
 112292646.54147  87500739.94647  21368599.6554   21368603.8864   21368599.6964
        53.000          47.000
 128163933.13647  99867982.64847  24388798.5114   24388802.6764   24388798.6704
        44.000          38.000
 127929701.76847  99685481.24247  24344211.5414   24344213.0564   24344211.8604
        45.000          39.000
 114162483.05847  88957783.29747  21724393.2764   21724396.6834   21724393.1934
        52.000          46.000
 123617898.15047  96325616.98947  23523717.2244   23523721.1944   23523716.8264
        47.000          40.000
 124588124.07147  97081642.54747  23708339.6864   23708341.4144   23708340.4344
        46.000          39.000
 115442074.42447  89954848.03447  21967909.1404   21967912.1574   21967909.6184
        50.000          44.000
 129032019.97647 100544419.47647  24553987.2634   24553989.7994   24553986.2584
        43.000          37.000
 125155051.35747  97523404.97647  23816222.5524   23816227.3174   23816222.9254
        45.000          39.000
 114022116.05347  88848392.16047  21697693.3924   21697697.1654   21697693.1984
        51.000          46.000
 109823012.55047  85576366.26647  20898630.4394   20898632.1994   20898630.7894
        54.000          48.000
 142717781.28347  93416434.99847  25255368.0124   25255374.1384   25255367.8114
        42.000          36.000
 09  1  7  0 15  0.0000000  0 12G24G12G22G 9G30G18G14G31G 5G29G21G 6
 112302450.36247  87508379.28947  21370465.1334   21370469.6424   21370465.3034
        53.000          47.000
 128167099.33847  99870449.89647  24389400.7964   24389405.2934   24389400.5814
        44.000          38.000
 127919167.04347  99677272.40447  24342206.9044   24342208.4164   24342207.1684
        44.000          38.000
 114202989.54947  88989346.83347  21732101.3504   21732104.9724   21732101.4434
        52.000          46.000
 123603871.30847  96314687.00647  23521047.5694   23521051.9104   23521047.5964
        47.000          41.000
 124576147.35347  97072310.07547  23706060.8524   23706062.2994   23706061.2734
        46.000          39.000
 115428176.03547  89944018.16047  21965264.2264   21965267.3734   21965264.2644
        50.000          45.000
 128928962.46347 100464115.02447  24534375.6614   24534378.2864   24534375.6934
        43.000          37.000
 125143400.28147  97514326.25547  23814005.1214   23814010.5064   23814005.8534
        45.000          39.000
 114091999.58047  88902846.83147  21710991.9624   21710995.4214   21710991.9244
        52.000          46.000
 109755155.84647  85523490.92747  20885717.7244   20885719.4994   20885718.1094
        54.000          48.000
 142651145.33347  93364510.85147  25242687.3684   25242692.8784   25242687.7864
        42.000          36.000
 09  1  7  0 15 30.0000000  0 12G24G12G22G 9G30G18G14G31G 5G29G21G 6
 112312707.15147  87516371.60647  21372416.9334   21372421.5394   21372416.9894
        53.000          47.000
 128170173.13447  99872845.13847  24389985.5594   24389990.0124   24389985.5004
        43.000          38.000
 127908434.65447  99668909.53747  24340164.3504   24340165.9564   24340164.4474
        44.000          38.000
 114244016.84147  89021316.19647  21739908.7124   21739911.9154   21739908.8644
        52.000          45.000
 123589646.63947  96303602.87147  23518340.9604   23518345.4024   23518340.3654
        47.000          41.000
 124563942.93647  97062800.15347  23703738.2764   23703739.9274   23703738.5954
        46.000          39.000
 115414733.17547  89933543.25647  21962706.1034   21962709.4554   21962706.3364
        50.000          44.000
 128825838.82547 100383759.01147  24514751.5424   24514754.4814   24514751.7004
        43.000          37.000
 125131649.85347  97505170.11547  23811769.2824   23811774.6314   23811770.0414
        45.000          39.000
 114162053.61247  88957434.37247  21724322.7984   21724326.0424   21724322.5844
        51.000          46.000
 109687631.97747  85470874.94447  20872868.1654   20872870.1134   20872868.5374
        54.000          48.000
 142584780.03047  93312797.60347  25230058.1984   25230064.2924   25230058.7444
        41.000          36.000
 09  1  7  0 16  0.0000000  0 12G24G12G22G 9G30G18G14G31G 5G29G21G 6
 112323430.28547  87524727.29947  21374457.7814   21374461.7914   21374457.8254
        53.000          47.000
 128173168.85447  99875179.54547  24390555.1314   24390559.9704   24390555.0184
        43.000          38.000
 127897515.86647  99660401.44847  24338086.7414   24338088.2134   24338086.5244
        43.000          38.000
 114285576.73047  89053700.56647  21747817.6854   21747820.5244   21747817.8694
        52.000          46.000
 123575237.39047  96292374.91747  23515598.8484   23515603.2004   23515598.1484
        47.000          40.000
 124551523.23047  97053122.49947  23701374.7404   23701376.2734   23701375.1014
        46.000          39.000
 115401757.62747  89923432.49247  21960236.8464   21960239.8674   21960236.9664
        50.000          44.000
 128722663.88747 100303363.02447  24495117.2854   24495121.6824   24495117.8454
        41.000          37.000
 125119814.23347  97495947.59247  23809517.3544   23809522.5344   23809517.6404
        44.000          39.000
 114232287.86447  89012162.34447  21737687.8354   21737691.2844   21737687.2874
        52.000          46.000
 109620455.95847  85418530.00247  20860084.9744   20860086.9204   20860085.4404
        54.000          48.000
 142518698.64347  93261305.60947  25217483.3934   25217488.8064   25217483.7264
        41.000          36.000
 09  1  7  0 16 30.0000000  0 12G24G12G22G 9G30G18G14G31G 5G29G21G 6
 112334612.54847  87533440.76347  21376585.5064   21376589.7804   21376585.7844
        53.000          47.000
 128176079.93447  99877448.01347  24391109.7674   24391113.6954   24391109.2384
        42.000          38.000
 127886402.12247  99651741.43147  24335971.3314   24335972.9404   24335971.8824
        44.000          38.000
 114327660.69947  89086493.30447  21755825.4634   21755828.7414   21755825.6054
        51.000          45.000
 123560636.56047  96280997.68347  23512820.0254   23512824.7474   23512819.8074
        47.000          40.000
 124538880.94647  97043271.39647  23698968.7774   23698970.5864   23698969.2624
        46.000          39.000
 115389240.75247  89913679.14247  21957854.8794   21957857.9784   21957855.0804
        51.000          44.000
 128619432.42147 100222922.99447  24475472.8424   24475476.6774   24475472.7074
        42.000          37.000
 125107887.30747  97486653.91947  23807247.2364   23807252.8964   23807247.2204
        45.000          39.000
 114302691.57847  89067022.36047  21751085.2234   21751088.9394   21751084.9964
        52.000          46.000
 109553623.36347  85366452.66947  20847367.1174   20847369.0884   20847367.5994
        54.000          48.000
 142452894.33047  93210029.52747  25204961.3014   25204966.1374   25204961.6734
        41.000          36.000
 09  1  7  0 17  0.0000000  0 12G24G12G22G 9G30G18G14G31G 5G29G21G 6
 112346256.56047  87542514.02247  21378801.3294   21378805.5164   21378801.5674
        53.000          47.000
 128178910.30247  99879653.57647  24391648.1044   24391652.6194   24391647.6584
        42.000          37.000
 127875094.67547  99642930.49047  24333819.9994   24333821.0624   24333820.1064
        44.000          38.000
 114370270.51947  89119695.79047  21763933.9154   21763936.8504   21763934.0634
        52.000          45.000
 123545847.09547  96269473.47147  23510006.1254   23510010.2254   23510005.7834
        47.000          40.000
 124526017.77547  97033248.16747  23696521.4664   23696522.5194   23696521.7704
        46.000          39.000
 115377183.56547  89904283.97947  21955560.5694   21955563.6904   21955560.7114
        51.000          44.000
 128516148.76647 100142442.27047  24455818.9014   24455822.5874   24455818.0514
        43.000          38.000
 125095872.88447  97477292.05447  23804961.2134   23804966.4634   23804961.5444
        46.000          39.000
 114373264.22547  89122014.01947  21764514.9694   21764518.4164   21764514.7554
        52.000          46.000
 109487139.38947  85314646.98947  20834715.5964   20834717.5474   20834715.9194
        54.000          48.000
 142387370.04847  93158971.66147  25192492.5364   25192497.5404   25192492.6694
        41.000          36.000
 09  1  7  0 17 30.0000000  0 12G24G12G22G 9G30G18G14G31G 5G29G21G 6
 112358362.06247  87551946.89047  21381104.6704   21381108.9724   21381104.9894
        53.000          47.000
 128181660.60647  99881796.74847  24392171.4524   24392175.3844   24392171.1234
        43.000          37.000
 127863591.62747  99633967.12747  24331630.7354   24331632.2164   24331630.5554
        44.000          38.000
 114413404.54847  89153306.74347  21772142.1484   21772145.2094   21772142.3904
        52.000          45.000
 123530869.08647  96257802.34647  23507155.6714   23507160.0414   23507155.4374
        47.000          40.000
 124512933.20647  97023052.42747  23694031.3144   23694032.6864   23694031.9374
        47.000          39.000
 115365584.14947  89895245.53447  21953353.2174   21953356.1814   21953353.7244
        50.000          44.000
 128412814.49047 100061922.08947  24436155.1884   24436158.7104   24436153.8934
        43.000          38.000
 125083771.47047  97467862.39347  23802657.9334   23802663.3674   23802659.0974
        45.000          39.000
 114444001.88547  89177134.27147  21777975.5554   21777979.1784   21777975.2024
        51.000          46.000
 109421006.01847  85263114.50747  20822130.9974   20822132.7534   20822131.4904
        54.000          48.000
 142322125.70447  93108131.91547  25180077.2264   25180082.3444   25180077.1294
        41.000          36.000
 09  1  7  0 18  0.0000000  0 12G24G12G22G 9G30G18G14G31G 5G29G21G 6
 112370928.55847  87561738.97347  21383496.1624   21383500.2204   21383496.3404
        53.000          47.000
 128184330.86747  99883877.53247  24392680.3444   24392684.1184   24392679.4934
        42.000          38.000
 127851890.98747  99624849.76447  24329404.4254   24329405.5884   24329404.5254
        44.000          38.000
 114457060.78747  89187324.62047  21780449.2034   21780452.8644   21780449.3424
        52.000          45.000
 123515702.24047  96245984.07747  23504269.3414   23504273.9534   23504269.0214
        47.000          40.000
 124499626.21147  97012683.35647  23691499.3264   23691500.8904   23691499.7734
        47.000          39.000
 115354440.24347  89886562.02447  21951232.5064   21951235.7954   21951232.5894
        50.000          45.000
 128309430.34847  99981363.05547  24416481.5614   24416485.8344   24416480.8984
        42.000          37.000
 125071583.57047  97458365.34347  23800339.1504   23800344.2274   23800339.4984
        45.000          39.000
 114514900.63047  89232380.04247  21791467.0094   21791470.9624   21791466.8064
        51.000          46.000
 109355225.03547  85211856.61447  20809613.2984   20809615.1394   20809613.6434
        54.000          48.000
 142257160.76847  93057509.91947  25167714.1974   25167719.5134   25167714.5434
        41.000          36.000
 09  1  7  0 18 30.0000000  0 12G24G12G22G 9G30G18G14G31G 5G29G21G 6
 112383959.93047  87571893.29347  21385975.8924   21385980.1394   21385975.9924
        53.000          47.000
 128186925.81347  99885899.65547  24393173.4024   24393177.6504   24393173.1744
        43.000          37.000
 127839994.56347  99615579.88447  24327141.2114   24327141.7214   24327141.0544
        44.000          38.000
 114501241.53847  89221751.20647  21788856.9644   21788859.8064   21788857.0504
        52.000          45.000
 123500350.35147  96234021.62447  23501348.5354   23501352.6824   23501348.0984
        47.000          40.000
 124486099.76247  97002143.30047  23688925.1764   23688926.9774   23688925.5804
        47.000          39.000
 115343753.81847  89878234.99047  21949199.1184   21949202.1154   21949199.2324
        50.000          45.000
 128206001.74047  99900769.36447  24396799.9834   24396803.7554   24396799.1374
        42.000          38.000
 125059313.71147  97448804.43547  23798004.0804   23798009.2594   23798004.4284
        44.000          39.000
 114585960.60447  89287751.43847  21804989.4114   21804993.2364   21804989.3854
        51.000          46.000
 109289802.37347  85160877.92947  20797163.9084   20797165.6184   20797164.3204
        55.000          48.000
 142192478.92147  93007108.47947  25155406.7334   25155411.5604   25155406.2164
        41.000          36.000
 09  1  7  0 19  0.0000000  0 12G24G12G22G 9G30G18G14G31G 5G29G21G 6
 112397454.35147  87582408.43947  21388543.9174   21388548.1764   21388544.0944
        53.000          47.000
 128189445.11147  99887862.82847  24393653.2214   24393656.6024   24393652.6754
        44.000          38.000
 127827899.45647  99606155.15647  24324839.0984   24324840.3004   24324839.4614
        44.000          38.000
 114545944.24747  89256584.50847  21797363.6484   21797366.5824   21797363.9434
        52.000          45.000
 123484812.12947  96221913.95747  23498391.3734   23498395.7254   23498390.8294
        47.000          40.000
 124472352.07847  96991430.83047  23686308.7504   23686310.4354   23686309.3204
        46.000          39.000
 115333521.72247  89870261.97547  21947251.5774   21947255.0524   21947251.7224
        50.000          44.000
 128102529.14047  99820141.40247  24377109.4414   24377113.6214   24377108.8774
        43.000          38.000
 125046961.55147  97439179.40747  23795653.4124   23795658.5764   23795654.1574
        45.000          39.000
 114657176.93147  89343244.67747  21818541.6414   21818545.1314   21818541.0844
        51.000          46.000
 109224738.78347  85110179.04347  20784782.7454   20784784.3554   20784783.1264
        55.000          48.000
 142128079.01747  92956926.75047  25143151.2354   25143156.7644   25143151.6834
        40.000          35.000
 09  1  7  0 19 30.0000000  0 12G24G12G22G 9G30G18G14G31G 5G29G21G 6
 112411413.13247  87593285.41147  21391200.1864   21391204.4374   21391200.3554
        53.000          47.000
 128191890.83147  99889768.64847  24394118.5554   24394122.3034   24394118.0084
        44.000          38.000
 127815605.59047  99596575.56147  24322499.4664   24322500.1884   24322499.8584
        43.000          38.000
 114591168.79847  89291824.44847  21805969.5184   21805972.5364   21805969.6474
        52.000          45.000
 123469089.17447  96209662.36447  23495399.2144   23495403.4274   23495398.6584
        46.000          40.000
 124458384.02947  96980546.67047  23683650.8584   23683652.5364   23683651.1674
        46.000          39.000
 115323743.36147  89862642.52647  21945391.0594   21945394.0204   21945391.4494
        51.000          45.000
 127999015.69147  99739481.61547  24357411.6254   24357415.5984   24357411.0754
        43.000          37.000
 125034529.39047  97429492.03447  23793287.8044   23793292.5954   23793287.8614
        45.000          39.000
 114728547.49647  89398858.09947  21832123.1864   21832126.4374   21832122.9114
        51.000          46.000
 109160038.06747  85059762.91347  20772470.4974   20772472.0814   20772470.8634
        55.000          48.000
 142063962.43347  92906965.78747  25130950.6574   25130954.8254   25130950.1054
        41.000          35.000
 09  1  7  0 20  0.0000000  0 12G24G12G22G 9G30G18G14G31G 5G29G21G 6
 112425837.86547  87604525.46947  21393945.1604   21393949.4034   21393945.3274
        53.000          47.000
 128194265.67947  99891619.24047  24394570.1454   24394573.6264   24394569.7084
        43.000          38.000
 127803112.30547  99586840.60047  24320121.8174   24320123.2644   24320121.7374
        44.000          38.000
 114636915.09847  89327470.94447  21814674.6844   21814677.5544   21814674.8344
        52.000          45.000
 123453183.30147  96197268.22847  23492372.6414   23492376.4074   23492372.0914
        47.000          40.000
 124444196.65047  96969491.58947  23680951.3214   23680952.7504   23680951.5064
        46.000          39.000
 115314418.84447  89855376.70347  21943616.4184   21943619.6164   21943616.5714
        51.000          44.000
 127895464.50647  99658792.41547  24337705.9774   24337710.3874   24337705.9914
        42.000          37.000
 125022019.96547  97419744.46547  23790907.5354   23790912.1044   23790908.2314
        45.000          39.000
 114800070.72647  89454590.48547  21845733.3434   21845736.8304   21845732.9044
        52.000          46.000
 109095704.21147  85009632.64547  20760228.0724   20760229.7564   20760228.4764
        54.000          48.000
 142000130.91047  92857226.97847  25118802.8104   25118809.0324   25118803.3514
        40.000          35.000
 09  1  7  0 20 30.0000000  0 12G24G12G22G 9G30G18G14G31G 5G29G21G 6
 112440727.47947  87616127.77047  21396778.5634   21396782.6934   21396778.7614
        53.000          47.000
 128196569.65347  99893414.64547  24395007.3404   24395012.1634   24395007.2554
        43.000          38.000
 127790418.23047  99576949.15047  24317706.1254   24317707.3404   24317706.2474
        44.000          38.000
 114683180.92747  89363522.26547  21823478.6934   21823481.6344   21823478.7864
        52.000          45.000
 123437094.03047  96184731.19247  23489310.5664   23489314.6724   23489310.4084
        47.000          40.000
 124429788.72047  96958264.66947  23678209.4554   23678211.4054   23678209.8284
        46.000          39.000
 115305545.45447  89848462.42247  21941927.9314   21941930.8784   21941928.3674
        50.000          44.000
 127791876.52947  99578074.57747  24317994.3164   24317998.2674   24317993.6184
        43.000          37.000
 125009433.08747  97409936.52947  23788512.4054   23788517.1214   23788512.5834
        45.000          39.000
 114871741.62147  89510437.92347  21859372.0134   21859375.4264   21859371.9864
        52.000          46.000
 109031738.88647  84959789.55147  20748055.9114   20748057.7014   20748056.2894
        54.000          48.000
 141936583.63747  92807709.62147  25106711.1004   25106715.8664   25106711.1254
        39.000          35.000
 09  1  7  0 21  0.0000000  0 12G24G12G22G 9G30G18G14G31G 5G29G21G 6
 112456082.77947  87628092.94347  21399700.4044   21399704.6324   21399700.5974
        53.000          47.000
 128198804.73147  99895156.35347  24395433.1534   24395437.9914   24395432.2924
        44.000          38.000
 127777522.66647  99566900.68447  24315252.8674   24315253.9124   24315252.5954
        44.000          38.000
 114729966.01247  89399978.19547  21832381.3114   21832384.4114   21832381.5384
        51.000          45.000
 123420822.91447  96172052.44847  23486214.4194   23486218.6894   23486214.1784
        47.000          40.000
 124415160.88747  96946866.38347  23675425.7294   23675427.6384   23675426.1814
        46.000          39.000
 115297122.36347  89841899.02347  21940324.9084   21940327.8754   21940325.0504
        51.000          44.000
 127688254.45547  99497330.15547  24298275.7964   24298279.8194   24298275.2734
        42.000          37.000
 124996770.95747  97400069.97347  23786102.3994   23786107.6474   23786103.2944
        45.000          39.000
 114943558.22747  89566398.90747  21873038.1874   21873041.6394   21873038.1764
        51.000          46.000
