     2.11           OBSERVATION DATA    G (GPS)             RINEX VERSION / TYPE
teqc  2013Mar15     gpsops              20140509 00:24:08UTCPGM / RUN BY / DATE
Linux 2.4.21-27.ELsmp|Opteron|gcc -static|Linux x86_64|=+   COMMENT
BIT 2 OF LLI FLAGS DATA COLLECTED UNDER A/S CONDITION       COMMENT
GLPS                                                        MARKER NAME
42005M002                                                   MARKER NUMBER
GGN                 JPL                                     OBSERVER / AGENCY
ZR220013847         ASHTECH UZ-12       CQ00                REC # / TYPE / VERS
CR519992104         ASH701945B_M    SCIT                    ANT # / TYPE
   -33801.4662 -6377516.5323   -82154.3508                  APPROX POSITION XYZ
        0.0083        0.0000        0.0000                  ANTENNA: DELTA H/E/N
     1     1                                                WAVELENGTH FACT L1/2
     7    L1    L2    P1    P2    C1    S1    S2            # / TYPES OF OBSERV
    30.0000                                                 INTERVAL
                                                            COMMENT
This data is provided as a public service by NASA/JPL.      COMMENT
No warranty is expressed or implied regarding suitability   COMMENT
for use.  For further information, contact:                 COMMENT
Dave Stowers, NASA/JPL m/s 238-600                          COMMENT
4800 Oak Grove Drive, Pasadena CA 91109 USA                 COMMENT
                                                            COMMENT
Forced Modulo Decimation to 30 seconds                      COMMENT
 SNR is mapped to RINEX snr flag value [0-9]                COMMENT
  L1 & L2: min(max(int(snr_dBHz/6), 0), 9)                  COMMENT
pseudorange smoothing corrections not applied               COMMENT
  2014     5     8     0     0    0.0000000     GPS         TIME OF FIRST OBS
                                                            END OF HEADER
 14  5  8  0  0  0.0000000  0 11G20G10G09G07G08G04G11G17G01G13G28
  -4414061.65747  -3391423.46846  23622846.0914   23622854.9654   23622846.112
        43.0004         38.0004
  -4742455.89546  -3686729.54346  24645219.3944   24645231.4464   24645220.344
        41.0004         36.0004
 -17828029.70548 -13845965.53948  20545895.9874   20545903.3784   20545896.205
        53.0004         48.0004
 -23754544.39349 -18480028.42448  20126769.6844   20126775.2064   20126769.058
        54.0004         49.0004
 -12106868.66648  -9417634.16848  20485001.1924   20485008.4804   20485001.378
        53.0004         49.0004
 -15010364.87248 -11636612.15747  22329447.7954   22329455.0224   22329446.979
        48.0004         43.0004
  -4296368.97346  -3325531.39746  24336213.1564   24336223.9434   24336213.735
        40.0004         36.0004
 -16683043.64548 -12938404.77947  22128261.5854   22128269.0754   22128260.593
        50.0004         46.0004
 -10855872.29647  -8433837.08747  22679134.3354   22679146.9194   22679134.612
        47.0004         42.0004
  -7255584.82647  -5607969.63146  23146191.6404   23146197.5704   23146190.020
        44.0004         39.0004
     72390.31347     56102.46846  24141140.2834   24141151.3844   24141140.952
        43.0004         38.0004
 14  5  8  0  0 30.0000000  0 11G20G10G09G07G08G04G11G17G01G13G28
  -4415674.92847  -3392680.48646  23622538.8714   23622547.9054   23622538.628
        43.0004         38.0004
  -4783344.53546  -3718590.68146  24637438.8184   24637452.2084   24637438.996
        41.0004         37.0004
 -17885102.88248 -13890438.03848  20535035.1624   20535042.5554   20535035.370
        53.0004         48.0004
 -23747336.58449 -18474411.91348  20128141.4624   20128146.6504   20128140.746
        54.0004         49.0004
 -12167040.65948  -9464521.35348  20473550.9664   20473558.1014   20473551.174
        53.0004         49.0004
 -15102501.01348 -11708406.42547  22311914.0194   22311922.6444   22311913.604
        48.0004         43.0004
  -4192258.89946  -3244406.69346  24356024.0194   24356035.5354   24356025.121
        41.0004         36.0004
 -16650422.45248 -12912985.63247  22134468.7174   22134476.4714   22134468.376
        50.0004         46.0004
 -10773572.87247  -8369707.67147  22694795.5764   22694808.3074   22694795.480
        47.0004         42.0004
  -7174166.09947  -5544526.43546  23161683.4284   23161691.2684   23161683.496
        44.0004         39.0004
     39294.70247     30313.85346  24134841.8024   24134853.0344   24134842.485
        43.0004         38.0004
 14  5  8  0  1  0.0000000  0 11G20G10G09G07G08G04G11G17G01G13G28
  -4417157.88847  -3393835.96546  23622256.8114   23622264.1844   23622256.539
        43.0004         38.0004
  -4824480.40946  -3750644.45746  24629610.3864   24629623.6714   24629611.283
        41.0004         37.0004
 -17941682.60448 -13934526.04548  20524269.2424   20524275.8784   20524268.700
        53.0004         48.0004
 -23739525.90949 -18468325.63948  20129627.4734   20129632.8154   20129626.941
        54.0004         49.0004
 -12226724.70748  -9511028.32648  20462193.2484   20462200.4654   20462193.377
        53.0004         49.0004
 -15194409.70348 -11780023.45547  22294424.5484   22294433.7614   22294424.343
        48.0004         43.0004
  -4088058.84546  -3163211.86946  24375854.3214   24375865.7634   24375853.612
        40.0004         36.0004
 -16617580.36948 -12887394.37547  22140718.5374   22140726.4424   22140718.020
        51.0004         46.0004
 -10690918.90047  -8305301.98147  22710524.7604   22710535.6224   22710524.121
        47.0004         42.0004
  -7092814.09747  -5481135.22846  23177164.1924   23177172.7724   23177163.772
        44.0004         39.0004
      5930.73647      4316.15046  24128494.2664   24128503.8944   24128493.968
        43.0004         38.0004
 14  5  8  0  1 30.0000000  0 11G20G10G09G07G08G04G11G17G01G13G28
  -4418511.99847  -3394891.05446  23621999.3534   23622007.1764   23621998.619
        43.0004         38.0004
  -4865866.30847  -3782893.05746  24621734.0404   24621747.5754   24621735.783
        42.0004         37.0004
 -17997769.47248 -13978229.99148  20513595.4284   20513602.5234   20513595.427
        53.0004         48.0004
 -23731115.19749 -18461771.80548  20131228.1304   20131233.6374   20131227.655
        54.0004         49.0004
 -12285920.97848  -9557155.21348  20450928.5324   20450935.8244   20450928.949
        53.0004         49.0004
 -15286091.17748 -11851463.42947  22276978.0884   22276986.5184   22276977.641
        48.0004         43.0004
  -3983774.05146  -3081951.02745  24395697.2324   24395710.2124   24395698.407
        40.0004         35.0004
 -16584522.70048 -12861635.12747  22147009.0654   22147017.3614   22147008.464
        50.0004         46.0004
 -10607915.67347  -8240624.15447  22726319.6484   22726330.4544   22726318.996
        46.0004         42.0004
  -7011534.10647  -5417800.14346  23192630.4824   23192639.8594   23192630.933
        44.0004         39.0004
    -27703.89647    -21892.44846  24122093.9524   24122103.9974   24122092.529
        43.0004         38.0004
 14  5  8  0  2  0.0000000  0 11G20G10G09G07G08G04G11G17G01G13G28
  -4419732.32347  -3395841.87446  23621765.8734   23621773.0494   23621767.128
        43.0004         38.0004
  -4907499.39847  -3815334.25946  24613812.0944   24613824.9564   24613812.364
        42.0004         37.0004
 -18053358.16548 -14021545.76248  20503017.5664   20503024.3104   20503017.192
        53.0004         48.0004
 -23722101.38349 -18454748.01748  20132943.7064   20132948.4684   20132942.906
        54.0004         49.0004
 -12344623.76348  -9602897.56548  20439757.7434   20439764.7494   20439758.114
        53.0004         49.0004
 -15377539.53148 -11922721.75947  22259575.6684   22259583.2144   22259575.317
        48.0004         43.0004
  -3879404.47646  -3000624.09946  24415559.4784   24415571.4164   24415559.204
        40.0004         36.0004
 -16551249.31948 -12835707.78447  22153340.7444   22153348.6354   22153340.047
        50.0004         46.0004
 -10524562.63247  -8175673.73647  22742180.8274   22742192.5244   22742180.464
        46.0004         42.0004
  -6930325.33347  -5354520.54246  23208084.0324   23208094.0294   23208084.069
        44.0004         39.0004
    -61605.72047    -48309.25646  24115641.7644   24115652.1454   24115641.446
        43.0004         38.0004
 14  5  8  0  2 30.0000000  0 11G20G10G09G07G08G04G11G17G01G13G28
  -4420819.45047  -3396688.91946  23621558.8244   23621568.0684   23621559.599
        43.0004         38.0004
  -4949381.90447  -3847969.81446  24605840.1674   24605855.4394   24605842.211
        42.0004         37.0004
 -18108448.76248 -14064473.39848  20492533.9014   20492540.8704   20492533.687
        53.0004         48.0004
 -23712486.54549 -18447255.90748  20134773.1504   20134778.4174   20134772.494
        54.0004         49.0004
 -12402832.25348  -9648254.74948  20428680.8494   20428688.3194   20428681.331
        53.0004         48.0004
 -15468754.78648 -11993798.45447  22242218.2054   22242226.5314   22242217.864
        48.0004         43.0004
  -3774954.82746  -2919234.78145  24435436.1814   24435445.6634   24435435.306
        40.0004         35.0004
 -16517765.05748 -12809616.12747  22159712.8924   22159720.5044   22159712.225
        50.0004         46.0004
 -10440864.35547  -8110454.30647  22758107.9754   22758119.9334   22758107.908
        46.0004         42.0004
  -6849192.19347  -5291299.88646  23223524.1754   23223531.7174   23223523.446
        44.0004         39.0004
    -95776.55947    -74935.67746  24109139.4774   24109149.0574   24109139.276
        43.0004         38.0004
 14  5  8  0  3  0.0000000  0 11G20G10G09G07G08G04G11G17G01G13G28
  -4421761.64547  -3397423.03246  23621380.0464   23621387.2664   23621380.930
        43.0004         38.0004
  -4991503.71847  -3880791.86146  24597826.9384   24597839.0734   24597826.099
        42.0004         37.0004
 -18163029.09648 -14107003.43348  20482147.5624   20482154.0704   20482147.681
        53.0004         48.0004
 -23702260.91949 -18439287.85748  20136718.9824   20136724.1324   20136718.466
        54.0004         49.0004
 -12460533.58748  -9693216.74848  20417700.7654   20417707.9244   20417701.146
        53.0004         49.0004
 -15559724.21048 -12064683.57547  22224906.8504   22224914.7214   22224906.742
        48.0004         43.0004
  -3670417.85346  -2837777.41645  24455328.1634   24455339.1854   24455328.199
        40.0004         35.0004
 -16484062.38148 -12783354.27647  22166126.6674   22166133.8204   22166125.748
        50.0004         46.0004
 -10356813.30447  -8044959.96947  22774103.3044   22774114.2544   22774102.114
        46.0004         42.0004
  -6768127.32747  -5228132.41946  23238950.7784   23238958.7794   23238949.801
        44.0004         39.0004
   -130206.10147   -101763.70246  24102586.5744   24102597.8084   24102587.248
        43.0004         38.0004
 14  5  8  0  3 30.0000000  0 11G20G10G09G07G08G04G11G17G01G13G28
  -4422573.70647  -3398055.72846  23621225.2084   23621234.0624   23621225.498
        43.0004         38.0004
  -5033881.55947  -3913813.40646  24589761.1524   24589773.2214   24589762.397
        42.0004         37.0004
 -18217113.42948 -14149146.97648  20471855.5144   20471862.5114   20471855.392
        53.0004         48.0004
 -23691441.10549 -18430856.80548  20138777.7124   20138782.9034   20138777.372
        54.0004         49.0004
 -12517741.87048  -9737794.55048  20406813.9514   20406821.6564   20406814.481
        53.0004         48.0004
 -15650461.96148 -12135388.19347  22207639.5954   22207649.0054   22207639.746
        48.0004         43.0004
  -3565812.78746  -2756266.99345  24475233.3534   24475240.9684   24475234.152
        39.0004         34.0004
 -16450160.70748 -12756937.36447  22172577.4434   22172585.5394   22172576.795
        50.0004         46.0004
 -10272428.64947  -7979205.68246  22790160.0084   22790170.6624   22790159.878
        46.0004         41.0004
  -6687149.78647  -5165033.00846  23254360.1844   23254367.7614   23254358.730
        44.0004         39.0004
   -164909.99847   -128805.49546  24095983.0814   24095992.7404   24095983.507
        43.0004         39.0004
 14  5  8  0  4  0.0000000  0 11G20G10G09G07G08G04G11G17G01G13G28
  -4423245.83847  -3398579.41846  23621097.8084   23621105.7424   23621098.737
        43.0004         38.0004
  -5076507.18946  -3947028.02946  24581649.1234   24581662.5594   24581650.814
        41.0004         37.0004
 -18270691.47948 -14190896.01648  20461659.9064   20461666.6604   20461660.069
        53.0004         48.0004
 -23680018.72549 -18421956.21948  20140951.2114   20140956.5054   20140950.910
        54.0004         49.0004
 -12574446.10948  -9781979.59748  20396023.6614   20396030.5804   20396023.952
        53.0004         49.0004
 -15740956.90148 -12205903.60547  22190419.5544   22190427.9024   22190419.742
        48.0004         43.0004
  -3461134.13846  -2674699.19645  24495153.7334   24495165.9724   24495153.594
        39.0004         34.0004
 -16416054.48348 -12730361.06347  22179067.4684   22179074.9854   22179067.030
        50.0004         46.0004
 -10187704.47847  -7913186.84346  22806283.2394   22806294.3414   22806282.208
        46.0004         41.0004
  -6606253.47147  -5101996.87846  23269752.2644   23269761.8024   23269753.089
        44.0004         39.0004
   -199879.26847   -156054.05146  24089328.6674   24089338.2804   24089328.743
        43.0004         39.0004
 14  5  8  0  4 30.0000000  0 11G20G10G09G07G08G04G11G17G01G13G28
  -4423776.37547  -3398992.74346  23620996.2084   23621004.3764   23620996.251
        43.0004         38.0004
  -5119380.70546  -3980435.83946  24573490.8574   24573504.7274   24573492.781
        41.0004         37.0004
 -18323761.42448 -14232249.13448  20451560.8924   20451567.7234   20451560.876
        53.0004         48.0004
 -23667994.48449 -18412586.65548  20143239.6544   20143244.6164   20143239.049
        54.0004         49.0004
 -12630643.84648  -9825769.96448  20385329.5204   20385336.8194   20385329.639
        53.0004         49.0004
 -15831206.89648 -12276228.15647  22173246.2624   22173254.7764   22173244.848
        48.0004         43.0004
  -3356385.02346  -2593076.51145  24515088.3044   24515094.2574   24515086.374
        39.0004         34.0004
 -16381746.83748 -12703627.80747  22185596.1364   22185604.3784   22185595.579
        50.0004         46.0004
 -10102643.62547  -7846905.66147  22822469.8734   22822480.2234   22822469.227
        46.0004         42.0004
  -6525441.30347  -5039026.31546  23285131.8924   23285139.7244   23285131.668
        44.0004         39.0004
   -235113.95347   -183509.43246  24082622.1974   24082633.1354   24082623.304
        43.0004         38.0004
 14  5  8  0  5  0.0000000  0 11G20G10G09G07G08G04G11G17G01G13G28
  -4424162.82047  -3399293.80346  23620923.0794   23620930.3324   23620923.595
        43.0004         38.0004
  -5162501.30146  -4014036.16246  24565286.7774   24565296.8974   24565287.293
        41.0004         37.0004
 -18376320.34548 -14273204.05548  20441559.3044   20441565.9204   20441559.349
        53.0004         48.0004
 -23655367.46949 -18402747.39148  20145642.4824   20145647.6284   20145642.021
        54.0004         49.0004
 -12686331.46648  -9869162.84248  20374732.3654   20374739.5174   20374732.777
        53.0004         49.0004
 -15921208.30048 -12346358.98547  22156119.9444   22156126.9554   22156118.252
        48.0004         44.0004
  -3251567.09846  -2511400.19845  24535032.0494   24535045.8914   24535032.945
        38.0004         33.0004
 -16347239.58948 -12676739.01447  22192162.5224   22192170.1854   22192162.023
        50.0004         46.0004
 -10017247.64947  -7780363.34446  22838720.0904   22838731.3814   22838719.742
        46.0004         41.0004
  -6444714.70147  -4976122.43046  23300492.9574   23300500.6424   23300493.478
        44.0004         39.0004
   -270612.77147   -211170.62746  24075867.4504   24075878.3144   24075867.870
        43.0004         39.0004
 14  5  8  0  5 30.0000000  0 11G20G10G09G07G08G04G11G17G01G13G28
  -4424402.67947  -3399480.64946  23620877.5084   23620884.4354   23620877.832
        43.0004         38.0004
  -5205868.34746  -4047828.50546  24557033.0194   24557046.3014   24557035.164
        41.0004         37.0004
 -18428365.44748 -14313758.59648  20431655.4354   20431662.2094   20431655.248
        53.0004         48.0004
 -23642137.37149 -18392438.19548  20148160.1014   20148165.2674   20148159.292
        54.0004         49.0004
 -12741505.63448  -9912155.62548  20364233.4194   20364240.3254   20364233.364
        53.0004         49.0004
 -16010957.99248 -12416293.67647  22139039.7764   22139047.8784   22139039.534
        48.0004         44.0004
  -3146682.09446  -2429671.58745  24554992.0744   24555006.3134   24554991.784
        38.0004         33.0004
 -16312534.46848 -12649696.03047  22198766.7544   22198774.6744   22198766.134
        50.0004         46.0004
  -9931518.45047  -7713561.37546  22855034.2534   22855044.8884   22855032.961
        46.0004         41.0004
  -6364075.00447  -4913286.26546  23315838.6774   23315847.5044   23315838.195
        43.0004         39.0004
   -306374.61447   -239036.78446  24069062.0004   24069073.5094   24069062.406
        43.0004         39.0004
 14  5  8  0  6  0.0000000  0 11G20G10G09G07G08G04G11G17G01G13G28
  -4424495.22047  -3399552.68746  23620859.1544   23620866.7504   23620860.074
        42.0004         38.0004
  -5249482.87047  -4081813.72046  24548733.6054   24548747.4614   24548734.494
        42.0004         37.0004
 -18479895.58748 -14353911.86348  20421849.4214   20421856.3064   20421849.286
        53.0004         48.0004
 -23628305.28549 -18381659.92048  20150792.2784   20150797.5624   20150791.672
        54.0004         49.0004
 -12796164.84049  -9954747.14348  20353831.9604   20353838.8034   20353832.328
        54.0004         49.0004
 -16100454.07348 -12486030.76547  22122008.7334   22122017.2574   22122008.687
        48.0004         44.0004
  -3041733.77446  -2347893.68445  24574961.6854   24574975.2684   24574962.574
        37.0004         32.0004
 -16277635.43648 -12622501.95347  22205407.8154   22205415.4464   22205407.149
        50.0004         46.0004
  -9845459.44447  -7646502.40346  22871409.3544   22871420.1324   22871409.247
        46.0004         41.0004
  -6283525.22747  -4850520.15646  23331165.6014   23331172.9794   23331166.045
        43.0004         39.0004
   -342399.29747   -267107.75546  24062207.2644   24062216.9684   24062207.169
        44.0004         39.0004
 14  5  8  0  6 30.0000000  0 11G20G10G09G07G08G04G11G17G01G13G28
  -4424438.86347  -3399508.71546  23620870.2484   23620878.5914   23620871.182
        42.0004         38.0004
  -5293344.66847  -4115991.59546  24540385.3134   24540400.3484   24540387.503
        42.0004         37.0004
 -18530908.89148 -14393662.40548  20412141.9494   20412148.7514   20412141.850
        53.0004         48.0004
 -23613871.84149 -18370413.05148  20153538.2174   20153543.8344   20153538.020
        54.0004         49.0004
 -12850306.45649  -9996935.34348  20343528.8184   20343535.9604   20343529.236
        54.0004         49.0004
 -16189694.39448 -12555568.53647  22105027.8524   22105034.4494   22105027.216
        48.0004         44.0004
                  -2266068.60045                  24594957.3554   24594944.788
                        32.0004
 -16242545.44248 -12595159.07647  22212085.5684   22212092.6404   22212085.107
        50.0004         46.0004
  -9759073.36647  -7579188.57546  22887848.3414   22887859.2224   22887847.869
        46.0004         41.0004
  -6203068.71447  -4787826.72646  23346475.2734   23346484.2784   23346476.195
        43.0004         39.0004
   -378686.71647   -295383.45046  24055300.8734   24055312.0824   24055301.512
        43.0004         39.0004
 14  5  8  0  7  0.0000000  0 11G20G10G09G07G08G04G11G17G01G13G28
  -4424229.52047  -3399345.53246  23620910.7764   23620917.7744   23620910.635
        42.0004         37.0004
  -5337451.41546  -4150360.35246  24531993.8694   24532004.8644   24531995.094
        41.0004         37.0004
 -18581401.03748 -14433006.85448  20402533.4574   20402540.2634   20402533.463
        53.0004         48.0004
 -23598834.70349 -18358695.77148  20156400.2154   20156405.2424   20156399.573
        54.0004         49.0004
 -12903925.56349 -10038716.39448  20333325.7564   20333332.7674   20333326.076
        54.0004         49.0004
 -16278673.93748 -12624903.11447  22088095.2854   22088103.6204   22088094.413
        49.0004         44.0004
                                                                  24614938.849

 -16207264.64048 -12567667.50947  22218799.1814   22218806.8734   22218798.186
        50.0004         46.0004
  -9672360.37947  -7511620.00847  22904350.4864   22904360.3904   22904349.088
        46.0004         42.0004
  -6122705.35047  -4725205.86446  23361768.7754   23361778.3274   23361768.497
        43.0004         39.0004
   -415233.59647   -323861.31146  24048346.7124   24048355.1664   24048347.281
        43.0004         38.0004
 14  5  8  0  7 30.0000000  0 11G20G10G09G07G08G04G11G17G01G13G28
  -4423866.74547  -3399062.78846  23620978.6914   23620987.6944   23620979.900
        42.0004         38.0004
  -5381804.54647  -4184921.08146  24523555.4344   24523565.6414   24523554.654
        42.0004         37.0004
 -18631371.35848 -14471944.68648  20393024.4804   20393031.1044   20393024.541
        53.0004         48.0004
 -23583195.77449 -18346509.56548  20159376.2134   20159381.3864   20159375.524
        54.0004         49.0004
 -12957020.87049 -10080089.29348  20323221.6404   20323228.2824   20323221.759
        54.0004         49.0004
 -16367391.49648 -12694033.54347  22071211.7454   22071220.1954   22071212.152
        49.0004         44.0004
                                                                  24634944.767

 -16171797.08248 -12540030.42047  22225547.9214   22225555.7434   22225547.293
        50.0004         46.0004
  -9585324.45147  -7443799.80747  22920911.7184   22920922.5294   22920911.857
        46.0004         42.0004
  -6042438.13547  -4662659.93846  23377044.3144   23377049.9194   23377043.748
        43.0004         39.0004
   -452041.10447   -352542.27446  24041342.7954   24041352.5884   24041342.611
        43.0004         38.0004
 14  5  8  0  8  0.0000000  0 11G20G10G09G07G08G04G11G17G01G13G28
  -4423347.86147  -3398658.40346  23621077.5854   23621085.1574   23621078.084
        42.0004         37.0004
  -5426402.47947  -4219672.54646  24515067.2834   24515078.6544   24515067.812
        42.0004         37.0004
 -18680816.92148 -14510473.61348  20383614.8744   20383622.1244   20383615.275
        53.0004         48.0004
 -23566953.84249 -18333853.48648  20162466.6314   20162471.8794   20162466.442
        54.0004         49.0004
 -13009588.79249 -10121051.24548  20313218.5134   20313225.3234   20313218.839
        54.0004         49.0004
 -16455843.31048 -12762956.91047  22054380.6534   22054388.7734   22054379.819
        49.0004         44.0004
                                                                  24654959.257

 -16136144.40748 -12512249.08247  22232331.8894   22232340.0194   22232331.588
        50.0004         45.0004
  -9497966.92347  -7375729.01346  22937535.6184   22937546.7794   22937535.521
        46.0004         41.0004
  -5962268.89947  -4600190.36246  23392299.3614   23392306.8504   23392299.481
        43.0004         39.0004
   -489107.63347   -381425.05946  24034288.2724   24034297.7664   24034288.578
        43.0004         38.0004
 14  5  8  0  8 30.0000000  0 11G20G10G09G07G08G04G11G17G01G13G28
  -4422674.43247  -3398133.61946  23621205.5094   23621213.5144   23621206.661
        42.0004         37.0004
  -5471248.61647  -4254617.44746  24506533.8204   24506545.5544   24506533.559
        42.0004         37.0004
 -18729739.02248 -14548594.65448  20374305.5174   20374312.6084   20374305.544
        53.0004         48.0004
 -23550113.04849 -18320730.76448  20165671.4814   20165676.4294   20165670.801
        54.0004         49.0004
 -13061629.98249 -10161602.75248  20303315.3174   20303321.8084   20303315.346
        54.0004         49.0004
 -16544029.99748 -12831673.67347  22037598.8624   22037606.8534   22037598.835
        49.0004         44.0004
                                                                  24674983.947

 -16100312.80248 -12484328.31447  22239150.6814   22239158.8824   22239150.242
        50.0004         45.0004
  -9410293.61647  -7307412.15447  22954219.5274   22954230.4934   22954218.742
        46.0004         42.0004
  -5882202.72847  -4537801.09046  23407535.8184   23407544.4464   23407536.045
        43.0004         39.0004
   -526435.44347   -410511.44046  24027184.7934   24027195.0134   24027185.344
        43.0004         39.0004
 14  5  8  0  9  0.0000000  0 10G20G10G09G07G08G04G17G01G13G28
  -4421839.54047  -3397483.00646  23621365.2954   23621372.9544   23621365.140
        42.0004         37.0004
  -5516337.84947  -4289751.74446  24497952.8644   24497964.3274   24497953.278
        42.0004         37.0004
 -18778130.64648 -14586302.33448  20365096.7464   20365103.6024   20365096.725
        53.0004         48.0004
 -23532668.65049 -18307137.70048  20168990.9344   20168996.3714   20168990.636
        54.0004         49.0004
 -13113137.17949 -10201738.16348  20293514.1504   20293520.5344   20293514.258
        54.0004         49.0004
 -16631943.95048 -12900177.92547  22020870.2324   22020877.7834   22020868.924
        49.0004         44.0004
 -16064299.78448 -12456266.18947  22246003.7074   22246012.0814   22246003.468
        50.0004         46.0004
  -9322302.10347  -7238847.33346  22970964.3094   22970975.1244   22970963.504
        46.0004         41.0004
  -5802237.00447  -4475490.08846  23422752.8654   23422760.3684   23422752.577
        44.0004         39.0004
   -564018.75247   -439796.91346  24020033.0804   24020042.2044   24020033.828
        43.0004         39.0004
 14  5  8  0  9 30.0000000  0 10G20G10G09G07G08G04G17G01G13G28
  -4420844.11047  -3396707.29646  23621553.0594   23621561.6264   23621554.010
        42.0004         37.0004
  -5561672.62547  -4325077.38846  24489324.8644   24489336.1784   24489326.749
        42.0004         37.0004
 -18825992.50748 -14623597.21648  20355988.8104   20355995.7724   20355988.724
        53.0004         48.0004
 -23514623.36249 -18293076.41148  20172424.7364   20172430.1974   20172424.340
        54.0004         49.0004
 -13164110.34049 -10241457.44548  20283813.7974   20283820.7084   20283813.977
        54.0004         49.0004
 -16719585.36448 -12968469.80347  22004191.6204   22004200.2634   22004191.148
        49.0004         44.0004
 -16028110.31948 -12428066.56947  22252890.4654   22252898.7604   22252890.081
        50.0004         46.0004
  -9233997.62547  -7170038.65346  22987767.3484   22987778.4144   22987767.327
        46.0004         41.0004
  -5722376.69447  -4413261.23146  23437949.5064   23437957.4504   23437950.167
        43.0004         39.0004
   -601858.99347   -469282.60146  24012832.5584   24012840.5164   24012832.200
        43.0004         39.0004
 14  5  8  0 10  0.0000000  0 10G20G10G09G07G08G04G17G01G13G28
  -4419684.05247  -3395803.31346  23621775.1694   23621784.6804   23621775.315
        42.0004         37.0004
  -5607250.20247  -4360592.22846  24480652.0034   24480664.5254   24480653.069
        42.0004         37.0004
 -18873320.14448 -14660475.81448  20346982.4324   20346989.6054   20346982.641
        53.0004         48.0004
 -23495975.53649 -18278545.61348  20175973.3454   20175978.7094   20175972.941
        54.0004         49.0004
 -13214544.41049 -10280756.65548  20274216.6354   20274223.3284   20274216.877
        54.0004         49.0004
 -16806948.96648 -13036545.20847  21987565.9664   21987574.4834   21987566.336
        49.0004         44.0004
 -15991744.98248 -12399729.90247  22259810.6254   22259818.9554   22259809.948
        50.0004         46.0004
  -9145380.25847  -7100986.15946  23004630.6894   23004641.4024   23004630.223
        46.0004         41.0004
  -5642621.48647  -4351114.26346  23453126.2214   23453133.2134   23453125.934
        43.0004         39.0004
   -639953.64947   -498966.53446  24005582.7554   24005593.1234   24005583.219
        43.0004         39.0004
 14  5  8  0 10 30.0000000  0 10G20G10G09G07G08G04G17G01G13G28
  -4418361.88847  -3394773.01346  23622027.1954   23622034.5764   23622027.073
        42.0004         37.0004
  -5653074.52547  -4396299.33046  24471932.9644   24471944.3974   24471932.777
        42.0004         38.0004
 -18920115.90448 -14696939.96448  20338077.6194   20338084.5244   20338077.728
        53.0004         48.0004
 -23476729.67549 -18263548.80648  20179635.7634   20179640.7714   20179635.345
        54.0004         49.0004
 -13264441.01449 -10319637.06348  20264721.1254   20264728.0514   20264721.569
        54.0004         49.0004
 -16894036.48048 -13104405.48047  21970994.6264   21971001.5104   21970994.374
        49.0004         44.0004
 -15955210.69748 -12371261.59247  22266762.7854   22266770.6744   22266762.409
        50.0004         46.0004
  -9056456.74947  -7031695.11746  23021552.0124   23021562.9454   23021551.896
        46.0004         41.0004
  -5562977.64247  -4289054.07246  23468283.1924   23468289.9184   23468282.448
        43.0004         38.0004
   -678306.43747   -528851.60046  23998284.6684   23998293.3484   23998284.407
        43.0004         39.0004
 14  5  8  0 11  0.0000000  0 10G20G10G09G07G08G04G17G01G13G28
  -4416871.67247  -3393611.73746  23622310.7104   23622318.4294   23622310.477
        42.0004         37.0004
  -5699141.30947  -4432195.35146  24463164.6804   24463176.0704   24463166.395
        42.0004         38.0004
 -18966373.69948 -14732984.92448  20329274.9324   20329281.5714   20329275.027
        53.0004         48.0004
 -23456881.87349 -18248082.95748  20183412.8254   20183417.4934   20183412.273
        54.0004         49.0004
 -13313793.36849 -10358093.37748  20255329.9954   20255336.6214   20255330.338
        54.0004         49.0004
 -16980840.87448 -13172045.14147  21954476.1354   21954484.1004   21954475.799
        49.0004         44.0004
 -15918505.87548 -12342660.39347  22273747.9964   22273755.0974   22273747.256
        50.0004         46.0004
  -8967225.29447  -6962164.11346  23038533.8364   23038543.5504   23038532.210
        46.0004         41.0004
  -5483442.92347  -4227078.92146  23483418.2734   23483423.0784   23483416.971
        43.0004         38.0004
   -716911.60947   -558933.31746  23990939.0204   23990946.7474   23990938.499
        43.0004         39.0004
 14  5  8  0 11 30.0000000  0 10G20G10G09G07G08G04G17G01G13G28
  -4415212.81847  -3392319.07746  23622625.0944   23622632.4064   23622626.112
        42.0004         37.0004
  -5745451.53247  -4468281.06946  24454352.2314   24454364.5614   24454353.945
        42.0004         38.0004
 -19012092.94948 -14768610.23748  20320575.2294   20320581.5334   20320574.980
        53.0004         49.0004
 -23436434.25149 -18232149.71748  20187303.6494   20187308.7864   20187303.220
        54.0004         49.0004
 -13362600.34849 -10396124.72648  20246042.0474   20246048.8674   20246042.576
        54.0004         49.0004
 -17067361.07148 -13239463.34647  21938011.8304   21938019.3974   21938011.391
        49.0004         44.0004
 -15881634.49548 -12313929.41247  22280763.8474   22280771.8964   22280763.321
        50.0004         46.0004
  -8877689.99047  -6892396.35346  23055570.7754   23055582.0994   23055570.194
        46.0004         41.0004
  -5404021.05347  -4165191.70046  23498531.1714   23498538.4604   23498530.100
        43.0004         38.0004
   -755770.17747   -589212.50046  23983542.6274   23983552.4454   23983543.227
        43.0004         39.0004
 14  5  8  0 12  0.0000000  0 10G20G10G09G07G08G04G17G01G13G28
  -4413384.00647  -3390893.98446  23622973.4104   23622981.5134   23622973.558
        42.0004         37.0004
  -5792005.23047  -4504556.52446  24445494.4134   24445504.0034   24445494.656
        42.0004         38.0004
 -19057272.04248 -14803814.65148  20311977.6334   20311984.1854   20311977.475
        53.0004         49.0004
 -23415387.53549 -18215749.64948  20191308.8784   20191313.7344   20191308.291
        54.0004         49.0004
 -13410860.01849 -10433729.60248  20236858.4394   20236865.5604   20236858.907
        54.0004         49.0004
 -17153594.62048 -13306658.19247  21921602.0894   21921610.1384   21921601.754
        49.0004         44.0004
 -15844599.54648 -12285070.96947  22287811.1884   22287819.1374   22287810.936
        50.0004         45.0004
  -8787853.58447  -6822393.95946  23072666.1984   23072676.8584   23072665.407
        46.0004         41.0004
  -5324714.54747  -4103394.35846  23513622.1944   23513629.1444   23513622.093
        43.0004         38.0004
   -794881.95847   -619688.99046  23976100.1694   23976109.9024   23976100.683
        43.0004         39.0004
 14  5  8  0 12 30.0000000  0 10G20G10G09G07G08G04G17G01G13G28
  -4411380.25347  -3389332.58146  23623355.3354   23623362.8484   23623354.767
        42.0004         37.0004
  -5838798.80547  -4541018.87246  24436590.1364   24436601.1954   24436590.633
        42.0004         38.0004
 -19101906.04548 -14838594.32348  20303484.3394   20303490.5384   20303484.375
        53.0004         49.0004
 -23393739.07249 -18198880.69248  20195428.4734   20195433.3774   20195427.796
        54.0004         49.0004
 -13458566.66849 -10470903.56048  20227780.3954   20227786.9344   20227780.521
        54.0004         49.0004
 -17239535.63548 -13373625.09347  21905248.5714   21905255.8744   21905247.181
        49.0004         44.0004
 -15807400.66048 -12256084.78447  22294890.0814   22294898.0464   22294889.525
        50.0004         45.0004
  -8697715.41747  -6752156.42746  23089818.1064   23089829.4554   23089817.820
        46.0004         41.0004
  -5245522.23947  -4041686.01346  23528693.0934   23528699.0024   23528692.092
        43.0004         38.0004
   -834242.19947   -650359.09646  23968611.0134   23968620.6204   23968610.427
        43.0004         39.0004
 14  5  8  0 13  0.0000000  0 10G20G10G09G07G08G04G17G01G13G28
  -4409205.86847  -3387638.19346  23623767.7414   23623775.6014   23623767.977
        42.0004         37.0004
  -5885838.23747  -4577672.80546  24427639.0264   24427647.6584   24427639.017
        42.0004         38.0004
 -19145999.25648 -14872952.60048  20295093.0774   20295100.1414   20295093.431
        53.0004         49.0004
 -23371495.25449 -18181547.81648  20199660.9744   20199666.3474   20199660.443
        54.0004         49.0004
 -13505724.09149 -10507649.54448  20218806.6204   20218813.1504   20218807.014
        54.0004         49.0004
 -17325187.90648 -13440366.99347  21888948.4864   21888956.2244   21888948.666
        49.0004         44.0004
 -15770046.29748 -12226977.44947  22301997.8884   22302005.9384   22301997.857
        50.0004         45.0004
  -8607284.21847  -6681690.57746  23107026.6704   23107037.7424   23107026.413
        45.0004         41.0004
  -5166451.91247  -3980072.71146  23543737.9624   23543744.9304   23543738.240
        43.0004         38.0004
   -873856.55247   -681227.20946  23961071.1824   23961080.5874   23961072.256
        43.0004         39.0004
 14  5  8  0 13 30.0000000  0 10G20G10G09G07G08G04G17G01G13G28
  -4406852.47647  -3385804.34246  23624216.6084   23624223.6704   23624216.362
        42.0004         37.0004
  -5933116.58747  -4614512.89046  24418641.7084   24418650.8464   24418642.456
        42.0004         37.0004
 -19189543.12248 -14906882.81648  20286807.3484   20286814.0414   20286807.396
        53.0004         49.0004
 -23348650.49349 -18163746.67548  20204007.9554   20204013.3744   20204007.829
        54.0004         49.0004
 -13552323.25649 -10543960.52348  20209938.5184   20209945.5684   20209938.959
        54.0004         49.0004
 -17410541.80048 -13506876.40147  21872705.5554   21872714.2404   21872705.615
        49.0004         45.0004
 -15732532.30048 -12197745.72447  22309137.0554   22309144.6194   22309136.535
        50.0004         45.0004
  -8516555.89547  -6610993.17746  23124292.0934   23124303.4064   23124291.321
        45.0004         41.0004
  -5087499.42147  -3918551.24146  23558762.3734   23558769.6254   23558761.913
        43.0004         38.0004
   -913717.37347   -712287.37046  23953487.3034   23953495.0774   23953486.887
        43.0004         39.0004
 14  5  8  0 14  0.0000000  0 10G20G10G09G07G08G04G17G01G13G28
  -4404322.66046  -3383833.00946  23624697.0684   23624705.8864   23624697.532
        41.0004         37.0004
  -5980637.66847  -4651542.12746  24409597.6924   24409608.3244   24409598.380
        42.0004         37.0004
 -19232540.18248 -14940386.95448  20278624.8134   20278631.7254   20278624.980
        53.0004         49.0004
 -23325209.65349 -18145481.05748  20208468.7354   20208473.8114   20208468.349
        54.0004         49.0004
 -13598365.78649 -10579837.76048  20201177.3624   20201184.3554   20201177.427
        54.0004         49.0004
 -17495599.13648 -13573154.72547  21856520.4964   21856527.3924   21856519.898
        49.0004         45.0004
 -15694865.81048 -12168395.17447  22316304.1654   22316312.3464   22316304.019
        50.0004         45.0004
  -8425537.18947  -6540069.50646  23141613.8764   23141624.1434   23141612.145
        45.0004         41.0004
  -5008671.01947  -3857126.46446  23573763.8604   23573769.7234   23573763.027
        43.0004         38.0004
   -953827.89347   -743542.10846  23945853.6334   23945862.8934   23945853.733
        43.0004         39.0004
 14  5  8  0 14 30.0000000  0 10G20G10G09G07G08G04G17G01G13G28
  -4401612.27346  -3381720.97746  23625213.4874   23625221.6144   23625214.326
        41.0004         37.0004
  -6028398.91047  -4688758.48846  24400509.2584   24400520.1544   24400509.759
        42.0004         37.0004
 -19274986.25048 -14973461.74148  20270547.8134   20270554.1364   20270547.918
        53.0004         49.0004
 -23301170.85949 -18126749.50048  20213043.2824   20213048.3754   20213042.908
        54.0004         49.0004
 -13643846.80449 -10615277.45448  20192522.2404   20192529.4084   20192522.629
        54.0004         49.0004
 -17580354.79348 -13639197.96547  21840392.1114   21840398.3134   21840391.305
        49.0004         45.0004
 -15657047.11048 -12138926.01847  22323500.9514   22323508.5024   22323500.669
        50.0004         45.0004
  -8334228.42047  -6468919.82846  23158988.0804   23158999.3734   23158987.744
        45.0004         41.0004
  -4929966.38347  -3795798.12446  23588738.4144   23588748.5804   23588739.537
        43.0004         38.0004
   -994185.08347   -774989.07146  23938173.2634   23938182.1654   23938173.961
        43.0004         39.0004
 14  5  8  0 15  0.0000000  0 10G20G10G09G07G08G04G17G01G13G28
  -4398720.16547  -3379467.34146  23625763.8544   23625772.8104   23625763.926
        42.0004         37.0004
  -6076400.09347  -4726161.80846  24391375.2074   24391387.6414   24391374.813
        42.0004         37.0004
 -19316879.98948 -15006106.14848  20262575.7094   20262582.0814   20262575.553
        53.0004         49.0004
 -23276535.16649 -18107552.83048  20217731.4114   20217736.6134   20217730.686
        54.0004         49.0004
 -13688764.22049 -10650277.97548  20183975.1674   20183981.7184   20183975.481
        54.0004         49.0004
 -17664806.78148 -13705004.59947  21824320.7714   21824328.6404   21824320.480
        49.0004         44.0004
 -15619079.24048 -12109340.61647  22330725.7604   22330733.3724   22330725.495
        50.0004         45.0004
  -8242632.50847  -6397546.39846  23176418.0614   23176429.0464   23176417.464
        45.0004         40.0004
  -4851388.11947  -3734568.25546  23603692.0644   23603699.3044   23603692.837
        43.0004         38.0004
  -1034788.44947   -806627.86246  23930446.9704   23930455.3064   23930446.979
        43.0004         39.0004
 14  5  8  0 15 30.0000000  0 10G20G10G09G07G08G04G17G01G13G28
  -4395645.40247  -3377071.39746  23626349.6554   23626356.2924   23626349.410
        42.0004         37.0004
  -6124642.01247  -4763752.72646  24382194.7804   24382206.2264   24382195.447
        42.0004         37.0004
 -19358220.88848 -15038319.77248  20254708.5394   20254714.7014   20254708.771
        53.0004         49.0004
 -23251303.87149 -18087892.05148  20222532.4284   20222537.7814   20222532.030
        54.0004         49.0004
 -13733117.14949 -10684838.64248  20175534.5994   20175541.4954   20175534.991
        54.0004         49.0004
 -17748953.25848 -13770573.16347  21808309.1604   21808316.0744   21808307.946
        49.0004         45.0004
 -15580965.77348 -12079641.77747  22337979.6774   22337986.3324   22337978.602
        50.0004         45.0004
  -8150753.16147  -6325952.11446  23193902.2024   23193913.7704   23193901.720
        45.0004         40.0004
  -4772938.88547  -3673438.93046  23618620.9044   23618627.0464   23618620.473
        42.0004         38.0004
  -1075638.18747   -838458.63946  23922673.0024   23922682.3614   23922673.180
        43.0004         39.0004
 14  5  8  0 16  0.0000000  0 10G20G10G09G07G08G04G17G01G13G28
  -4392386.09247  -3374531.63046  23626970.1444   23626977.0454   23626969.070
        42.0004         37.0004
  -6173124.16847  -4801530.85146  24372968.5784   24372979.0664   24372969.208
        42.0004         37.0004
 -19399006.95748 -15070101.05948  20246947.2374   20246953.7134   20246947.225
        53.0004         49.0004
 -23225478.42649 -18067768.30548  20227446.9774   20227452.0234   20227446.592
        54.0004         49.0004
 -13776902.95949 -10718957.39748  20167202.7234   20167209.3314   20167203.039
        54.0004         49.0004
 -17832791.71048 -13835901.71147  21792353.8934   21792360.6744   21792353.837
        49.0004         45.0004
 -15542709.25448 -12049831.46247  22345259.1004   22345265.9404   22345258.376
        50.0004         45.0004
  -8058592.71547  -6254138.78846  23211439.6714   23211450.1914   23211439.291
        45.0004         40.0004
  -4694620.70547  -3612411.74846  23633523.8084   23633530.8504   23633524.141
        42.0004         37.0004
  -1116733.01947   -870480.38846  23914852.7484   23914861.8374   23914853.336
        44.0004         39.0004
 14  5  8  0 16 30.0000000  0 10G20G10G09G07G08G04G17G01G13G28
  -4388938.97647  -3371845.54346  23627625.5264   23627632.4754   23627626.098
        42.0004         37.0004
  -6221844.39547  -4839494.46446  24363697.9384   24363707.9854   24363698.097
        42.0004         37.0004
 -19439235.01648 -15101447.53348  20239291.9644   20239298.5704   20239292.046
        53.0004         49.0004
 -23199057.29848 -18047180.38248  20232474.5294   20232479.6624   20232474.335
        53.0004         49.0004
 -13820117.53049 -10752631.03648  20158979.1914   20158985.8864   20158979.381
        54.0004         49.0004
 -17916317.60948 -13900986.72247  21776459.8914   21776467.8884   21776459.169
        49.0004         45.0004
 -15504310.76048 -12019910.51747  22352565.6074   22352573.3854   22352565.373
        50.0004         45.0004
  -7966152.12047  -6182107.17346  23229029.9364   23229041.6284   23229030.098
        45.0004         40.0004
  -4616433.84647  -3551486.88746  23648401.6054   23648411.9494   23648402.906
        42.0004         38.0004
  -1158070.18147   -902690.97746  23906987.3444   23906995.5104   23906986.732
        44.0004         39.0004
 14  5  8  0 17  0.0000000  0 10G20G10G09G07G08G04G17G01G13G28
  -4385300.99847  -3369010.71646  23628316.8344   23628324.5444   23628317.422
        42.0004         37.0004
  -6270801.09447  -4877642.35346  24354381.6384   24354392.3034   24354382.358
        42.0004         37.0004
 -19478901.97948 -15132356.79548  20231743.3604   20231750.1714   20231743.571
        53.0004         49.0004
 -23172040.35449 -18026128.19548  20237615.7684   20237621.1774   20237615.313
        54.0004         49.0004
 -13862757.61849 -10785857.02348  20150865.0594   20150871.4504   20150865.465
        54.0004         49.0004
 -17999527.39448 -13965825.40247  21760625.4784   21760632.8554   21760624.959
        49.0004         45.0004
 -15465771.45548 -11989879.84847  22359899.5884   22359906.9524   22359899.202
        50.0004         45.0004
  -7873432.76847  -6109858.36046  23246674.4174   23246685.9674   23246673.775
        45.0004         40.0004
  -4538379.19547  -3490665.04746  23663256.7414   23663263.2234   23663256.049
        42.0004         37.0004
  -1199647.68947   -935088.85646  23899074.4084   23899083.1334   23899074.274
        43.0004         39.0004
 14  5  8  0 17 30.0000000  0 10G20G10G09G07G08G04G17G01G13G28
  -4381473.37747  -3366028.13846  23629046.2954   23629054.0874   23629046.104
        42.0004         38.0004
  -6319996.80847  -4915976.48446  24345019.2844   24345027.6484   24345019.406
        42.0004         37.0004
 -19518009.26348 -15162829.94348  20224301.8204   20224308.7204   20224301.795
        53.0004         49.0004
 -23144431.26649 -18004614.59748  20242870.1184   20242874.9414   20242869.486
        54.0004         49.0004
 -13904823.92849 -10818635.91348  20142860.1704   20142866.9604   20142860.301
        54.0004         49.0004
 -18082420.97748 -14030417.69547  21744851.0044   21744859.1434   21744850.135
        49.0004         45.0004
 -15427097.08948 -11959743.92847  22367258.9274   22367266.5534   22367258.695
        50.0004         45.0004
  -7780440.07647  -6037396.54546  23264369.9464   23264381.1504   23264369.767
        45.0004         40.0004
  -4460461.33247  -3429949.78946  23678083.0674   23678090.4074   23678083.424
        42.0004         38.0004
  -1241467.87347   -967675.82946  23891116.5874   23891125.5094   23891116.429
        43.0004         38.0004
 14  5  8  0 18  0.0000000  0 10G20G10G09G07G08G04G17G01G13G28
  -4377453.70847  -3362895.90946  23629811.0304   23629818.3754   23629810.734
        42.0004         37.0004
  -6369430.23147  -4954495.83346  24335611.5154   24335623.0924   24335613.314
        42.0004         37.0004
 -19556554.52749 -15192865.15048  20216966.7424   20216972.8744   20216966.843
        54.0004         49.0004
 -23116230.04948 -17982639.59948  20248236.0504   20248241.2394   20248235.745
        53.0004         49.0004
 -13946313.57749 -10850965.45948  20134965.0394   20134971.5974   20134965.230
        54.0004         49.0004
 -18164995.07848 -14094761.04247  21729137.5714   21729144.9894   21729137.711
        50.0004         45.0004
 -15388289.10048 -11929503.90047  22374644.1984   22374651.0624   22374643.445
        50.0004         45.0004
  -7687175.96547  -5964723.23246  23282117.7414   23282128.5804   23282117.479
        44.0004         40.0004
  -4382681.25547  -3369341.91446  23692883.6264   23692892.3644   23692884.361
        42.0004         38.0004
  -1283528.09447  -1000449.87546  23883111.4024   23883121.3374   23883112.379
        43.0004         38.0004
 14  5  8  0 18 30.0000000  0 10G20G10G09G07G08G04G17G01G13G28
  -4373240.57547  -3359612.90746  23630612.6944   23630620.7404   23630613.330
        42.0004         38.0004
  -6419101.62747  -4993200.60746  24326161.1004   24326170.9954   24326160.883
        42.0004         37.0004
 -19594536.66349 -15222461.56148  20209739.1124   20209745.3924   20209739.036
        54.0004         49.0004
 -23087438.32548 -17960204.46948  20253715.1594   20253720.3054   20253714.608
        53.0004         49.0004
 -13987225.01149 -10882844.44248  20127179.5994   20127186.1624   20127179.689
        54.0004         49.0004
 -18247248.06248 -14158854.17747  21713485.2024   21713493.0944   21713484.854
        50.0004         45.0004
 -15349350.99548 -11899162.47747  22382053.5264   22382060.9974   22382053.064
        50.0004         45.0004
  -7593643.67447  -5891840.93446  23299917.0254   23299927.8324   23299915.889
        44.0004         40.0004
  -4305042.11547  -3308843.85246  23707658.7284   23707665.8154   23707658.424
        42.0004         38.0004
  -1325828.24747  -1033410.88246  23875063.1194   23875071.6824   23875062.703
        43.0004         38.0004
 14  5  8  0 19  0.0000000  0 11G20G10G26G09G07G08G04G17G01G13G28
  -4368830.21747  -3356176.24546  23631452.4714   23631460.1284   23631451.971
        42.0004         37.0004
  -6469007.79647  -5032088.31946  24316662.8874   24316673.9924   24316663.492
        42.0004         37.0004
   -374574.62648   -272981.45246  24190959.7414   24190972.1224   24190958.476
        48.0004         36.0004
 -19631951.40849 -15251615.84348  20202619.2574   20202625.4204   20202619.217
        54.0004         49.0004
 -23058054.33848 -17937307.83448  20259306.2264   20259311.8894   20259305.837
        53.0004         49.0004
 -14027553.14549 -10914268.90748  20119505.4704   20119511.8614   20119505.908
        54.0004         49.0004
 -18329174.42748 -14222692.79147  21697894.9264   21697903.0244   21697894.812
        50.0004         45.0004
 -15310283.26648 -11868720.04647  22389487.3304   22389495.8054   22389487.215
        50.0004         45.0004
  -7499843.20447  -5818749.68946  23317766.4464   23317777.6174   23317765.728
        44.0004         40.0004
  -4227543.40447  -3248455.21246  23722404.7804   23722414.3074   23722406.243
        42.0004         38.0004
  -1368364.85447  -1066556.13446  23866967.9504   23866975.9294   23866967.909
        43.0004         39.0004
 14  5  8  0 19 30.0000000  0 11G20G10G26G09G07G08G04G17G01G13G28
  -4364227.11847  -3352589.37646  23632327.5684   23632335.4464   23632329.064
        42.0004         37.0004
  -6519155.06347  -5071163.90346  24307119.9964   24307130.8434   24307120.005
        42.0004         37.0004
   -397470.48747   -290822.22746  24186601.0324   24186615.8784   24186602.095
        44.0004         36.0004
 -19668804.19549 -15280332.23848  20195606.0344   20195612.5174   20195606.125
        54.0004         49.0004
 -23028085.42948 -17913955.41548  20265009.5944   20265014.6104   20265008.902
        53.0004         49.0004
 -14067302.55949 -10945242.41848  20111941.0524   20111947.7174   20111941.472
        54.0004         49.0004
 -18410778.52748 -14286280.30047  21682365.9714   21682373.5544   21682365.825
        50.0004         45.0004
 -15271094.76848 -11838183.51147  22396944.9574   22396952.6494   22396944.456
        50.0004         45.0004
  -7405783.87147  -5745456.72646  23335664.8474   23335676.3874   23335664.518
        44.0004         40.0004
  -4150192.96247  -3188182.12146  23737125.5314   23737133.0054   23737125.175
        42.0004         38.0004
  -1411143.43347  -1099889.94546  23858827.8384   23858836.9314   23858827.959
        43.0004         39.0004
 14  5  8  0 20  0.0000000  0 11G20G10G26G09G07G08G04G17G01G13G28
  -4359420.77447  -3348844.15946  23633242.4514   23633250.5094   23633242.705
        42.0004         37.0004
  -6569533.67547  -5110419.75946  24297532.4494   24297543.9504   24297532.851
        42.0004         37.0004
   -419996.28447   -308374.60846  24182314.9314   24182329.5774   24182315.499
        42.0004         36.0004
 -19705084.39448 -15308602.45848  20188702.5434   20188708.8224   20188702.358
        53.0004         49.0004
 -22997523.62548 -17890141.00348  20270825.0684   20270830.5824   20270824.640
        53.0004         49.0004
 -14106462.21049 -10975756.38248  20104489.4854   20104495.8104   20104489.696
        54.0004         49.0004
 -18492048.44248 -14349607.41247  21666901.4584   21666908.2484   21666900.926
        50.0004         45.0004
 -15231778.81548 -11807547.66647  22404426.7954   22404434.6024   22404426.345
        49.0004         45.0004
  -7311459.26647  -5671957.05846  23353614.5164   23353625.2274   23353614.368
        44.0004         40.0004
  -4072983.85447  -3128019.15946  23751817.2484   23751825.7584   23751817.875
        42.0004         38.0004
  -1454154.00847  -1133404.54446  23850642.1394   23850650.9164   23850642.811
        43.0004         39.0004
 14  5  8  0 20 30.0000000  0 11G20G10G26G09G07G08G04G17G01G13G28
  -4354413.45247  -3344942.33946  23634195.5184   23634202.6544   23634196.055
        42.0004         38.0004
  -6620147.30047  -5149858.75146  24287900.8514   24287912.2154   24287900.982
        42.0004         37.0004
   -442156.97846   -325642.49246  24178100.0264   24178112.7954   24178097.846
        41.0004         36.0004
 -19740794.59049 -15336428.52148  20181906.5294   20181913.5204   20181906.705
        54.0004         49.0004
 -22966374.04548 -17865868.57948  20276752.6464   20276757.9114   20276752.132
        53.0004         49.0004
 -14145034.03849 -11005812.29448  20097149.3494   20097155.8134   20097149.554
        54.0004         49.0004
 -18572985.75448 -14412675.34647  21651499.0334   21651507.0034   21651499.357
        50.0004         45.0004
 -15192342.38648 -11776817.93147  22411930.5334   22411938.0864   22411930.948
        49.0004         45.0004
  -7216875.98047  -5598255.82946  23371612.6584   23371624.9534   23371612.642
        44.0004         39.0004
  -3995922.07147  -3067971.00146  23766482.7424   23766488.4154   23766481.943
        42.0004         38.0004
  -1497399.54647  -1167102.22346  23842413.4374   23842422.4564   23842413.067
        43.0004         38.0004
 14  5  8  0 21  0.0000000  0 11G20G10G26G09G07G08G04G17G01G13G28
  -4349200.56647  -3340880.32146  23635187.7184   23635194.7604   23635187.058
        42.0004         38.0004
  -6670992.48347  -5189478.18546  24278225.0524   24278235.6844   24278226.601
        42.0004         37.0004
   -463950.60346   -342624.33046  24173948.4814   24173967.3004   24173951.013
        41.0004         36.0004
 -19775930.37349 -15363806.98848  20175220.5044   20175226.5834   20175220.412
        54.0004         49.0004
 -22934634.73848 -17841136.62748  20282792.4474   20282797.3964   20282791.932
        53.0004         49.0004
 -14183012.75449 -11035406.05148  20089922.2004   20089928.5714   20089922.556
        54.0004         49.0004
 -18653584.99448 -14475479.85247  21636162.2044   21636168.7964   21636161.533
        50.0004         45.0004
 -15152784.95048 -11745993.91047  22419457.9644   22419466.1094   22419457.966
        49.0004         45.0004
  -7122033.70347  -5524352.78746  23389660.9444   23389672.2884   23389660.829
        44.0004         39.0004
  -3919006.67147  -3008036.90746  23781118.3344   23781124.6324   23781118.060
        42.0004         37.0004
  -1540875.89347  -1200979.75046  23834140.0024   23834148.4894   23834140.040
        43.0004         38.0004
 14  5  8  0 21 30.0000000  0 11G20G10G26G09G07G08G04G17G01G13G28
  -4343781.85447  -3336657.93546  23636217.7524   23636225.0924   23636219.405
        42.0004         38.0004
  -6722070.14747  -5229278.76546  24268506.3844   24268516.1574   24268506.184
        42.0004         37.0004
   -485379.41246   -359321.91846  24169872.2344   24169886.6864   24169872.115
        41.0004         36.0004
 -19810491.69349 -15390737.83148  20168643.9944   20168649.9994   20168643.741
        54.0004         49.0004
 -22902307.53348 -17815946.57848  20288943.8704   20288949.0024   20288943.702
        53.0004         49.0004
 -14220397.84049 -11064537.23048  20082807.9774   20082814.0264   20082808.215
        54.0004         49.0004
 -18733844.90348 -14538019.94147  21620888.2454   21620896.2304   21620888.339
        50.0004         45.0004
 -15113110.42448 -11715078.65747  22427008.2884   22427015.7264   22427007.931
        49.0004         45.0004
  -7026936.41147  -5450251.02046  23407757.1064   23407768.3534   23407756.924
        44.0004         40.0004
  -3842240.44647  -2948219.04946  23795727.3864   23795734.7684   23795726.539
        42.0004         37.0004
  -1584583.18147  -1235037.22546  23825823.4774   23825830.9344   23825823.000
        43.0004         38.0004
 14  5  8  0 22  0.0000000  0 11G20G10G26G09G07G08G04G17G01G13G28
  -4338156.51447  -3332274.52446  23637287.8124   23637295.8074   23637288.287
        42.0004         37.0004
  -6773380.55547  -5269260.69146  24258740.4504   24258752.2324   24258741.800
        42.0004         37.0004
   -506445.63946   -375736.97046  24165864.2524   24165877.4264   24165863.637
        41.0004         36.0004
 -19844478.11849 -15417220.69948  20162176.3184   20162182.6394   20162176.475
        54.0004         49.0004
 -22869395.35848 -17790300.70948  20295207.1594   20295212.3014   20295206.809
        53.0004         49.0004
 -14257188.44449 -11093205.18348  20075806.9854   20075813.7684   20075807.407
        54.0004         49.0004
 -18813763.72148 -14600294.24247  21605680.6804   21605687.9264   21605680.376
        50.0004         45.0004
 -15073322.69148 -11684075.17847  22434579.2864   22434587.3804   22434578.999
        49.0004         45.0004
  -6931587.77947  -5375953.42346  23425902.3024   23425912.8974   23425901.471
        44.0004         39.0004
  -3765626.54247  -2888519.88046  23810306.0734   23810313.2514   23810305.737
        42.0004         37.0004
  -1628521.55947  -1269274.75946  23817461.2904   23817469.6374   23817461.759
        43.0004         39.0004
 14  5  8  0 22 30.0000000  0 11G20G10G26G09G07G08G04G17G01G13G28
  -4332322.98947  -3327728.91546  23638397.8354   23638405.7774   23638399.752
        42.0004         37.0004
  -6824923.12347  -5309423.53946  24248932.5644   24248943.8534   24248933.904
        42.0004         37.0004
   -527150.27546   -391870.28346  24161924.3714   24161937.9134   24161923.478
        41.0004         37.0004
 -19877888.31349 -15443254.55848  20155818.4264   20155824.8164   20155818.454
        54.0004         49.0004
 -22835899.03248 -17764199.65848  20301581.3104   20301586.3304   20301580.782
        53.0004         49.0004
 -14293382.45749 -11121408.25648  20068919.3884   20068925.9074   20068919.759
        54.0004         49.0004
 -18893339.16748 -14662300.98347  21590537.8414   21590545.3144   21590537.253
        50.0004         45.0004
 -15033424.16948 -11652985.37847  22442172.3904   22442179.6064   22442171.417
        49.0004         45.0004
  -6835990.50047  -5301462.05246  23444092.4134   23444104.0604   23444092.313
        44.0004         39.0004
  -3689166.47647  -2828940.60246  23824856.0074   23824863.5954   23824855.970
        42.0004         37.0004
  -1672689.61847  -1303691.26046  23809056.9384   23809064.7724   23809057.252
        43.0004         38.0004
 14  5  8  0 23  0.0000000  0 11G20G10G26G09G07G08G04G17G01G13G28
  -4326279.42147  -3323019.62046  23639547.9724   23639556.0934   23639547.754
        42.0004         37.0004
  -6876697.10047  -5349766.70946  24239081.6334   24239090.6074   24239081.578
        42.0004         38.0004
   -547494.26946   -407722.56746  24158053.0924   24158066.2434   24158052.980
        41.0004         37.0004
 -19910720.79249 -15468838.24748  20149570.8044   20149577.0384   20149570.705
        54.0004         49.0004
 -22801819.36048 -17737644.05148  20308066.6434   20308071.2714   20308066.062
        53.0004         49.0004
 -14328978.04149 -11149145.02648  20062145.4234   20062152.2904   20062146.019
        54.0004         49.0004
 -18972568.45448 -14724037.99047  21575460.9634   21575467.9004   21575460.356
        50.0004         45.0004
 -14993417.21348 -11621811.08047  22449785.3314   22449792.7084   22449784.924
        49.0004         45.0004
  -6740147.03547  -5226778.88346  23462331.2674   23462342.7344   23462330.600
        44.0004         39.0004
  -3612862.34347  -2769482.81746  23839376.6984   23839383.6324   23839376.410
        42.0004         37.0004
