     2.11           OBSERVATION DATA    G (GPS)             RINEX VERSION / TYPE
teqc  2013Mar15     gpsops              20140517 00:23:20UTCPGM / RUN BY / DATE
Linux 2.4.21-27.ELsmp|Opteron|gcc -static|Linux x86_64|=+   COMMENT
BIT 2 OF LLI FLAGS DATA COLLECTED UNDER A/S CONDITION       COMMENT
GLPS                                                        MARKER NAME
42005M002                                                   MARKER NUMBER
GGN                 JPL                                     OBSERVER / AGENCY
ZR220013847         ASHTECH UZ-12       CQ00                REC # / TYPE / VERS
CR519992104         ASH701945B_M    SCIT                    ANT # / TYPE
   -33801.4662 -6377516.5323   -82154.3508                  APPROX POSITION XYZ
        0.0083        0.0000        0.0000                  ANTENNA: DELTA H/E/N
     1     1                                                WAVELENGTH FACT L1/2
     7    L1    L2    P1    P2    C1    S1    S2            # / TYPES OF OBSERV
    30.0000                                                 INTERVAL
                                                            COMMENT
This data is provided as a public service by NASA/JPL.      COMMENT
No warranty is expressed or implied regarding suitability   COMMENT
for use.  For further information, contact:                 COMMENT
Dave Stowers, NASA/JPL m/s 238-600                          COMMENT
4800 Oak Grove Drive, Pasadena CA 91109 USA                 COMMENT
                                                            COMMENT
Forced Modulo Decimation to 30 seconds                      COMMENT
 SNR is mapped to RINEX snr flag value [0-9]                COMMENT
  L1 & L2: min(max(int(snr_dBHz/6), 0), 9)                  COMMENT
pseudorange smoothing corrections not applied               COMMENT
  2014     5    16     0     0    0.0000000     GPS         TIME OF FIRST OBS
                                                            END OF HEADER
 14  5 16  0  0  0.0000000  0 11G07G01G09G30G26G17G13G04G10G28G20
 -22294302.08748 -17343432.38948  20461309.7654   20461316.2634   20461309.478
        53.0004         48.0004
  -4494059.10447  -3472860.89846  23825303.2794   23825319.5804   23825303.021
        44.0004         39.0004
 -20599979.17749 -16038132.47748  20048776.8344   20048784.4134   20048776.925
        54.0004         49.0004
 -10294416.08349  -8005318.70348  20228651.6274   20228661.0934   20228651.648
        55.0004         50.0004
  -1842579.23947  -1413719.83546  24102731.4414   24102749.3194   24102730.313
        42.0004         37.0004
 -13349931.86948 -10351176.58647  22604533.6524   22604543.6984   22604533.337
        49.0004         44.0004
  -1622510.66946  -1204672.91446  24135224.7044   24135231.4004   24135223.259
        41.0004         37.0004
 -23286412.86948 -18083049.53747  21308164.9424   21308173.1664   21308164.803
        51.0004         46.0004
  -8077094.19947  -6283466.15546  24050556.8714   24050567.2344   24050557.094
        42.0004         38.0004
  -3447546.29947  -2686709.27546  23628974.7744   23628986.1924   23628975.051
        44.0004         39.0004
  -4577461.38146  -3504666.52646  23644074.3264   23644086.0384   23644074.730
        41.0004         37.0004
 14  5 16  0  0 30.0000000  0 11G07G01G09G30G26G17G13G04G10G28G20
 -22248265.87648 -17307559.98148  20470070.2824   20470076.6584   20470069.782
        53.0004         48.0004
  -4393737.90847  -3394688.62046  23844393.9274   23844409.7194   23844393.698
        44.0004         39.0004
 -20620811.91149 -16054365.70748  20044812.2084   20044820.3794   20044812.413
        54.0004         49.0004
 -10309992.78649  -8017456.33048  20225687.2174   20225696.7574   20225687.269
        55.0004         50.0004
  -1855874.77247  -1424079.76546  24100202.1294   24100219.1094   24100201.005
        42.0004         37.0004
 -13307952.63148 -10318465.53647  22612521.8754   22612532.7394   22612521.623
        49.0004         44.0004
  -1549729.32246  -1147960.08346  24149073.5294   24149081.1304   24149072.580
        41.0004         37.0004
 -23358217.47448 -18139001.09447  21294501.6654   21294508.7014   21294501.184
        51.0004         46.0004
  -8133422.58947  -6327358.24046  24039836.9494   24039847.8534   24039838.285
        42.0004         37.0004
  -3496297.53947  -2724697.04046  23619696.7574   23619710.4914   23619697.747
        44.0004         39.0004
  -4567150.51246  -3496632.06446  23646036.1444   23646046.7594   23646036.598
        41.0004         36.0004
 14  5 16  0  1  0.0000000  0 12G07G01G09G30G26G17G13G04G10G28G02G20
 -22201678.10648 -17271257.78548  20478935.5864   20478941.8564   20478935.104
        53.0004         48.0004
  -4293228.40847  -3316369.61046  23863520.6714   23863536.4994   23863520.254
        44.0004         39.0004
 -20641044.81749 -16070131.53848  20040961.8114   20040969.8674   20040962.163
        54.0004         49.0004
 -10325013.42249  -8029160.65948  20222829.1164   20222838.5414   20222829.239
        55.0004         50.0004
  -1868836.64947  -1434179.68346  24097733.0344   24097752.8764   24097732.816
        42.0004         37.0004
 -13265922.05848 -10285714.49447  22620519.9164   22620530.7264   22620519.453
        49.0004         44.0004
  -1477140.91646  -1091397.59846  24162886.3394   24162895.2974   24162885.731
        41.0004         36.0004
 -23429625.33448 -18194643.49547  21280912.9044   21280920.7694   21280912.336
        51.0004         46.0004
  -8189967.85947  -6371419.31646  24029077.8814   24029089.1634   24029078.249
        42.0004         38.0004
  -3545250.04347  -2762841.64646  23610383.1594   23610395.5114   23610381.865
        44.0004         39.0004
  -1147308.41747   -872073.56846  24030838.6494   24030848.2214   24030839.070
        46.0004         38.0004
  -4556596.90146  -3488408.45046  23648044.8454   23648055.4794   23648045.244
        41.0004         36.0004
 14  5 16  0  1 30.0000000  0 12G07G01G09G30G26G17G13G04G10G28G02G20
 -22154535.98648 -17234523.63148  20487906.4364   20487912.8944   20487905.942
        53.0004         48.0004
  -4192529.22447  -3237902.78146  23882683.5164   23882699.7164   23882682.582
        43.0004         39.0004
 -20660672.86849 -16085426.05648  20037227.0084   20037234.2674   20037227.035
        54.0004         49.0004
 -10339472.98449  -8040427.78548  20220077.6014   20220086.7144   20220077.242
        55.0004         50.0004
  -1881461.93446  -1444017.35046  24095330.2274   24095347.0294   24095331.644
        41.0004         37.0004
 -13223838.46248 -10252922.12647  22628529.2454   22628540.6614   22628528.042
        49.0004         44.0004
  -1404742.54346  -1034983.20046  24176664.6754   24176671.8514   24176662.475
        41.0004         36.0004
 -23500630.03448 -18249971.74247  21267400.9624   21267408.7144   21267400.734
        51.0004         46.0004
  -8246724.97447  -6415645.47446  24018274.9894   24018287.9844   24018276.102
        42.0004         37.0004
  -3594398.27747  -2801138.76046  23601029.9184   23601042.9634   23601029.787
        44.0004         39.0004
  -1240669.30147   -944822.06846  24013073.4864   24013082.5044   24013073.847
        44.0004         38.0004
  -4545794.98846  -3479991.36346  23650101.1114   23650110.7374   23650100.666
        41.0004         36.0004
 14  5 16  0  2  0.0000000  0 12G07G01G09G30G26G17G13G04G10G28G02G20
 -22106844.10548 -17197361.08548  20496981.7564   20496988.2994   20496981.505
        53.0004         48.0004
  -4091645.58747  -3159292.22546  23901881.1624   23901897.6164   23901880.079
        44.0004         39.0004
 -20679698.16249 -16100250.88548  20033606.3944   20033614.3334   20033606.468
        54.0004         49.0004
 -10353373.37849  -8051259.19648  20217432.6194   20217441.2104   20217432.417
        55.0004         50.0004
  -1893754.92646  -1453596.06746  24092991.1634   24093009.7344   24092990.612
        41.0004         37.0004
 -13181706.86748 -10220092.36547  22636545.4884   22636557.0414   22636545.062
        49.0004         44.0004
  -1332538.60746   -978720.29746  24190403.8844   24190410.9014   24190402.302
        41.0004         36.0004
 -23571231.76048 -18304985.98247  21253966.0634   21253973.6614   21253965.675
        51.0004         46.0004
  -8303695.33047  -6460037.78746  24007434.7734   24007444.6814   24007435.461
        42.0004         37.0004
  -3643743.39047  -2839589.28646  23591638.8904   23591650.6154   23591639.267
        44.0004         39.0004
  -1333867.17947  -1017443.57646  23995337.5344   23995346.3064   23995338.117
        43.0004         38.0004
  -4534745.79146  -3471381.55346  23652201.5664   23652216.1044   23652203.121
        41.0004         36.0004
 14  5 16  0  2 30.0000000  0 12G07G01G09G30G26G17G13G04G10G28G02G20
 -22058601.66148 -17159769.53248  20506162.0484   20506168.1904   20506161.595
        53.0004         48.0004
  -3990577.87147  -3080538.23546  23921112.4444   23921129.8974   23921112.540
        44.0004         39.0004
 -20698117.77949 -16114603.76348  20030101.2614   20030108.8834   20030101.340
        54.0004         49.0004
 -10366711.47349  -8061652.45348  20214894.1644   20214903.3334   20214893.876
        55.0004         50.0004
  -1905714.46446  -1462914.94146  24090714.8554   24090733.2734   24090716.342
        41.0004         37.0004
 -13139527.06148 -10187225.03047  22644572.0584   22644584.1674   22644571.327
        49.0004         44.0004
  -1260528.04646   -922608.09946  24204103.8234   24204115.4244   24204105.345
        41.0004         36.0004
 -23641425.78648 -18359682.53447  21240607.7954   21240616.0304   21240608.079
        51.0004         46.0004
  -8360875.78147  -6504593.81946  23996553.3724   23996565.3584   23996554.543
        42.0004         38.0004
  -3693281.49947  -2878190.19046  23582211.9204   23582223.3314   23582211.817
        44.0004         39.0004
  -1426897.97547  -1089934.88746  23977634.6824   23977643.8204   23977634.699
        43.0004         38.0004
  -4523445.53546  -3462576.14546  23654353.2074   23654365.4314   23654353.270
        41.0004         36.0004
 14  5 16  0  3  0.0000000  0 12G07G01G09G30G26G17G13G04G10G28G02G20
 -22009811.41448 -17121751.12248  20515446.4954   20515452.9364   20515445.926
        53.0004         48.0004
  -3889329.60247  -3001643.54546  23940380.2694   23940396.7844   23940379.542
        43.0004         39.0004
 -20715931.74749 -16128484.70548  20026711.4044   20026719.1234   20026711.539
        54.0004         49.0004
 -10379487.46549  -8071607.70648  20212463.1284   20212472.2644   20212462.821
        55.0004         50.0004
  -1917343.03646  -1471975.91246  24088502.6094   24088521.2944   24088501.682
        41.0004         37.0004
 -13097303.10548 -10154323.30147  22652607.5624   22652618.8384   22652606.917
        49.0004         44.0004
  -1188713.06346   -866648.28346  24217771.4394   24217780.3944   24217771.074
        41.0004         36.0004
 -23711210.89448 -18414060.44847  21227328.6124   21227336.6434   21227328.376
        51.0004         46.0004
  -8418266.46247  -6549313.64946  23985632.0734   23985642.4814   23985633.400
        42.0004         38.0004
  -3743011.91747  -2916940.93346  23572748.2894   23572760.9804   23572748.629
        44.0004         39.0004
  -1519759.89247  -1162294.60446  23959964.5174   23959973.0934   23959963.356
        42.0004         38.0004
  -4511893.64046  -3453574.65446  23656549.9324   23656563.6034   23656550.825
        41.0004         36.0004
 14  5 16  0  3 30.0000000  0 12G07G01G09G30G26G17G13G04G10G28G02G20
 -21960476.60548 -17083308.37848  20524834.4634   20524840.9744   20524834.314
        53.0004         48.0004
  -3787904.95847  -2922611.43046  23959681.0904   23959697.5814   23959680.528
        43.0004         39.0004
 -20733140.96949 -16141894.41748  20023436.6474   20023444.2584   20023436.527
        54.0004         49.0004
 -10391702.04449  -8081125.49948  20210138.3734   20210147.5434   20210138.270
        55.0004         50.0004
  -1928643.45546  -1480781.18446  24086353.6704   24086371.0444   24086352.063
        41.0004         37.0004
 -13055038.59948 -10121389.96847  22660649.9704   22660661.3594   22660649.800
        49.0004         44.0004
  -1117096.49046   -810843.05646  24231399.0154   24231407.3474   24231399.431
        41.0004         36.0004
 -23780586.13248 -18468118.98847  21214127.7174   21214134.8944   21214126.663
        51.0004         47.0004
  -8475867.74947  -6594197.60346  23974670.8724   23974682.5114   23974671.648
        43.0004         38.0004
  -3792934.90847  -2955841.75146  23563248.8344   23563260.8354   23563248.360
        44.0004         39.0004
  -1612451.90047  -1234521.93446  23942323.6294   23942334.4644   23942323.999
        42.0004         38.0004
  -4500090.36846  -3444377.27146  23658797.6244   23658810.2384   23658797.848
        41.0004         36.0004
 14  5 16  0  4  0.0000000  0 12G07G01G09G30G26G17G13G04G10G28G02G20
 -21910596.81948 -17044440.97948  20534326.1014   20534332.9124   20534325.624
        53.0004         48.0004
  -3686304.32547  -2843442.14346  23979016.3104   23979031.0194   23979014.433
        43.0004         39.0004
 -20749742.62449 -16154830.70348  20020277.0994   20020285.1284   20020277.202
        54.0004         49.0004
 -10403352.36449  -8090203.60848  20207921.6794   20207930.7154   20207921.481
        55.0004         50.0004
  -1939614.99346  -1489330.16546  24084263.5884   24084280.4104   24084263.806
        41.0004         37.0004
 -13012733.91648 -10088425.32547  22668700.1564   22668711.5504   22668699.857
        49.0004         44.0004
  -1045677.68546   -755191.94945  24244990.8814   24245000.1494   24244989.912
        40.0004         35.0004
 -23849546.62248 -18521854.34047  21201004.3854   21201012.1344   21201003.914
        51.0004         47.0004
  -8533676.54247  -6639243.25246  23963671.0734   23963681.4234   23963671.216
        43.0004         38.0004
  -3843046.46547  -2994889.47746  23553710.9434   23553724.5734   23553712.125
        44.0004         40.0004
  -1704969.40147  -1306613.27346  23924718.3754   23924727.6724   23924718.807
        42.0004         38.0004
  -4488031.44946  -3434980.68946  23661091.4504   23661103.4784   23661092.118
        41.0004         37.0004
 14  5 16  0  4 30.0000000  0 12G07G01G09G30G26G17G13G04G10G28G02G20
 -21860174.72148 -17005151.00248  20543921.2664   20543927.5024   20543920.767
        53.0004         48.0004
  -3584531.31547  -2764138.57546  23998380.5704   23998398.3814   23998381.041
        43.0004         39.0004
 -20765736.82349 -16167293.64848  20017233.5444   20017241.2294   20017233.749
        54.0004         49.0004
 -10414438.57149  -8098842.14748  20205811.9644   20205820.5024   20205811.658
        55.0004         50.0004
  -1950259.94646  -1497624.67546  24082239.1994   24082257.0594   24082238.166
        41.0004         37.0004
 -12970391.92348 -10055431.61347  22676757.7254   22676769.2624   22676757.363
        49.0004         44.0004
   -974458.65146   -699696.50245  24258542.5004   24258552.8064   24258542.236
        40.0004         35.0004
 -23918091.24948 -18575265.64347  21187960.2334   21187968.2484   21187960.214
        51.0004         47.0004
  -8591692.69947  -6684450.46846  23952629.8794   23952641.0754   23952630.945
        43.0004         38.0004
  -3893345.76247  -3034083.48146  23544139.0244   23544152.4144   23544139.820
        44.0004         40.0004
  -1797311.11347  -1378567.64146  23907146.7024   23907154.5224   23907146.760
        43.0004         38.0004
  -4475716.33046  -3425384.45746  23663435.2294   23663446.7244   23663436.630
        41.0004         36.0004
 14  5 16  0  5  0.0000000  0 12G07G01G09G30G26G17G13G04G10G28G02G20
 -21809213.90748 -16965441.23948  20553618.3574   20553625.0204   20553618.071
        53.0004         48.0004
  -3482590.33047  -2684704.10446  24017779.3894   24017796.6584   24017779.879
        43.0004         39.0004
 -20781124.83049 -16179284.22348  20014305.0614   20014312.9824   20014305.179
        54.0004         49.0004
 -10424961.86749  -8107042.05748  20203809.0754   20203818.3354   20203809.287
        55.0004         50.0004
  -1960581.61646  -1505667.25146  24080274.3414   24080291.8154   24080274.105
        41.0004         37.0004
 -12928017.15448 -10022412.36147  22684822.1364   22684832.2094   22684820.890
        49.0004         44.0004
   -903442.85346   -644359.42345  24272055.3094   24272066.6694   24272056.371
        40.0004         35.0004
 -23986219.59048 -18628352.57347  21174996.6284   21175004.2104   21174995.889
        51.0004         47.0004
  -8649916.96947  -6729819.86446  23941550.4234   23941561.5284   23941550.798
        43.0004         38.0004
  -3943833.28247  -3073424.16746  23534533.3914   23534544.7984   23534532.700
        44.0004         40.0004
  -1889476.36847  -1450384.51946  23889608.9524   23889616.3854   23889607.318
        43.0004         38.0004
  -4463145.53546  -3415589.02446  23665828.3744   23665838.8334   23665828.773
        41.0004         37.0004
 14  5 16  0  5 30.0000000  0 12G07G01G09G30G26G17G13G04G10G28G02G20
 -21757712.25948 -16925310.05348  20563419.1404   20563425.3834   20563418.622
        53.0004         48.0004
  -3380480.08947  -2605137.73146  24037210.7414   24037227.3614   24037210.767
        43.0004         39.0004
 -20795902.17649 -16190798.97148  20011493.4874   20011500.9674   20011493.642
        54.0004         49.0004
 -10434917.71349  -8114799.79448  20201914.6034   20201923.6134   20201914.333
        55.0004         50.0004
  -1970577.62446  -1513456.08146  24078370.1574   24078388.7164   24078371.175
        41.0004         37.0004
 -12885607.79548  -9989366.14547  22692891.8244   22692903.6974   22692891.653
        49.0004         44.0004
   -832627.55046   -589178.57946  24285532.1714   24285538.3164   24285531.868
        40.0004         36.0004
 -24053925.25648 -18681110.14247  21162112.0554   21162120.0844   21162111.796
        51.0004         47.0004
  -8708344.64447  -6775347.75846  23930431.0114   23930442.4484   23930432.385
        43.0004         38.0004
  -3994503.35747  -3112907.10346  23524890.6704   23524902.2024   23524890.801
        45.0004         40.0004
  -1981459.20647  -1522059.24346  23872103.7764   23872112.2784   23872103.822
        43.0004         38.0004
  -4450313.63146  -3405590.11546  23668269.1704   23668281.0284   23668270.427
        41.0004         36.0004
 14  5 16  0  6  0.0000000  0 12G07G01G09G30G26G17G13G04G10G28G02G20
 -21705675.48348 -16884761.87648  20573321.3384   20573327.6744   20573320.777
        53.0004         48.0004
  -3278207.10947  -2525444.55146  24056673.6064   24056689.6504   24056673.195
        43.0004         39.0004
 -20810072.03649 -16201840.34048  20008796.6014   20008804.3934   20008796.803
        54.0004         49.0004
 -10444309.29349  -8122117.84948  20200127.3544   20200136.3904   20200127.428
        55.0004         50.0004
  -1980253.15746  -1520995.17746  24076530.4474   24076547.9654   24076529.740
        41.0004         37.0004
 -12843170.29748  -9956298.00947  22700968.0134   22700978.5384   22700967.004
        49.0004         44.0004
   -762017.95146   -534158.01746  24298969.0434   24298977.6984   24298968.270
        40.0004         36.0004
 -24121209.88648 -18733539.62647  21149308.1894   21149315.4164   21149308.052
        51.0004         47.0004
  -8766978.19047  -6821036.05946  23919273.4564   23919283.9974   23919274.668
        43.0004         39.0004
  -4045358.63247  -3152534.36146  23515213.1874   23515224.7314   23515212.972
        45.0004         40.0004
  -2073260.96547  -1593592.87346  23854634.8854   23854643.6634   23854635.037
        43.0004         38.0004
  -4437222.93746  -3395389.54046  23670760.8364   23670771.9384   23670761.057
        41.0004         37.0004
 14  5 16  0  6 30.0000000  0 12G07G01G09G30G26G17G13G04G10G28G02G20
 -21653102.91748 -16843796.20448  20583325.8804   20583332.1864   20583325.296
        53.0004         48.0004
  -3175771.29047  -2445624.48346  24076166.7194   24076182.4364   24076166.037
        43.0004         39.0004
 -20823631.38449 -16212405.99148  20006216.3164   20006224.4194   20006216.362
        54.0004         49.0004
 -10453133.37749  -8128993.69248  20198448.2914   20198457.2694   20198448.266
        55.0004         50.0004
  -1989607.09446  -1528283.68446  24074747.5534   24074767.9204   24074748.880
        41.0004         36.0004
 -12800704.27248  -9923207.65047  22709048.2584   22709059.5354   22709048.468
        49.0004         44.0004
   -691612.51746   -479296.54846  24312366.1264   24312374.0174   24312366.005
        40.0004         36.0004
 -24188068.34548 -18785637.03947  21136585.3574   21136593.1184   21136585.072
        51.0004         47.0004
  -8825813.67247  -6866881.71746  23908077.4034   23908089.4464   23908078.099
        43.0004         39.0004
  -4096394.12847  -3192302.05646  23505500.0514   23505513.3784   23505500.664
        45.0004         40.0004
  -2164876.80647  -1664981.63946  23837201.4644   23837209.7864   23837201.842
        43.0004         39.0004
  -4423869.21546  -3384984.02746  23673302.1134   23673314.2174   23673301.433
        41.0004         37.0004
 14  5 16  0  7  0.0000000  0 12G07G01G09G30G26G17G13G04G10G28G02G20
 -21599996.88448 -16802414.84748  20593431.3154   20593437.8144   20593430.960
        53.0004         48.0004
  -3073175.93047  -2365680.11046  24095689.4304   24095705.9234   24095689.347
        44.0004         39.0004
 -20836580.62749 -16222496.23548  20003752.3624   20003759.4224   20003752.387
        54.0004         49.0004
 -10461390.03049  -8135427.38348  20196876.8264   20196885.8794   20196876.926
        55.0004         50.0004
  -1998641.61146  -1535323.29446  24073030.7734   24073047.1644   24073030.099
        41.0004         37.0004
 -12758212.62748  -9890097.30847  22717134.4284   22717145.7064   22717134.071
        49.0004         44.0004
   -621413.15446   -424595.64845  24325726.3394   24325733.5754   24325723.863
        40.0004         35.0004
 -24254499.12648 -18837401.19147  21123943.7484   21123951.8854   21123943.611
        52.0004         47.0004
  -8884850.93047  -6912884.59646  23896844.2014   23896855.4054   23896844.043
        44.0004         39.0004
  -4147608.99847  -3232209.52846  23495755.5154   23495766.3144   23495755.143
        45.0004         40.0004
  -2256304.74847  -1736223.98246  23819802.7524   23819810.3834   23819803.167
        43.0004         39.0004
  -4410251.70946  -3374372.97546  23675892.4764   23675905.0684   23675893.740
        41.0004         36.0004
 14  5 16  0  7 30.0000000  0 12G07G01G09G30G26G17G13G04G10G28G02G20
 -21546361.21148 -16760620.77848  20603637.9964   20603644.3294   20603637.561
        53.0004         48.0004
  -2970425.65447  -2285615.00346  24115242.4254   24115258.3244   24115242.016
        44.0004         39.0004
 -20848921.26649 -16232112.24248  20001403.9474   20001411.3554   20001403.645
        54.0004         49.0004
 -10469080.68849  -8141420.04348  20195413.4504   20195422.5934   20195413.164
        55.0004         50.0004
  -2007360.18246  -1542116.68546  24071371.9244   24071390.0674   24071371.761
        41.0004         37.0004
 -12715699.78848  -9856970.46647  22725224.4884   22725236.7924   22725224.015
        49.0004         44.0004
   -551423.16946   -370057.89945  24339042.2934   24339052.0044   24339042.906
        40.0004         35.0004
 -24320501.95048 -18888831.87147  21111384.0234   21111392.0384   21111383.461
        52.0004         47.0004
  -8944090.70247  -6959045.28146  23885569.3464   23885580.8044   23885571.051
        44.0004         39.0004
  -4199003.73147  -3272257.16446  23485973.8674   23485986.0754   23485974.264
        45.0004         40.0004
  -2347544.42947  -1807319.63346  23802439.2224   23802447.8474   23802440.223
        43.0004         39.0004
  -4396370.88846  -3363556.72646  23678535.5994   23678545.3324   23678534.546
        41.0004         37.0004
 14  5 16  0  8  0.0000000  0 12G07G01G09G30G26G17G13G04G10G28G02G20
 -21492195.49748 -16718413.69548  20613945.4104   20613951.4824   20613944.542
        53.0004         48.0004
  -2867520.61647  -2205429.30446  24134825.0814   24134841.8394   24134823.881
        44.0004         39.0004
 -20860650.24849 -16241251.63148  19999171.8334   19999179.1254   19999171.726
        54.0004         49.0004
 -10476202.39749  -8146969.36248  20194058.0544   20194067.0894   20194058.125
        55.0004         50.0004
  -2015761.92946  -1548663.21846  24069772.3564   24069787.6574   24069771.340
        41.0004         37.0004
 -12673165.58448  -9823826.97047  22733318.4884   22733328.6624   22733318.054
        49.0004         44.0004
   -481641.40546   -315682.40845  24352325.1434   24352330.0984   24352322.333
        40.0004         35.0004
 -24386072.18348 -18939925.46947  21098905.8244   21098914.4314   21098905.751
        52.0004         47.0004
  -9003529.56847  -7005361.10846  23874259.7014   23874270.6264   23874259.970
        44.0004         39.0004
  -4250573.94347  -3312441.52646  23476160.8734   23476172.6284   23476160.812
        45.0004         40.0004
  -2438591.13247  -1878264.90846  23785114.0544   23785121.6784   23785114.102
        43.0004         39.0004
  -4382223.00046  -3352532.39046  23681226.1504   23681236.1994   23681227.203
        41.0004         36.0004
 14  5 16  0  8 30.0000000  0 12G07G01G09G30G26G17G13G04G10G28G02G20
 -21437502.99648 -16675796.12548  20624352.9954   20624358.9424   20624352.057
        53.0004         48.0004
  -2764464.94447  -2125126.21946  24154435.4364   24154452.5244   24154434.863
        44.0004         39.0004
 -20871768.76749 -16249915.33948  19997056.0304   19997063.3304   19997055.895
        54.0004         49.0004
 -10482756.20649  -8152076.16148  20192811.0704   20192819.6904   20192810.853
        55.0004         50.0004
  -2023849.80346  -1554965.16346  24068234.2124   24068250.8724   24068232.903
        41.0004         37.0004
 -12630613.74848  -9790669.72147  22741416.3224   22741427.8984   22741415.185
        49.0004         44.0004
   -412070.46446   -261471.20845  24365560.3764   24365568.6184   24365560.985
        40.0004         35.0004
 -24451209.00148 -18990681.33247  21086511.0774   21086518.3234   21086510.400
        52.0004         47.0004
  -9063167.90647  -7051832.36846  23862911.3394   23862920.7384   23862911.799
        44.0004         39.0004
  -4302319.54747  -3352762.57846  23466313.1764   23466324.9104   23466314.185
        45.0004         40.0004
  -2529443.97847  -1949059.12246  23767825.3984   23767833.9454   23767825.685
        43.0004         39.0004
  -4367808.15546  -3341300.03546  23683969.4934   23683980.8144   23683970.219
        41.0004         36.0004
 14  5 16  0  9  0.0000000  0 12G07G01G09G30G26G17G13G04G10G28G02G20
 -21382284.84148 -16632768.95748  20634860.4914   20634866.8394   20634860.317
        53.0004         48.0004
  -2661260.09347  -2044706.89446  24174075.0404   24174090.8484   24174074.087
        43.0004         39.0004
 -20882275.21949 -16258102.10748  19995056.4944   19995063.9774   19995056.518
        54.0004         50.0004
 -10488740.44549  -8156739.13748  20191672.0874   20191681.2924   20191672.278
        55.0004         50.0004
  -2031624.16546  -1561022.80446  24066753.5634   24066771.2864   24066752.772
        41.0004         37.0004
 -12588045.65948  -9757499.82547  22749516.0384   22749527.7454   22749515.938
        49.0004         44.0004
   -342710.55846   -207424.42246  24378758.2464   24378769.9874   24378760.378
        40.0004         36.0004
 -24515909.15148 -19041096.94647  21074199.1864   21074207.1324   21074198.557
        52.0004         47.0004
  -9123003.38947  -7098457.24146  23851523.5794   23851535.2684   23851524.964
        44.0004         39.0004
  -4354237.59747  -3393218.01146  23456433.5334   23456445.3634   23456434.680
        45.0004         40.0004
  -2620099.59347  -2019699.64146  23750572.8764   23750583.1424   23750574.559
        43.0004         39.0004
  -4353123.74546  -3329857.60746  23686765.5674   23686773.5114   23686765.191
        41.0004         36.0004
 14  5 16  0  9 30.0000000  0 12G07G01G09G30G26G17G13G04G10G28G02G20
 -21326543.07448 -16589333.77248  20645467.7694   20645473.8874   20645467.151
        53.0004         48.0004
  -2557908.83947  -1964173.50346  24193742.5864   24193758.1834   24193740.869
        43.0004         38.0004
 -20892169.54149 -16265811.89348  19993173.5914   19993181.1784   19993173.755
        54.0004         49.0004
 -10494154.82749  -8160958.06948  20190641.5204   20190650.4114   20190641.541
        55.0004         50.0004
  -2039086.89946  -1566837.60346  24065331.9064   24065348.8854   24065332.615
        41.0004         37.0004
 -12545463.48048  -9724318.94847  22757618.9424   22757630.9984   22757618.748
        49.0004         44.0004
   -273562.78246   -153542.97345  24391918.0124   24391925.3794   24391918.299
        40.0004         35.0004
 -24580170.46448 -19091170.61347  21061970.6474   21061977.7974   21061970.023
        52.0004         47.0004
  -9183034.94947  -7145234.89946  23840100.8674   23840111.8594   23840101.347
        44.0004         39.0004
  -4406326.57647  -3433806.63846  23446521.6244   23446534.1674   23446522.015
        45.0004         40.0004
  -2710555.61447  -2090184.63546  23733360.0024   23733369.1954   23733360.777
        43.0004         39.0004
  -4338168.54846  -3318204.21046  23689609.9904   23689621.9374   23689610.472
        41.0004         36.0004
 14  5 16  0 10  0.0000000  0 12G07G01G09G30G26G17G13G04G10G28G02G20
 -21270281.55848 -16545493.59348  20656173.8034   20656180.1814   20656173.770
        53.0004         48.0004
  -2454415.68747  -1883529.53046  24213435.9984   24213452.0934   24213435.371
        43.0004         38.0004
 -20901453.17049 -16273045.81448  19991406.9844   19991414.6374   19991406.999
        54.0004         49.0004
 -10499000.83749  -8164734.11848  20189719.4614   20189728.5834   20189719.491
        55.0004         50.0004
  -2046241.36247  -1572412.21446  24063972.0824   24063988.9194   24063970.854
        42.0004         37.0004
 -12502871.59948  -9691130.49547  22765723.4274   22765736.1044   22765723.956
        49.0004         44.0004
   -204630.30046    -99829.26545  24405035.5914   24405044.3104   24405035.127
        40.0004         35.0004
 -24643992.58648 -19140902.04847  21049824.9804   21049833.0174   21049824.646
        52.0004         47.0004
  -9243263.27247  -7192165.88746  23828639.3364   23828649.5054   23828639.812
        44.0004         39.0004
  -4458586.72347  -3474528.66046  23436577.2514   23436588.9854   23436576.927
        45.0004         41.0004
  -2800811.63347  -2160513.80146  23716185.2924   23716193.8264   23716185.006
        43.0004         39.0004
  -4322942.55646  -3306339.79046  23692510.0144   23692516.1574   23692507.266
        40.0004         36.0004
 14  5 16  0 10 30.0000000  0 12G07G01G09G30G26G17G13G04G10G28G02G20
 -21213500.46248 -16501248.54148  20666978.9044   20666985.3564   20666978.165
        53.0004         48.0004
  -2350781.52847  -1802775.66746  24233156.6374   24233174.0084   24233156.296
        42.0004         38.0004
 -20910124.01449 -16279802.24248  19989757.1184   19989764.4454   19989756.851
        54.0004         49.0004
 -10503276.34349  -8168065.61348  20188905.7364   20188914.3464   20188905.761
        55.0004         50.0004
  -2053087.32447  -1577746.42446  24062668.0874   24062685.3114   24062668.246
        42.0004         37.0004
 -12460270.59948  -9657934.94947  22773830.0784   22773842.2744   22773830.423
        48.0004         44.0004
   -135912.51246    -46282.86045  24418112.6744   24418121.1354   24418112.074
        40.0004         35.0004
 -24707371.68248 -19190288.26747  21037764.6734   21037772.3554   21037764.553
        52.0004         47.0004
  -9303685.31347  -7239247.82646  23817140.9824   23817151.7044   23817141.460
        43.0004         39.0004
  -4511014.61447  -3515381.39946  23426599.8574   23426611.5004   23426600.357
        45.0004         41.0004
  -2890863.56147  -2230683.92846  23699047.8314   23699056.3264   23699048.921
        43.0004         39.0004
  -4307443.01146  -3294262.21145  23695454.2854   23695466.9224   23695456.561
        40.0004         35.0004
 14  5 16  0 11  0.0000000  0 12G07G01G09G30G26G17G13G04G10G28G02G20
 -21156201.55948 -16456600.01348  20677883.0144   20677888.5984   20677882.401
        53.0004         48.0004
  -2247008.64747  -1721913.70446  24252905.0984   24252919.1384   24252903.304
        42.0004         38.0004
 -20918181.58249 -16286080.78948  19988223.4564   19988230.9154   19988223.525
        54.0004         49.0004
 -10506980.67349  -8170952.04048  20188200.9954   20188209.9374   20188200.911
        55.0004         50.0004
  -2059626.19047  -1582841.34746  24061423.4074   24061440.8634   24061424.013
        42.0004         37.0004
 -12417662.22448  -9624733.65247  22781938.5214   22781950.2354   22781938.809
        49.0004         44.0004
    -67410.56146      7095.37245  24431149.3144   24431154.3624   24431147.684
        40.0004         35.0004
 -24770304.92948 -19239327.08147  21025788.7164   21025796.3974   21025788.323
        52.0004         47.0004
  -9364299.66447  -7286479.60846  23805606.4694   23805616.7204   23805606.752
        43.0004         39.0004
  -4563607.45947  -3556362.69646  23416591.6744   23416603.1334   23416592.509
        45.0004         41.0004
  -2980709.13347  -2300693.25146  23681951.9284   23681959.2264   23681951.655
        43.0004         39.0004
  -4291668.33946  -3281970.26345  23698459.9764   23698470.0114   23698458.999
        40.0004         35.0004
 14  5 16  0 11 30.0000000  0 12G07G01G09G30G26G17G13G04G10G28G02G20
 -21098387.78848 -16411550.30048  20688884.1284   20688890.3424   20688883.608
        53.0004         48.0004
  -2143100.45447  -1640946.30546  24272677.4264   24272694.4144   24272676.537
        42.0004         37.0004
 -20925626.54749 -16291881.99048  19986806.7864   19986814.1384   19986806.834
        54.0004         49.0004
 -10510114.37049  -8173393.81348  20187604.3774   20187613.3604   20187604.537
        55.0004         50.0004
  -2065860.36047  -1587698.82946  24060237.1914   24060253.7484   24060237.150
        42.0004         38.0004
 -12375049.65148  -9591529.09547  22790047.6494   22790059.5754   22790047.589
        48.0004         44.0004
       873.86046     60304.09845  24444140.8924   24444151.7854   24444141.012
        40.0004         35.0004
 -24832791.60448 -19288017.90847  21013897.6654   21013905.3854   21013897.346
        52.0004         47.0004
  -9425105.77547  -7333860.81846  23794034.6734   23794044.6254   23794036.270
        43.0004         39.0004
  -4616364.93147  -3597472.27646  23406552.6864   23406564.1324   23406552.525
        45.0004         40.0004
  -3070346.18447  -2370540.10846  23664894.0674   23664900.9854   23664894.425
        43.0004         39.0004
  -4275617.83146  -3269463.34545  23701511.5094   23701523.1924   23701513.525
        40.0004         35.0004
 14  5 16  0 12  0.0000000  0 12G07G01G09G30G26G17G13G04G10G28G02G20
 -21040061.31748 -16366101.06748  20699983.2904   20699989.5434   20699983.025
        53.0004         48.0004
  -2039059.61847  -1559875.52146  24292474.2484   24292491.4684   24292474.920
        42.0004         37.0004
 -20932458.71049 -16297205.67848  19985506.5414   19985514.1334   19985506.786
        54.0004         49.0004
 -10512677.06949  -8175390.66048  20187116.8204   20187125.8344   20187116.670
        55.0004         50.0004
  -2071791.45347  -1592320.15946  24059108.9724   24059124.4594   24059108.739
        43.0004         38.0004
 -12332435.22148  -9558323.08147  22798157.0964   22798169.2854   22798157.395
        48.0004         44.0004
     68939.66646    113342.48345  24457093.5304   24457101.3924   24457093.241
        40.0004         35.0004
 -24894829.09248 -19336358.72647  21002092.6184   21002100.5554   21002091.879
        52.0004         47.0004
  -9486102.53447  -7381390.57546  23782427.5724   23782437.8594   23782428.191
        43.0004         39.0004
  -4669285.09247  -3638708.64446  23396481.3184   23396493.0014   23396482.205
        45.0004         40.0004
  -3159772.54047  -2440222.77146  23647876.2354   23647885.1074   23647877.381
        44.0004         39.0004
  -4259289.92746  -3256740.30945  23704622.3594   23704630.3324   23704620.715
        40.0004         35.0004
 14  5 16  0 12 30.0000000  0 12G07G01G09G30G26G17G13G04G10G28G02G20
 -20981224.57548 -16320254.18748  20711179.3024   20711185.6694   20711178.935
        53.0004         48.0004
  -1934888.95046  -1478703.58146  24312300.1104   24312315.1294   24312297.899
        41.0004         37.0004
 -20938678.08949 -16302051.87448  19984322.9814   19984330.3024   19984323.030
        54.0004         49.0004
 -10514668.78249  -8176942.58048  20186737.6754   20186746.7564   20186737.707
        55.0004         50.0004
  -2077421.30447  -1596706.73746  24058036.5424   24058052.9214   24058036.631
        43.0004         38.0004
 -12289821.30948  -9525117.46147  22806267.1644   22806278.6414   22806266.104
        49.0004         44.0004
    136785.33846    166209.32345  24470005.4704   24470013.5064   24470003.626
        40.0004         35.0004
 -24956415.83048 -19384348.31147  20990372.4784   20990380.2844   20990372.408
        52.0004         47.0004
  -9547289.05247  -7429068.21346  23770784.4164   23770794.3084   23770784.578
        43.0004         39.0004
  -4722366.50747  -3680070.67846  23386380.4584   23386392.1954   23386381.168
        45.0004         40.0004
  -3248986.60447  -2509740.02446  23630899.8584   23630907.3394   23630900.528
        44.0004         39.0004
  -4242683.91446  -3243800.54645  23707780.5744   23707789.0684   23707780.309
        40.0004         35.0004
 14  5 16  0 13  0.0000000  0 12G07G01G09G30G26G17G13G04G10G28G02G20
 -20921878.95348 -16274010.80748  20722472.1864   20722478.9994   20722472.143
        52.0004         48.0004
  -1830590.37746  -1397431.95146  24332146.4254   24332160.5984   24332145.614
        41.0004         37.0004
 -20944284.01949 -16306420.05248  19983256.2054   19983263.4964   19983256.349
        54.0004         50.0004
 -10516088.60649  -8178048.87448  20186467.7784   20186476.4734   20186467.451
        55.0004         50.0004
  -2082751.02047  -1600859.47746  24057021.9304   24057038.9704   24057022.508
        43.0004         38.0004
 -12247209.73548  -9491913.67047  22814376.0614   22814386.7894   22814374.485
        49.0004         44.0004
    204410.77446    218904.55745  24482873.5104   24482880.4164   24482872.170
        40.0004         35.0004
 -25017548.81848 -19431984.32647  20978739.7644   20978747.3344   20978738.775
        52.0004         47.0004
  -9608663.07047  -7476891.95346  23759105.4064   23759115.3304   23759105.589
        44.0004         39.0004
  -4775606.69547  -3721556.41646  23376248.6204   23376260.4004   23376249.592
        45.0004         40.0004
  -3337985.10947  -2579089.29546  23613963.5774   23613971.8544   23613963.886
        44.0004         39.0004
  -4225797.54646  -3230642.31645  23710991.7684   23711004.7084   23710993.684
        40.0004         35.0004
 14  5 16  0 13 30.0000000  0 12G07G01G09G30G26G17G13G04G10G28G02G20
 -20862025.53548 -16227371.74348  20733862.1304   20733868.8524   20733861.793
        52.0004         48.0004
  -1726165.68046  -1316062.04746  24352015.7634   24352031.7194   24352016.783
        41.0004         36.0004
 -20949275.37949 -16310309.35148  19982306.5824   19982313.2984   19982306.487
        54.0004         49.0004
 -10516935.39949  -8178708.65148  20186306.4824   20186315.3434   20186306.296
        55.0004         50.0004
  -2087781.27847  -1604778.83246  24056065.4884   24056080.9754   24056064.156
        43.0004         38.0004
 -12204601.85348  -9458712.75847  22822483.5874   22822494.3034   22822482.724
        48.0004         44.0004
    271815.29146    271427.65445  24495700.8594   24495710.4744   24495698.911
        40.0004         35.0004
 -25078225.04048 -19479264.41647  20967193.3164   20967200.7964   20967192.997
        52.0004         47.0004
  -9670222.70447  -7524860.32346  23747391.2754   23747400.1764   23747391.289
        44.0004         39.0004
  -4829002.49147  -3763163.41046  23366088.7154   23366099.3514   23366088.852
        45.0004         40.0004
  -3426764.67147  -2648267.98146  23597069.2814   23597077.7274   23597069.095
        44.0004         39.0004
  -4208628.62946  -3217263.96245  23714260.6094   23714272.6374   23714261.100
        40.0004         35.0004
 14  5 16  0 14  0.0000000  0 12G07G01G09G30G26G17G13G04G10G28G02G20
 -20801668.89248 -16180340.55248  20745347.8934   20745353.8544   20745347.222
        52.0004         48.0004
  -1621619.75546  -1234597.68746  24371913.4024   24371929.2604   24371911.182
        41.0004         36.0004
 -20953654.60549 -16313721.65748  19981473.1184   19981480.5534   19981472.978
        54.0004         50.0004
 -10517211.30349  -8178923.58248  20186253.8684   20186262.8544   20186253.608
        55.0004         50.0004
  -2092516.17947  -1608468.05846  24055162.9384   24055179.9844   24055163.661
        43.0004         38.0004
 -12162002.23748  -9425518.27547  22830589.2704   22830600.6594   22830589.563
        49.0004         44.0004
    338995.64846    323776.05946  24508481.5914   24508490.3984   24508482.845
        40.0004         36.0004
 -25138445.08748 -19526189.05147  20955733.3974   20955741.6454   20955733.466
        52.0004         47.0004
  -9731968.81547  -7572973.99046  23735640.2614   23735650.9434   23735641.019
        44.0004         39.0004
  -4882554.74047  -3804892.31646  23355897.7394   23355909.2104   23355897.986
        44.0004         40.0004
  -3515325.81247  -2717276.45946  23580216.4404   23580223.7994   23580216.916
        44.0004         39.0004
  -4191178.08146  -3203666.11645  23717581.9134   23717590.6644   23717581.936
        40.0004         35.0004
 14  5 16  0 14 30.0000000  0 12G07G01G09G30G26G17G13G04G10G28G02G20
 -20740810.77548 -16132918.60348  20756928.6014   20756934.3564   20756928.324
        52.0004         48.0004
  -1516954.71246  -1153040.50046  24391828.5864   24391847.3774   24391828.311
        41.0004         36.0004
 -20957421.12849 -16316656.53748  19980756.6024   19980763.3374   19980756.344
        54.0004         50.0004
 -10516915.65249  -8178693.14048  20186310.0254   20186318.8944   20186309.969
        55.0004         50.0004
  -2096956.79547  -1611927.96546  24054317.5924   24054335.7224   24054316.969
        42.0004         38.0004
 -12119412.61048  -9392331.58647  22838695.0394   22838706.9214   22838694.127
        49.0004         44.0004
    405951.29946    375949.37145  24521224.2744   24521232.0894   24521224.454
        40.0004         35.0004
 -25198206.10448 -19572755.99847  20944361.7294   20944369.0684   20944361.221
        52.0004         47.0004
  -9793899.72147  -7621231.65946  23723855.3124   23723865.4314   23723855.797
        44.0004         39.0004
  -4936260.94947  -3846741.21646  23345677.7434   23345687.7514   23345677.643
        44.0004         40.0004
  -3603665.15647  -2786112.11046  23563406.4644   23563413.6874   23563406.420
        44.0004         39.0004
  -4173444.13846  -3189847.47445  23720957.1984   23720969.5184   23720957.032
        40.0004         35.0004
 14  5 16  0 15  0.0000000  0 12G07G01G09G30G26G17G13G04G10G28G02G20
 -20679451.40248 -16085106.06148  20768604.9594   20768611.0774   20768604.104
        52.0004         48.0004
  -1412171.13546  -1071390.94046  24411767.0074   24411783.8624   24411768.207
        41.0004         36.0004
 -20960573.02449 -16319112.48748  19980156.2524   19980163.6094   19980156.345
        54.0004         49.0004
 -10516046.34249  -8178015.69248  20186475.6704   20186484.1134   20186475.139
        55.0004         50.0004
  -2101102.94347  -1615158.43946  24053530.2574   24053544.1434   24053529.670
        42.0004         37.0004
 -12076833.01548  -9359152.70947  22846797.5494   22846809.0544   22846797.184
        49.0004         44.0004
    472683.22446    427948.34645  24533919.6154   24533931.4304   24533922.402
        40.0004         35.0004
 -25257504.07548 -19618962.12847  20933077.3124   20933084.9064   20933076.821
        52.0004         47.0004
  -9856011.92147  -7669630.58446  23712036.3334   23712046.1724   23712036.171
        44.0004         39.0004
  -4990117.40647  -3888707.16246  23335428.4034   23335439.9134   23335428.879
        44.0004         40.0004
  -3691778.49247  -2854771.64446  23546638.2654   23546646.1314   23546638.385
        44.0004         39.0004
  -4155423.58546  -3175805.48045  23724382.2564   23724395.7914   23724385.489
        40.0004         35.0004
 14  5 16  0 15 30.0000000  0 12G07G01G09G30G26G17G13G04G10G28G02G20
 -20617595.09848 -16036906.31048  20780375.2524   20780381.8114   20780375.091
        52.0004         48.0004
  -1307274.04046   -989652.93046  24431729.8684   24431744.7454   24431729.527
        40.0004         36.0004
 -20963112.46949 -16321091.20048  19979672.9984   19979680.2564   19979672.975
        54.0004         49.0004
 -10514605.58049  -8176892.95848  20186749.6154   20186758.4304   20186749.601
        55.0004         50.0004
  -2104958.62247  -1618162.56446  24052795.5054   24052812.4184   24052794.503
        42.0004         38.0004
 -12034267.77748  -9325985.00747  22854897.8334   22854908.8244   22854896.862
        49.0004         44.0004
    539188.29146    479770.55145  24546578.1744   24546587.5434   24546578.399
        40.0004         35.0004
 -25316339.50048 -19664807.83947  20921881.4594   20921889.1084   20921880.848
        52.0004         47.0004
  -9918306.73947  -7718171.83046  23700182.2784   23700189.6744   23700182.335
        44.0004         39.0004
  -5044124.37647  -3930790.40446  23325151.4664   23325162.6924   23325151.787
        44.0004         40.0004
  -3779666.22447  -2923255.40846  23529913.7114   23529921.7124   23529913.501
        44.0004         40.0004
  -4137117.40446  -3161540.92945  23727870.6784   23727877.9144   23727868.966
        40.0004         35.0004
 14  5 16  0 16  0.0000000  0 12G07G01G09G30G26G17G13G04G10G28G02G20
 -20555243.09748 -15988320.29248  20792240.7604   20792246.5114   20792240.274
        52.0004         48.0004
  -1202264.71246   -907827.46346  24451713.0234   24451728.9524   24451711.876
        41.0004         36.0004
 -20965038.38649 -16322591.84448  19979306.4984   19979313.9024   19979306.521
        54.0004         49.0004
 -10512592.05449  -8175323.91448  20187132.6704   20187141.8824   20187132.448
        55.0004         50.0004
  -2108524.34147  -1620940.76146  24052116.2284   24052132.9884   24052116.783
        42.0004         38.0004
 -11991718.35948  -9292829.63047  22862993.7364   22863005.7884   22862993.540
        49.0004         44.0004
    605466.39346    531415.88345  24559189.7964   24559199.0934   24559190.681
        40.0004         35.0004
 -25374708.97948 -19710290.47747  20910773.7964   20910781.4374   20910773.696
        52.0004         47.0004
  -9980781.48947  -7766853.27846  23688291.1284   23688301.9194   23688292.864
        44.0004         39.0004
  -5098278.80747  -3972988.51846  23314846.8514   23314858.4044   23314846.525
        44.0004         40.0004
  -3867324.50547  -2991560.36346  23513233.0024   23513239.6744   23513233.538
        44.0004         39.0004
  -4118523.32146  -3147052.04945  23731406.1024   23731418.8074   23731407.303
        40.0004         35.0004
 14  5 16  0 16 30.0000000  0 12G07G01G09G30G26G17G13G04G10G28G02G20
 -20492398.83348 -15939350.69848  20804199.6764   20804205.7224   20804199.386
        52.0004         48.0004
  -1097146.88646   -825917.44346  24471717.7934   24471732.2974   24471715.213
        41.0004         37.0004
 -20966352.12149 -16323615.46248  19979056.3034   19979063.5344   19979056.453
        54.0004         50.0004
 -10510006.75049  -8173309.33348  20187624.6194   20187633.5684   20187624.614
        55.0004         51.0004
  -2111802.91547  -1623495.22546  24051492.4294   24051508.4844   24051491.573
        42.0004         38.0004
 -11949187.59048  -9259688.78447  22871087.2814   22871098.6804   22871087.167
        49.0004         44.0004
    671515.64746    582882.89445  24571757.8724   24571767.2174   24571759.964
        40.0004         35.0004
 -25432611.52448 -19755409.26647  20899754.9024   20899762.4744   20899754.476
        52.0004         47.0004
 -10043435.76047  -7815674.61246  23676369.3664   23676380.5694   23676370.114
        44.0004         39.0004
  -5152579.67647  -4015300.74446  23304512.9304   23304524.7834   23304513.016
        44.0004         40.0004
  -3954752.27247  -3059685.70446  23496595.2274   23496602.7484   23496595.889
        44.0004         40.0004
  -4099640.87046  -3132338.45645  23735000.7494   23735013.7574   23735000.128
        40.0004         35.0004
 14  5 16  0 17  0.0000000  0 12G07G01G09G30G26G17G13G04G10G28G02G20
 -20429062.21048 -15889997.44248  20816252.1194   20816258.1284   20816251.673
        52.0004         48.0004
   -991920.99046   -743923.23346  24491739.2064   24491756.4694   24491739.034
        41.0004         36.0004
 -20967051.68749 -16324160.50748  19978923.2484   19978930.3964   19978923.368
        54.0004         50.0004
 -10506847.55549  -8170847.56348  20188225.8024   20188234.4754   20188225.812
        55.0004         51.0004
  -2114793.85047  -1625825.54646  24050924.0824   24050938.7864   24050923.251
        43.0004         38.0004
 -11906675.99748  -9226562.88447  22879177.2954   22879188.0144   22879176.668
        49.0004         44.0004
    737337.09246    634172.40645  24584285.4474   24584295.9004   24584285.222
        40.0004         35.0004
 -25490042.99848 -19800160.98547  20888826.4194   20888833.9414   20888826.143
        52.0004         47.0004
 -10106266.23147  -7864633.24646  23664413.6444   23664423.0074   23664413.846
        44.0004         39.0004
  -5207022.94947  -4057723.92446  23294152.7694   23294163.2124   23294152.692
        45.0004         40.0004
  -4041945.02847  -3127627.92546  23480003.0994   23480010.5344   23480003.105
        44.0004         39.0004
  -4080466.72646  -3117397.56745  23738651.5534   23738659.2144   23738650.049
        40.0004         35.0004
 14  5 16  0 17 30.0000000  0 12G07G01G09G30G26G17G13G04G10G28G02G20
 -20365238.01548 -15840264.26648  20828397.7834   20828403.7244   20828397.179
        52.0004         48.0004
   -886591.84946   -661848.56646  24511782.0434   24511800.0464   24511782.284
        41.0004         37.0004
 -20967139.39649 -16324228.77848  19978906.4644   19978913.6714   19978906.754
        54.0004         50.0004
 -10503116.68749  -8167940.33448  20188935.6124   20188944.4374   20188935.545
        55.0004         50.0004
  -2117501.29447  -1627934.98746  24050408.0044   24050423.6664   24050407.596
        43.0004         38.0004
 -11864187.73048  -9193455.14847  22887262.4894   22887273.8254   22887261.897
        48.0004         44.0004
    802927.60746    685281.96345  24596766.9144   24596775.1834   24596766.494
        40.0004         35.0004
 -25547004.02248 -19844546.12647  20877986.8744   20877994.4904   20877986.439
        52.0004         47.0004
 -10169274.15947  -7913730.15346  23652423.5014   23652432.3254   23652423.643
        44.0004         39.0004
  -5261609.15347  -4100258.47946  23283766.0234   23283776.5984   23283765.016
        45.0004         40.0004
  -4128902.61447  -3195386.89646  23463456.5714   23463462.3724   23463455.858
        44.0004         40.0004
  -4061001.91246  -3102230.18346  23742355.1844   23742364.0164   23742353.500
        40.0004         36.0004
 14  5 16  0 18  0.0000000  0 12G07G01G09G30G26G17G13G04G10G28G02G20
 -20300927.38748 -15790152.05348  20840635.0094   20840641.9964   20840635.080
        52.0004         48.0004
   -781161.08246   -579694.69746  24531845.3404   24531861.0284   24531844.919
        41.0004         37.0004
 -20966614.24649 -16323819.50048  19979006.5594   19979013.6254   19979006.425
        54.0004         50.0004
 -10498813.19849  -8164586.90748  20189754.6734   20189763.2124   20189754.516
        55.0004         50.0004
  -2119925.93547  -1629824.05346  24049946.9464   24049961.6974   24049946.332
        43.0004         38.0004
 -11821724.11148  -9160366.62147  22895343.4414   22895353.8144   22895342.544
        48.0004         44.0004
    868287.11246    736211.51445  24609201.7424   24609211.0674   24609203.842
        40.0004         35.0004
 -25603491.55648 -19888562.31447  20867237.7974   20867245.2674   20867237.522
        52.0004         47.0004
 -10232456.62747  -7962963.08246  23640399.2724   23640408.3144   23640399.540
        44.0004         39.0004
  -5316335.20747  -4142902.00046  23273350.6874   23273362.2294   23273351.228
        45.0004         40.0004
  -4215622.05847  -3262960.30746  23446954.5444   23446960.8144   23446954.275
        44.0004         40.0004
  -4041244.16046  -3086834.54245  23746111.9424   23746124.9424   23746113.109
        40.0004         35.0004
 14  5 16  0 18 30.0000000  0 12G07G01G09G30G26G17G13G04G10G28G02G20
 -20236133.25848 -15739663.08648  20852965.3584   20852971.2844   20852964.935
        52.0004         48.0004
   -675631.70246   -497463.99646  24551925.7734   24551943.9804   24551926.653
        41.0004         37.0004
 -20965476.91249 -16322933.19348  19979222.7834   19979229.5474   19979222.903
        54.0004         50.0004
 -10493937.56249  -8160787.64748  20190682.2014   20190691.1524   20190682.199
        55.0004         50.0004
  -2122070.05247  -1631494.54246  24049538.3034   24049554.2074   24049537.535
        43.0004         38.0004
 -11779287.66048  -9127299.26947  22903417.7824   22903429.2154   22903417.938
        48.0004         44.0004
    933413.99946    786959.82145  24621599.3744   24621604.6884   24621596.560
        40.0004         35.0004
 -25659503.93148 -19932208.25247  20856578.8284   20856586.2874   20856578.446
        52.0004         47.0004
 -10295812.68947  -8012331.27646  23628343.5064   23628354.4314   23628343.206
        44.0004         39.0004
  -5371199.81747  -4185653.49846  23262909.5264   23262921.0274   23262910.644
        45.0004         41.0004
  -4302101.29047  -3330346.52846  23430497.5944   23430504.5844   23430497.595
        44.0004         40.0004
  -4021192.73046  -3071210.05045  23749925.5264   23749938.7814   23749929.233
        40.0004         35.0004
 14  5 16  0 19  0.0000000  0 12G07G01G09G30G26G17G13G04G10G28G02G20
 -20170857.47048 -15688798.80147  20865386.7284   20865392.4924   20865386.603
        52.0004         47.0004
   -570005.85846   -415158.11446  24572027.6134   24572042.9074   24572026.533
        41.0004         37.0004
 -20963727.32749 -16321569.80648  19979555.7534   19979562.8514   19979555.620
        54.0004         50.0004
 -10488489.41849  -8156542.28348  20191719.0604   20191727.6694   20191718.797
        55.0004         50.0004
  -2123934.88047  -1632947.39146  24049182.3724   24049198.8884   24049182.558
        43.0004         38.0004
 -11736880.15448  -9094254.45747  22911488.3114   22911499.7994   22911487.834
        48.0004         44.0004
    998307.98346    837526.58445  24633944.8504   24633952.3254   24633945.423
        40.0004         35.0004
 -25715038.91348 -19975482.18947  20846010.8034   20846018.1834   20846010.531
        52.0004         47.0004
 -10359340.65147  -8061833.42446  23616254.6044   23616264.3884   23616254.496
        44.0004         39.0004
  -5426200.37547  -4228510.90146  23252444.8654   23252455.3944   23252444.584
        45.0004         40.0004
  -4388337.61747  -3397543.48746  23414086.6074   23414093.9984   23414086.306
        44.0004         40.0004
  -4000846.08446  -3055355.55945  23753800.2984   23753812.4044   23753800.908
        40.0004         35.0004
 14  5 16  0 19 30.0000000  0 12G07G01G09G30G26G17G13G04G10G28G02G20
 -20105102.37148 -15637561.02247  20877899.4954   20877905.5294   20877898.976
        52.0004         47.0004
   -464286.01846   -332778.99246  24592143.6754   24592161.4314   24592144.073
        41.0004         37.0004
 -20961365.67049 -16319729.48748  19980005.0514   19980012.0134   19980004.975
        54.0004         50.0004
 -10482468.80949  -8151850.84048  20192864.5944   20192873.1834   20192864.623
        55.0004         50.0004
  -2125522.20747  -1634184.01246  24048881.0084   24048895.5234   24048880.469
        43.0004         38.0004
 -11694503.50648  -9061233.69447  22919552.4454   22919565.0184   22919551.809
        48.0004         44.0004
   1062968.34146    887911.35945  24646248.1074   24646262.0264   24646250.074
        40.0004         35.0004
 -25770094.57448 -20018382.64647  20835534.1534   20835541.2654   20835533.905
        52.0004         47.0004
 -10423038.74747  -8111468.13146  23604133.0974   23604142.8904   23604133.123
        44.0004         39.0004
  -5481334.58147  -4271472.45246  23241952.4614   23241962.9314   23241952.236
        45.0004         40.0004
  -4474328.99047  -3464549.57546  23397722.5164   23397729.2224   23397722.793
        44.0004         40.0004
  -3980202.84146  -3039269.94045  23757726.8954   23757742.3654   23757728.987
        40.0004         35.0004
 14  5 16  0 20  0.0000000  0 12G07G01G09G30G26G17G13G04G10G28G02G20
 -20038871.65848 -15585952.63947  20890502.6884   20890508.7964   20890502.250
        52.0004         47.0004
   -358476.22147   -250329.77046  24612280.1094   24612296.0764   24612279.183
        42.0004         37.0004
 -20958393.60349 -16317413.51948  19980570.4634   19980577.3474   19980570.412
        54.0004         50.0004
 -10475877.29349  -8146714.53348  20194119.0624   20194127.6514   20194118.888
        55.0004         50.0004
  -2126835.30947  -1635206.94746  24048630.6424   24048646.1674   24048629.493
        43.0004         38.0004
 -11652161.46948  -9028239.89347  22927609.8264   22927621.3194   22927609.301
        48.0004         44.0004
   1127392.69046    938112.19845  24658510.5104   24658516.3124   24658509.692
        40.0004         35.0004
 -25824670.56048 -20060909.31847  20825148.6754   20825155.8824   20825147.478
        52.0004         47.0004
 -10486907.01447  -8161235.45046  23591978.9134   23591987.0464   23591979.640
        44.0004         39.0004
  -5536601.97747  -4314537.76946  23231435.3294   23231447.6404   23231435.351
        45.0004         40.0004
  -4560074.42247  -3531364.01446  23381405.0984   23381412.3984   23381406.690
        44.0004         40.0004
  -3959263.40946  -3022953.51045  23761715.3614   23761724.7964   23761713.243
        40.0004         35.0004
 14  5 16  0 20 30.0000000  0 12G07G01G09G30G26G17G13G04G10G28G02G20
 -19972165.58448 -15533973.84247  20903196.7754   20903202.4184   20903196.079
        52.0004         47.0004
   -252576.80146   -167810.71646  24632431.6334   24632448.5864   24632431.113
        41.0004         37.0004
 -20954809.28849 -16314620.47748  19981252.8304   19981259.6244   19981252.691
        54.0004         50.0004
 -10468712.80049  -8141131.75248  20195481.9954   20195490.8374   20195481.961
        55.0004         50.0004
  -2127873.73747  -1636015.85546  24048433.1584   24048447.3254   24048433.416
        43.0004         38.0004
 -11609853.84648  -8995272.90047  22935660.0764   22935671.4914   22935660.197
        48.0004         44.0004
   1191582.37346    988130.21545  24670722.9864   24670732.0124   24670724.189
