     2.11           OBSERVATION DATA    G (GPS)             RINEX VERSION / TYPE
teqc  2013Mar15     gpsops              20140525 00:23:21UTCPGM / RUN BY / DATE
Linux 2.4.21-27.ELsmp|Opteron|gcc -static|Linux x86_64|=+   COMMENT
BIT 2 OF LLI FLAGS DATA COLLECTED UNDER A/S CONDITION       COMMENT
GLPS                                                        MARKER NAME
42005M002                                                   MARKER NUMBER
GGN                 JPL                                     OBSERVER / AGENCY
ZR220013847         ASHTECH UZ-12       CQ00                REC # / TYPE / VERS
CR519992104         ASH701945B_M    SCIT                    ANT # / TYPE
   -33801.4662 -6377516.5323   -82154.3508                  APPROX POSITION XYZ
        0.0083        0.0000        0.0000                  ANTENNA: DELTA H/E/N
     1     1                                                WAVELENGTH FACT L1/2
     7    L1    L2    P1    P2    C1    S1    S2            # / TYPES OF OBSERV
    30.0000                                                 INTERVAL
                                                            COMMENT
This data is provided as a public service by NASA/JPL.      COMMENT
No warranty is expressed or implied regarding suitability   COMMENT
for use.  For further information, contact:                 COMMENT
Dave Stowers, NASA/JPL m/s 238-600                          COMMENT
4800 Oak Grove Drive, Pasadena CA 91109 USA                 COMMENT
                                                            COMMENT
Forced Modulo Decimation to 30 seconds                      COMMENT
 SNR is mapped to RINEX snr flag value [0-9]                COMMENT
  L1 & L2: min(max(int(snr_dBHz/6), 0), 9)                  COMMENT
pseudorange smoothing corrections not applied               COMMENT
  2014     5    24     0     0    0.0000000     GPS         TIME OF FIRST OBS
                                                            END OF HEADER
 14  5 24  0  0  0.0000000  0 11G13G26G02G07G08G10G09G20G04G17G28
  18844273.05746  14672867.11345  24974147.5754   24974152.9384   24974145.765
        39.0004         34.0004
  -3190917.61347  -2467368.73846  24063570.4554   24063582.0584   24063569.117
        42.0004         38.0004
  -8089296.07547  -6256336.47746  22958592.5224   22958598.0514   22958592.641
        46.0004         41.0004
 -18752246.48748 -14600253.17147  21247455.9984   21247462.5324   21247456.176
        51.0004         47.0004
 -26061120.66749 -20270677.36148  19971457.1804   19971463.9274   19971457.586
        54.0004         49.0004
 -12445789.60047  -9692009.50946  23282413.6134   23282422.6474   23282414.188
        45.0004         41.0004
   -665767.21849   -516961.93848  20030492.8504   20030499.1004   20030492.795
        54.0004         50.0004
  -9789837.51946  -7612542.64245  23854937.5884   23854947.8864   23854938.624
        39.0004         34.0004
 -27665687.66748 -21497719.19948  20602422.9804   20602429.4124   20602422.745
        53.0004         48.0004
 -11575887.99447  -8965983.54047  23133278.0024   23133287.9274   23133278.113
        47.0004         43.0004
  -8276717.20247  -6421644.15646  22956603.6864   22956612.1014   22956603.279
        46.0004         41.0004
 14  5 24  0  0 30.0000000  0 11G13G26G02G07G08G10G09G20G04G17G28
  18902169.93546  14717981.67845  24985163.3604   24985169.7874   24985162.656
        39.0004         34.0004
  -3185749.06247  -2463341.17646  24064551.6354   24064564.3104   24064552.674
        42.0004         38.0004
  -8167434.66647  -6317223.56946  22943722.7014   22943729.5594   22943722.658
        46.0004         41.0004
 -18674107.42248 -14539365.58347  21262326.1744   21262331.7384   21262325.521
        51.0004         47.0004
 -26036486.87449 -20251482.16648  19976144.9364   19976151.5454   19976145.142
        54.0004         49.0004
 -12513620.12947  -9744864.36446  23269506.6214   23269514.5844   23269506.345
        45.0004         40.0004
   -646993.96649   -502333.38948  20034065.4164   20034071.2774   20034065.213
        54.0004         50.0004
  -9761040.15746  -7590103.13145  23860413.5494   23860429.6794   23860417.733
        39.0004         34.0004
 -27707321.38248 -21530161.02348  20594499.9964   20594506.7414   20594499.495
        53.0004         48.0004
 -11535045.80447  -8934158.44947  23141049.9684   23141061.0544   23141049.873
        47.0004         43.0004
  -8334711.52647  -6466834.40546  22945567.2854   22945575.9094   22945567.067
        46.0004         41.0004
 14  5 24  0  1  0.0000000  0 11G13G26G02G07G08G10G09G20G04G17G28
  18959813.58946  14762898.94045  24996130.2354   24996141.4204   24996133.313
        39.0004         34.0004
  -3180355.96647  -2459138.62446  24065578.8274   24065590.6534   24065578.908
        42.0004         38.0004
  -8245262.51147  -6377868.51947  22928912.6404   22928918.7284   22928913.515
        46.0004         42.0004
 -18595561.84248 -14478161.22947  21277272.4964   21277278.4784   21277272.161
        51.0004         47.0004
 -26011199.46649 -20231777.65948  19980956.7474   19980963.1374   19980957.316
        54.0004         49.0004
 -12581573.88847  -9797815.24146  23256574.4994   23256583.0514   23256575.334
        45.0004         41.0004
   -627626.39249   -487241.73748  20037750.6354   20037756.8284   20037750.758
        54.0004         50.0004
  -9731916.18946  -7567409.14145  23865959.0714   23865972.3324   23865959.886
        39.0004         34.0004
 -27748429.46748 -21562193.25348  20586677.3624   20586684.1054   20586677.261
        53.0004         48.0004
 -11494291.48647  -8902401.82747  23148805.2874   23148816.2244   23148805.706
        47.0004         43.0004
  -8392776.27747  -6512079.51846  22934516.6594   22934525.6814   22934517.445
        46.0004         41.0004
 14  5 24  0  1 30.0000000  0 11G13G26G02G07G08G10G09G20G04G17G28
  19017198.87546  14807614.86745  25007055.9324   25007056.8374   25007052.700
        39.0004         34.0004
  -3174745.05347  -2454766.35746  24066646.7444   24066658.1734   24066646.355
        42.0004         38.0004
  -8322782.19247  -6438273.33447  22914161.3234   22914167.6124   22914161.499
        46.0004         42.0004
 -18516616.99248 -14416645.76347  21292295.7094   21292301.2814   21292295.146
        51.0004         47.0004
 -25985263.93148 -20211568.12048  19985891.8304   19985898.7004   19985892.297
        53.0004         49.0004
 -12649653.49247  -9850864.18746  23243620.5484   23243628.5874   23243620.392
        45.0004         41.0004
   -607670.31249   -471691.50648  20041548.2194   20041554.4154   20041548.121
        54.0004         50.0004
  -9702469.23346  -7544463.49545  23871564.3484   23871575.4454   23871564.853
        39.0004         34.0004
 -27789015.40748 -21593818.62748  20578954.2304   20578960.6594   20578953.623
        53.0004         48.0004
 -11453631.40948  -8870718.63747  23156543.4264   23156552.3524   23156542.799
        48.0004         43.0004
  -8450913.63347  -6557381.21747  22923453.6634   22923462.9584   22923453.839
        46.0004         42.0004
 14  5 24  0  2  0.0000000  0 11G13G26G02G07G08G10G09G20G04G17G28
  19074327.55046  14852130.82345  25017924.9344   25017931.0574   25017923.932
        39.0004         34.0004
  -3168915.97247  -2450224.08946  24067755.3384   24067767.4354   24067755.334
        42.0004         38.0004
  -8399989.35547  -6498434.64647  22899469.9014   22899476.0064   22899469.474
        46.0004         42.0004
 -18437273.25848 -14354819.46447  21307393.8954   21307399.0414   21307393.416
        51.0004         47.0004
 -25958678.94448 -20190852.52148  19990951.1454   19990957.6414   19990951.408
        53.0004         49.0004
 -12717854.65547  -9904007.84746  23230641.5724   23230650.6234   23230642.273
        45.0004         41.0004
   -587124.35849   -455681.63448  20045458.0994   20045463.6554   20045458.089
        54.0004         49.0004
  -9672696.53946  -7521263.99945  23877226.3934   23877239.7664   23877228.201
        39.0004         34.0004
 -27829075.65448 -21625034.36148  20571331.0054   20571337.4344   20571330.467
        53.0004         48.0004
 -11413065.27047  -8839108.63247  23164263.4174   23164272.5094   23164262.302
        47.0004         43.0004
  -8509119.14047  -6602736.01947  22912378.3244   22912387.4244   22912377.930
        46.0004         42.0004
 14  5 24  0  2 30.0000000  0 11G13G26G02G07G08G10G09G20G04G17G28
  19131197.59146  14896445.26245  25028744.6244   25028754.0514   25028746.686
        39.0004         34.0004
  -3162872.24547  -2445514.57446  24068905.8854   24068918.4194   24068905.405
        42.0004         38.0004
  -8476883.29447  -6558351.87047  22884836.4774   22884843.0984   22884837.055
        46.0004         42.0004
 -18357535.18948 -14292685.89947  21322567.5874   21322573.2844   21322566.989
        51.0004         46.0004
 -25931447.01748 -20169632.80748  19996133.0384   19996139.5344   19996133.290
        53.0004         49.0004
 -12786177.47147  -9957246.31146  23217639.9844   23217647.8854   23217640.103
        45.0004         41.0004
   -565991.65549   -439214.55348  20049479.2584   20049485.2914   20049479.300
        54.0004         49.0004
  -9642598.57446  -7497811.04945  23882955.4204   23882966.8044   23882956.697
        39.0004         34.0004
 -27868610.38448 -21655840.59948  20563807.5074   20563814.2954   20563807.599
        53.0004         48.0004
 -11372596.18047  -8807574.27147  23171963.3204   23171973.0424   23171963.016
        47.0004         43.0004
  -8567391.84547  -6648143.17647  22901288.4874   22901297.4424   22901289.043
        46.0004         42.0004
 14  5 24  0  3  0.0000000  0 11G13G26G02G07G08G10G09G20G04G17G28
  19187810.04546  14940558.96245  25039519.4974   25039529.9754   25039518.627
        39.0004         34.0004
  -3156614.51447  -2440638.30146  24070096.6434   24070107.7294   24070095.856
        42.0004         38.0004
  -8553460.81747  -6618022.54747  22870265.0824   22870270.6754   22870264.513
        46.0004         42.0004
 -18277403.80448 -14230245.84947  21337816.1074   21337821.8914   21337815.711
        51.0004         46.0004
 -25903567.94548 -20147908.82748  20001438.3024   20001444.6584   20001438.691
        53.0004         49.0004
 -12854618.38947 -10010576.79746  23204615.8344   23204624.9684   23204616.089
        45.0004         41.0004
   -544271.65949   -422289.84848  20053612.5954   20053618.2714   20053612.720
        54.0004         50.0004
  -9612173.05846  -7474102.86545  23888746.6004   23888754.5104   23888746.531
        39.0004         34.0004
 -27907616.79348 -21686235.16748  20556384.9844   20556391.0594   20556384.300
        53.0004         48.0004
 -11332224.43747  -8776115.75947  23179646.6074   23179656.2584   23179645.666
        47.0004         43.0004
  -8625727.65647  -6693599.51147  22890186.9994   22890196.4584   22890187.963
        46.0004         42.0004
 14  5 24  0  3 30.0000000  0 11G13G26G02G07G08G10G09G20G04G17G28
  19244163.82246  14984471.10645  25050241.7264   25050250.9204   25050242.526
        39.0004         34.0004
  -3150145.57147  -2435597.42446  24071326.8014   24071339.5444   24071326.984
        43.0004         38.0004
  -8629720.41847  -6677445.50047  22855753.0894   22855757.2124   22855753.047
        46.0004         42.0004
 -18196882.75648 -14167502.17747  21353139.1224   21353144.9294   21353138.521
        51.0004         46.0004
 -25875043.45548 -20125681.91748  20006866.0204   20006872.9314   20006866.644
        53.0004         49.0004
 -12923176.16947 -10063998.34846  23191569.6454   23191577.3034   23191569.896
        45.0004         41.0004
   -521966.32449   -404909.02848  20057856.9754   20057863.2444   20057856.910
        54.0004         50.0004
  -9581420.29246  -7450139.71645  23894597.7014   23894611.8064   23894599.146
        39.0004         34.0004
 -27946094.44048 -21716217.70448  20549062.9194   20549068.8294   20549062.631
        53.0004         48.0004
 -11291952.69247  -8744735.17447  23187309.2794   23187318.6644   23187309.308
        47.0004         43.0004
  -8684125.37447  -6739104.09647  22879074.9244   22879083.9394   22879074.876
        46.0004         42.0004
 14  5 24  0  4  0.0000000  0 11G13G26G02G07G08G10G09G20G04G17G28
  19300258.26846  15028181.15945  25060915.2624   25060925.2524   25060916.675
        38.0004         34.0004
  -3143467.57947  -2430393.66046  24072598.5004   24072609.9674   24072597.452
        43.0004         38.0004
  -8705660.29247  -6736619.31847  22841301.5244   22841307.8524   22841301.931
        46.0004         42.0004
 -18115975.16648 -14104457.29447  21368534.7354   21368540.6644   21368534.262
        51.0004         46.0004
 -25845874.65248 -20102952.95348  20012416.7594   20012423.4574   20012417.175
        53.0004         49.0004
 -12991849.40147 -10117509.84946  23178501.9794   23178511.5244   23178501.988
        45.0004         41.0004
   -499076.74649   -387072.95748  20062212.4704   20062218.8514   20062212.594
        54.0004         50.0004
  -9550339.54246  -7425920.96345  23900513.5024   23900524.8354   23900513.577
        39.0004         34.0004
 -27984042.21748 -21745787.35648  20541841.6044   20541847.9634   20541841.218
        53.0004         48.0004
 -11251783.02647  -8713434.11747  23194953.7354   23194962.8484   23194953.354
        47.0004         43.0004
  -8742582.42347  -6784654.90047  22867951.0314   22867959.7404   22867951.015
        46.0004         42.0004
 14  5 24  0  4 30.0000000  0 11G13G26G02G07G08G10G09G20G04G17G28
  19356094.04946  15071689.68145  25071543.3274   25071549.9424   25071542.052
        38.0004         34.0004
  -3136581.57547  -2425027.79046  24073908.5254   24073920.6974   24073908.356
        43.0004         38.0004
  -8781277.42547  -6795541.63547  22826911.5214   22826916.7194   22826912.695
        46.0004         42.0004
 -18034682.61048 -14041112.44147  21384004.6954   21384010.4904   21384003.949
        51.0004         46.0004
 -25816061.80548 -20079722.13748  20018089.9564   20018096.7884   20018090.491
        53.0004         49.0004
 -13060634.95347 -10171108.87846  23165412.6874   23165420.4994   23165412.933
        45.0004         41.0004
   -475603.32349   -368781.93748  20066679.5564   20066685.5794   20066679.732
        54.0004         49.0004
  -9518928.95646  -7401445.20945  23906493.3974   23906501.2824   23906490.730
        39.0004         34.0004
 -28021458.03348 -21774942.49948  20534721.6814   20534728.3014   20534721.323
        53.0004         48.0004
 -11211715.72847  -8682212.82747  23202577.9804   23202586.8214   23202577.350
        47.0004         42.0004
  -8801095.08747  -6830249.02747  22856816.1214   22856823.4014   22856816.212
        46.0004         42.0004
 14  5 24  0  5  0.0000000  0 11G13G26G02G07G08G10G09G20G04G17G28
  19411669.04046  15114994.98445  25082117.2834   25082129.9934   25082117.086
        38.0004         33.0004
  -3129491.24347  -2419502.72346  24075258.3664   24075269.8114   24075257.236
        43.0004         38.0004
  -8856571.31547  -6854212.09747  22812583.3974   22812590.3734   22812583.260
        47.0004         42.0004
 -17953009.43848 -13977471.00247  21399545.6164   21399551.7154   21399545.677
        51.0004         46.0004
 -25785607.67848 -20055991.62748  20023885.2464   20023891.9654   20023885.740
        53.0004         49.0004
 -13129532.31247 -10224795.02146  23152301.7974   23152309.9994   23152302.129
        46.0004         41.0004
   -451549.15049   -350038.39148  20071256.5664   20071262.9694   20071256.651
        54.0004         49.0004
  -9487189.26846  -7376713.00945  23912530.4244   23912541.0114   23912530.391
        39.0004         34.0004
 -28058342.13248 -21803683.31248  20527702.6404   20527709.0114   20527702.335
        53.0004         48.0004
 -11171754.77247  -8651074.41347  23210181.7954   23210192.6544   23210181.685
        47.0004         42.0004
  -8859662.96247  -6875886.19547  22845671.3194   22845678.8914   22845671.037
        46.0004         42.0004
 14  5 24  0  5 30.0000000  0 11G13G26G02G07G08G10G09G20G04G17G28
  19466983.99046  15158097.63545  25092640.4514   25092652.3734   25092643.127
        38.0004         33.0004
  -3122197.69947  -2413819.30746  24076644.4084   24076656.1504   24076644.594
        43.0004         38.0004
  -8931538.93547  -6912628.31747  22798316.6414   22798323.5344   22798317.825
        47.0004         42.0004
 -17870957.71448 -13913534.58747  21415160.0784   21415166.1644   21415159.793
        51.0004         46.0004
 -25754512.47048 -20031761.56848  20029802.5424   20029809.0714   20029803.017
        53.0004         49.0004
 -13198538.63747 -10278566.08146  23139169.0854   23139177.7954   23139170.402
        46.0004         41.0004
   -426914.25049   -330842.33048  20075944.9604   20075950.5584   20075944.886
        54.0004         50.0004
  -9455119.07046  -7351723.26245  23918632.6264   23918644.5824   23918633.490
        39.0004         35.0004
 -28094692.74248 -21832008.42648  20520785.3214   20520791.6794   20520785.233
        53.0004         48.0004
 -11131900.15347  -8620018.85747  23217766.6204   23217776.6354   23217766.030
        47.0004         42.0004
  -8918282.59547  -6921563.66947  22834515.9194   22834525.2544   22834516.306
        46.0004         42.0004
 14  5 24  0  6  0.0000000  0 11G13G26G02G07G08G10G09G20G04G17G28
  19522038.49446  15200997.33345  25103121.9934   25103126.2844   25103119.635
        38.0004         33.0004
  -3114703.17147  -2407979.28146  24078071.5474   24078083.6354   24078070.951
        43.0004         38.0004
  -9006178.47947  -6970788.88847  22784114.2224   22784121.4494   22784115.372
        47.0004         42.0004
 -17788530.21548 -13849305.35947  21430845.8064   21430851.7314   21430845.281
        51.0004         46.0004
 -25722777.43848 -20007032.94648  20035841.5844   20035847.9924   20035841.686
        53.0004         49.0004
 -13267652.22947 -10332420.71946  23126017.9014   23126026.5974   23126018.296
        46.0004         41.0004
   -401700.28849   -311195.05248  20080742.8604   20080748.4004   20080742.647
        54.0004         50.0004
  -9422717.73346  -7326475.51045  23924800.8204   23924810.3914   23924799.377
        39.0004         35.0004
 -28130508.32548 -21859916.63148  20513969.7564   20513976.2594   20513969.542
        53.0004         48.0004
 -11092154.30547  -8589048.05347  23225329.2374   23225338.7324   23225329.281
        47.0004         43.0004
  -8976951.40347  -6967279.46847  22823351.7834   22823360.1924   22823351.736
        46.0004         42.0004
 14  5 24  0  6 30.0000000  0 11G13G26G02G07G08G10G09G20G04G17G28
  18001411.28546  14016093.10945  25113549.9384   25113556.1064   25113546.637
        38.0004         33.0004
  -3107010.49147  -2401984.84946  24079535.0524   24079546.9574   24079534.807
        43.0004         38.0004
  -9080488.70747  -7028692.85547  22769973.5294   22769979.7404   22769974.104
        47.0004         42.0004
 -17705730.51048 -13784786.10447  21446601.9264   21446608.0954   21446601.518
        51.0004         46.0004
 -25690404.51648 -19981807.26848  20042001.7094   20042008.2904   20042002.098
        53.0004         49.0004
 -13336871.85147 -10386357.97546  23112846.1324   23112854.8424   23112846.643
        46.0004         41.0004
   -375909.33649   -291098.17148  20085650.7614   20085656.8514   20085650.631
        54.0004         50.0004
  -9389985.30446  -7300969.74445  23931027.9764   23931037.2624   23931028.979
        40.0004         35.0004
 -28165788.96048 -21887407.98948  20507256.2844   20507262.6054   20507256.012
        53.0004         48.0004
 -11052519.56047  -8558163.81947  23232871.5854   23232881.6414   23232871.696
        47.0004         43.0004
  -9035667.75247  -7013032.31047  22812177.8924   22812186.5984   22812178.233
        46.0004         42.0004
 14  5 24  0  7  0.0000000  0 11G13G26G02G07G08G10G09G20G04G17G28
  18055942.02446  14058584.68745  25123922.9344   25123930.1904   25123923.591
        38.0004         34.0004
  -3099121.49647  -2395837.44546  24081036.5234   24081048.0764   24081035.785
        43.0004         38.0004
  -9154467.53747  -7086338.60047  22755896.4854   22755900.7904   22755895.984
        47.0004         42.0004
 -17622561.60148 -13719979.15647  21462428.1584   21462433.8684   21462427.863
        51.0004         46.0004
 -25657395.05148 -19956085.58048  20048283.2714   20048289.5614   20048283.519
        53.0004         49.0004
 -13406195.25947 -10440376.11246  23099653.5154   23099661.4164   23099654.556
        46.0004         41.0004
   -349542.65849   -270552.67148  20090667.9274   20090673.7024   20090667.905
        54.0004         50.0004
  -9356920.69746  -7275205.07846  23937319.3534   23937331.3344   23937320.277
        40.0004         36.0004
 -28200533.20348 -21914481.38848  20500644.6204   20500650.8834   20500644.355
        53.0004         48.0004
 -11012997.81847  -8527367.63847  23240393.2194   23240402.6354   23240392.521
        47.0004         43.0004
  -9094429.01547  -7058820.15247  22800996.3034   22801004.8134   22800996.085
        46.0004         42.0004
 14  5 24  0  7 30.0000000  0 11G13G26G02G07G08G10G09G20G04G17G28
  18110210.37346  14100871.76345  25134251.2274   25134259.1034   25134249.237
        38.0004         33.0004
  -3091038.65147  -2389538.98446  24082574.1484   24082585.8734   24082573.459
        43.0004         38.0004
  -9228113.42047  -7143724.88947  22741881.3344   22741887.1104   22741882.153
        47.0004         42.0004
 -17539026.12248 -13654886.56147  21478324.1444   21478330.6724   21478324.172
        51.0004         46.0004
 -25623750.65748 -19929869.14548  20054685.7534   20054692.0184   20054685.901
        53.0004         49.0004
 -13475620.79247 -10494473.81946  23086443.0754   23086449.5154   23086442.834
        46.0004         41.0004
   -322602.24849   -249560.11148  20095794.6124   20095800.6704   20095794.701
        54.0004         50.0004
  -9323523.77446  -7249181.57045  23943675.4654   23943685.4064   23943676.418
        40.0004         35.0004
 -28234740.39848 -21941136.30948  20494135.0954   20494141.9834   20494134.602
        53.0004         48.0004
 -10973590.57847  -8496660.67047  23247892.1784   23247902.1174   23247891.267
        47.0004         43.0004
  -9153232.83747  -7104641.16947  22789806.1994   22789815.6274   22789806.289
        46.0004         42.0004
 14  5 24  0  8  0.0000000  0 11G13G26G02G07G08G10G09G20G04G17G28
                  14142955.31145                  25144534.1734   25144526.788
                        33.0004
  -3082762.24747  -2383089.72646  24084148.9244   24084160.9954   24084148.565
        43.0004         38.0004
  -9301422.32047  -7200848.61547  22727930.5714   22727936.2994   22727931.246
        47.0004         42.0004
 -17455125.21948 -13589509.22847  21494290.9374   21494296.3564   21494289.895
        51.0004         46.0004
 -25589471.10348 -19903157.78648  20061208.5354   20061215.0784   20061209.111
        53.0004         49.0004
 -13545144.57247 -10548648.07646  23073212.1074   23073219.7084   23073212.979
        46.0004         41.0004
   -295087.24849   -228119.82248  20101030.5414   20101036.3044   20101030.487
        54.0004         50.0004
  -9289792.08546  -7222897.14345  23950093.8934   23950106.6404   23950095.012
        40.0004         35.0004
 -28268407.71348 -21967370.54548  20487728.6144   20487734.8464   20487728.511
        53.0004         48.0004
 -10934297.70147  -8466042.83747  23255369.5614   23255379.2174   23255368.674
        47.0004         43.0004
  -9212074.83847  -7150491.94147  22778607.8864   22778616.3284   22778608.469
        46.0004         42.0004
 14  5 24  0  8 30.0000000  0 11G13G26G02G07G08G10G09G20G04G17G28
  18217960.23346  14184832.90245  25154755.6534   25154764.0124   25154754.297
        37.0004         32.0004
  -3074297.53647  -2376493.72146  24085760.3604   24085771.8024   24085759.409
        43.0004         38.0004
  -9374395.47047  -7257710.71047  22714044.0024   22714050.9044   22714045.043
        47.0004         42.0004
 -17370865.56848 -13523852.34547  21510324.6614   21510330.3324   21510323.804
        50.0004         46.0004
 -25554560.66448 -19875954.82948  20067851.8874   20067858.3644   20067852.337
        53.0004         49.0004
 -13614767.59847 -10602899.67246  23059964.2104   23059971.5064   23059963.802
        46.0004         41.0004
   -267002.55649   -206235.61648  20106374.7634   20106380.9594   20106374.802
        54.0004         50.0004
  -9255728.21446  -7196353.84845  23956574.7764   23956584.9264   23956576.383
        40.0004         35.0004
 -28301537.27848 -21993185.75548  20481424.0314   20481430.4634   20481423.548
        53.0004         48.0004
 -10895124.22347  -8435518.02347  23262823.4874   23262832.3254   23262823.084
        47.0004         43.0004
  -9270955.95647  -7196373.19047  22767403.7744   22767410.3054   22767403.879
        46.0004         42.0004
 14  5 24  0  9  0.0000000  0 11G13G26G02G07G08G10G09G20G04G17G28
  18271441.04756  14226506.33045  25164926.5305   25164938.5144   25164930.438
        37.0004         32.0004
  -3065643.57747  -2369750.23746  24087405.6654   24087417.2814   24087405.302
        42.0004         38.0004
  -9447028.13947  -7314307.49647  22700222.9704   22700227.9824   22700223.217
        47.0004         42.0004
 -17286246.53248 -13457915.42347  21526427.1284   21526432.4834   21526426.371
        50.0004         46.0004
 -25519017.73748 -19848259.02148  20074615.3164   20074622.0904   20074615.936
        53.0004         49.0004
 -13684485.20847 -10657224.97246  23046695.2744   23046704.8214   23046697.385
        46.0004         41.0004
   -238346.47049   -183906.16548  20111827.7314   20111833.5904   20111827.571
        54.0004         50.0004
  -9221328.65846  -7169549.02645  23963121.5924   23963133.4864   23963122.603
        40.0004         35.0004
 -28334125.11548 -22018578.82948  20475222.7094   20475228.9504   20475222.453
        53.0004         48.0004
 -10856068.32947  -8405084.83047  23270255.4714   23270264.9534   23270254.953
        47.0004         43.0004
  -9329870.43847  -7242280.44347  22756192.2064   22756201.0334   22756193.028
        46.0004         42.0004
 14  5 24  0  9 30.0000000  0 11G13G26G02G07G08G10G09G20G04G17G28
                  14267973.96945                  25175060.1814   25175057.513
                        32.0004
  -3056804.48447  -2362862.51546  24089087.4784   24089100.2164   24089088.463
        42.0004         38.0004
  -9519320.21847  -7370638.89547  22686466.4784   22686471.8334   22686466.791
        47.0004         42.0004
 -17201272.89948 -13391702.19247  21542597.0634   21542603.6364   21542596.580
        50.0004         46.0004
 -25482845.62348 -19820072.93748  20081499.0824   20081505.5414   20081499.122
        53.0004         49.0004
 -13754297.01547 -10711623.67946  23033411.4244   23033419.7084   23033412.021
        46.0004         41.0004
   -209122.58649   -161134.27748  20117388.9584   20117395.0284   20117389.081
        54.0004         50.0004
  -9186594.44146  -7142483.40145  23969732.8404   23969741.1814   23969732.601
        40.0004         35.0004
 -28366172.13048 -22043550.49548  20469124.7944   20469130.9694   20469124.054
        53.0004         48.0004
 -10817134.57147  -8374746.81347  23277663.8164   23277674.4394   23277663.713
        47.0004         43.0004
  -9388817.72147  -7288213.25347  22744977.0244   22744983.6364   22744975.423
        46.0004         42.0004
 14  5 24  0 10  0.0000000  0 11G13G26G02G07G08G10G09G20G04G17G28
                  14309236.48755                  25185145.0845   25185134.487
                        32.0004
  -3047781.47947  -2355831.47446  24090804.6524   24090816.6024   24090805.099
        43.0004         38.0004
  -9591269.12647  -7426702.87847  22672775.2174   22672780.5864   22672775.058
        47.0004         42.0004
 -17115946.74448 -13325214.27447  21558833.8274   21558839.3714   21558833.412
        50.0004         46.0004
 -25446044.92148 -19791397.04448  20088501.9434   20088508.3634   20088502.016
        53.0004         48.0004
 -13824200.23647 -10766093.60746  23020108.5934   23020117.9624   23020109.475
        46.0004         41.0004
   -179331.38649   -137920.32448  20123057.9744   20123063.9414   20123057.890
        54.0004         49.0004
  -9151524.00446  -7115155.81545  23976404.0944   23976416.4044   23976405.454
        40.0004         35.0004
 -28397676.64348 -22068099.42348  20463129.0014   20463135.7044   20463128.820
        53.0004         48.0004
 -10778323.04047  -8344504.02647  23285050.2074   23285059.0724   23285049.342
        47.0004         43.0004
  -9447794.74347  -7334169.24547  22733750.9814   22733759.9984   22733752.308
        46.0004         42.0004
 14  5 24  0 10 30.0000000  0 11G13G26G02G07G08G10G09G20G04G17G28
                  14350293.29245                  25195169.9004   25195160.882
                        32.0004
  -3038577.08147  -2348659.09646  24092557.1974   24092567.4344   24092556.535
        43.0004         38.0004
  -9662873.26047  -7482498.20647  22659148.8554   22659153.9674   22659148.901
        47.0004         42.0004
 -17030271.35348 -13258454.24247  21575137.4164   21575142.9594   21575136.887
        50.0004         46.0004
 -25408617.69048 -19762232.94248  20095623.9474   20095630.1404   20095624.187
        53.0004         48.0004
 -13894193.14047 -10820633.41646  23006789.7194   23006797.2584   23006790.702
        46.0004         41.0004
   -148975.14949   -114266.08348  20128834.2664   20128840.3924   20128834.520
        54.0004         50.0004
  -9116117.98946  -7087566.69845  23983142.3864   23983153.0344   23983143.675
        40.0004         35.0004
 -28428638.03948 -22092225.14748  20457237.6274   20457243.9284   20457237.505
        53.0004         48.0004
 -10739635.99847  -8314358.25647  23292411.6484   23292420.8754   23292411.448
        47.0004         43.0004
  -9506798.90847  -7380146.38647  22722524.9554   22722533.4674   22722524.223
        47.0004         42.0004
 14  5 24  0 11  0.0000000  0 11G13G26G02G07G08G10G09G20G04G17G28
                                                                  25205136.827

  -3029194.81647  -2341348.12146  24094341.7074   24094354.5094   24094341.760
        43.0004         38.0004
  -9734131.90047  -7538024.32847  22645589.0504   22645593.9494   22645589.570
        47.0004         43.0004
 -16944251.10748 -13191425.46347  21591506.4384   21591511.9694   21591505.958
        50.0004         46.0004
 -25370566.92848 -19732582.97748  20102864.5204   20102871.1674   20102865.080
        53.0004         48.0004
 -13964275.17347 -10875242.68946  22993453.8774   22993460.7064   22993454.664
        46.0004         41.0004
   -118056.78849    -90173.82348  20134717.9144   20134724.0654   20134717.922
        54.0004         49.0004
  -9080376.60846  -7059716.27845  23989944.4784   23989954.7174   23989944.534
        39.0004         34.0004
 -28459057.10448 -22115928.27648  20451449.0684   20451455.6494   20451448.319
        53.0004         49.0004
 -10701075.97747  -8284311.46047  23299750.1854   23299758.7314   23299749.059
        47.0004         43.0004
  -9565829.09647  -7426143.81347  22711290.2864   22711299.0714   22711291.399
        47.0004         42.0004
 14  5 24  0 11 30.0000000  0 10G26G02G07G08G10G09G20G04G17G28
  -3019634.36547  -2333898.29346  24096160.7724   24096172.1864   24096160.706
        43.0004         38.0004
  -9805040.74547  -7593277.88047  22632094.4684   22632100.8934   22632095.207
        47.0004         43.0004
 -16857886.45048 -13124128.32247  21607940.9724   21607946.9174   21607940.797
        50.0004         45.0004
 -25331891.71348 -19702446.42448  20110224.5674   20110230.8124   20110224.836
        53.0004         48.0004
 -14034441.55447 -10929917.68546  22980101.3854   22980109.7254   22980101.832
        46.0004         41.0004
    -86575.42449    -65642.86248  20140708.7534   20140714.7694   20140708.748
        54.0004         50.0004
  -9044297.00546  -7031602.33645  23996811.3934   23996820.9114   23996810.452
        39.0004         35.0004
 -28488930.25848 -22139206.02348  20445764.4444   20445770.5934   20445764.014
        53.0004         49.0004
 -10662642.62747  -8254363.36347  23307062.8164   23307073.2584   23307062.604
        47.0004         43.0004
  -9624880.03747  -7472157.41847  22700053.1954   22700062.1334   22700053.875
        47.0004         42.0004
 14  5 24  0 12  0.0000000  0 10G26G02G07G08G10G09G20G04G17G28
  -3009899.90147  -2326312.88746  24098013.7324   24098024.7634   24098012.848
        43.0004         38.0004
  -9875600.23147  -7648259.21147  22618667.8824   22618673.9694   22618668.252
        47.0004         42.0004
 -16771182.33748 -13056566.67547  21624439.6214   21624445.9704   21624439.665
        50.0004         45.0004
 -25292596.09848 -19671826.44548  20117701.8324   20117708.5434   20117702.380
        53.0004         48.0004
 -14104692.35547 -10984658.46346  22966733.3294   22966741.7204   22966733.530
        46.0004         41.0004
    -54534.74649    -40676.07048  20146806.1594   20146811.8274   20146806.138
        54.0004         50.0004
  -9007880.66846  -7003225.95445  24003740.3424   24003749.6354   24003740.420
        39.0004         34.0004
 -28518258.77448 -22162059.37548  20440183.3024   20440189.3664   20440182.671
        53.0004         49.0004
 -10624339.55247  -8224516.77547  23314351.2894   23314361.3484   23314351.319
        47.0004         43.0004
  -9683951.53747  -7518187.03447  22688812.4554   22688820.4814   22688813.121
        47.0004         42.0004
 14  5 24  0 12 30.0000000  0 10G26G02G07G08G10G09G20G04G17G28
  -2999993.08347  -2318593.16546  24099899.0204   24099910.7084   24099898.075
        43.0004         38.0004
  -9945808.17347  -7702966.61647  22605307.8574   22605313.2174   22605307.573
        47.0004         43.0004
 -16684140.79748 -12988742.07847  21641004.1264   21641009.6634   21641003.256
        50.0004         45.0004
 -25252680.92848 -19640723.68948  20125297.5254   20125304.2454   20125297.982
        53.0004         48.0004
 -14175024.78447 -11039462.84846  22953349.3784   22953357.4404   22953349.731
        46.0004         41.0004
    -21935.97949    -15274.40448  20153009.1944   20153015.1294   20153009.276
        54.0004         50.0004
  -8971126.43746  -6974586.28345  24010734.4624   24010743.6514   24010735.739
        39.0004         35.0004
 -28547041.31348 -22184487.28748  20434705.9134   20434712.3364   20434705.796
        53.0004         49.0004
 -10586167.63847  -8194772.40047  23321616.2314   23321625.1974   23321615.517
        47.0004         43.0004
  -9743040.49947  -7564230.27247  22677570.1204   22677575.8744   22677568.812
        47.0004         42.0004
 14  5 24  0 13  0.0000000  0 10G26G02G07G08G10G09G20G04G17G28
  -2989916.06247  -2310740.82246  24101815.6884   24101827.9244   24101815.134
        43.0004         38.0004
 -10015662.36547  -7757398.36747  22592014.8014   22592020.4734   22592015.595
        47.0004         43.0004
 -16596765.11048 -12920657.11547  21657630.9074   21657636.4924   21657630.811
        50.0004         45.0004
 -25212147.66748 -19609139.31048  20133010.8204   20133017.0304   20133011.323
        53.0004         48.0004
 -14245436.93047 -11094329.35647  22939950.0284   22939959.0044   22939951.089
        46.0004         42.0004
     11219.18149     10560.81448  20159318.3704   20159324.2044   20159318.227
        54.0004         50.0004
  -8934034.18046  -6945683.25745  24017790.4564   24017804.5314   24017793.128
        39.0004         34.0004
 -28575277.01548 -22206489.09348  20429332.8314   20429338.7524   20429332.488
        53.0004         49.0004
 -10548128.87547  -8165131.77747  23328854.6874   23328863.8874   23328854.036
        47.0004         42.0004
  -9802144.41047  -7610285.15447  22666320.7084   22666328.9204   22666320.669
        47.0004         42.0004
 14  5 24  0 13 30.0000000  0 10G26G02G07G08G10G09G20G04G17G28
  -2979671.10647  -2302757.61946  24103765.1904   24103778.6454   24103765.092
        43.0004         38.0004
 -10085161.32247  -7811553.30247  22578789.6594   22578794.3744   22578789.573
        47.0004         43.0004
 -16509058.49148 -12852314.29147  21674320.8124   21674326.4784   21674320.172
        50.0004         45.0004
 -25170998.41948 -19577074.94048  20140841.3534   20140847.9954   20140841.615
        53.0004         48.0004
 -14315926.65347 -11149256.29447  22926535.1394   22926544.0554   22926536.833
        46.0004         42.0004
     44928.76049     36828.04748  20165733.2764   20165739.0264   20165733.343
        54.0004         50.0004
  -8896603.57946  -6916516.53945  24024917.9394   24024927.4804   24024916.308
        39.0004         34.0004
 -28602965.56648 -22228064.54748  20424063.8304   20424070.1444   20424063.524
        53.0004         49.0004
 -10510224.34047  -8135595.75747  23336066.5244   23336076.6834   23336066.777
        47.0004         42.0004
  -9861260.55847  -7656349.58747  22655071.8244   22655080.7274   22655071.474
        47.0004         42.0004
 14  5 24  0 14  0.0000000  0 10G26G02G07G08G10G09G20G04G17G28
  -2969260.63547  -2294645.46046  24105746.2184   24105757.8844   24105745.544
        42.0004         38.0004
 -10154303.33748  -7865430.10747  22565632.5894   22565638.4084   22565633.507
        48.0004         43.0004
 -16421023.88248 -12783715.89047  21691073.3094   21691079.2204   21691072.934
        50.0004         45.0004
 -25129234.76548 -19544531.81148  20148788.5774   20148795.1114   20148788.881
        53.0004         48.0004
 -14386492.03247 -11204242.20247  22913107.9904   22913115.4534   22913108.843
        46.0004         42.0004
     79191.12149     63526.01948  20172252.8984   20172258.7294   20172252.742
        54.0004         50.0004
  -8858834.14846  -6887085.81345  24032102.7084   24032112.0484   24032102.773
        39.0004         34.0004
 -28630106.20948 -22249213.06848  20418899.0654   20418905.8254   20418898.921
        53.0004         49.0004
 -10472456.29647  -8106166.06847  23343253.9844   23343263.9454   23343253.623
        47.0004         42.0004
  -9920386.28147  -7702421.46447  22643820.2564   22643829.1424   22643820.191
        47.0004         42.0004
 14  5 24  0 14 30.0000000  0 10G26G02G07G08G10G09G20G04G17G28
  -2958685.69647  -2286405.13246  24107758.5504   24107770.0664   24107758.591
        42.0004         38.0004
 -10223085.52548  -7919026.52247  22552543.4144   22552549.4324   22552543.568
        48.0004         43.0004
 -16332663.27748 -12714863.46747  21707887.1304   21707893.0174   21707887.442
        50.0004         45.0004
 -25086857.58248 -19511510.60748  20156852.5764   20156859.1874   20156853.001
        53.0004         48.0004
 -14457129.87547 -11259284.58047  22899667.7484   22899674.9414   22899666.983
        46.0004         42.0004
    114005.35449     90654.01948  20178877.7374   20178883.8454   20178877.808
        54.0004         50.0004
  -8820724.48746  -6857389.96445  24039354.9384   24039367.1524   24039355.766
        39.0004         34.0004
 -28656697.24448 -22269933.31948  20413838.8744   20413845.2684   20413838.525
        53.0004         49.0004
 -10434824.33447  -8076842.42047  23350416.0154   23350425.1884   23350414.925
        47.0004         42.0004
  -9979517.93247  -7748497.97847  22632567.6314   22632576.4864   22632567.715
        47.0004         42.0004
 14  5 24  0 15  0.0000000  0 10G26G02G07G08G10G09G20G04G17G28
  -2947950.51247  -2278039.93446  24109801.3364   24109812.0794   24109800.636
        42.0004         37.0004
 -10291508.36548  -7972342.94147  22539522.6324   22539528.9074   22539523.334
        48.0004         43.0004
 -16243981.93448 -12645761.11247  21724763.3824   21724768.8344   21724762.679
        50.0004         45.0004
 -25043870.92248 -19478014.49048  20165033.0974   20165039.3394   20165033.317
        53.0004         48.0004
 -14527840.19547 -11314383.43347  22886210.7524   22886218.0184   22886211.081
        46.0004         42.0004
    149367.51849    118208.98248  20185607.1044   20185612.9194   20185607.021
        54.0004         50.0004
  -8782276.28346  -6827430.35045  24046673.1004   24046683.6174   24046671.775
        39.0004         34.0004
 -28682739.94748 -22290226.29848  20408883.4584   20408889.6734   20408883.176
        53.0004         49.0004
 -10397333.48947  -8047628.74947  23357549.0784   23357560.4204   23357549.059
        47.0004         42.0004
 -10038655.20347  -7794578.85747  22621313.6394   22621322.0494   22621314.045
        47.0004         42.0004
 14  5 24  0 15 30.0000000  0 10G26G02G07G08G10G09G20G04G17G28
  -2937054.97247  -2269549.79146  24111874.2954   24111886.8724   24111874.205
        42.0004         38.0004
 -10359567.49848  -8025375.93047  22526571.5104   22526577.8204   22526572.169
        48.0004         43.0004
 -16154980.17448 -12576409.08647  21741699.6484   21741705.2224   21741699.161
        50.0004         45.0004
 -25000274.11548 -19444042.93248  20173328.9924   20173334.7644   20173329.344
        53.0004         48.0004
 -14598618.35047 -11369535.14847  22872742.0904   22872749.7724   22872742.726
        46.0004         42.0004
    185278.24849    146191.39548  20192440.5384   20192446.5324   20192440.669
        54.0004         50.0004
  -8743486.94646  -6797204.87145  24054052.7324   24054067.4774   24054053.947
        39.0004         34.0004
 -28708231.58748 -22310089.88348  20404032.3804   20404038.7044   20404032.096
        53.0004         49.0004
 -10359982.18347  -8018523.80547  23364656.6564   23364667.3224   23364657.205
        47.0004         42.0004
 -10097793.35847  -7840660.44147  22610061.1484   22610068.5034   22610060.977
        47.0004         43.0004
 14  5 24  0 16  0.0000000  0 10G26G02G07G08G10G09G20G04G17G28
  -2926003.88947  -2260938.44446  24113977.7874   24113988.0264   24113977.240
        42.0004         37.0004
 -10427264.00748  -8078126.37547  22513688.9684   22513693.9304   22513689.029
        48.0004         43.0004
 -16065663.39148 -12506811.59647  21758695.6294   21758701.4454   21758695.449
        50.0004         45.0004
 -24956071.48648 -19409599.30848  20181740.7084   20181746.6964   20181740.853
        53.0004         48.0004
 -14669464.84047 -11424740.10047  22859260.1414   22859267.6544   22859261.150
        46.0004         42.0004
    221733.00349    174597.72248  20199377.9804   20199383.7204   20199377.495
        54.0004         50.0004
  -8704358.47246  -6766715.15145  24061497.5574   24061510.6894   24061497.136
        39.0004         34.0004
 -28733173.96548 -22329525.47148  20399286.0624   20399292.0504   20399285.814
        53.0004         49.0004
 -10322774.55447  -7989530.81047  23371738.9194   23371747.4134   23371737.326
        47.0004         42.0004
 -10156931.95747  -7886742.36047  22598805.8224   22598813.5744   22598806.922
        47.0004         43.0004
 14  5 24  0 16 30.0000000  0 10G26G02G07G08G10G09G20G04G17G28
  -2914797.30847  -2252205.93846  24116109.9284   24116120.8404   24116109.888
        42.0004         38.0004
 -10494594.06048  -8130591.27647  22500876.7094   22500881.2574   22500877.257
        48.0004         43.0004
 -15976032.90448 -12436969.65747  21775752.1834   21775757.5974   21775751.691
        50.0004         45.0004
 -24911262.87248 -19374683.48548  20190267.1044   20190273.4744   20190267.685
        53.0004         48.0004
 -14740375.44247 -11479995.02647  22845767.0494   22845773.8044   22845766.525
        47.0004         42.0004
    258732.26449    203428.33648  20206418.5274   20206424.4954   20206418.274
        54.0004         50.0004
  -8664888.60246  -6735959.41945  24069010.7164   24069019.4104   24069009.976
        39.0004         34.0004
 -28757564.56248 -22348531.10348  20394644.9524   20394650.8004   20394644.240
        53.0004         49.0004
 -10285709.87947  -7960649.21847  23378790.8194   23378799.7864   23378790.274
        47.0004         42.0004
 -10216066.27847  -7932820.94147  22587553.1374   22587561.3454   22587553.886
        47.0004         43.0004
 14  5 24  0 17  0.0000000  0 10G26G02G07G08G10G09G20G04G17G28
  -2903437.73147  -2243354.20546  24118270.6504   24118283.9044   24118271.178
        42.0004         38.0004
 -10561556.34648  -8182769.59647  22488134.0034   22488139.7884   22488135.072
        48.0004         43.0004
 -15886091.89648 -12366885.76147  21792867.5044   21792873.1604   21792867.244
        50.0004         45.0004
 -24865850.56648 -19339297.25848  20198909.0284   20198915.3244   20198909.236
        53.0004         48.0004
 -14811348.03947 -11535298.25947  22832259.8064   22832269.0334   22832260.607
        47.0004         42.0004
    296273.47049    232681.24748  20213561.9074   20213568.0574   20213562.424
        54.0004         50.0004
  -8625077.31646  -6704937.63045  24076584.4634   24076597.5094   24076583.825
        39.0004         34.0004
 -28781402.91748 -22367106.41048  20390108.3744   20390114.3644   20390107.901
        53.0004         49.0004
 -10248790.38547  -7931880.74147  23385816.6594   23385825.8244   23385815.949
        47.0004         42.0004
 -10275193.90247  -7978894.30147  22576302.5194   22576310.8284   22576302.625
        47.0004         43.0004
 14  5 24  0 17 30.0000000  0 10G26G02G07G08G10G09G20G04G17G28
  -2891929.49647  -2234386.62946  24120461.0044   24120471.5584   24120461.129
        42.0004         38.0004
 -10628151.13248  -8234661.55347  22475461.7014   22475466.7534   22475461.795
        48.0004         43.0004
 -15795845.18648 -12296563.64747  21810041.3004   21810046.1954   21810040.079
        49.0004         45.0004
 -24819838.62948 -19303443.78248  20207664.8084   20207670.9344   20207665.008
        53.0004         48.0004
 -14882382.63947 -11590649.80247  22818742.7134   22818750.5794   22818743.475
        46.0004         42.0004
    334352.75149    262353.43348  20220808.4334   20220814.6404   20220808.467
        54.0004         50.0004
  -8584926.36246  -6673651.21445  24084225.9364   24084237.4494   24084226.574
        39.0004         34.0004
 -28804690.86648 -22385252.84348  20385676.4854   20385682.9364   20385676.433
        53.0004         49.0004
 -10212019.41247  -7903227.99247  23392813.7804   23392823.2194   23392813.285
        47.0004         43.0004
 -10334314.55047  -8024962.21747  22565051.5794   22565059.8534   22565051.952
        47.0004         43.0004
 14  5 24  0 18  0.0000000  0 10G26G02G07G08G10G09G20G04G17G28
  -2880272.27747  -2225302.97946  24122678.1994   24122690.1164   24122678.732
        42.0004         38.0004
 -10694374.15048  -8286263.81947  22462860.6884   22462865.7844   22462860.860
        48.0004         43.0004
 -15705293.56248 -12226003.94147  21827272.7764   21827277.9414   21827271.632
        49.0004         45.0004
 -24773226.53848 -19267122.65848  20216534.7664   20216541.4064   20216535.099
        53.0004         48.0004
 -14953474.54347 -11646046.01147  22805214.0304   22805221.9024   22805215.039
        46.0004         42.0004
    372970.56749    292445.26048  20228157.2684   20228163.2384   20228157.147
        54.0004         49.0004
  -8544432.76746  -6642097.76845  24091929.6904   24091942.5934   24091930.920
        39.0004         34.0004
 -28827425.48748 -22402968.10248  20381350.3524   20381357.0804   20381350.021
        53.0004         49.0004
 -10175395.87747  -7874690.13347  23399782.7714   23399792.2604   23399782.614
        47.0004         42.0004
 -10393423.19747  -8071020.77347  22553802.7254   22553810.8504   22553803.948
        47.0004         43.0004
 14  5 24  0 18 30.0000000  0 11G26G02G07G08G30G10G09G20G04G17G28
  -2868478.46447  -2216112.87846  24124924.1404   24124933.8484   24124923.552
        42.0004         38.0004
 -10760234.06848  -8337583.16347  22450327.2744   22450333.0264   22450327.946
        48.0004         44.0004
 -15614450.10748 -12155216.83647  21844559.0104   21844565.1054   21844558.855
        49.0004         45.0004
 -24726026.31448 -19230343.24648  20225516.5924   20225523.0234   20225517.041
        53.0004         48.0004
   -176783.76349   -140891.68348  20479485.3564   20479492.9444   20479485.298
        55.0004         50.0004
 -15024631.57347 -11701492.96447  22791673.5434   22791681.2964   22791674.473
        47.0004         42.0004
    412115.05749    322947.48248  20235606.0384   20235611.9704   20235605.973
        54.0004         50.0004
  -8503606.59046                  24099702.3784                   24099701.231
        39.0004
 -28849615.99048 -22420259.38148  20377127.7054   20377133.7574   20377127.574
        53.0004         49.0004
 -10138931.23847  -7846276.07147  23406720.7844   23406731.3804   23406720.973
        47.0004         42.0004
 -10452526.99647  -8117075.54847  22542555.5924   22542564.7864   22542556.309
        47.0004         43.0004
 14  5 24  0 19  0.0000000  0 11G26G02G07G08G30G10G09G20G04G17G28
  -2856530.81447  -2206802.92846  24127197.7424   24127209.5394   24127196.400
        43.0004         38.0004
 -10825709.82348  -8388603.15547  22437867.4874   22437872.3034   22437867.768
        48.0004         44.0004
 -15523298.42348 -12084189.55947  21861905.2404   21861910.3964   21861904.105
        49.0004         45.0004
 -24678220.89648 -19193092.25848  20234613.7294   20234620.0814   20234613.747
        53.0004         48.0004
   -135596.19449   -108797.45548  20487322.9544   20487330.4774   20487323.033
        54.0004         50.0004
 -15095831.92647 -11756973.66947  22778124.2624   22778132.6844   22778125.035
        47.0004         42.0004
    451803.48549    353873.55348  20243158.6794   20243164.7354   20243158.721
        54.0004         50.0004
  -8462428.09646                  24107537.8754                   24107535.839
        39.0004
 -28871242.78548 -22437111.40848  20373012.3204   20373018.7274   20373011.679
        53.0004         49.0004
 -10102607.88547  -7817972.11947  23413633.3174   23413643.2984   23413633.293
        47.0004         42.0004
 -10511603.52547  -8163109.07447  22531314.6444   22531321.9324   22531314.586
        47.0004         43.0004
 14  5 24  0 19 30.0000000  0 11G26G02G07G08G30G10G09G20G04G17G28
  -2844445.61047  -2197385.77146  24129497.3994   24129508.4534   24129496.604
        43.0004         38.0004
 -10890813.55448  -8439333.26947  22425478.7654   22425484.4044   22425478.990
        48.0004         44.0004
 -15431855.40848 -12012935.26747  21879306.2524   21879310.6354   21879305.377
        49.0004         45.0004
 -24629826.03948 -19155381.96448  20243823.1564   20243828.9404   20243823.310
        53.0004         48.0004
    -93904.17549    -76310.15148  20495256.5254   20495264.5624   20495256.635
        54.0004         50.0004
 -15167087.46647 -11812497.37247  22764564.4794   22764573.5424   22764565.088
        47.0004         42.0004
    492019.81749    385210.97548  20250811.6294   20250817.6064   20250811.406
        54.0004         50.0004
  -8420911.31646  -6545847.25545  24115436.1934   24115446.6834   24115437.999
        39.0004         34.0004
 -28892319.56048 -22453534.84548  20369001.3084   20369007.5724   20369001.228
        53.0004         49.0004
 -10066441.19047  -7789790.23347  23420516.4904   23420526.1104   23420515.418
        47.0004         42.0004
 -10570663.74647  -8209129.89647  22520075.2144   22520082.9234   22520075.659
        47.0004         43.0004
 14  5 24  0 20  0.0000000  0 11G26G02G07G08G30G10G09G20G04G17G28
  -2832218.92347  -2187858.36646  24131823.5194   24131834.4014   24131823.176
        42.0004         38.0004
 -10955537.78448  -8489767.65947  22413162.9964   22413166.7854   22413162.157
        48.0004         44.0004
 -15340118.26148 -11941451.77947  21896762.4774   21896768.4904   21896762.390
        49.0004         45.0004
 -24580837.99748 -19117209.44948  20253144.9384   20253151.3324   20253145.203
        53.0004         48.0004
    -51703.41549    -43426.42848  20503287.3844   20503295.0734   20503287.394
        54.0004         50.0004
 -15238390.25047 -11868057.89147  22750996.5284   22751004.2854   22750996.848
        47.0004         42.0004
    532768.08249    416962.89148  20258565.2884   20258571.5374   20258565.527
        54.0004         50.0004
  -8379049.66246  -6513227.75445  24123403.8824   24123412.0024   24123401.950
        39.0004         34.0004
 -28912839.42548 -22469524.33248  20365096.7174   20365102.6564   20365096.148
        53.0004         49.0004
 -10030426.55047  -7761726.83547  23427369.6724   23427379.9114   23427368.969
        47.0004         42.0004
 -10629699.83947  -8255131.91647  22508841.1504   22508849.0484   22508841.450
        47.0004         43.0004
 14  5 24  0 20 30.0000000  0 11G26G02G07G08G30G10G09G20G04G17G28
  -2819855.35747  -2178224.31346  24134174.5454   24134188.2154   24134174.779
        43.0004         38.0004
 -11019883.29848  -8539906.94647  22400917.6914   22400922.9454   22400917.719
        48.0004         44.0004
 -15248091.96248 -11869742.98047  21914275.5844   21914280.9414   21914274.466
        49.0004         44.0004
 -24531261.01148 -19078578.01948  20262579.2244   20262585.6234   20262579.522
        53.0004         48.0004
     -8998.04449    -10149.49648  20511413.8504   20511421.5914   20511413.698
        54.0004         50.0004
 -15309739.92847 -11923654.95747  22737418.2644   22737426.7504   22737419.203
        47.0004         42.0004
    574043.75849    449125.77748  20266420.2554   20266426.0874   20266420.084
        54.0004         49.0004
  -8336845.25946  -6480341.23645  24131434.2514   24131443.0934   24131435.044
        39.0004         34.0004
 -28932804.88448 -22485081.81848  20361297.2054   20361303.7554   20361296.984
        53.0004         49.0004
  -9994567.70047  -7733784.83147  23434192.8084   23434202.4394   23434192.705
        47.0004         42.0004
 -10688711.42647  -8301114.83547  22497611.4394   22497618.8384   22497611.760
        47.0004         43.0004
 14  5 24  0 21  0.0000000  0 11G26G02G07G08G30G10G09G20G04G17G28
  -2807358.84247  -2168486.66046  24136555.2684   24136566.3964   24136554.302
        43.0004         38.0004
 -11083850.12948  -8589751.15847  22388744.3704   22388750.0724   22388745.021
        48.0004         44.0004
 -15155781.41148 -11797812.69247  21931840.3634   21931846.4684   21931840.332
        49.0004         44.0004
 -24481098.78748 -19039490.55248  20272124.5784   20272131.0144   20272125.062
        53.0004         48.0004
     34208.50049     23517.95748  20519635.8814   20519643.4134   20519635.819
        54.0004         50.0004
 -15381135.94047 -11979288.11747  22723833.3254   22723840.6204   22723833.339
        47.0004         42.0004
    615843.09949    481696.71448  20274374.2314   20274380.2044   20274374.261
        54.0004         50.0004
  -8294299.65846  -6447188.80845  24139529.2594   24139537.2834   24139530.861
        39.0004         34.0004
 -28952217.04548 -22500208.15748  20357603.0444   20357609.2704   20357602.832
        53.0004         49.0004
  -9958867.84847  -7705966.70947  23440986.8654   23440996.3594   23440985.945
        47.0004         42.0004
 -10747696.88848  -8347077.39647  22486387.2834   22486394.3644   22486387.103
        48.0004         43.0004
 14  5 24  0 21 30.0000000  0 11G26G02G07G08G30G10G09G20G04G17G28
  -2794730.31447  -2158646.13846  24138957.1124   24138969.1334   24138955.888
        42.0004         38.0004
 -11147435.46548  -8639298.11147  22376644.4254   22376650.0174   22376644.660
        48.0004         44.0004
 -15063188.49948 -11725662.37047  21949460.5674   21949466.1434   21949460.032
        49.0004         44.0004
 -24430352.35348 -18999947.86248  20281781.4334   20281787.6244   20281781.611
        53.0004         48.0004
     77915.72549     57575.55248  20527952.8144   20527960.3944   20527952.810
        54.0004         50.0004
 -15452574.61947 -12034954.52647  22710238.2104   22710245.9994   22710238.482
        47.0004         42.0004
    658165.33649    514675.10148  20282428.2364   20282433.7274   20282427.970
        54.0004         50.0004
  -8251411.25246  -6413769.25045  24147691.5684   24147703.3494   24147692.846
        39.0004         34.0004
 -28971074.32548 -22514902.12748  20354014.9834   20354021.1874   20354014.722
        53.0004         49.0004
  -9923326.89847  -7678272.42547  23447749.0334   23447759.6584   23447748.963
        46.0004         42.0004
 -10806652.25548  -8393016.50847  22475168.8634   22475175.4914   22475168.242
        48.0004         43.0004
 14  5 24  0 22  0.0000000  0 11G26G02G07G08G30G10G09G20G04G17G28
  -2781970.86347  -2148703.61146  24141385.3424   24141394.9014   24141385.182
        43.0004         38.0004
 -11210636.59648  -8688545.67847  22364617.3284   22364623.1624   22364618.417
        48.0004         44.0004
 -14970314.97148 -11653293.38747  21967133.9244   21967138.5714   21967133.918
        49.0004         44.0004
 -24379022.83548 -18959950.82048  20291549.1124   20291555.4134   20291549.531
        53.0004         48.0004
    122122.83549     92022.67148  20536365.2604   20536372.7994   20536365.331
        54.0004         50.0004
 -15524052.95647 -12090651.84147  22696636.1854   22696643.5954   22696636.968
        47.0004         42.0004
    701009.35549    548060.07348  20290580.7164   20290586.6804   20290580.794
        54.0004         50.0004
  -8208179.00646  -6380081.75845  24155917.7344   24155928.5854   24155917.507
        38.0004         34.0004
 -28989375.34748 -22529162.64648  20350532.3874   20350538.5784   20350531.785
        53.0004         49.0004
  -9887945.28747  -7650702.28447  23454481.7714   23454491.0334   23454482.002
        46.0004         42.0004
 -10865574.07448  -8438929.46747  22463955.1594   22463963.6784   22463955.642
        48.0004         43.0004
 14  5 24  0 22 30.0000000  0 11G26G02G07G08G30G10G09G20G04G17G28
  -2769082.74147  -2138660.79546  24143837.5054   24143849.1974   24143836.254
        43.0004         38.0004
 -11273451.79648  -8737492.51647  22352664.1174   22352670.4534   22352664.885
        48.0004         44.0004
 -14877164.06148 -11580708.27547  21984860.5074   21984866.1814   21984859.665
        49.0004         44.0004
 -24327112.14848 -18919500.92548  20301427.4284   20301433.8384   20301427.690
        53.0004         48.0004
    166828.05649    126857.92448  20544872.3544   20544879.9794   20544872.169
        54.0004         50.0004
 -15595568.47647 -12146378.12847  22683026.7754   22683034.5274   22683027.871
        47.0004         42.0004
    744372.97149    581849.92248  20298832.8114   20298838.1354   20298832.494
        54.0004         50.0004
  -8164602.68246  -6346126.16245  24164209.9044   24164217.0444   24164208.671
        38.0004         34.0004
 -29007119.92748 -22542989.57448  20347155.7334   20347161.3564   20347155.036
        53.0004         49.0004
  -9852724.18047  -7623257.20847  23461185.1644   23461194.3514   23461184.289
        46.0004         42.0004
 -10924459.37448  -8484813.96047  22452750.9954   22452758.8824   22452750.347
        48.0004         43.0004
 14  5 24  0 23  0.0000000  0 11G26G02G07G08G30G10G09G20G04G17G28
  -2756074.90047  -2128524.71246  24146313.6314   24146323.7384   24146313.236
        43.0004         38.0004
 -11335886.53148  -8786142.88647  22340783.8474   22340787.7344   22340783.484
        48.0004         44.0004
 -14783745.29548 -11507914.43447  22002637.0954   22002643.1374   22002636.473
        49.0004         44.0004
 -24274629.37748 -18878605.24648  20311414.5854   20311420.8954   20311414.719
