     2.11           OBSERVATION DATA    G (GPS)             RINEX VERSION / TYPE
teqc  2013Mar15     gpsops              20140523 00:24:07UTCPGM / RUN BY / DATE
Linux 2.4.21-27.ELsmp|Opteron|gcc -static|Linux x86_64|=+   COMMENT
BIT 2 OF LLI FLAGS DATA COLLECTED UNDER A/S CONDITION       COMMENT
GLPS                                                        MARKER NAME
42005M002                                                   MARKER NUMBER
GGN                 JPL                                     OBSERVER / AGENCY
ZR220013847         ASHTECH UZ-12       CQ00                REC # / TYPE / VERS
CR519992104         ASH701945B_M    SCIT                    ANT # / TYPE
   -33801.4662 -6377516.5323   -82154.3508                  APPROX POSITION XYZ
        0.0083        0.0000        0.0000                  ANTENNA: DELTA H/E/N
     1     1                                                WAVELENGTH FACT L1/2
     7    L1    L2    P1    P2    C1    S1    S2            # / TYPES OF OBSERV
    30.0000                                                 INTERVAL
                                                            COMMENT
This data is provided as a public service by NASA/JPL.      COMMENT
No warranty is expressed or implied regarding suitability   COMMENT
for use.  For further information, contact:                 COMMENT
Dave Stowers, NASA/JPL m/s 238-600                          COMMENT
4800 Oak Grove Drive, Pasadena CA 91109 USA                 COMMENT
                                                            COMMENT
Forced Modulo Decimation to 30 seconds                      COMMENT
 SNR is mapped to RINEX snr flag value [0-9]                COMMENT
  L1 & L2: min(max(int(snr_dBHz/6), 0), 9)                  COMMENT
pseudorange smoothing corrections not applied               COMMENT
  2014     5    22     0     0    0.0000000     GPS         TIME OF FIRST OBS
                                                            END OF HEADER
 14  5 22  0  0  0.0000000  0 12G20G26G09G08G17G07G02G28G01G04G10G13
  -1902153.52946  -1476385.07245  23781078.0534   23781090.7114   23781079.330
        40.0004         35.0004
  -1391166.11547  -1070111.96046  24052837.6364   24052848.7524   24052837.213
        42.0004         38.0004
 -12475336.92249  -9704657.29948  19988740.4104   19988746.5624   19988740.609
        54.0004         50.0004
 -20041828.00449 -15585052.22748  19907932.7764   19907938.7764   19907932.990
        54.0004         49.0004
 -12213190.11748  -9431906.24947  23002957.2794   23002965.4614   23002956.250
        48.0004         43.0004
 -19302247.64948 -15032120.07147  21013917.0604   21013921.8484   21013916.636
        52.0004         47.0004
  -4911189.42147  -3808337.23146  23215882.4824   23215888.5734   23215882.926
        45.0004         40.0004
  -4724288.65547  -3683268.41846  23134510.2364   23134517.6304   23134510.676
        46.0004         41.0004
  -7696492.11546  -5972273.89945  24795819.1304   24795833.4284   24795817.231
        38.0004         34.0004
 -26334025.59948 -20480642.37948  20742907.9034   20742914.5464   20742907.743
        52.0004         48.0004
 -10051017.42147  -7824910.69946  23486700.2144   23486709.0544   23486701.744
        45.0004         40.0004
   1809709.18446   1416669.64345  24781555.9194   24781562.7934   24781557.237
        39.0004         35.0004
 14  5 22  0  0 30.0000000  0 12G20G26G09G08G17G07G02G28G01G04G10G13
  -9755518.81446  -7595890.47945  23785596.7084   23785604.6444   23785596.772
        39.0004         35.0004
  -1389892.81047  -1069119.62046  24053079.1924   24053092.5914   24053078.527
        42.0004         38.0004
 -12466337.20149  -9697644.48748  19990452.8734   19990458.9044   19990452.791
        54.0004         50.0004
 -20028628.96449 -15574767.22448  19910444.1214   19910450.6724   19910444.603
        54.0004         49.0004
 -12171179.67248  -9399170.83147  23010951.2054   23010959.3904   23010950.669
        48.0004         43.0004
 -19231147.65448 -14976717.43247  21027446.9194   21027451.7144   21027446.641
        52.0004         47.0004
  -4994125.04047  -3872962.25046  23200101.7834   23200107.0424   23200101.356
        45.0004         40.0004
  -4780754.44647  -3727267.63746  23123765.4174   23123772.5564   23123765.372
        46.0004         41.0004
  -7589874.34546  -5889195.24945  24816104.0604   24816123.5334   24816105.122
        38.0004         34.0004
 -26383905.17848 -20519509.53748  20733415.8474   20733422.3794   20733415.263
        52.0004         48.0004
 -10116521.61947  -7875952.80346  23474236.3974   23474244.6264   23474236.184
        45.0004         40.0004
   1871723.15646   1464992.34645  24793357.6784   24793362.5974   24793357.393
        39.0004         35.0004
 14  5 22  0  1  0.0000000  0 12G20G26G09G08G17G07G02G28G01G04G10G13
  -9731488.05446  -7577165.20345  23790168.6514   23790181.6374   23790169.919
        40.0004         35.0004
  -1388377.82047  -1067938.97546  24053367.3474   24053381.0074   24053368.309
        42.0004         38.0004
 -12456744.09949  -9690169.30348  19992278.4754   19992284.7234   19992278.597
        54.0004         50.0004
 -20014779.77249 -15563975.61048  19913079.5664   19913085.9384   19913079.873
        54.0004         49.0004
 -12129239.85748  -9366490.46147  23018932.0734   23018940.2114   23018931.607
        48.0004         43.0004
 -19159612.71148 -14920975.87547  21041059.1594   21041064.9684   21041058.705
        52.0004         47.0004
  -5076800.37847  -3937384.44146  23184368.2244   23184374.6964   23184368.513
        45.0004         40.0004
  -4837342.57647  -3771362.17746  23112996.6854   23113003.4104   23112997.009
        46.0004         41.0004
  -9058627.02446  -7033677.94745  24836403.2404   24836421.1154   24836403.034
        38.0004         34.0004
 -26433298.31448 -20557997.65348  20724017.2034   20724023.4644   20724017.225
        52.0004         48.0004
 -10182192.03347  -7927124.41646  23461739.8534   23461747.3884   23461739.604
        45.0004         40.0004
   1933479.11746   1513114.01445  24805107.7044   24805118.8974   24805109.371
        39.0004         34.0004
 14  5 22  0  1 30.0000000  0 11G20G26G09G08G17G07G02G28G04G10G13
  -9707144.16446  -7558195.91845  23794800.4834   23794809.8054   23794801.945
        39.0004         34.0004
  -1386607.32747  -1066559.22646  24053704.2614   24053716.5724   24053703.924
        43.0004         38.0004
 -12446542.55149  -9682220.00348  19994219.7384   19994225.5604   19994219.627
        54.0004         50.0004
 -20000264.86049 -15552665.25548  19915841.8114   19915847.7184   19915842.244
        54.0004         49.0004
 -12087356.93648  -9333854.42347  23026902.5704   23026910.4734   23026901.789
        48.0004         43.0004
 -19087629.28348 -14864884.88347  21054756.9004   21054762.6354   21054757.202
        52.0004         47.0004
  -5159197.61847  -4001589.94546  23168689.2514   23168693.7044   23168688.850
        45.0004         41.0004
  -4894035.22147  -3815538.16846  23102207.3354   23102215.5694   23102208.626
        46.0004         41.0004
 -26482187.72648 -20596093.26148  20714713.6254   20714720.0184   20714712.530
        52.0004         48.0004
 -10248011.10147  -7978411.86246  23449213.9264   23449223.3124   23449215.099
        45.0004         40.0004
   1994992.05646   1561046.32945  24816816.2884   24816822.7524   24816815.043
        39.0004         35.0004
 14  5 22  0  2  0.0000000  0 12G20G26G09G08G17G07G02G28G01G04G10G13
  -9682482.19246  -7538978.77045  23799495.4284   23799507.1094   23799495.308
        39.0004         35.0004
  -1384579.13847  -1064978.66946  24054090.8234   24054102.3074   24054090.985
        43.0004         38.0004
 -12435729.11249  -9673793.90748  19996277.3074   19996283.5864   19996277.456
        54.0004         50.0004
 -19985080.74349 -15540833.43948  19918730.9174   19918737.3454   19918731.687
        54.0004         49.0004
 -12045529.10848  -9301261.30647  23034861.3924   23034869.5714   23034861.503
        48.0004         43.0004
 -19015195.87148 -14808443.20747  21068540.6944   21068546.7124   21068540.563
        52.0004         47.0004
  -5241310.57947  -4065573.91646  23153063.3584   23153068.3974   23153063.567
        45.0004         41.0004
  -4950826.16047  -3859790.74546  23091401.1474   23091408.8204   23091401.458
        46.0004         41.0004
  -8845102.45146  -6867295.36045  24877034.6954   24877052.4974   24877035.945
        38.0004         33.0004
 -26530567.87648 -20633792.03348  20705507.0874   20705513.3034   20705506.864
        52.0004         48.0004
 -10313972.88647  -8029810.51746  23436661.5804   23436670.1554   23436662.500
        45.0004         40.0004
   2056265.92146   1608792.31445  24828472.6384   24828482.8494   24828474.392
        39.0004         35.0004
 14  5 22  0  2 30.0000000  0 12G20G26G09G08G17G07G02G28G01G04G10G13
  -9657514.27746  -7519523.24945  23804246.0424   23804255.1284   23804245.991
        39.0004         35.0004
  -1382308.43647  -1063209.14446  24054521.8644   24054535.0054   24054521.074
        43.0004         38.0004
 -12424317.72349  -9664901.87348  19998448.5984   19998454.6214   19998448.896
        54.0004         50.0004
 -19969241.08749 -15528490.81348  19921745.2364   19921751.4454   19921745.704
        54.0004         49.0004
 -12003771.79448  -9268723.12747  23042807.2084   23042815.9824   23042807.326
        48.0004         43.0004
 -18942328.31648 -14751663.25947  21082407.4804   21082412.7234   21082407.184
        52.0004         47.0004
  -5323150.16747  -4129344.88146  23137489.2824   23137495.0624   23137489.568
        45.0004         41.0004
  -5007726.22347  -3904128.35646  23080572.9914   23080580.1804   23080573.654
        46.0004         41.0004
  -8738259.44256  -6784041.16555  24897370.8695   24897382.1675   24897367.734
        38.0004         33.0004
 -26578450.22048 -20671102.91248  20696395.2944   20696401.3164   20696395.185
        52.0004         48.0004
 -10380088.99647  -8081329.42446  23424080.1004   23424088.5964   23424080.503
        45.0004         40.0004
   2117286.12446   1656340.65745  24840087.7274   24840093.2274   24840086.287
        39.0004         35.0004
 14  5 22  0  3  0.0000000  0 12G20G26G09G08G17G07G02G28G01G04G10G13
  -9632230.47346  -7499821.56945  23809056.8694   23809064.7994   23809057.948
        39.0004         34.0004
  -1379788.03747  -1061245.05046  24055002.2404   24055014.5014   24055002.160
        43.0004         38.0004
 -12412299.87649  -9655537.27648  20000735.7204   20000741.6414   20000735.856
        54.0004         50.0004
 -19952737.05349 -15515630.49048  19924885.7434   19924892.2874   19924886.102
        54.0004         49.0004
 -11962077.70148  -9236234.22647  23050742.5814   23050749.7004   23050741.774
        48.0004         43.0004
 -18869019.94648 -14694539.81947  21096357.2804   21096362.8624   21096356.914
        52.0004         47.0004
  -5404705.08047  -4192894.01846  23121969.7664   23121975.7834   23121970.102
        45.0004         41.0004
  -5064724.32247  -3948542.35846  23069726.5334   23069734.7164   23069727.237
        46.0004         41.0004
  -8631361.16346  -6700743.86345  24917710.6564   24917723.8404   24917708.945
        38.0004         33.0004
 -26625824.04748 -20708017.53848  20687380.0724   20687386.5404   20687379.731
        52.0004         48.0004
 -10446348.83447  -8132960.32346  23411471.0674   23411479.7774   23411471.683
        45.0004         40.0004
   2178061.12346   1703697.91245  24851651.6424   24851658.5804   24851650.478
        39.0004         34.0004
 14  5 22  0  3 30.0000000  0 12G20G26G09G08G17G07G02G28G01G04G10G13
  -9606634.62046  -7479876.72045  23813927.9724   23813935.0324   23813928.588
        39.0004         34.0004
  -1377024.72747  -1059091.67146  24055527.7254   24055539.3254   24055527.055
        43.0004         38.0004
 -12399681.40249  -9645704.65548  20003136.8904   20003142.7954   20003136.802
        54.0004         50.0004
 -19935574.01449 -15502256.65848  19928151.8454   19928157.9624   19928152.172
        54.0004         49.0004
 -11920453.38148  -9203799.67447  23058662.8364   23058670.6814   23058662.752
        48.0004         43.0004
 -18795278.19748 -14637078.67947  21110389.8844   21110395.4544   21110389.742
        52.0004         47.0004
  -5485978.11347  -4256223.52046  23106504.7424   23106509.7434   23106504.458
        45.0004         41.0004
  -5121823.02647  -3993034.75046  23058862.4704   23058868.3744   23058861.587
        46.0004         41.0004
                  -6617409.34955                  24938079.6105   24938060.921
                        32.0004
 -26672692.55348 -20744538.40848  20678461.1104   20678467.4684   20678461.581
        52.0004         48.0004
 -10512755.75647  -8184705.83446  23398834.1424   23398842.9684   23398834.673
        45.0004         40.0004
   2238585.53746   1750859.93145  24863169.5464   24863175.9114   24863168.692
        39.0004         34.0004
 14  5 22  0  4  0.0000000  0 12G20G26G09G08G17G07G02G28G01G04G10G13
  -9580722.73046  -7459685.63845  23818860.0444   23818867.1334   23818858.763
        39.0004         34.0004
  -1374017.39447  -1056748.13146  24056100.3874   24056111.4024   24056099.687
        43.0004         38.0004
 -12386459.85949  -9635402.11048  20005653.0894   20005658.7664   20005653.025
        54.0004         50.0004
 -19917749.50548 -15488367.39048  19931543.5044   19931549.6514   19931544.039
        53.0004         49.0004
 -11878897.73948  -9171418.65747  23066570.4484   23066578.1344   23066570.167
        48.0004         43.0004
 -18721103.06848 -14579279.84347  21124505.2714   21124510.3044   21124504.575
        51.0004         47.0004
  -5566963.86147  -4319329.17646  23091092.7074   23091097.8094   23091091.602
        45.0004         41.0004
  -5179016.86347  -4037601.28246  23047978.0404   23047984.5344   23047977.861
        46.0004         41.0004
                  -6534037.02155                  24958441.4325   24958421.074
                        32.0004
 -26719051.21748 -20780662.00448  20669639.7664   20669646.2074   20669639.151
        52.0004         48.0004
 -10579304.84647  -8236562.12846  23386170.3434   23386178.6374   23386170.924
        45.0004         40.0004
   2298861.62746   1797828.43845  24874636.8394   24874642.6404   24874638.467
        39.0004         34.0004
 14  5 22  0  4 30.0000000  0 11G20G26G09G08G17G07G02G28G04G10G13
  -9554494.98146  -7439248.42345  23823849.7394   23823856.5934   23823850.881
        39.0004         34.0004
  -1370769.25247  -1054216.96546  24056717.5924   24056729.9574   24056716.660
        42.0004         38.0004
 -12372637.35949  -9624631.28948  20008283.3784   20008288.8334   20008283.416
        54.0004         50.0004
 -19899265.46049 -15473964.20148  19935061.1664   19935067.2904   19935061.444
        54.0004         49.0004
 -11837414.10548  -9139093.74547  23074465.2374   23074471.1134   23074464.442
        48.0004         43.0004
 -18646497.97648 -14521145.96547  21138702.1194   21138706.7724   21138701.512
        51.0004         47.0004
  -5647661.16647  -4382210.05746  23075736.1744   23075742.0414   23075736.802
        46.0004         41.0004
  -5236304.94547  -4082241.25946  23037076.1104   23037083.5444   23037076.091
        45.0004         41.0004
 -26764899.76048 -20816388.09448  20660914.8814   20660921.2304   20660914.648
        52.0004         48.0004
 -10645995.51247  -8288528.74046  23373478.6254   23373487.7804   23373480.110
        45.0004         40.0004
   2358887.72946   1844602.14245  24886059.3164   24886066.8684   24886060.560
        39.0004         34.0004
 14  5 22  0  5  0.0000000  0 11G20G26G09G08G17G07G02G28G04G10G13
  -9527951.17046  -7418564.89745  23828898.8104   23828907.6784   23828900.893
        39.0004         34.0004
  -1367283.18647  -1051500.38246  24057380.5534   24057393.0394   24057380.229
        42.0004         38.0004
 -12358215.80549  -9613393.67348  20011027.6084   20011033.4394   20011027.643
        54.0004         50.0004
 -19880123.73849 -15459048.53548  19938703.7504   19938709.5894   19938704.109
        54.0004         49.0004
 -11796005.49048  -9106827.29547  23082344.7874   23082351.8544   23082344.134
        48.0004         43.0004
 -18571466.82248 -14462680.09447  21152980.1024   21152984.5644   21152979.504
        51.0004         47.0004
  -5728069.39147  -4444865.66646  23060434.8644   23060440.9284   23060435.822
        46.0004         41.0004
  -5293685.94147  -4126953.63346  23026156.9214   23026164.6534   23026156.839
        45.0004         41.0004
 -26810237.50748 -20851716.16648  20652287.6984   20652293.6804   20652287.187
        52.0004         48.0004
 -10712827.14747  -8340605.19146  23360761.8604   23360769.8864   23360762.258
        45.0004         40.0004
  -3883017.62646  -3019220.07245  24897435.3904   24897440.9124   24897435.565
        39.0004         35.0004
 14  5 22  0  5 30.0000000  0 11G20G26G09G08G17G07G02G28G04G10G13
  -9501089.18746  -7397633.47745  23834013.1664   23834022.0324   23834013.392
        39.0004         35.0004
  -1363559.74847  -1048598.85246  24058088.0144   24058100.4844   24058088.658
        42.0004         38.0004
 -12343194.52649  -9601688.73648  20013885.9564   20013891.9564   20013886.052
        54.0004         50.0004
 -19860323.20449 -15443619.50648  19942471.6244   19942477.6974   19942471.620
        54.0004         49.0004
 -11754672.42048  -9074619.69447  23090210.7324   23090216.8044   23090209.457
        48.0004         43.0004
 -18496010.70648 -14403883.07847  21167338.1444   21167344.0174   21167338.048
        51.0004         47.0004
  -5808184.83947  -4507293.15246  23045190.3004   23045195.9864   23045189.356
        46.0004         41.0004
  -5351156.30347  -4171735.65246  23015220.7854   23015227.8304   23015220.514
        45.0004         41.0004
 -26855061.62248 -20886644.00148  20643757.8324   20643764.0324   20643757.154
        52.0004         48.0004
 -10779796.76547  -8392789.16846  23348017.6104   23348025.3584   23348018.427
        45.0004         40.0004
  -3823493.81446  -2972837.75245  24908762.3684   24908770.4004   24908762.292
        39.0004         35.0004
 14  5 22  0  6  0.0000000  0 11G20G26G09G08G17G07G02G28G04G10G13
 -11049313.70646  -8604042.19345  23839187.4634   23839196.3894   23839188.991
        39.0004         35.0004
  -1359586.44947  -1045502.60846  24058846.1544   24058856.3774   24058845.387
        42.0004         38.0004
 -12327560.10349  -9589506.02948  20016861.0174   20016866.7094   20016861.105
        54.0004         50.0004
 -19839850.18249 -15427666.46548  19946367.4374   19946373.6194   19946367.614
        54.0004         49.0004
 -11713401.95048  -9042460.87247  23098064.5054   23098071.4974   23098062.901
        48.0004         43.0004
 -18420117.61348 -14344745.56347  21181780.4964   21181786.0934   21181780.163
        51.0004         47.0004
  -5887990.98847  -4569479.61246  23030002.7414   23030008.8224   23030003.509
        46.0004         41.0004
  -5408699.16547  -4216574.16246  23004270.1744   23004278.0004   23004270.892
        45.0004         41.0004
 -26899356.08348 -20921159.11548  20635328.8304   20635335.1574   20635328.316
        53.0004         48.0004
 -10846887.72547  -8445067.68746  23335250.7084   23335259.3044   23335251.860
        45.0004         40.0004
  -3764207.06646  -2926640.15745  24920045.2214   24920048.9144   24920044.210
        39.0004         35.0004
 14  5 22  0  6 30.0000000  0 11G20G26G09G08G17G07G02G28G04G10G13
 -11021821.92046  -8582620.00645  23844420.4664   23844428.0924   23844419.609
        39.0004         34.0004
  -1355403.57547  -1042243.06846  24059639.8884   24059653.2484   24059640.493
        42.0004         38.0004
 -12311351.74249  -9576876.08948  20019945.4894   20019951.3254   20019945.526
        54.0004         50.0004
 -19818743.86449 -15411219.94348  19950383.9044   19950390.3494   19950384.254
        54.0004         49.0004
 -11672234.49248  -9010382.32147  23105897.3244   23105906.1494   23105896.625
        48.0004         43.0004
 -18343828.88948 -14285299.76447  21196297.8534   21196303.4094   21196297.676
        51.0004         47.0004
  -5967523.70247  -4631453.01546  23014867.9884   23014873.5324   23014868.091
        46.0004         41.0004
  -5466350.63147  -4261497.29146  22993298.8784   22993306.6784   22993299.674
        45.0004         41.0004
 -26943157.81748 -20955290.29148  20626993.7194   20627000.1374   20626993.395
        53.0004         48.0004
 -10914137.05847  -8497469.62246  23322453.6794   23322461.2264   23322454.210
        45.0004         40.0004
  -3705196.10246  -2880657.46245  24931272.2084   24931279.3914   24931273.171
        39.0004         34.0004
 14  5 22  0  7  0.0000000  0 11G20G26G09G08G17G07G02G28G04G10G13
 -10994004.16246  -8560943.80745  23849714.9684   23849722.7434   23849713.463
        39.0004         35.0004
  -1350984.51847  -1038799.48646  24060481.3294   24060493.5414   24060481.337
        42.0004         38.0004
 -12294541.71049  -9563777.32348  20023144.1154   20023149.9854   20023144.141
        54.0004         50.0004
 -19796976.33249 -15394258.18848  19954525.8504   19954532.0354   19954526.323
        54.0004         49.0004
 -11631143.56848  -8978363.41547  23113717.1514   23113724.0194   23113716.452
        48.0004         43.0004
 -18267118.46748 -14225525.36147  21210894.9134   21210900.4374   21210894.757
        51.0004         47.0004
  -6046752.29647  -4693189.44446  22999790.0314   22999797.5844   22999791.225
        46.0004         41.0004
  -5524079.84547  -4306481.00146  22982314.5284   22982321.6644   22982314.231
        46.0004         41.0004
 -26986436.76448 -20989014.09948  20618757.8004   20618764.0114   20618757.207
        53.0004         48.0004
 -10981514.31147  -8549971.23546  23309632.0134   23309639.0164   23309632.112
        45.0004         40.0004
  -3646432.93046  -2834867.84645  24942455.9944   24942462.1144   24942455.973
        39.0004         34.0004
 14  5 22  0  7 30.0000000  0 11G20G26G09G08G17G07G02G28G04G10G13
 -10965865.34146  -8539017.43845  23855064.9424   23855077.9574   23855066.495
        39.0004         34.0004
  -1346336.71947  -1035177.66346  24061365.8214   24061378.2244   24061365.355
        42.0004         38.0004
 -12277136.32749  -9550214.64548  20026456.2704   20026462.0714   20026456.520
        54.0004         50.0004
 -19774553.68249 -15376785.95348  19958792.8464   19958798.8184   19958793.027
        54.0004         49.0004
 -11590136.26448  -8946409.66247  23121519.6224   23121527.6134   23121519.622
        48.0004         43.0004
 -18189994.52548 -14165428.75247  21225571.5124   21225576.9304   21225571.204
        51.0004         47.0004
  -6125680.21047  -4754691.58046  22984771.8984   22984776.9444   22984771.617
        46.0004         41.0004
  -5581889.69647  -4351527.55946  22971311.8894   22971319.4544   22971313.302
        46.0004         41.0004
 -27029197.01648 -21022333.71748  20610620.5574   20610627.2034   20610620.262
        53.0004         48.0004
 -11049022.81747  -8602575.11346  23296783.9384   23296793.1244   23296785.689
        45.0004         40.0004
  -3587923.31246  -2789275.83545  24953589.6114   24953593.9414   24953590.081
        39.0004         35.0004
 14  5 22  0  8  0.0000000  0 11G20G26G09G08G17G07G02G28G04G10G13
 -10937402.39546  -8516838.51945  23860484.7494   23860490.0294   23860484.603
        39.0004         34.0004
  -1341460.05747  -1031377.49346  24062294.1654   24062306.2384   24062293.862
        42.0004         38.0004
 -12259134.38749  -9536187.11248  20029881.5564   20029887.6874   20029881.695
        54.0004         50.0004
 -19751474.51549 -15358802.14448  19963184.7264   19963190.4954   19963185.170
        54.0004         49.0004
 -11549212.46348  -8914520.96247  23129306.8654   23129314.9964   23129307.193
        48.0004         43.0004
 -18112457.73248 -14105010.43647  21240326.1394   21240331.1704   21240325.791
        51.0004         47.0004
  -6204303.10047  -4815956.03646  22969810.0764   22969816.0634   22969810.791
        46.0004         41.0004
  -5639775.91847  -4396633.62046  22960297.3114   22960304.7944   22960298.047
        46.0004         41.0004
 -27071434.97448 -21055246.36748  20602583.3204   20602589.4814   20602583.058
        53.0004         48.0004
 -11116658.75347  -8655278.29446  23283914.2024   23283921.9154   23283914.765
        45.0004         40.0004
  -3529666.00146  -2743880.40745  24964673.9334   24964680.2804   24964676.070
        39.0004         35.0004
 14  5 22  0  8 30.0000000  0 11G20G26G09G08G17G07G02G28G04G10G13
 -10908615.26046  -8494406.94845  23865961.6424   23865971.9014   23865961.171
        39.0004         34.0004
  -1336357.40647  -1027401.23846  24063264.4174   24063276.4384   24063265.102
        42.0004         38.0004
 -12240538.05249  -9521696.42048  20033420.5134   20033426.6344   20033420.695
        54.0004         50.0004
 -19727740.52349 -15340308.08248  19967700.8664   19967707.3904   19967701.114
        54.0004         49.0004
 -11508374.54347  -8882699.17247  23137078.6094   23137086.8024   23137077.818
        47.0004         43.0004
 -18034511.43748 -14044273.02347  21255159.0114   21255164.1614   21255158.465
        51.0004         47.0004
  -6282619.67947  -4876981.80446  22954906.3234   22954912.7504   22954906.850
        46.0004         41.0004
  -5697736.90247  -4441797.94546  22949268.9654   22949276.2074   22949268.240
        46.0004         41.0004
 -27113150.00648 -21087751.53848  20594644.7704   20594650.9004   20594644.280
        53.0004         48.0004
 -11184421.21647  -8708080.07946  23271021.2324   23271027.3794   23271020.249
        45.0004         40.0004
  -3471662.51246  -2698682.76345  24975712.8314   24975720.5214   24975712.953
        39.0004         34.0004
 14  5 22  0  9  0.0000000  0 11G20G26G09G08G17G07G02G28G04G10G13
 -10879506.09646  -8471724.47945  23871502.2264   23871510.0544   23871500.739
        39.0004         34.0004
  -1331033.62147  -1023252.66046  24064278.0934   24064289.2874   24064277.654
        42.0004         38.0004
 -12221351.24049  -9506745.61148  20037071.8754   20037077.5284   20037071.813
        54.0004         50.0004
 -19703355.44449 -15321306.67948  19972341.1914   19972347.2264   19972341.637
        54.0004         49.0004
 -11467627.31148  -8850948.05447  23144832.3374   23144840.6354   23144832.398
        48.0004         43.0004
 -17956161.27948 -13983220.90447  21270068.6974   21270073.3694   21270067.737
        51.0004         47.0004
  -6360631.06247  -4937769.77146  22940060.8924   22940066.8424   22940061.068
        46.0004         41.0004
  -5755773.12947  -4487020.88946  22938223.7664   22938230.5964   22938224.068
        46.0004         41.0004
 -27154343.74348 -21119850.50148  20586806.2934   20586811.8674   20586806.053
        53.0004         48.0004
 -11252311.27247  -8760981.27146  23258100.8874   23258108.2514   23258100.747
        45.0004         40.0004
  -3413916.03546  -2653685.41745  24986703.1064   24986707.7664   24986701.706
        39.0004         34.0004
 14  5 22  0  9 30.0000000  0 11G20G26G09G08G17G07G02G28G04G10G13
 -10850070.94646  -8448787.98045  23877103.4304   23877111.1874   23877103.204
        39.0004         34.0004
  -1325487.78747  -1018931.08046  24065333.2904   24065344.5924   24065332.631
        42.0004         38.0004
 -12201572.07149  -9491333.22748  20040835.6634   20040841.3194   20040835.390
        54.0004         50.0004
 -19678317.27449 -15301796.37548  19977105.8594   19977112.1204   19977106.312
        54.0004         49.0004
 -11426969.98548  -8819267.01147  23152568.9504   23152576.6654   23152569.360
        48.0004         43.0004
 -17877406.79848 -13921853.73147  21285054.9914   21285060.2744   21285054.603
        51.0004         47.0004
  -6438331.77747  -4998315.63947  22925275.5754   22925281.6044   22925276.674
        46.0004         42.0004
  -5813879.35147  -4532298.37846  22927166.8024   22927174.7954   22927166.706
        46.0004         41.0004
 -27195011.89748 -21151539.92048  20579067.1414   20579073.2054   20579066.480
        53.0004         48.0004
 -11320323.96047  -8813978.02546  23245157.8604   23245166.3534   23245158.767
        45.0004         40.0004
  -3356424.09546  -2608886.38145  24997643.9094   24997647.5844   24997642.138
        39.0004         34.0004
 14  5 22  0 10  0.0000000  0 11G20G26G09G08G17G07G02G28G04G10G13
 -10820311.40446  -8425598.72745  23882767.3834   23882774.0884   23882765.729
        39.0004         34.0004
  -1319724.36047  -1014439.93546  24066428.9224   24066441.1124   24066429.368
        42.0004         37.0004
 -12181204.10949  -9475462.04048  20044711.3734   20044717.2844   20044711.418
        54.0004         50.0004
 -19652629.69449 -15281780.03848  19981994.1004   19981999.8614   19981994.260
        54.0004         49.0004
 -11386406.61648  -8787659.17347  23160288.4254   23160296.6834   23160287.925
        48.0004         43.0004
 -17798253.97548 -13860176.16047  21300116.5844   21300121.7174   21300116.290
        51.0004         46.0004
  -6515722.65547  -5058620.08147  22910548.8724   22910554.4884   22910548.439
        46.0004         42.0004
  -5872055.64947  -4577630.48447  22916095.9304   22916103.3244   22916096.276
        46.0004         42.0004
 -27235155.71448 -21182820.75948  20571427.9564   20571434.2654   20571427.652
        53.0004         48.0004
 -11388460.17847  -8867071.03446  23232192.3294   23232199.1514   23232192.829
        45.0004         40.0004
  -3299189.59946  -2564287.99045  25008535.9204   25008538.6424   25008533.856
        39.0004         34.0004
 14  5 22  0 10 30.0000000  0 11G20G26G09G08G17G07G02G28G04G10G13
 -10790225.95946  -8402155.50345  23888492.1614   23888499.4724   23888490.515
        39.0004         35.0004
  -1313744.11947  -1009779.85746  24067567.5444   24067578.3874   24067566.896
        42.0004         37.0004
 -12160247.08949  -9459131.85248  20048699.1294   20048705.3764   20048699.292
        54.0004         50.0004
 -19626292.04349 -15261257.15448  19987006.2144   19987011.6694   19987006.435
        54.0004         49.0004
 -11345937.61347  -8756124.85447  23167988.8054   23167997.2424   23167988.955
        47.0004         43.0004
 -17718703.75348 -13798188.92647  21315254.5214   21315260.1444   21315254.634
        51.0004         46.0004
  -6592800.08247  -5118680.27147  22895880.7774   22895886.3194   22895881.592
        46.0004         42.0004
  -5930298.40647  -4623014.37047  22905013.1204   22905019.3934   22905012.993
        46.0004         42.0004
 -27274772.52748 -21213690.95648  20563889.2764   20563895.0484   20563888.951
        53.0004         48.0004
 -11456716.43847  -8920257.58846  23219203.6434   23219209.8584   23219204.049
        45.0004         41.0004
  -3242211.67846  -2519889.52945  25019377.5044   25019381.6004   25019376.560
        39.0004         34.0004
 14  5 22  0 11  0.0000000  0 11G20G26G09G08G17G07G02G28G04G10G13
 -10759815.86446  -8378459.32145  23894277.5954   23894285.9974   23894278.048
        39.0004         35.0004
  -1307551.76847  -1004954.48946  24068745.2114   24068757.4354   24068745.734
        42.0004         37.0004
 -12138704.98849  -9442345.75848  20052798.7444   20052804.3884   20052798.714
        54.0004         50.0004
 -19599308.18048 -15240230.72748  19992140.7434   19992146.9814   19992140.811
        53.0004         49.0004
 -11305567.55547  -8724667.63547  23175672.5084   23175679.8414   23175671.127
        47.0004         43.0004
 -17638761.75848 -13735896.39547  21330467.1874   21330472.5514   21330466.584
        51.0004         46.0004
  -6669564.53247  -5178496.58647  22881273.2824   22881278.6814   22881273.437
        46.0004         42.0004
  -5988607.62847  -4668450.05047  22893916.9594   22893925.0744   22893916.835
        46.0004         42.0004
 -27313863.63748 -21244151.50948  20556450.1494   20556456.0084   20556449.595
        53.0004         48.0004
 -11525093.62347  -8973538.37346  23206191.3394   23206199.0894   23206191.525
        45.0004         41.0004
  -3185493.66446  -2475693.57045  25030167.1274   25030173.8794   25030169.933
        39.0004         34.0004
 14  5 22  0 11 30.0000000  0 11G20G26G09G08G17G07G02G28G04G10G13
 -10729076.69546  -8354506.71945  23900125.3324   23900136.0174   23900127.352
        39.0004         34.0004
  -1301145.61847   -999962.53346  24069965.5514   24069977.7964   24069964.486
        42.0004         38.0004
 -12116575.28749  -9425101.79148  20057009.7234   20057015.4494   20057009.704
        54.0004         50.0004
 -19571675.39348 -15218698.64448  19997399.0254   19997404.9484   19997399.341
        53.0004         49.0004
 -11265294.51847  -8693286.01447  23183334.7064   23183343.8244   23183334.963
        47.0004         43.0004
 -17558427.00448 -13673297.83747  21345754.9864   21345759.6194   21345754.259
        51.0004         46.0004
  -6746010.64047  -5238064.85847  22866725.4394   22866730.6154   22866726.194
        46.0004         42.0004
  -6046977.37547  -4713932.90246  22882810.3444   22882815.4334   22882809.722
        46.0004         41.0004
 -27352424.11248 -21274198.58048  20549112.5014   20549118.3574   20549112.230
        53.0004         48.0004
 -11593586.40047  -9026909.23446  23193156.9394   23193165.0834   23193157.607
        45.0004         41.0004
  -3129032.05746  -2431697.43745  25040913.9164   25040919.4544   25040913.824
        39.0004         34.0004
 14  5 22  0 12  0.0000000  0 11G20G26G09G08G17G07G02G28G04G10G13
 -10698010.06446  -8330298.91945  23906039.2824   23906046.0784   23906038.121
        39.0004         34.0004
  -1294529.97747   -994807.33046  24071222.4674   24071234.4704   24071223.437
        42.0004         38.0004
 -12093861.45949  -9407402.66048  20061332.2434   20061337.8824   20061332.249
        54.0004         50.0004
 -19543397.34448 -15196663.76048  20002779.6454   20002786.0934   20002780.293
        53.0004         49.0004
 -11225122.63347  -8661983.20847  23190979.0144   23190986.8224   23190979.238
        47.0004         43.0004
 -17477704.53448 -13610397.15947  21361115.2244   21361120.2824   21361114.910
        51.0004         46.0004
  -6822138.34547  -5297385.00947  22852238.2044   22852243.9164   22852239.590
        46.0004         42.0004
  -6105407.73647  -4759462.97947  22871690.1844   22871697.3934   22871690.614
        46.0004         42.0004
 -27390455.23948 -21303833.18048  20541875.1184   20541881.1604   20541874.857
        53.0004         48.0004
 -11662195.14647  -9080370.44846  23180101.8014   23180108.4804   23180101.923
        45.0004         41.0004
  -3072829.76646  -2387903.37745  25051608.7764   25051615.9254   25051608.390
        38.0004         34.0004
 14  5 22  0 12 30.0000000  0 11G20G26G09G08G17G07G02G28G04G10G13
 -10666614.09146  -8305834.53145  23912012.1834   23912021.1264   23912012.806
        39.0004         34.0004
  -1287705.90347   -989489.71446  24072520.8904   24072534.3814   24072521.394
        43.0004         38.0004
 -12070563.47849  -9389248.34248  20065765.3584   20065771.2174   20065765.343
        54.0004         50.0004
 -19514473.93648 -15174126.00148  20008284.2454   20008290.2554   20008284.313
        53.0004         49.0004
 -11185052.60247  -8630759.77447  23198604.3414   23198613.4864   23198604.311
        47.0004         43.0004
 -17396595.86448 -13547195.54647  21376549.4484   21376554.8044   21376549.527
        51.0004         46.0004
  -6897944.73447  -5356454.79047  22837813.9344   22837818.7004   22837814.105
        46.0004         42.0004
  -6163894.97847  -4805037.38347  22860560.2934   22860567.4884   22860560.478
        46.0004         42.0004
 -27427954.46148 -21333053.30648  20534739.4654   20534745.4994   20534739.010
        53.0004         48.0004
 -11730916.48047  -9133919.40046  23167024.2924   23167031.0984   23167024.725
        45.0004         41.0004
  -3016886.08046  -2344310.82245  25062255.5144   25062261.0164   25062252.815
        38.0004         33.0004
 14  5 22  0 13  0.0000000  0 11G20G26G09G08G17G07G02G28G04G10G13
 -10634889.59646  -8281114.15045  23918050.1064   23918058.5584   23918049.773
        39.0004         34.0004
  -1280677.02147   -984012.48946  24073859.0844   24073870.7004   24073859.026
        43.0004         38.0004
 -12046684.52749  -9370641.32448  20070309.2824   20070314.8204   20070309.375
        54.0004         50.0004
 -19484907.58448 -15151087.24148  20013910.2924   20013916.4204   20013910.618
        53.0004         49.0004
 -11145087.53947  -8599618.12847  23206208.9894   23206216.9414   23206208.963
        47.0004         42.0004
 -17315105.60848 -13483696.58947  21392056.7454   21392061.2104   21392056.274
        51.0004         46.0004
  -6973429.01447  -5415273.56947  22823449.3614   22823454.4424   22823449.484
        46.0004         42.0004
  -6222438.00147  -4850655.24247  22849420.0384   22849425.9934   22849420.272
        46.0004         42.0004
 -27464922.37448 -21361859.42548  20527704.5834   20527710.7334   20527704.136
        53.0004         48.0004
 -11799750.42747  -9187556.09846  23153925.0484   23153932.5024   23153926.242
        45.0004         41.0004
  -2961202.63946  -2300921.08145  25072849.4564   25072852.5944   25072849.900
        38.0004         34.0004
 14  5 22  0 13 30.0000000  0 11G20G26G09G08G17G07G02G28G04G10G13
 -10602834.61346  -8256136.23445  23924149.1414   23924159.5254   23924150.077
        39.0004         34.0004
  -1273444.01347   -978376.22446  24075236.0954   24075247.0454   24075235.428
        43.0004         38.0004
 -12022224.40449  -9351581.44348  20074963.8904   20074969.5954   20074964.042
        54.0004         50.0004
 -19454698.12048 -15127547.35948  20019659.0644   20019664.9094   20019659.295
        53.0004         49.0004
 -11105228.16347  -8568558.84647  23213794.1334   23213802.7534   23213793.825
        47.0004         43.0004
 -17233235.15148 -13419901.37847  21407636.0644   21407640.6004   21407635.666
        51.0004         46.0004
  -7048587.90747  -5473838.82247  22809146.5624   22809152.5404   22809146.408
        46.0004         42.0004
  -6281033.20947  -4896313.76247  22838269.5884   22838276.6354   22838269.868
        46.0004         42.0004
 -27501356.25448 -21390249.41648  20520771.5484   20520777.1534   20520771.130
        53.0004         48.0004
 -11868693.45847  -9241277.79946  23140805.5964   23140813.0854   23140806.584
        46.0004         41.0004
  -2905778.88646  -2257733.64745  25083398.7164   25083402.5134   25083396.436
        38.0004         34.0004
 14  5 22  0 14  0.0000000  0 11G20G26G09G08G17G07G02G28G04G10G13
 -10570448.60746  -8230900.39545  23930311.3794   23930321.3864   23930313.285
        39.0004         35.0004
  -1266008.94447   -972582.51146  24076651.5344   24076662.4384   24076650.084
        43.0004         38.0004
 -11997184.52349  -9332069.80648  20079728.7334   20079734.6644   20079728.837
        54.0004         50.0004
 -19423846.93348 -15103507.43448  20025529.8004   20025535.8274   20025529.819
        53.0004         49.0004
 -11065476.11547  -8537583.20347  23221358.8314   23221367.9734   23221358.731
        47.0004         42.0004
 -17150987.36648 -13355812.14447  21423287.2924   21423291.9384   21423287.254
        51.0004         46.0004
  -7123419.73347  -5532149.19547  22794907.1224   22794912.3204   22794907.286
        47.0004         42.0004
  -6339678.18047  -4942011.07247  22827109.6204   22827116.4694   22827110.205
        46.0004         42.0004
 -27537255.23048 -21418222.59948  20513940.0414   20513945.7844   20513939.410
        53.0004         48.0004
 -11937743.74747  -9295083.08946  23127666.0434   23127673.5974   23127666.387
        46.0004         41.0004
  -2850615.04446  -2214748.78645  25093895.1584   25093900.7774   25093893.714
        38.0004         34.0004
 14  5 22  0 14 30.0000000  0 11G20G26G09G08G17G07G02G28G04G10G13
 -10537732.70346  -8205407.51345  23936540.1274   23936546.9404   23936539.223
        39.0004         34.0004
  -1258376.05847   -966634.64146  24078102.0644   24078114.5704   24078102.238
        43.0004         38.0004
 -11971568.48649  -9312109.21348  20084603.7684   20084609.2354   20084603.550
        54.0004         50.0004
 -19392357.42248 -15078970.11348  20031521.6924   20031527.6474   20031522.116
        53.0004         49.0004
 -11025835.10147  -8506694.07647  23228902.3394   23228909.9534   23228902.168
        47.0004         43.0004
 -17068367.23548 -13291432.76347  21439009.4384   21439014.3114   21439009.174
        51.0004         46.0004
  -7197924.51147  -5590204.72347  22780728.4214   22780734.0514   22780729.915
        47.0004         42.0004
  -6398372.57447  -4987746.87547  22815940.7114   22815947.0534   22815940.930
        47.0004         42.0004
 -27572620.23948 -21445779.69748  20507210.3054   20507216.6034   20507209.991
        53.0004         48.0004
 -12006901.62847  -9348972.21146  23114505.4764   23114512.8574   23114506.233
        46.0004         41.0004
  -2795713.74346  -2171968.48945  25104342.7154   25104348.2414   25104341.435
        38.0004         33.0004
 14  5 22  0 15  0.0000000  0 11G20G26G09G08G17G07G02G28G04G10G13
 -10504683.52946  -8179654.89645  23942827.5004   23942834.6064   23942827.930
        39.0004         34.0004
  -1250544.56147   -960532.01746  24079593.1134   24079604.0984   24079592.698
        43.0004         38.0004
 -11945374.33249  -9291698.14248  20089587.8294   20089593.3784   20089587.841
        54.0004         50.0004
 -19360227.88048 -15053934.06948  20037636.1494   20037641.4984   20037636.252
        53.0004         49.0004
 -10986303.90047  -8475890.50947  23236424.6064   23236433.6504   23236424.913
        47.0004         43.0004
 -16985374.65848 -13226763.17447  21454802.8594   21454807.1604   21454802.013
        51.0004         46.0004
  -7272097.33047  -5648001.58647  22766613.2034   22766619.2324   22766613.908
        47.0004         42.0004
  -6457110.90047  -5033516.91747  22804763.6294   22804770.6614   22804763.254
        47.0004         42.0004
 -27607447.21948 -21472917.56148  20500582.9054   20500588.7854   20500582.483
        53.0004         48.0004
 -12076161.70747  -9402940.97446  23101326.7504   23101333.5044   23101326.881
        46.0004         41.0004
  -2741072.41246  -2129390.74845  25114740.9284   25114743.5514   25114739.697
        37.0004         33.0004
 14  5 22  0 15 30.0000000  0 11G20G26G09G08G17G07G02G28G04G10G13
 -10471303.10746  -8153644.21645  23949179.1024   23949186.7054   23949180.890
        39.0004         35.0004
  -1242519.21647   -954278.33946  24081119.2114   24081130.9444   24081118.684
        42.0004         38.0004
 -11918606.24349  -9270839.84748  20094681.8764   20094687.5194   20094681.807
        54.0004         50.0004
 -19327462.42648 -15028402.50248  20043870.7034   20043876.6884   20043871.357
        53.0004         49.0004
 -10946887.03847  -8445176.03147  23243926.0534   23243933.4984   23243925.367
        47.0004         43.0004
 -16902015.29048 -13161807.76247  21470665.5324   21470669.4684   21470664.681
        50.0004         46.0004
  -7345938.98347  -5705540.39547  22752562.2914   22752568.1564   22752563.805
        47.0004         42.0004
  -6515893.35447  -5079321.35347  22793576.8664   22793584.5104   22793577.262
        47.0004         42.0004
 -27641737.85548 -21499637.49348  20494057.6534   20494064.1174   20494056.919
        53.0004         48.0004
 -12145524.88547  -9456990.07046  23088126.7114   23088133.6374   23088126.751
        46.0004         41.0004
  -2686693.91146  -2087017.79245  25125088.5364   25125091.2174   25125086.652
        38.0004         33.0004
 14  5 22  0 16  0.0000000  0 11G20G26G09G08G17G07G02G28G04G10G13
 -10437589.51046  -8127373.89245  23955592.6014   23955601.3294   23955596.024
        39.0004         35.0004
  -1234300.79147   -947874.20846  24082683.7594   24082694.3424   24082683.889
        42.0004         38.0004
 -11891264.54349  -9249534.57848  20099884.6964   20099890.3284   20099884.472
        54.0004         50.0004
 -19294061.02848 -15002375.39848  20050227.3514   20050232.8494   20050227.393
        53.0004         49.0004
 -10907585.09647  -8414551.11047  23251405.1354   23251412.4264   23251404.226
        47.0004         43.0004
 -16818290.62648 -13096567.70547  21486596.7974   21486601.9264   21486596.808
        50.0004         46.0004
  -7419446.03747  -5762818.48147  22738575.1524   22738579.8424   22738574.735
        47.0004         42.0004
  -6574716.15347  -5125157.22647  22782383.4514   22782391.2824   22782383.829
        47.0004         42.0004
 -27675489.88948 -21525937.73748  20487634.6894   20487640.7534   20487634.529
        53.0004         48.0004
 -12214987.87847  -9511116.93846  23074907.8304   23074914.7804   23074908.082
        46.0004         41.0004
  -2632577.56946  -2044849.16245  25135384.6494   25135390.4854   25135384.788
        38.0004         33.0004
 14  5 22  0 16 30.0000000  0 11G20G26G09G08G17G07G02G28G04G10G13
 -10403542.36146  -8100843.61045  23962073.2454   23962084.5764   23962074.717
        39.0004         35.0004
  -1225891.76347   -941321.53946  24084283.4784   24084295.3134   24084283.278
        42.0004         38.0004
 -11863351.06549  -9227783.77548  20105196.4194   20105202.3224   20105196.471
        54.0004         50.0004
 -19260025.16448 -14975853.91048  20056703.8444   20056709.5494   20056704.053
        53.0004         49.0004
 -10868399.73547  -8384017.04647  23258861.0854   23258869.8144   23258860.872
        47.0004         43.0004
 -16734203.73848 -13031045.39847  21502598.5084   21502602.9554   21502598.058
        50.0004         46.0004
  -7492617.00447  -5819834.68847  22724649.9834   22724655.6564   22724650.270
        47.0004         42.0004
  -6633577.16047  -5171022.86347  22771182.9864   22771188.7634   22771182.932
        47.0004         42.0004
 -27708702.61948 -21551817.74648  20481314.4144   20481320.5654   20481313.846
        53.0004         48.0004
 -12284548.87947  -9565320.17746  23061670.9574   23061678.0494   23061671.159
        46.0004         41.0004
                  -2002885.08445                  25145638.2754   25145632.365
                        33.0004
 14  5 22  0 17  0.0000000  0 11G20G26G09G08G17G07G02G28G04G10G13
 -10369161.12046  -8074053.07645  23968619.5094   23968627.1554   23968617.185
        40.0004         35.0004
  -1217294.15247   -934621.94946  24085918.5224   24085930.2924   24085919.122
        42.0004         37.0004
 -11834867.20649  -9205588.51248  20110616.2834   20110622.4574   20110616.595
        54.0004         50.0004
 -19225356.47148 -14948839.30448  20063301.3404   20063306.8874   20063301.649
        53.0004         49.0004
 -10829332.65047  -8353575.13047  23266295.7814   23266303.6084   23266295.359
        47.0004         43.0004
 -16649757.31348 -12965242.93447  21518667.8544   21518672.7684   21518667.572
        50.0004         46.0004
  -7565449.89447  -5876587.45547  22710791.1754   22710795.4254   22710791.322
        47.0004         42.0004
  -6692473.69847  -5216916.18547  22759975.2974   22759981.1064   22759975.363
        46.0004         42.0004
 -27741374.91348 -21577276.62948  20475097.1424   20475103.2864   20475096.906
        53.0004         48.0004
 -12354206.08147  -9619598.37946  23048415.1614   23048421.7194   23048416.029
        46.0004         41.0004
                  -1961125.78345                  25155834.3944   25155829.411
                        32.0004
 14  5 22  0 17 30.0000000  0 11G20G26G09G08G17G07G02G28G04G10G13
 -10334445.18546  -8047001.70445  23975223.2584   23975232.1014   23975223.383
        40.0004         35.0004
  -1208510.38147   -927777.27846  24087591.6564   24087602.8844   24087590.888
        42.0004         38.0004
 -11805814.69349  -9182950.14648  20116145.3224   20116150.6554   20116145.307
        54.0004         50.0004
 -19190056.29348 -14921332.62948  20070018.6804   20070024.1744   20070018.737
        53.0004         49.0004
 -10790386.03447  -8323227.10447  23273706.1864   23273715.1864   23273706.544
        47.0004         43.0004
 -16564954.33548 -12899162.62847  21534805.6044   21534810.6104   21534805.150
        50.0004         46.0004
  -7637943.06347  -5933075.50647  22696996.8374   22697001.2924   22696995.924
        47.0004         43.0004
  -6751403.49447  -5262835.41747  22748760.0254   22748768.0204   22748761.057
        46.0004         42.0004
 -27773506.13548 -21602313.90248  20468982.4684   20468988.8474   20468982.241
        53.0004         48.0004
 -12423957.72547  -9673950.17846  23035142.8294   23035148.0614   23035142.412
        46.0004         41.0004
  -2471805.21846  -1919571.72945  25165978.1264   25165987.1164   25165979.091
        37.0004         33.0004
 14  5 22  0 18  0.0000000  0 11G20G26G09G08G17G07G02G28G04G10G13
 -10299394.25546  -8019689.30545  23981894.1234   23981900.1044   23981892.873
        39.0004         35.0004
  -1199542.64047   -920789.25546  24089296.6314   24089309.0554   24089297.257
        42.0004         38.0004
 -11776195.21449  -9159869.98948  20121781.4954   20121787.2714   20121781.393
        54.0004         50.0004
 -19154126.33248 -14893335.22348  20076855.5364   20076861.5274   20076855.887
        53.0004         48.0004
 -10751561.24347  -8292974.00447  23281093.5674   23281103.0194   23281094.145
        47.0004         42.0004
 -16479798.73348 -12832807.55247  21551009.8394   21551014.7914   21551009.261
        50.0004         46.0004
  -7710094.42947  -5989297.22247  22683265.2764   22683269.9864   22683265.951
        47.0004         43.0004
  -6810364.38447  -5308778.88547  22737541.2934   22737547.8654   22737541.198
        47.0004         42.0004
 -27805095.60748 -21626929.03148  20462971.2954   20462977.3644   20462971.155
        53.0004         48.0004
 -12493801.85947  -9728374.05046  23021851.2314   23021857.1194   23021851.063
        46.0004         41.0004
                  -1878223.22245                  25176083.8884   25176076.681
                        32.0004
 14  5 22  0 18 30.0000000  0 11G20G26G09G08G17G07G02G28G04G10G13
 -10264007.04746  -7992114.84945  23988624.1254   23988634.3954   23988627.166
        39.0004         35.0004
  -1190392.21947   -913658.87846  24091038.7334   24091050.2164   24091038.226
        42.0004         38.0004
 -11746009.70349  -9136348.76848  20127525.6654   20127531.5484   20127525.548
        54.0004         50.0004
 -19117567.47848 -14864847.76148  20083812.5054   20083818.3714   20083812.885
        53.0004         49.0004
 -10712859.13047  -8262816.48847  23288459.0454   23288468.2124   23288459.043
        47.0004         42.0004
 -16394291.94648 -12766178.83247  21567281.1854   21567286.2424   21567280.878
        50.0004         45.0004
  -7781901.62347  -6045250.74947  22669600.7024   22669606.2664   22669601.241
        47.0004         43.0004
  -6869352.71947  -5354743.73947  22726316.7924   22726322.8484   22726315.679
        46.0004         42.0004
 -27836141.26548 -21651120.41348  20457063.8824   20457069.4004   20457063.358
        53.0004         48.0004
 -12563735.30547  -9782867.51446  23008541.6804   23008549.8044   23008543.179
        46.0004         41.0004
  -2365940.66846  -1837079.74245  25186123.4584   25186128.0994   25186124.386
        37.0004         33.0004
 14  5 22  0 19  0.0000000  0 11G20G26G09G08G17G07G02G28G04G10G13
 -10228283.63346  -7964278.43645  23995424.7914   23995434.9504   23995424.723
        39.0004         35.0004
  -1181061.77347   -906388.23746  24092813.5694   24092824.4704   24092813.293
        42.0004         38.0004
 -11715260.23249  -9112388.09848  20133376.9524   20133382.5594   20133376.848
        54.0004         50.0004
 -19080381.50248 -14835871.63648  20090888.7454   20090894.7824   20090888.988
        53.0004         48.0004
 -10674282.08147  -8232756.42847  23295801.0684   23295808.2624   23295800.777
        47.0004         42.0004
 -16308437.59048 -12699279.26947  21583617.9474   21583623.4684   21583617.995
        50.0004         46.0004
  -7853363.30347  -6100935.05547  22656002.0324   22656006.4744   22656001.895
        47.0004         42.0004
  -6928366.35147  -5400728.31147  22715084.8314   22715092.2094   22715086.125
        47.0004         42.0004
 -27866643.11648 -21674888.05048  20451259.0194   20451264.8994   20451258.692
        53.0004         48.0004
 -12633756.69147  -9837429.50046  22995218.1614   22995225.1044   22995218.669
        46.0004         41.0004
  -2313404.19946  -1796142.11145  25196125.8054   25196126.7094   25196121.007
        37.0004         33.0004
 14  5 22  0 19 30.0000000  0 11G20G26G09G08G17G07G02G28G04G10G13
 -10192224.34946  -7936180.32045  24002285.3114   24002294.6604   24002286.914
        39.0004         35.0004
  -1171554.45747   -898979.77246  24094622.4564   24094633.7344   24094622.591
        42.0004         38.0004
 -11683949.10249  -9087989.77448  20139335.3624   20139340.9134   20139335.363
        54.0004         50.0004
 -19042570.95248 -14806408.82748  20098084.1964   20098089.6394   20098084.090
        53.0004         49.0004
 -10635832.62347  -8202795.78347  23303117.7084   23303125.8274   23303116.977
        47.0004         43.0004
 -16222239.42748 -12632111.83547  21600021.8384   21600026.9484   21600021.515
        50.0004         46.0004
  -7924478.42847  -6156349.31447  22642469.3404   22642473.8604   22642470.176
        47.0004         43.0004
  -6987403.74647  -5446731.38047  22703851.6464   22703857.9814   22703851.737
        47.0004         42.0004
 -27896600.91648 -21698231.75048  20445559.0414   20445564.5104   20445558.442
        53.0004         49.0004
 -12703864.95447  -9892059.18946  22981876.1914   22981883.4604   22981877.144
        46.0004         41.0004
  -2261132.74046  -1755411.04645  25206067.4394   25206071.8564   25206068.506
        37.0004         32.0004
 14  5 22  0 20  0.0000000  0 11G20G26G09G08G17G07G02G28G04G10G13
 -10155827.88546  -7907819.42245  24009211.1764   24009222.3854   24009212.864
        39.0004         35.0004
  -1161871.69347   -891434.58546  24096466.4254   24096475.4694   24096465.208
        42.0004         38.0004
 -11652077.36749  -9063154.60848  20145400.7034   20145405.5744   20145400.457
        54.0004         50.0004
 -19004136.79548 -14776460.09648  20105397.7524   20105403.3054   20105397.955
        53.0004         48.0004
 -10597511.57847  -8172935.19747  23310409.5754   23310417.9334   23310409.319
        47.0004         43.0004
 -16135699.56448 -12564678.11547  21616489.6294   21616494.2994   21616489.045
        50.0004         45.0004
  -7995244.32747  -6211491.44847  22629003.3984   22629008.4624   22629002.953
        47.0004         43.0004
  -7046461.90747  -5492750.64747  22692612.1954   22692620.5024   22692612.947
        47.0004         42.0004
 -27926013.33048 -21721150.47448  20439961.5294   20439967.4624   20439961.018
        53.0004         49.0004
 -12774057.33247  -9946754.41446  22968519.0454   22968526.1384   22968519.584
        46.0004         41.0004
                  -1714886.16245                  25215966.6364   25215964.681
                        32.0004
 14  5 22  0 20 30.0000000  0 11G20G26G09G08G17G07G02G28G04G10G13
 -10119094.57646  -7879196.06645  24016201.7674   24016212.8524   24016203.941
        39.0004         35.0004
  -1152016.23147   -883754.83346  24098340.4804   24098352.1784   24098340.110
        42.0004         38.0004
 -11619647.36949  -9037884.43748  20151571.3964   20151576.8954   20151571.305
        54.0004         50.0004
 -18965081.31548 -14746027.21148  20112829.3754   20112835.4974   20112829.700
        53.0004         48.0004
 -10559321.10047  -8143176.35347  23317677.3654   23317685.6964   23317676.627
        47.0004         43.0004
 -16048821.58748 -12496980.93147  21633021.8954   21633026.2794   21633021.408
        50.0004         45.0004
  -8065659.90947  -6266360.62647  22615604.1684   22615608.9344   22615603.436
        47.0004         43.0004
  -7105538.54747  -5538784.30347  22681370.4014   22681376.1124   22681370.986
        47.0004         42.0004
 -27954880.28848 -21743644.16848  20434468.5094   20434473.9094   20434468.007
        53.0004         49.0004
 -12844332.40847 -10001514.09146  22955147.6654   22955153.7094   22955147.080
        46.0004         41.0004
                  -1674568.48355                  25225817.1155   25225810.171
                        32.0004
 14  5 22  0 21  0.0000000  0 11G20G26G09G08G17G07G02G28G04G10G13
 -10082021.95246  -7850308.35545  24023257.5484   24023266.9774   24023257.678
        39.0004         35.0004
  -1141988.51347   -875940.85046  24100246.4464   24100259.0974   24100248.131
        42.0004         38.0004
 -11586659.02049  -9012179.18848  20157848.9404   20157854.6714   20157848.942
        54.0004         50.0004
 -18925404.34248 -14715110.05548  20120380.0344   20120385.3184   20120380.068
        53.0004         48.0004
 -10521261.26447  -8113519.31447  23324919.2594   23324926.6504   23324919.329
        47.0004         43.0004
 -15961606.91948 -12429021.39047  21649618.9284   21649623.5114   21649618.018
        50.0004         45.0004
  -8135721.80547  -6320954.18747  22602270.3314   22602275.3504   22602270.468
        47.0004         43.0004
  -7164629.45547  -5584829.09547  22670125.3894   22670133.3134   22670126.336
        47.0004         42.0004
 -27983198.99948 -21765710.65848  20429079.2014   20429085.3834   20429078.846
        53.0004         49.0004
 -12914686.16647 -10056335.07346  22941758.4604   22941765.9454   22941759.101
        46.0004         41.0004
                                                                  25235605.549

 14  5 22  0 21 30.0000000  0 10G20G26G09G08G17G07G02G28G04G10
 -10044611.97146  -7821157.73245  24030375.9934   24030385.9744   24030377.254
        39.0004         35.0004
  -1131793.05447   -867996.16446  24102189.0804   24102199.9594   24102188.901
        42.0004         38.0004
 -11553116.48849  -8986042.10648  20164231.7574   20164237.1754   20164231.703
        54.0004         50.0004
 -18885110.00448 -14683711.82648  20128047.5454   20128053.3894   20128047.731
        53.0004         48.0004
 -10483335.98247  -8083967.12447  23332136.6014   23332144.3004   23332136.186
        47.0004         42.0004
 -15874060.88048 -12360803.63847  21666277.6704   21666282.6024   21666277.234
        50.0004         45.0004
  -8205430.36047  -6375272.41247  22589006.1324   22589011.1644   22589005.664
        47.0004         43.0004
  -7223734.39247  -5630884.81147  22658877.9094   22658884.4864   22658878.894
        47.0004         42.0004
 -28010971.43348 -21787351.47648  20423794.4244   20423800.3094   20423794.146
        53.0004         49.0004
 -12985118.78647 -10111217.50547  22928355.1614   22928362.7764   22928356.225
        46.0004         42.0004
 14  5 22  0 22  0.0000000  0 10G20G26G09G08G17G07G02G28G04G10
 -10006862.69446  -7791742.70945  24037559.9134   24037568.7044   24037559.488
        39.0004         34.0004
  -1121430.21347   -859921.05346  24104158.6594   24104171.0214   24104159.580
        42.0004         38.0004
 -11519019.70549  -8959473.14448  20170720.1564   20170725.7894   20170719.982
        54.0004         50.0004
 -18844198.07448 -14651832.36048  20135833.0624   20135838.6474   20135833.016
        53.0004         48.0004
 -10445545.07347  -8054519.62547  23339327.7534   23339335.6274   23339327.065
        47.0004         42.0004
