     2.11           OBSERVATION DATA    G (GPS)             RINEX VERSION / TYPE
teqc  2013Mar15     gpsops              20140505 00:23:24UTCPGM / RUN BY / DATE
Linux 2.4.21-27.ELsmp|Opteron|gcc -static|Linux x86_64|=+   COMMENT
BIT 2 OF LLI FLAGS DATA COLLECTED UNDER A/S CONDITION       COMMENT
GLPS                                                        MARKER NAME
42005M002                                                   MARKER NUMBER
GGN                 JPL                                     OBSERVER / AGENCY
ZR220013847         ASHTECH UZ-12       CQ00                REC # / TYPE / VERS
CR519992104         ASH701945B_M    SCIT                    ANT # / TYPE
   -33801.4662 -6377516.5323   -82154.3508                  APPROX POSITION XYZ
        0.0083        0.0000        0.0000                  ANTENNA: DELTA H/E/N
     1     1                                                WAVELENGTH FACT L1/2
     7    L1    L2    P1    P2    C1    S1    S2            # / TYPES OF OBSERV
    30.0000                                                 INTERVAL
                                                            COMMENT
This data is provided as a public service by NASA/JPL.      COMMENT
No warranty is expressed or implied regarding suitability   COMMENT
for use.  For further information, contact:                 COMMENT
Dave Stowers, NASA/JPL m/s 238-600                          COMMENT
4800 Oak Grove Drive, Pasadena CA 91109 USA                 COMMENT
                                                            COMMENT
Forced Modulo Decimation to 30 seconds                      COMMENT
 SNR is mapped to RINEX snr flag value [0-9]                COMMENT
  L1 & L2: min(max(int(snr_dBHz/6), 0), 9)                  COMMENT
pseudorange smoothing corrections not applied               COMMENT
  2014     5     4     0     0    0.0000000     GPS         TIME OF FIRST OBS
                                                            END OF HEADER
 14  5  4  0  0  0.0000000  0 12G01G23G20G04G28G17G07G08G09G10G11G13
  20687443.25548  16117666.89247  22207460.8184   22207470.6204   22207459.740
        49.0004         44.0004
  25946885.31746  20206056.24045  24871471.2734   24871476.6184   24871469.089
        40.0004         35.0004
  15416265.75247  12012583.40446  23653882.3804   23653891.7584   23653882.525
        43.0004         39.0004
 -11593920.21447  -8985466.56146  22915256.3344   22915264.0954   22915255.547
        46.0004         41.0004
  -2409531.98147  -1877461.93346  24318477.2164   24318488.2314   24318476.540
        42.0004         37.0004
  16275045.34148  12683332.67247  21953733.4304   21953742.0004   21953733.702
        51.0004         46.0004
  11552842.74849   9007948.95048  20144962.6114   20144968.1594   20144962.108
        54.0004         49.0004
   6252675.04748   4881680.64547  20923931.5474   20923939.5724   20923931.686
        52.0004         47.0004
   6410713.84948   5005192.71847  20948898.5744   20948906.4804   20948898.910
        52.0004         47.0004
  -3608786.66746  -2806584.12246  24868791.9534   24868805.1294   24868792.173
        41.0004         36.0004
  25147353.56547  19589601.54346  23702735.6364   23702744.5724   23702735.592
        43.0004         38.0004
  24139266.65347  18806217.35947  22627305.5754   22627311.3734   22627305.618
        46.0004         42.0004
 14  5  4  0  0 30.0000000  0 12G01G23G20G04G28G17G07G08G09G10G11G13
  20757038.63448  16171897.05447  22220704.1974   22220713.6324   22220703.128
        48.0004         44.0004
  26031739.74346  20272176.62145  24887619.5684   24887623.4354   24887616.684
        40.0004         35.0004
  15411666.81847  12008999.88846  23653007.6284   23653015.3074   23653007.586
        43.0004         39.0004
 -11691849.55747  -9061775.00646  22896619.5804   22896629.3404   22896620.342
        46.0004         41.0004
  -2433517.65247  -1896151.90546  24313911.7724   24313924.6974   24313912.351
        42.0004         37.0004
  16298913.74448  12701931.44047  21958275.8894   21958284.1134   21958275.931
        51.0004         46.0004
  11540552.18049   8998371.93548  20142623.9484   20142629.2334   20142623.606
        54.0004         49.0004
   6177767.18848   4823310.99848  20909677.3424   20909684.8064   20909677.599
        52.0004         48.0004
   6339054.11848   4949354.11047  20935262.5084   20935270.1714   20935262.592
        52.0004         47.0004
  -3641544.55146  -2832109.60846  24862559.2714   24862570.5094   24862558.580
        41.0004         36.0004
  25247181.91047  19667389.81946  23721732.3564   23721741.6034   23721732.449
        43.0004         38.0004
  24221512.67547  18870305.19847  22642956.9044   22642962.9334   22642956.201
        46.0004         42.0004
 14  5  4  0  1  0.0000000  0 12G01G23G20G04G28G17G07G08G09G10G11G13
  20827052.92848  16226453.64447  22234027.4574   22234036.5614   22234026.385
        48.0004         44.0004
  26116393.04246  20338140.28645  24903726.4084   24903733.1984   24903725.532
        39.0004         35.0004
  15407133.08247  12005467.18946  23652143.6274   23652153.3134   23652144.777
        43.0004         39.0004
 -11789643.32847  -9137977.80346  22878011.7104   22878018.8674   22878010.875
        46.0004         41.0004
  -2457787.43647  -1915063.25246  24309293.1974   24309304.8554   24309293.804
        42.0004         37.0004
  16323081.68348  12720763.62247  21962874.6944   21962882.1874   21962874.621
        51.0004         46.0004
  11528838.89449   8989244.74948  20140394.5314   20140400.3394   20140393.983
        54.0004         49.0004
   6103237.51448   4765236.04848  20895494.3174   20895502.4734   20895494.840
        52.0004         48.0004
   6267798.75348   4893830.59147  20921702.7504   20921710.6014   20921702.468
        52.0004         47.0004
  -3674548.83146  -2857827.07646  24856277.1704   24856289.2184   24856278.592
        41.0004         37.0004
  25347181.84047  19745311.79446  23740760.5914   23740770.4254   23740761.507
        43.0004         38.0004
  24303770.97247  18934402.58347  22658609.6484   22658615.4064   22658610.034
        46.0004         42.0004
 14  5  4  0  1 30.0000000  0 12G01G23G20G04G28G17G07G08G09G10G11G13
  20897484.11448  16281335.08947  22247429.4004   22247440.3594   22247428.952
        48.0004         44.0004
  26200843.40746  20403945.78445  24919797.8484   24919803.5944   24919797.258
        39.0004         35.0004
  15402666.19947  12001986.57946  23651294.1594   23651302.8024   23651294.388
        43.0004         39.0004
 -11887298.94247  -9214072.94746  22859427.9784   22859435.7134   22859427.757
        46.0004         41.0004
  -2482341.25847  -1934195.93646  24304619.6984   24304632.3364   24304620.855
        42.0004         37.0004
  16347545.98548  12739826.74747  21967530.3804   21967538.5754   21967529.948
        51.0004         46.0004
  11517703.82649   8980568.12048  20138275.8474   20138281.2524   20138275.434
        54.0004         50.0004
   6029089.47248   4707458.47448  20881384.4094   20881392.4274   20881384.784
        52.0004         48.0004
   6196950.67148   4838624.43247  20908220.6814   20908228.6924   20908220.686
        51.0004         47.0004
  -3707799.77546  -2883736.74846  24849951.1884   24849962.5194   24849951.128
        41.0004         37.0004
  25447350.72647  19823365.41746  23759822.6784   23759833.8654   23759823.052
        43.0004         38.0004
  24386039.16747  18998507.70846  22674265.0374   22674272.7634   22674264.802
        46.0004         41.0004
 14  5  4  0  2  0.0000000  0 12G01G23G20G04G28G17G07G08G09G10G11G13
  20968331.57248  16336540.89847  22260911.4344   22260922.2294   22260910.920
        48.0004         44.0004
  26285090.41146  20469592.84445  24935827.4734   24935832.5834   24935828.420
        39.0004         34.0004
  15398269.42147  11998560.59046  23650457.2014   23650465.9154   23650457.647
        43.0004         39.0004
 -11984812.48447  -9290057.38647  22840870.5714   22840880.5194   22840871.419
        46.0004         42.0004
  -2507177.83247  -1953548.95546  24299894.9484   24299906.6774   24299894.767
        42.0004         37.0004
  16372305.73148  12759120.07947  21972241.9794   21972250.1264   21972241.651
        51.0004         46.0004
  11507149.30349   8972343.87048  20136267.3814   20136272.8794   20136266.969
        54.0004         50.0004
   5955327.49548   4649981.72448  20867348.1834   20867355.8924   20867348.206
        52.0004         48.0004
   6126513.83548   4783738.73247  20894817.0594   20894824.3074   20894816.847
        52.0004         47.0004
  -3741296.47046  -2909837.91746  24843576.3204   24843586.6754   24843576.705
        41.0004         37.0004
  25547687.02447  19901549.49746  23778916.0004   23778927.2414   23778916.901
        43.0004         38.0004
  24468315.79047  19062619.39147  22689920.5034   22689929.0964   22689921.764
        46.0004         42.0004
 14  5  4  0  2 30.0000000  0 12G01G23G20G04G28G17G07G08G09G10G11G13
  21039590.83248  16392067.59747  22274471.5794   22274481.9594   22274471.356
        48.0004         44.0004
  26369130.67546  20535078.78545  24951820.2534   24951828.2224   24951819.974
        39.0004         35.0004
  15393942.04247  11995188.68746  23649633.3154   23649643.3974   23649634.699
        43.0004         39.0004
 -12082183.68247  -9365930.91447  22822342.5034   22822350.7984   22822341.731
        46.0004         42.0004
  -2532299.26247  -1973123.90446  24295114.0364   24295125.4584   24295114.329
        42.0004         38.0004
  16397356.60048  12778640.26147  21977009.0164   21977016.3954   21977008.722
        51.0004         46.0004
  11497174.09149   8964571.02748  20134368.7424   20134374.2394   20134368.513
        54.0004         50.0004
   5881952.22748   4592806.30548  20853384.7334   20853392.7704   20853385.219
        52.0004         48.0004
   6056488.36148   4729173.56747  20881491.3714   20881499.0594   20881491.438
        52.0004         47.0004
  -3775041.96146  -2936132.95946  24837155.2974   24837166.2174   24837154.898
        41.0004         37.0004
  25648185.56447  19979859.98646  23798040.9194   23798052.5744   23798041.243
        43.0004         38.0004
  24550594.96547  19126733.04946  22705577.7854   22705584.8424   22705578.469
        46.0004         41.0004
 14  5  4  0  3  0.0000000  0 12G01G23G20G04G28G17G07G08G09G10G11G13
  21111263.54848  16447916.46247  22288110.0504   22288121.3654   22288109.929
        48.0004         44.0004
  26452966.20246  20600405.18645  24967773.5434   24967778.0984   24967773.555
        39.0004         34.0004
  15389689.45047  11991875.05146  23648824.6814   23648834.0074   23648825.130
        43.0004         39.0004
 -12179406.52547  -9441688.84547  22803841.4534   22803849.5374   22803840.434
        46.0004         42.0004
  -2557702.14147  -1992918.19746  24290280.2164   24290290.1934   24290279.931
        42.0004         37.0004
  16422699.11448  12798387.70347  21981831.2364   21981839.9034   21981831.083
        51.0004         46.0004
  11487782.53149   8957252.97648  20132581.7604   20132587.4684   20132581.414
        54.0004         50.0004
   5808970.48348   4535937.52948  20839496.9504   20839505.0914   20839497.501
        52.0004         48.0004
   5986880.70548   4674933.97147  20868245.2044   20868252.8734   20868245.468
        52.0004         47.0004
  -3809032.98846  -2962619.34546  24830685.5904   24830698.5424   24830686.371
        41.0004         36.0004
  25748847.19747  20058297.56646  23817196.5514   23817206.3654   23817196.499
        43.0004         38.0004
  24632877.90247  19190849.64746  22721236.5004   22721242.8164   22721236.242
        46.0004         41.0004
 14  5  4  0  3 30.0000000  0 12G01G23G20G04G28G17G07G08G09G10G11G13
  21183344.57248  16504083.49247  22301827.3714   22301837.4534   22301826.913
        48.0004         44.0004
  26536592.27846  20665568.36945  24983690.4254   24983691.7384   24983687.028
        39.0004         34.0004
  15385510.31147  11988618.64346  23648029.9134   23648038.0334   23648030.090
        43.0004         39.0004
 -12276481.32547  -9517331.41247  22785367.8284   22785376.9714   22785367.510
        46.0004         42.0004
  -2583389.52947  -2012934.15546  24285392.1764   24285403.2384   24285391.956
        42.0004         37.0004
  16448327.90848  12818358.22047  21986708.3304   21986716.2694   21986707.918
        51.0004         46.0004
  11478972.23549   8950387.86448  20130905.3424   20130910.5384   20130904.788
        54.0004         50.0004
   5736382.44948   4479375.54848  20825683.7464   20825691.7264   20825684.116
        53.0004         48.0004
   5917690.27848   4621019.48847  20855078.4044   20855086.5564   20855078.683
        52.0004         47.0004
  -3843272.96146  -2989299.69546  24824171.6764   24824180.9494   24824170.914
        41.0004         36.0004
  25849665.88247  20136857.50246  23836380.6884   23836390.8854   23836382.035
        42.0004         38.0004
  24715159.06147  19254964.87846  22736893.9914   22736900.2294   22736893.705
        46.0004         41.0004
 14  5  4  0  4  0.0000000  0 12G01G23G20G04G28G17G07G08G09G10G11G13
  21255833.37148  16560568.27047  22315621.3824   22315632.0544   22315620.849
        48.0004         44.0004
  26620008.98546  20730568.41545  24999559.9934   24999567.3714   24999561.072
        40.0004         35.0004
  15381407.77547  11985421.94846  23647248.5804   23647256.0614   23647249.200
        43.0004         39.0004
 -12373404.11547  -9592855.52147  22766923.8514   22766933.1384   22766923.771
        47.0004         42.0004
  -2609359.66647  -2033170.46546  24280449.3814   24280460.1554   24280449.964
        42.0004         37.0004
  16474241.93748  12838551.00947  21991639.8684   21991647.5924   21991639.354
        51.0004         46.0004
  11470745.76849   8943977.68248  20129339.9494   20129345.2654   20129339.385
        54.0004         50.0004
   5664192.52948   4423123.77348  20811946.9344   20811954.5254   20811946.802
        53.0004         48.0004
   5848921.30248   4567433.41147  20841992.4324   20841999.4784   20841992.392
        52.0004         47.0004
  -3877760.57446  -3016172.99346  24817606.7434   24817618.2504   24817606.659
        41.0004         36.0004
  25950640.46547  20215538.93846  23855596.8934   23855606.3444   23855596.646
        42.0004         38.0004
  24797436.94547  19319077.53246  22752551.0214   22752558.4364   22752550.648
        46.0004         41.0004
 14  5  4  0  4 30.0000000  0 12G01G23G20G04G28G17G07G08G09G10G11G13
  21328730.45748  16617371.18747  22329493.2894   22329503.4564   22329492.560
        48.0004         43.0004
  26703217.55846  20795406.28945  25015394.9154   25015405.2434   25015394.725
        39.0004         34.0004
  15377386.41647  11982288.48546  23646484.5664   23646492.0744   23646485.067
        44.0004         39.0004
 -12470169.81547  -9668257.23647  22748510.7874   22748518.2524   22748510.169
        47.0004         42.0004
  -2635609.87947  -2053624.99046  24275454.5054   24275464.9654   24275454.519
        42.0004         38.0004
  16500441.09248  12858965.96647  21996625.6374   21996633.3254   21996625.182
        51.0004         46.0004
  11463106.64449   8938025.16748  20127886.1954   20127891.6864   20127885.491
        54.0004         50.0004
   5592406.40148   4367186.64648  20798286.0244   20798293.4084   20798286.369
        53.0004         48.0004
   5780579.02048   4514179.81447  20828986.7064   20828994.5904   20828987.200
        52.0004         47.0004
  -3912493.92646  -3043237.80446  24810996.7774   24811006.9914   24810997.079
        41.0004         36.0004
  26051770.99447  20294341.87346  23874840.5714   23874851.4094   23874841.109
        42.0004         38.0004
  24879711.65247  19383187.72246  22768207.3914   22768214.1414   22768206.863
        45.0004         41.0004
 14  5  4  0  5  0.0000000  0 12G01G23G20G04G28G17G07G08G09G10G11G13
  21402030.52948  16674488.13547  22343442.4264   22343451.8444   22343441.448
        48.0004         43.0004
  26786213.28346  20860078.27645  25031189.3694   25031195.1204   25031189.002
        39.0004         34.0004
  15373444.58947  11979217.01146  23645733.2724   23645742.0764   23645733.750
        44.0004         39.0004
 -12566779.01847  -9743537.01247  22730127.4984   22730134.8474   22730125.539
        47.0004         42.0004
  -2662143.25547  -2074300.17746  24270404.8024   24270416.0454   24270405.171
        42.0004         38.0004
  16526919.55748  12879598.56047  22001663.8204   22001671.5224   22001663.416
        51.0004         46.0004
  11456052.15649   8932528.21748  20126543.6614   20126549.1074   20126543.240
        54.0004         50.0004
   5521024.21848   4311564.27348  20784702.5744   20784709.9044   20784702.655
        53.0004         48.0004
   5712662.64748   4461258.10047  20816063.2494   20816070.2634   20816062.801
        52.0004         47.0004
  -3947476.56746  -3070496.85646  24804340.3914   24804351.2814   24804341.366
        41.0004         36.0004
  26153051.43447  20373261.62346  23894113.5824   23894122.9174   23894114.216
        42.0004         38.0004
  24961976.95447  19447290.58446  22783862.3954   22783868.4174   22783861.789
        45.0004         41.0004
 14  5  4  0  5 30.0000000  0 12G01G23G20G04G28G17G07G08G09G10G11G13
  21475732.43248  16731918.19047  22357467.6434   22357477.2014   22357466.413
        48.0004         43.0004
  26868995.81146  20924584.13445  25046941.9754   25046947.1824   25046941.088
        39.0004         34.0004
  15369585.05347  11976209.66046  23645000.0024   23645008.0914   23644999.397
        44.0004         39.0004
 -12663227.90547  -9818691.85547  22711771.3124   22711780.1354   22711772.046
        47.0004         42.0004
  -2688958.50747  -2095194.99746  24265301.6864   24265311.7274   24265302.378
        42.0004         38.0004
  16553675.90848  12900447.69647  22006755.9094   22006763.1454   22006755.479
        51.0004         46.0004
  11449584.70749   8927488.69248  20125312.9624   20125318.3194   20125312.651
        54.0004         50.0004
   5450049.98448   4256259.78848  20771196.3214   20771203.8444   20771196.505
        52.0004         48.0004
   5645175.93648   4408671.18247  20803221.0254   20803227.9824   20803220.752
        52.0004         47.0004
  -3982707.54446  -3097949.43046  24797635.1784   24797648.8474   24797636.189
        41.0004         36.0004
  26254479.68047  20452296.56246  23913415.3654   23913425.5204   23913415.425
        42.0004         37.0004
  25044231.18147  19511384.81246  22799514.0794   22799521.3594   22799513.878
        45.0004         41.0004
 14  5  4  0  6  0.0000000  0 12G01G23G20G04G28G17G07G08G09G10G11G13
  21549835.15848  16789660.57247  22371567.7084   22371578.2444   22371567.551
        48.0004         43.0004
  26951564.53946  20988923.40445  25062655.0914   25062661.4204   25062654.258
        39.0004         35.0004
  15365810.70447  11973268.67946  23644280.7324   23644289.1464   23644280.689
        43.0004         39.0004
 -12759513.15747  -9893719.19347  22693449.2794   22693458.0024   22693449.564
        47.0004         42.0004
  -2716054.72347  -2116308.75846  24260147.0184   24260155.2154   24260145.929
        42.0004         38.0004
  16580708.67548  12921512.21947  22011899.4614   22011907.7704   22011899.166
        51.0004         46.0004
  11443705.48249   8922907.53148  20124194.0224   20124199.6954   20124193.722
        54.0004         50.0004
   5379487.89748   4201276.45348  20757768.6714   20757775.8164   20757768.985
        53.0004         48.0004
   5578122.55648   4356421.91847  20790460.5044   20790468.0534   20790460.909
        52.0004         47.0004
  -4018186.59546  -3125595.31146  24790881.5734   24790895.2364   24790884.359
        41.0004         36.0004
  26356054.20247  20531445.47246  23932744.6094   23932754.2184   23932744.686
        42.0004         38.0004
  25126472.74147  19575469.17946  22815164.7754   22815170.6044   22815164.125
        45.0004         41.0004
 14  5  4  0  6 30.0000000  0 12G01G23G20G04G28G17G07G08G09G10G11G13
  21624336.01348  16847713.18947  22385744.0694   22385754.7444   22385744.366
        48.0004         43.0004
  27033917.73346  21053094.69945  25078325.3114   25078331.4164   25078326.225
        39.0004         35.0004
  15362123.02047  11970395.21846  23643578.2174   23643587.2634   23643579.318
        43.0004         39.0004
 -12855632.60347  -9968617.34147  22675159.1134   22675167.7634   22675158.157
        47.0004         42.0004
  -2743432.10247  -2137641.57746  24254935.3914   24254945.9674   24254935.992
        42.0004         38.0004
  16608014.63148  12942789.61347  22017095.8844   22017103.5714   22017095.475
        51.0004         46.0004
  11438414.62949   8918784.84048  20123187.1014   20123192.6154   20123186.759
        54.0004         50.0004
   5309340.48648   4146616.23948  20744419.9864   20744427.3594   20744420.213
        53.0004         48.0004
   5511504.65648   4304511.99047  20777784.0334   20777791.2794   20777783.580
        52.0004         47.0004
  -4053914.17246  -3153434.82446  24784084.9754   24784096.9164   24784085.322
        41.0004         36.0004
  26457771.97947  20610706.00946  23952100.5684   23952110.9614   23952101.037
        42.0004         38.0004
  25208698.44147  19639541.18346  22830809.6474   22830817.7364   22830811.477
        45.0004         41.0004
 14  5  4  0  7  0.0000000  0 12G01G23G20G04G28G17G07G08G09G10G11G13
  21699233.41448  16906074.79547  22399997.0904   22400007.3174   22399996.710
        48.0004         43.0004
  27116054.11346  21117097.07345  25093954.2024   25093961.5784   25093955.925
        39.0004         35.0004
  15358523.76947  11967590.68646  23642893.3884   23642902.5534   23642893.832
        43.0004         38.0004
 -12951583.15647 -10043383.88747  22656899.7114   22656906.8154   22656899.748
        47.0004         42.0004
  -2771089.68847  -2159192.77246  24249672.3804   24249682.8974   24249672.447
        42.0004         37.0004
  16635591.73048  12964278.29147  22022343.3864   22022351.4794   22022343.184
        51.0004         46.0004
  11433713.63049   8915121.77348  20122292.6604   20122298.1414   20122292.059
        54.0004         50.0004
   5239611.36648   4092281.96648  20731150.7824   20731158.2394   20731151.260
        53.0004         48.0004
   5445325.24048   4252943.73947  20765190.1334   20765197.8714   20765190.321
        52.0004         47.0004
  -4089890.42846  -3181468.13346  24777239.9034   24777251.6974   24777239.758
        41.0004         36.0004
  26559630.80047  20690076.44346  23971484.0094   23971494.2254   23971484.390
        42.0004         38.0004
  25290906.25047  19703599.25146  22846456.4574   22846461.6004   22846454.796
        45.0004         41.0004
 14  5  4  0  7 30.0000000  0 12G01G23G20G04G28G17G07G08G09G10G11G13
  21774524.48148  16964743.15547  22414325.7594   22414335.6024   22414324.530
        48.0004         43.0004
  27197972.05246  21180929.20945  25109543.3894   25109551.5224   25109544.146
        40.0004         35.0004
  15355014.52047  11964856.26746  23642225.4164   23642235.1294   23642226.463
        43.0004         39.0004
 -13047362.82947 -10118017.26247  22638674.1184   22638681.7214   22638673.451
        47.0004         42.0004
  -2799028.44947  -2180963.06246  24244355.7784   24244366.2434   24244356.017
        42.0004         37.0004
  16663436.63048  12985975.64247  22027642.1284   22027649.8574   22027641.693
        51.0004         46.0004
  11429602.47949   8911918.33148  20121510.3444   20121515.6634   20121509.874
        54.0004         50.0004
   5170302.83648   4038275.42448  20717961.7484   20717969.1054   20717962.194
        53.0004         48.0004
   5379586.23348   4201718.65647  20752680.3764   20752687.5524   20752680.315
        52.0004         47.0004
  -4126116.16046  -3209695.83946  24770345.9484   24770358.5844   24770346.254
        41.0004         36.0004
  26661627.04647  20769553.97446  23990892.1194   23990904.8804   23990893.840
        42.0004         37.0004
  25373092.84247  19767640.78946  22862095.1544   22862101.6644   22862094.553
        45.0004         41.0004
 14  5  4  0  8  0.0000000  0 12G01G23G20G04G28G17G07G08G09G10G11G13
  21850209.53648  17023718.52747  22428726.5404   22428738.3794   22428726.635
        48.0004         43.0004
  27279672.75746  21244592.08745  25125095.7394   25125098.6814   25125091.308
        40.0004         35.0004
  15351599.31747  11962195.14346  23641575.9014   23641582.6744   23641576.276
        43.0004         38.0004
 -13142966.50747 -10192513.50047  22620480.7214   22620489.1254   22620480.342
        47.0004         42.0004
  -2827245.34947  -2202950.10046  24238986.4234   24238996.7934   24238986.240
        42.0004         38.0004
  16691549.30748  13007881.64747  22032991.9634   22032999.1004   22032991.378
        51.0004         46.0004
  11426084.21749   8909176.87948  20120840.6714   20120846.0144   20120840.213
        54.0004         50.0004
   5101420.56848   3984601.03148  20704853.6914   20704861.3774   20704853.984
        53.0004         48.0004
   5314292.63048   4150840.64047  20740255.3894   20740262.8524   20740255.211
        52.0004         47.0004
  -4162589.46346  -3238116.45546  24763404.3814   24763416.5404   24763405.788
        41.0004         36.0004
  26763760.57447  20849138.47246  24010328.9774   24010338.5524   24010329.056
        42.0004         37.0004
  25455257.70647  19831665.39746  22877729.3274   22877737.1704   22877729.884
        45.0004         40.0004
 14  5  4  0  8 30.0000000  0 12G01G23G20G04G28G17G07G08G09G10G11G13
  21926284.48248  17082997.68647  22443203.0364   22443214.2534   22443202.860
        48.0004         43.0004
  27361152.68546  21308082.92045  25140596.7964   25140601.1474   25140596.563
        39.0004         35.0004
  15348278.04547  11959607.21146  23640943.9024   23640951.9634   23640944.499
        43.0004         39.0004
 -13238393.51747 -10266872.09547  22602322.1514   22602330.2264   22602321.234
        47.0004         42.0004
  -2855742.32347  -2225155.37046  24233563.2194   24233574.0384   24233563.601
        42.0004         38.0004
  16719925.21248  13029992.76247  22038391.6504   22038399.5484   22038391.389
        51.0004         46.0004
  11423157.43449   8906896.31748  20120283.6984   20120289.3494   20120283.483
        54.0004         50.0004
   5032965.53848   3931259.54148  20691827.4724   20691834.6434   20691827.603
        53.0004         48.0004
   5249444.97248   4100310.11148  20727915.1774   20727922.3214   20727915.137
        52.0004         48.0004
  -4199312.29946  -3266731.49746  24756416.0974   24756428.9324   24756417.639
        41.0004         36.0004
  26866026.46147  20928826.09946  24029789.3714   24029798.8164   24029789.834
        42.0004         37.0004
  25537396.57047  19895669.75346  22893360.5374   22893367.1194   22893360.649
        45.0004         41.0004
 14  5  4  0  9  0.0000000  0 12G01G23G20G04G28G17G07G08G09G10G11G13
  22002748.37648  17142579.92847  22457754.2504   22457765.0184   22457754.133
        48.0004         43.0004
  27442411.73046  21371401.63045  25156059.3964   25156068.6934   25156059.415
        40.0004         35.0004
  15345053.62947  11957094.74646  23640330.1164   23640338.9904   23640330.458
        43.0004         39.0004
 -13333640.14047 -10341090.12047  22584196.5364   22584204.1864   22584196.203
        47.0004         42.0004
  -2884518.03647  -2247577.83746  24228086.7674   24228097.2134   24228087.955
        42.0004         37.0004
  16748563.22048  13052308.11247  22043841.4784   22043848.7714   22043841.156
        51.0004         46.0004
  11420824.01649   8905078.11748  20119839.4634   20119844.8734   20119839.307
        54.0004         50.0004
   4964942.20448   3878254.44248  20678882.7164   20678890.2044   20678883.046
        53.0004         48.0004
   5185046.86448   4050129.87748  20715660.5984   20715667.1864   20715660.469
        52.0004         48.0004
  -4236283.61546  -3295540.16246  24749381.4904   24749392.2214   24749381.276
        41.0004         36.0004
  26968423.51147  21008615.92946  24049275.4624   24049285.1674   24049275.073
        42.0004         37.0004
  25619507.80247  19959652.57546  22908987.1994   22908993.9584   22908985.504
        45.0004         40.0004
 14  5  4  0  9 30.0000000  0 12G01G23G20G04G28G17G07G08G09G10G11G13
  22079597.69448  17202462.51347  22472378.3584   22472389.6314   22472377.978
        48.0004         43.0004
  27523447.38846  21434546.28645  25171481.3884   25171486.5284   25171479.828
        40.0004         35.0004
  15341926.67747  11954658.21046  23639735.7184   23639743.1314   23639735.917
        43.0004         38.0004
 -13428705.06547 -10415166.55647  22566106.6064   22566114.4014   22566105.718
        47.0004         42.0004
  -2913572.95047  -2270217.87446  24222559.6434   24222568.9764   24222559.200
        42.0004         37.0004
  16777459.60048  13074824.79747  22049339.9784   22049347.2684   22049339.494
        51.0004         46.0004
  11419083.47349   8903721.90248  20119508.6214   20119513.9294   20119507.949
        54.0004         50.0004
   4897352.27348   3825587.05748  20666020.7824   20666028.5384   20666021.176
        53.0004         48.0004
   5121099.83148   4000301.14148  20703491.4014   20703498.3274   20703491.460
        52.0004         48.0004
  -4273504.83546  -3324543.57546  24742299.8074   24742310.0104   24742298.345
        41.0004         36.0004
  27070947.71647  21088504.85146  24068784.6274   24068794.7834   24068784.730
        42.0004         37.0004
  25701587.55947  20023610.86246  22924606.3894   22924610.5614   22924604.970
        45.0004         40.0004
 14  5  4  0 10  0.0000000  0 12G01G23G20G04G28G17G07G08G09G10G11G13
  22156832.05947  17262645.12247  22487074.9354   22487085.1624   22487074.800
        47.0004         43.0004
  27604260.24146  21497517.31745  25186859.0684   25186864.1254   25186858.692
        40.0004         35.0004
  15338900.70147  11952300.37946  23639158.4924   23639165.8814   23639159.359
        43.0004         38.0004
 -13523583.83047 -10489097.93247  22548050.8294   22548059.6314   22548051.322
        47.0004         43.0004
  -2942904.95047  -2293073.84246  24216976.5324   24216988.0314   24216975.962
        42.0004         38.0004
  16806613.58648  13097542.21447  22054887.8804   22054895.2934   22054887.785
        51.0004         46.0004
  11417938.18449   8902829.51348  20119290.7534   20119295.6784   20119289.940
        54.0004         50.0004
   4830200.49148   3773261.08548  20653242.2454   20653249.5194   20653242.588
        53.0004         48.0004
   5057607.97948   3950827.07248  20691409.9734   20691416.4124   20691409.423
        52.0004         48.0004
  -4310974.44546  -3353740.53046  24735168.0814   24735179.9504   24735168.668
        41.0004         36.0004
  27173598.07346  21168492.06746  24088319.9534   24088329.3374   24088318.762
        41.0004         37.0004
  25783635.00847  20087543.98846  22940216.1014   22940225.9344   22940218.092
        45.0004         40.0004
 14  5  4  0 10 30.0000000  0 12G01G23G20G04G28G17G07G08G09G10G11G13
  22234448.75047  17323125.64747  22501846.6104   22501855.7604   22501845.108
        47.0004         43.0004
  27684848.43046  21560313.30345  25202193.3384   25202199.9404   25202193.703
        40.0004         35.0004
  15335977.31847  11950022.48146  23638603.0064   23638611.0824   23638604.163
        43.0004         38.0004
 -13618273.98847 -10562882.35147  22530032.0364   22530040.0864   22530031.471
        47.0004         43.0004
  -2972514.50647  -2316146.07646  24211341.4054   24211351.6314   24211341.999
        42.0004         38.0004
  16836021.46548  13120457.47147  22060483.4074   22060491.1154   22060483.483
        51.0004         46.0004
  11417387.76349   8902400.66548  20119185.7524   20119190.9534   20119185.257
        54.0004         50.0004
   4763489.46148   3721278.55348  20640547.6094   20640554.9004   20640547.680
        53.0004         48.0004
   4994573.53848   3901709.43148  20679414.1624   20679421.2774   20679414.271
        52.0004         48.0004
  -4348693.30746  -3383131.68846  24727990.5334   24728001.8554   24727991.286
        41.0004         36.0004
  27276371.27746  21248575.00046  24107875.3684   24107885.8944   24107876.172
        41.0004         37.0004
  25865647.28747  20151449.70546  22955823.1464   22955830.8184   22955823.871
        45.0004         40.0004
 14  5  4  0 11  0.0000000  0 12G01G23G20G04G28G17G07G08G09G10G11G13
  22312445.46047  17383902.28347  22516688.0914   22516698.8404   22516687.305
        47.0004         43.0004
  27765210.47846  21622933.07746  25217488.1094   25217494.2944   25217486.483
        40.0004         36.0004
  15333157.79547  11947825.49746  23638066.7384   23638074.7784   23638066.679
        43.0004         39.0004
 -13712773.30547 -10636518.05247  22512048.3664   22512057.1134   22512049.291
        47.0004         43.0004
  -3002401.63047  -2339434.59046  24205654.4184   24205666.0274   24205655.043
        42.0004         38.0004
  16865680.77148  13143568.64647  22066128.0164   22066135.8704   22066127.469
        51.0004         46.0004
  11417432.83449   8902435.83048  20119194.2814   20119199.4724   20119193.591
        54.0004         50.0004
   4697222.10248   3669641.74148  20627937.3154   20627944.6734   20627937.447
        53.0004         48.0004
   4931998.75048   3852949.96148  20667505.9544   20667513.7354   20667506.513
        52.0004         48.0004
  -4386661.81346  -3412717.39646  24720763.6354   24720774.6594   24720766.150
        41.0004         37.0004
  27379264.71946  21328751.62946  24127455.6964   24127462.9164   24127455.606
        41.0004         36.0004
  25947621.98547  20215326.15046  22971424.0914   22971430.8894   22971423.127
        45.0004         40.0004
 14  5  4  0 11 30.0000000  0 12G01G23G20G04G28G17G07G08G09G10G11G13
  22390820.64847  17444973.84847  22531602.4294   22531613.2424   22531601.393
        47.0004         43.0004
  27845346.27746  21685376.53946  25232738.1534   25232741.5854   25232736.180
        40.0004         36.0004
  15330444.73147  11945711.49046  23637550.9204   23637558.2224   23637550.384
        43.0004         38.0004
 -13807078.42548 -10710002.43147  22494103.7854   22494111.9084   22494103.806
        48.0004         43.0004
  -3032564.96447  -2362938.34846  24199914.8874   24199924.5314   24199914.692
        42.0004         38.0004
  16895589.70548  13166874.33247  22071818.8454   22071827.1514   22071819.078
        51.0004         46.0004
  11418074.33649   8902935.75648  20119316.2414   20119321.6184   20119315.611
        54.0004         50.0004
   4631402.33448   3618353.70148  20615411.9844   20615418.9924   20615412.291
        53.0004         48.0004
   4869886.94948   3804551.25848  20655686.9284   20655694.4204   20655686.988
        52.0004         48.0004
  -4424878.95146  -3442496.82146  24713491.7564   24713502.1824   24713493.349
        41.0004         37.0004
  27482276.45346  21409020.45146  24147058.6544   24147068.3634   24147058.376
        41.0004         36.0004
  26029556.94947  20279171.62546  22987015.1794   22987023.2304   22987015.397
        45.0004         40.0004
 14  5  4  0 12  0.0000000  0 12G01G23G20G04G28G17G07G08G09G10G11G13
  22469571.92447  17506338.45247  22546587.9554   22546598.7534   22546587.449
        47.0004         43.0004
  27925254.31146  21747642.53746  25247943.6234   25247948.6904   25247942.173
        41.0004         36.0004
  15327839.80247  11943681.73046  23637055.2404   23637062.4454   23637054.852
        43.0004         38.0004
 -13901186.71747 -10783333.43547  22476195.6244   22476202.9784   22476194.778
        47.0004         43.0004
  -3063004.60347  -2386657.40246  24194122.2214   24194132.2754   24194122.016
        42.0004         38.0004
  16925745.71548  13190372.54447  22077557.3004   22077564.8184   22077557.693
        51.0004         46.0004
  11419312.61849   8903900.70048  20119551.6384   20119557.1124   20119551.160
        54.0004         50.0004
   4566032.92348   3567416.58348  20602972.5154   20602979.2294   20602972.861
        53.0004         48.0004
   4808240.23548   3756514.95648  20643956.1784   20643962.6774   20643956.075
        52.0004         48.0004
  -4463345.31946  -3472470.46246  24706170.5174   24706182.0574   24706172.615
        41.0004         37.0004
  27585403.52446  21489379.12746  24166683.0774   24166692.2544   24166682.609
        41.0004         36.0004
  26111449.18547  20342983.80246  23002599.5894   23002605.2344   23002598.585
        45.0004         40.0004
 14  5  4  0 12 30.0000000  0 12G01G23G20G04G28G17G07G08G09G10G11G13
  22548696.17747  17567993.69247  22561645.4244   22561655.9794   22561644.694
        47.0004         43.0004
  28004932.21446  21809729.21946  25263103.1584   25263110.4094   25263103.468
        41.0004         36.0004
  15325344.21747  11941737.17846  23636578.2374   23636588.0074   23636579.592
        43.0004         38.0004
 -13995096.36047 -10856509.65647  22458324.9274   22458331.8254   22458324.496
        47.0004         43.0004
  -3093720.64247  -2410591.82146  24188278.0454   24188286.9754   24188277.254
        43.0004         38.0004
  16956145.27448  13214060.53047  22083342.6164   22083349.9434   22083342.420
        51.0004         46.0004
  11421147.34449   8905330.40148  20119901.0184   20119906.4444   20119900.603
        54.0004         50.0004
   4501115.84048   3516831.93248  20590619.0194   20590626.4054   20590619.411
        53.0004         48.0004
   4747060.30448   3708842.37648  20632313.6084   20632321.2004   20632313.621
        52.0004         48.0004
  -4502062.12946  -3502639.23946  24698804.2684   24698816.3664   24698805.129
        41.0004         36.0004
  27688642.27446  21569824.85046  24186327.8764   24186339.8364   24186329.329
        40.0004         36.0004
  26193295.99047  20406760.58546  23018173.8594   23018181.1234   23018173.556
        45.0004         40.0004
 14  5  4  0 13  0.0000000  0 12G01G23G20G04G28G17G07G08G09G10G11G13
  22628193.99847  17629940.03347  22576773.5134   22576783.2234   22576772.548
        47.0004         43.0004
  28084381.79046  21871638.00446  25278223.6584   25278229.8094   25278222.461
        41.0004         36.0004
  15322962.29147  11939881.18546  23636125.7824   23636134.3844   23636126.369
        43.0004         38.0004
 -14088802.09047 -10929526.97047  22440492.3344   22440500.6174   22440492.962
        47.0004         43.0004
  -3124710.14147  -2434739.33546  24182378.6814   24182389.5634   24182379.264
        43.0004         38.0004
  16986788.48948  13237938.38047  22089173.6664   22089181.7004   22089173.689
        51.0004         46.0004
  11423581.70349   8907227.35848  20120364.0744   20120369.3764   20120363.768
        54.0004         50.0004
   4436657.00448   3466604.35348  20578353.0894   20578359.7974   20578353.355
        53.0004         48.0004
   4686352.27048   3661537.51448  20620761.4494   20620768.4114   20620761.130
        52.0004         48.0004
  -4541026.52946  -3533000.93746  24691389.8714   24691401.8374   24691390.234
        41.0004         36.0004
  27791993.09546  21650357.86046  24205996.1874   24206003.6744   24205995.497
        41.0004         36.0004
  26275097.09647  20470501.74746  23033740.3004   23033745.9164   23033739.192
        44.0004         40.0004
 14  5  4  0 13 30.0000000  0 12G01G23G20G04G28G17G07G08G09G10G11G13
  22708061.08747  17692174.10147  22591971.4784   22591981.4384   22591970.722
        47.0004         42.0004
  28163599.79546  21933366.32646  25293296.5954   25293304.6984   25293296.841
        40.0004         36.0004
  15320693.96847  11938113.72446  23635694.8294   23635702.3384   23635694.652
        43.0004         38.0004
 -14182303.31447 -11002384.94647  22422700.8024   22422707.6904   22422700.031
        47.0004         43.0004
  -3155974.65947  -2459101.15446  24176429.1804   24176439.6724   24176429.505
        43.0004         38.0004
  17017670.69748  13262002.45947  22095050.5134   22095058.0564   22095050.467
        51.0004         46.0004
  11426614.21549   8909590.40148  20120941.3694   20120946.6484   20120940.905
        54.0004         50.0004
   4372657.34048   3416734.57148  20566174.0754   20566180.9094   20566174.205
        53.0004         48.0004
   4626116.69048   3614600.79048  20609299.1594   20609306.0064   20609298.964
        52.0004         48.0004
  -4580240.65146  -3563557.24546  24683928.8414   24683938.8074   24683928.481
        41.0004         36.0004
  27895451.25046  21730974.54546  24225682.1344   24225691.6324   24225683.274
        41.0004         36.0004
  26356848.24347  20534203.98746  23049296.5804   23049303.8294   23049296.206
        44.0004         40.0004
 14  5  4  0 14  0.0000000  0 11G01G20G04G28G17G07G08G09G10G11G13
  22788295.05847  17754694.06247  22607238.7064   22607249.5494   22607238.638
        47.0004         42.0004
  15318540.94747  11936436.09946  23635284.9284   23635294.1804   23635285.196
        43.0004         39.0004
 -14275597.29048 -11075081.42747  22404947.6144   22404953.9624   22404946.398
        48.0004         43.0004
  -3187513.73547  -2483676.91146  24170428.0204   24170438.0444   24170427.804
        43.0004         38.0004
  17048789.19848  13286250.66147  22100971.9004   22100980.7364   22100971.859
        51.0004         46.0004
  11430244.91249   8912419.56448  20121631.9714   20121637.0824   20121631.458
        54.0004         49.0004
   4309119.88148   3367224.95448  20554083.4804   20554090.4784   20554083.546
        53.0004         48.0004
   4566355.96548   3568034.08348  20597926.8154   20597933.4104   20597926.677
        53.0004         48.0004
  -4619704.74846  -3594308.32246  24676416.8924   24676429.4984   24676418.741
        41.0004         36.0004
  27999013.95546  21811672.68745  24245390.4324   24245400.1604   24245390.537
        40.0004         35.0004
  26438546.90247  20597865.32146  23064843.5204   23064849.9034   23064842.730
        44.0004         40.0004
 14  5  4  0 14 30.0000000  0 11G01G20G04G28G17G07G08G09G10G11G13
  22868894.91847  17817499.12347  22622577.8254   22622586.7724   22622576.289
        47.0004         42.0004
  15316506.23347  11934850.66746  23634898.0904   23634905.2294   23634898.194
        43.0004         39.0004
 -14368679.93948 -11147613.22547  22387233.2614   22387242.6974   22387234.043
        48.0004         43.0004
  -3219325.66647  -2508465.27146  24164375.0224   24164384.3754   24164374.483
        42.0004         38.0004
  17080143.02148  13310682.23147  22106938.8184   22106945.9504   22106938.363
        51.0004         46.0004
  11434475.41949   8915716.11148  20122437.1184   20122442.2204   20122436.801
        54.0004         50.0004
   4246048.86448   3318078.79448  20542081.3154   20542088.2094   20542081.333
        53.0004         48.0004
   4507073.70348   3521840.20548  20586645.4924   20586652.6144   20586645.380
        53.0004         48.0004
  -4659417.49046  -3625253.13646  24668859.4654   24668872.0964   24668861.256
        41.0004         36.0004
  28102679.82546  21892451.21145  24265117.4304   24265127.9434   24265117.721
        40.0004         35.0004
  26520191.70647  20661484.71046  23080379.1754   23080386.6084   23080379.489
        44.0004         40.0004
 14  5  4  0 15  0.0000000  0 11G01G20G04G28G17G07G08G09G10G11G13
  22949858.40947  17880587.53447  22637984.1744   22637994.9814   22637983.119
        47.0004         42.0004
  15314591.91947  11933359.05346  23634533.3344   23634541.9864   23634533.709
        43.0004         38.0004
 -14461549.04248 -11219978.63447  22369561.4824   22369569.7554   22369561.085
        48.0004         43.0004
  -3251409.86547  -2533465.79246  24158268.1714   24158278.5964   24158268.846
        43.0004         38.0004
  17111729.44348  13335295.04747  22112949.2504   22112957.3084   22112948.715
        51.0004         46.0004
  11439306.15849   8919480.37148  20123356.2604   20123361.3934   20123355.633
        54.0004         50.0004
   4183447.29048   3269298.42848  20530168.2394   20530175.4224   20530168.728
        53.0004         48.0004
   4448272.32548   3476021.04348  20575456.2594   20575462.5974   20575456.168
        53.0004         48.0004
  -4699378.74346  -3656391.61646  24661255.6034   24661266.6964   24661256.240
        41.0004         37.0004
  28206446.26146  21973308.11446  24284863.4204   24284873.2994   24284863.931
        40.0004         36.0004
  26601780.34747  20725060.32046  23095906.2024   23095914.0864   23095905.587
        44.0004         40.0004
 14  5  4  0 15 30.0000000  0 11G01G20G04G28G17G07G08G09G10G11G13
  23031183.06247  17943957.36147  22653459.4634   22653469.4924   22653458.459
        47.0004         42.0004
  15312799.52747  11931962.45146  23634193.6014   23634199.7304   23634192.619
        43.0004         38.0004
 -14554201.60648 -11292175.30247  22351930.5574   22351938.3004   22351929.847
        48.0004         43.0004
  -3283766.42247  -2558678.53746  24152109.9014   24152121.2864   24152111.695
        43.0004         38.0004
  17143545.54748  13360086.82747  22119003.8944   22119011.0324   22119003.178
        51.0004         46.0004
  11444737.08949   8923712.30948  20124389.4134   20124394.9234   20124389.431
        54.0004         50.0004
   4121317.77848   3220885.90148  20518345.7914   20518352.5794   20518346.283
        53.0004         49.0004
   4389954.04448   3430578.32648  20564358.4824   20564365.1454   20564358.246
        53.0004         48.0004
  -4739588.88746  -3687724.02946  24653603.6444   24653615.7724   24653604.417
        41.0004         37.0004
  28310310.15646  22054240.95146  24304629.7874   24304637.5634   24304628.451
        40.0004         36.0004
  26683310.37447  20788590.28146  23111421.3644   23111427.0714   23111420.154
        44.0004         40.0004
 14  5  4  0 16  0.0000000  0 11G01G20G04G28G17G07G08G09G10G11G13
  23112866.81447  18007607.01147  22669003.2654   22669013.8674   22669002.558
        47.0004         42.0004
  15311131.29647  11930662.58546  23633874.7274   23633882.2144   23633875.130
        43.0004         39.0004
 -14646634.68248 -11364200.94747  22334340.8464   22334347.2204   22334340.553
        48.0004         43.0004
  -3316394.15647  -2584102.60846  24145902.7034   24145913.6384   24145902.417
        43.0004         38.0004
  17175588.90348  13385055.69347  22125102.1844   22125108.7134   22125101.081
        51.0004         46.0004
  11450768.62749   8928412.25948  20125537.3134   20125542.9024   20125536.805
        54.0004         49.0004
   4059663.50748   3172843.70048  20506613.1414   20506620.1684   20506613.622
        53.0004         49.0004
   4332121.59448   3385514.17148  20553353.0894   20553360.4214   20553353.046
        53.0004         48.0004
  -4780047.63246  -3719250.15846  24645905.5814   24645915.7274   24645905.104
        41.0004         37.0004
  28414269.69646  22135248.32146  24324411.7024   24324422.5484   24324410.620
        40.0004         36.0004
  26764779.49947  20852072.77746  23126923.3114   23126929.2264   23126923.112
        44.0004         40.0004
 14  5  4  0 16 30.0000000  0 11G01G20G04G28G17G07G08G09G10G11G13
  23194905.78147  18071533.45347  22684614.6574   22684624.2644   22684614.315
        47.0004         43.0004
  15309587.20547  11929459.45446  23633580.6864   23633587.7514   23633581.222
        43.0004         38.0004
 -14738847.35348 -11436054.84347  22316792.9074   22316801.2644   22316792.705
        48.0004         43.0004
  -3349294.37847  -2609739.01046  24139641.5794   24139652.4414   24139641.750
        43.0004         38.0004
  17207855.58048  13410198.57047  22131241.3704   22131249.1104   22131241.029
        51.0004         46.0004
  11457399.40449   8933579.14948  20126798.5934   20126804.4074   20126798.357
        54.0004         49.0004
   3998485.73348   3125172.78748  20494971.3494   20494978.1854   20494971.928
        53.0004         49.0004
   4274775.67248   3340829.13748  20542440.6794   20542446.9054   20542440.557
        53.0004         48.0004
  -4820756.60246  -3750971.26246  24638156.9864   24638167.3824   24638158.523
        41.0004         37.0004
  28518320.59546  22216326.89046  24344211.0714   24344222.4984   24344211.204
        40.0004         36.0004
  26846183.84347  20915504.78746  23142413.1074   23142421.8474   23142413.806
        44.0004         40.0004
 14  5  4  0 17  0.0000000  0 11G01G20G04G28G17G07G08G09G10G11G13
  23277299.66747  18135736.45347  22700293.5824   22700303.7404   22700293.052
        47.0004         42.0004
  15308171.14047  11928356.08446  23633311.4604   23633319.8994   23633311.435
        43.0004         38.0004
 -14830834.78948 -11507733.23847  22299288.8894   22299295.9714   22299288.007
        48.0004         43.0004
  -3382464.69347  -2635585.86746  24133329.3704   24133339.6784   24133329.460
        43.0004         38.0004
  17240344.87448  13435514.92747  22137424.0324   22137431.9964   22137423.405
        51.0004         46.0004
  11464631.83649   8939214.86148  20128175.3874   20128180.5784   20128174.943
        54.0004         49.0004
   3937789.63248   3077877.20948  20483420.9794   20483428.1354   20483421.282
        53.0004         49.0004
   4217920.59148   3296526.56748  20531621.5244   20531627.7324   20531621.269
        53.0004         48.0004
  -4861713.84946  -3782885.81046  24630364.6704   24630373.1984   24630364.148
        41.0004         37.0004
  28622462.22046  22297476.15046  24364029.3494   24364041.8144   24364028.372
        40.0004         36.0004
  26927523.10747  20978886.09946  23157891.5164   23157899.2204   23157891.955
        44.0004         40.0004
 14  5  4  0 17 30.0000000  0 11G01G20G04G28G17G07G08G09G10G11G13
  23360046.77247  18200214.68747  22716041.1204   22716050.4464   22716039.692
        47.0004         42.0004
  15306885.57547  11927354.39946  23633066.1044   23633075.0304   23633067.005
        43.0004         38.0004
 -14922593.83248 -11579233.65947  22281827.6824   22281834.1334   22281827.178
        48.0004         43.0004
  -3415903.68747  -2661642.06946  24126966.7314   24126976.7064   24126966.615
        43.0004         39.0004
  17273054.91548  13461003.28947  22143648.6824   22143655.8404   22143648.014
        51.0004         46.0004
  11472466.62849   8945319.94548  20129666.1704   20129671.5154   20129665.721
        54.0004         49.0004
   3877578.79848   3030959.75548  20471963.5014   20471970.4104   20471963.798
        53.0004         49.0004
   4161559.24648   3252608.72948  20520895.6464   20520902.8914   20520895.699
        53.0004         48.0004
  -4902918.59447  -3814993.23046  24622522.9174   24622535.2844   24622524.210
        42.0004         37.0004
  28726692.34546  22378694.38246  24383863.8504   24383874.6784   24383862.996
        40.0004         36.0004
  27008795.48347  21042215.29646  23173358.4004   23173365.3684   23173357.321
        44.0004         39.0004
 14  5  4  0 18  0.0000000  0 11G01G20G04G28G17G07G08G09G10G11G13
  23443143.73447  18264965.54547  22731852.9614   22731863.9454   22731851.997
        47.0004         42.0004
  15305731.57847  11926455.22846  23632847.4214   23632855.1404   23632848.079
        43.0004         38.0004
 -15014122.66948 -11650554.69347  22264409.9134   22264417.5604   22264408.959
        48.0004         43.0004
  -3449611.89247  -2687908.05846  24120551.8404   24120560.7124   24120551.703
        43.0004         39.0004
  17305982.08648  13486660.84447  22149914.8564   22149922.0524   22149913.701
        51.0004         46.0004
  11480902.81649   8951893.64448  20131271.4734   20131276.8034   20131271.109
        54.0004         49.0004
   3817854.81948   2984421.67048  20460598.1254   20460605.0394   20460598.581
        53.0004         49.0004
   4105692.95048   3209076.64748  20510265.0094   20510271.9234   20510264.937
        53.0004         48.0004
  -4944371.85647  -3847294.28646  24614634.7794   24614644.7834   24614634.540
        42.0004         37.0004
  28831007.49146  22459978.85346  24403712.5064   24403722.1744   24403713.409
        40.0004         36.0004
  27089997.46947  21105489.63346  23188809.7354   23188816.7584   23188809.298
        44.0004         39.0004
 14  5  4  0 18 30.0000000  0 11G01G20G04G28G17G07G08G09G10G11G13
  23526589.01147  18329987.78847  22747732.5064   22747742.0824   22747731.151
        47.0004         42.0004
  15304711.69147  11925660.57246  23632651.7564   23632661.7944   23632653.033
        43.0004         38.0004
 -15105417.78548 -11721693.60747  22247037.5104   22247043.4914   22247036.695
        48.0004         43.0004
  -3483587.86447  -2714382.71346  24114085.9564   24114095.3824   24114086.391
        43.0004         38.0004
  17339124.75548  13512486.32147  22156221.2444   22156228.6514   22156220.621
        50.0004         46.0004
  11489941.46849   8958936.79948  20132991.3204   20132996.8164   20132991.083
        54.0004         49.0004
   3758621.71648   2938266.08148  20449326.5734   20449333.4884   20449327.061
        53.0004         49.0004
   4050324.96748   3165932.86148  20499728.3064   20499735.6284   20499728.580
        53.0004         48.0004
  -4986072.76147  -3879788.30246  24606698.5884   24606710.6894   24606698.685
        42.0004         37.0004
  28935405.80846  22541328.15245  24423580.6604   24423591.0624   24423579.797
        40.0004         35.0004
  27171127.53747  21168707.94546  23204247.5154   23204253.8164   23204248.218
        44.0004         39.0004
 14  5  4  0 19  0.0000000  0 11G01G20G04G28G17G07G08G09G10G11G13
  23610388.50447  18395286.06847  22763679.0214   22763689.3864   22763677.965
        46.0004         42.0004
  15303835.72947  11924978.04846  23632487.6814   23632494.5004   23632487.643
        43.0004         38.0004
 -15196468.34848 -11792641.95947  22229710.3054   22229718.1934   22229709.812
        48.0004         43.0004
  -3517822.83847  -2741059.18746  24107570.4364   24107581.8884   24107571.007
        43.0004         39.0004
  17372488.00048  13538483.67347  22162570.0004   22162577.6074   22162569.369
        50.0004         46.0004
  11499590.74249   8966455.76148  20134827.8244   20134832.8814   20134827.268
        54.0004         49.0004
   3699890.28848   2892501.41148  20438150.1254   20438157.0584   20438150.531
        53.0004         49.0004
   3995465.64048   3123185.43148  20489289.2054   20489296.1214   20489288.980
        53.0004         48.0004
  -5028013.22347  -3912468.99846  24598718.3854   24598730.0454   24598717.970
        42.0004         37.0004
  29039892.94546  22622746.62945  24443461.5034   24443474.9454   24443462.847
        40.0004         35.0004
  27252191.84347  21231874.99646  23219674.6214   23219682.0894   23219674.036
        44.0004         39.0004
 14  5  4  0 19 30.0000000  0 11G01G20G04G28G17G07G08G09G10G11G13
  23694520.54947  18460843.46947  22779688.3544   22779699.1184   22779687.921
        46.0004         42.0004
  15303086.67047  11924394.42046  23632341.8644   23632351.0714   23632343.242
        43.0004         38.0004
 -15287290.85248 -11863412.60947  22212427.1174   22212433.2064   22212426.415
        48.0004         44.0004
  -3552335.35647  -2767951.92546  24101004.4884   24101013.7944   24101003.961
        43.0004         39.0004
  17406050.76148  13564636.48247  22168956.6244   22168963.8524   22168956.527
        50.0004         46.0004
  11509831.44149   8974435.57548  20136776.4884   20136781.2014   20136776.017
        54.0004         49.0004
   3641644.21248   2847114.93448  20427066.3484   20427072.9224   20427066.428
        53.0004         49.0004
   3941097.91848   3080821.06448  20478943.2344   20478950.0654   20478943.190
        53.0004         48.0004
  -5070212.43347  -3945351.30946  24590687.6114   24590697.7814   24590687.836
        42.0004         37.0004
  29144447.31346  22704217.53545  24463357.6014   24463373.5024   24463358.630
        40.0004         35.0004
  27333168.60747  21294973.85346  23235084.5854   23235091.1974   23235083.182
        44.0004         39.0004
 14  5  4  0 20  0.0000000  0 11G01G20G04G28G17G07G08G09G10G11G13
  23778995.13547  18526667.79746  22795763.0714   22795773.8134   22795762.621
        46.0004         41.0004
  15302478.40147  11923920.48146  23632227.5774   23632235.7824   23632229.199
        43.0004         38.0004
 -15377870.24348 -11933993.81747  22195189.9614   22195197.5954   22195190.192
        48.0004         44.0004
  -3587112.15247  -2795050.59746  24094385.9684   24094395.5284   24094386.076
        43.0004         39.0004
  17439821.74948  13590951.55647  22175382.8294   22175390.4624   22175382.707
        50.0004         46.0004
  11520675.72749   8982885.71548  20138840.2824   20138844.6604   20138839.568
        54.0004         49.0004
   3583898.81848   2802118.59748  20416077.8064   20416084.7184   20416077.663
        53.0004         49.0004
   3887236.40548   3038851.15548  20468693.3994   20468700.5554   20468693.500
        53.0004         48.0004
  -5112657.78547  -3978425.40846  24582610.5884   24582620.1524   24582610.476
        42.0004         37.0004
  29249078.47346  22785748.24545  24483270.0274   24483278.6034   24483269.620
        39.0004         35.0004
  27414067.94547  21358012.36346  23250477.5004   23250485.9344   23250477.780
        44.0004         39.0004
 14  5  4  0 20 30.0000000  0 11G01G20G04G28G17G07G08G09G10G11G13
  23863806.82047  18592754.78246  22811903.3764   22811912.8664   22811901.985
        46.0004         41.0004
  15302009.57847  11923555.21646  23632138.9044   23632146.1614   23632138.135
        43.0004         38.0004
 -15468206.92448 -12004385.90847  22177999.6284   22178006.6094   22177998.576
        48.0004         44.0004
  -3622156.23347  -2822357.54246  24087717.1364   24087727.2154   24087717.202
        43.0004         38.0004
  17473795.83348  13617424.88447  22181848.6224   22181856.0084   22181847.810
        50.0004         46.0004
  11532120.78349   8991803.99148  20141018.0994   20141022.8264   20141017.277
        54.0004         49.0004
   3526653.69848   2757512.08448  20405184.2974   20405191.0774   20405184.449
        53.0004         49.0004
   3833880.28848   2997275.05448  20458540.3494   20458547.0454   20458540.417
        53.0004         48.0004
  -5155352.22047  -4011693.60446  24574487.2724   24574497.6634   24574486.133
        42.0004         37.0004
  29353780.72746  22867334.39245  24503195.6474   24503205.9404   24503194.257
        39.0004         34.0004
  27494884.56647  21420986.41846  23265857.4734   23265864.6564   23265857.436
        44.0004         39.0004
 14  5  4  0 21  0.0000000  0 11G01G20G04G28G17G07G08G09G10G11G13
  23948956.07647  18659104.80447  22828105.8054   22828116.7534   22828105.598
        46.0004         42.0004
  15301685.17047  11923302.47946  23632077.0134   23632084.5694   23632077.798
        43.0004         38.0004
 -15558295.15048 -12074584.39447  22160856.9524   22160862.6784   22160856.599
        48.0004         44.0004
  -3657464.04247  -2849869.99346  24080997.9404   24081006.3474   24080997.777
        43.0004         38.0004
  17507973.40848  13644056.78147  22188352.1864   22188359.8684   22188351.524
        50.0004         46.0004
  11544169.53949   9001192.67548  20143310.6854   20143315.6844   20143310.268
        54.0004         49.0004
