     2.11           OBSERVATION DATA    G (GPS)             RINEX VERSION / TYPE
teqc  2013Mar15     gpsops              20140518 00:23:20UTCPGM / RUN BY / DATE
Linux 2.4.21-27.ELsmp|Opteron|gcc -static|Linux x86_64|=+   COMMENT
BIT 2 OF LLI FLAGS DATA COLLECTED UNDER A/S CONDITION       COMMENT
GLPS                                                        MARKER NAME
42005M002                                                   MARKER NUMBER
GGN                 JPL                                     OBSERVER / AGENCY
ZR220013847         ASHTECH UZ-12       CQ00                REC # / TYPE / VERS
CR519992104         ASH701945B_M    SCIT                    ANT # / TYPE
   -33801.4662 -6377516.5323   -82154.3508                  APPROX POSITION XYZ
        0.0083        0.0000        0.0000                  ANTENNA: DELTA H/E/N
     1     1                                                WAVELENGTH FACT L1/2
     7    L1    L2    P1    P2    C1    S1    S2            # / TYPES OF OBSERV
    30.0000                                                 INTERVAL
                                                            COMMENT
This data is provided as a public service by NASA/JPL.      COMMENT
No warranty is expressed or implied regarding suitability   COMMENT
for use.  For further information, contact:                 COMMENT
Dave Stowers, NASA/JPL m/s 238-600                          COMMENT
4800 Oak Grove Drive, Pasadena CA 91109 USA                 COMMENT
                                                            COMMENT
Forced Modulo Decimation to 30 seconds                      COMMENT
 SNR is mapped to RINEX snr flag value [0-9]                COMMENT
  L1 & L2: min(max(int(snr_dBHz/6), 0), 9)                  COMMENT
pseudorange smoothing corrections not applied               COMMENT
  2014     5    17     0     0    0.0000000     GPS         TIME OF FIRST OBS
                                                            END OF HEADER
 14  5 17  0  0  0.0000000  0 12G13G04G20G26G10G07G08G01G28G02G09G17
  15827346.33646  12325468.71145  24249583.1504   24249592.8024   24249584.382
        40.0004         35.0004
 -24029472.52748 -18661879.34247  21199847.9834   21199855.8664   21199848.158
        51.0004         47.0004
  -4432336.73646  -3391392.90346  23658478.2304   23658488.5464   23658478.904
        41.0004         36.0004
   -556125.64646   -411714.11846  24084884.7464   24084900.7024   24084884.786
        41.0004         37.0004
  -7559160.97747  -5879736.14546  23962756.7474   23962767.8044   23962757.828
        43.0004         38.0004
 -21890346.11148 -17026188.98148  20536854.1484   20536860.4894   20536853.452
        53.0004         48.0004
 -26353213.47549 -20495903.26948  19916777.0224   19916784.8104   19916777.292
        54.0004         49.0004
  -4481242.36647  -3456844.89746  23983071.5294   23983087.0454   23983070.506
        43.0004         39.0004
  -5180691.52547  -3857018.44146  23551922.7104   23551935.8174   23551922.332
        44.0004         40.0004
  -2162862.93847  -1635108.10746  23917533.3154   23917543.3034   23917534.871
        43.0004         38.0004
 -21052147.80649 -16371900.54548  20019419.5754   20019426.6434   20019419.467
        54.0004         49.0004
 -13397965.19148 -10382181.46947  22670462.6974   22670474.2924   22670462.410
        49.0004         44.0004
 14  5 17  0  0 30.0000000  0 12G13G04G20G26G10G07G08G01G28G02G09G17
  15898535.18946  12380940.64645  24263129.4974   24263137.8854   24263130.926
        40.0004         35.0004
 -24097965.79248 -18715250.64047  21186815.0584   21186822.6054   21186814.209
        51.0004         47.0004
  -4420021.09146  -3381796.28146  23660820.6964   23660832.1604   23660822.782
        41.0004         36.0004
   -566735.20647   -419981.01646  24082865.8164   24082882.1654   24082865.430
        42.0004         37.0004
  -7617213.60447  -5924971.81746  23951710.9614   23951721.3064   23951710.774
        43.0004         38.0004
 -21839782.77148 -16986788.94848  20546475.7214   20546482.0014   20546475.418
        53.0004         48.0004
 -26368792.08949 -20508042.38148  19913812.3924   19913820.1934   19913812.551
        54.0004         49.0004
  -4379433.37547  -3377513.28746  24002444.5564   24002460.4404   24002444.110
        43.0004         39.0004
  -5231021.35247  -3896236.26346  23542346.4384   23542357.8684   23542344.776
        44.0004         40.0004
  -2255150.24247  -1707020.09946  23899971.6504   23899981.1104   23899972.495
        43.0004         38.0004
 -21068043.97849 -16384287.09548  20016394.3434   20016402.1084   20016394.590
        54.0004         49.0004
 -13355585.28048 -10349158.17947  22678527.6484   22678538.7544   22678526.907
        49.0004         44.0004
 14  5 17  0  1  0.0000000  0 12G13G04G20G26G10G07G08G01G28G02G09G17
  15969521.46246  12436254.70846  24276640.3564   24276648.2834   24276640.014
        40.0004         36.0004
 -24166041.19048 -18768296.33247  21173860.1574   21173868.1534   21173860.125
        51.0004         47.0004
  -4407448.26246  -3371999.23146  23663215.9854   23663224.8714   23663215.085
        41.0004         37.0004
   -577020.64846   -427995.35646  24080908.9194   24080923.0484   24080908.397
        41.0004         37.0004
  -7675473.13747  -5970368.69646  23940623.9004   23940633.7254   23940624.060
        43.0004         38.0004
 -21788680.10148 -16946968.65548  20556200.4684   20556206.4964   20556199.847
        53.0004         48.0004
 -26383722.48849 -20519676.39348  19910971.0174   19910978.7924   19910971.386
        54.0004         49.0004
  -4277455.87947  -3298050.36846  24021850.0824   24021865.9864   24021850.201
        43.0004         39.0004
  -5281538.06247  -3935599.71446  23532731.2484   23532744.1454   23532731.995
        44.0004         40.0004
  -2347259.22347  -1778793.13646  23882444.2034   23882453.4574   23882443.490
        43.0004         38.0004
 -21083332.82049 -16396200.40348  20013485.3294   20013492.3644   20013484.975
        54.0004         50.0004
 -13313171.89648 -10316108.81747  22686598.5014   22686609.7324   22686598.270
        49.0004         44.0004
 14  5 17  0  1 30.0000000  0 12G13G04G20G26G10G07G08G01G28G02G09G17
  16040305.70346  12491411.35146  24290109.5714   24290117.9754   24290109.415
        40.0004         36.0004
 -24233694.87548 -18821013.40747  21160986.3084   21160993.4344   21160985.761
        51.0004         47.0004
  -4394615.28146  -3361999.48146  23665657.2094   23665666.5114   23665656.980
        41.0004         36.0004
   -586981.87546   -435757.07146  24079012.1774   24079028.0344   24079011.865
        41.0004         37.0004
  -7733936.82247  -6015924.67146  23929498.3034   23929508.1224   23929499.057
        43.0004         39.0004
 -21737038.35848 -16906728.30148  20566027.4464   20566033.7524   20566026.913
        53.0004         48.0004
 -26398001.71249 -20530802.99648  19908254.0784   19908261.5494   19908254.355
        54.0004         49.0004
  -4175310.89047  -3218456.94346  24041287.8634   24041303.9884   24041287.124
        43.0004         39.0004
  -5332238.33947  -3975106.20646  23523082.3534   23523096.8114   23523083.900
        44.0004         40.0004
  -2439185.95647  -1850424.16446  23864951.1034   23864960.7604   23864951.395
        43.0004         38.0004
 -21098012.04349 -16407638.68548  20010692.0494   20010699.4124   20010691.777
        54.0004         50.0004
 -13270726.01448 -10283034.12047  22694676.8384   22694687.5764   22694675.503
        49.0004         44.0004
 14  5 17  0  2  0.0000000  0 12G13G04G20G26G10G07G08G01G28G02G09G17
  16110885.48646  12546408.69446  24303540.2804   24303548.6194   24303539.785
        40.0004         36.0004
 -24300925.92548 -18873401.16247  21148192.6044   21148200.4084   21148192.406
        52.0004         47.0004
  -4381522.00646  -3351796.89946  23668149.0824   23668159.4184   23668148.613
        41.0004         37.0004
   -596621.55646   -443268.24346  24077178.3604   24077194.6974   24077177.614
        41.0004         37.0004
  -7792605.12447  -6061640.09146  23918333.8374   23918344.4934   23918334.367
        43.0004         39.0004
 -21684860.61948 -16866070.29048  20575956.3964   20575962.8944   20575955.930
        53.0004         48.0004
 -26411630.13349 -20541422.47648  19905660.6474   19905667.9934   19905660.561
        54.0004         49.0004
  -4073002.34347  -3138736.05446  24060756.9104   24060772.5714   24060756.126
        43.0004         39.0004
  -5383121.60147  -4014755.26846  23513400.5314   23513413.5404   23513400.602
        45.0004         40.0004
  -2530929.77347  -1921912.66746  23847493.8414   23847501.5634   23847493.761
        43.0004         39.0004
 -21112082.52549 -16418602.61748  20008014.3374   20008021.3684   20008014.081
        54.0004         50.0004
 -13228251.09748 -10249936.81047  22702757.6184   22702769.1574   22702758.070
        49.0004         44.0004
 14  5 17  0  2 30.0000000  0 12G13G04G20G26G10G07G08G01G28G02G09G17
  16181260.42346  12601246.39446  24316932.7154   24316939.7024   24316932.053
        40.0004         36.0004
 -24367730.94748 -18925456.94947  21135479.6244   21135487.4484   21135479.556
        52.0004         47.0004
  -4368166.10046  -3341389.66746  23670691.1694   23670701.4114   23670688.927
        41.0004         37.0004
   -605940.25046   -450529.28946  24075403.7334   24075420.7464   24075404.346
        41.0004         37.0004
  -7851475.67447  -6107513.08946  23907130.9734   23907141.7304   23907132.110
        44.0004         39.0004
 -21632147.76248 -16824995.30648  20585987.5994   20585994.2414   20585986.982
        53.0004         48.0004
 -26424605.54049 -20551533.11948  19903191.2634   19903198.9114   19903191.548
        54.0004         49.0004
  -3970531.88547  -3058888.99646  24080254.9854   24080272.7654   24080255.591
        43.0004         39.0004
  -5434185.56847  -4054545.14146  23503682.8294   23503696.1614   23503683.313
        45.0004         40.0004
  -2622487.03347  -1993255.78746  23830070.5664   23830078.3714   23830070.939
        43.0004         39.0004
 -21125542.80449 -16429091.07248  20005452.4154   20005460.2084   20005452.391
        54.0004         50.0004
 -13185748.67448 -10216818.05547  22710846.7914   22710857.4044   22710846.267
        49.0004         44.0004
 14  5 17  0  3  0.0000000  0 12G13G04G20G26G10G07G08G01G28G02G09G17
  16251426.57946  12655921.41146  24330282.7834   24330294.0034   24330283.040
        40.0004         36.0004
 -24434110.14748 -18977180.92647  21122848.3184   21122855.8784   21122848.062
        52.0004         47.0004
  -4354548.37346  -3330778.42746  23673279.9184   23673290.0424   23673281.827
        41.0004         37.0004
   -614941.86146   -457543.26546  24073692.9774   24073705.9604   24073690.319
        41.0004         37.0004
  -7910549.96647  -6153544.84546  23895890.3934   23895900.3704   23895890.291
        44.0004         39.0004
 -21578904.04748 -16783506.66548  20596119.5794   20596125.9234   20596119.262
        53.0004         48.0004
 -26436929.57349 -20561136.19748  19900846.1334   19900853.7004   19900846.317
        54.0004         49.0004
  -3867904.55847  -2978919.70646  24099785.4944   24099800.8994   24099784.941
        43.0004         39.0004
  -5485430.66147  -4094476.15246  23493931.9484   23493944.0814   23493931.690
        45.0004         40.0004
  -2713857.70947  -2064453.53346  23812682.5644   23812691.3514   23812683.645
        44.0004         39.0004
 -21138394.48149 -16439105.29248  20003006.9474   20003014.2704   20003006.937
        54.0004         49.0004
 -13143223.10348 -10183681.25347  22718937.7044   22718950.1044   22718938.478
        49.0004         44.0004
 14  5 17  0  3 30.0000000  0 12G13G04G20G26G10G07G08G01G28G02G09G17
  16321386.49246  12710435.75245  24343595.7934   24343604.3644   24343596.231
        40.0004         35.0004
 -24500057.56548 -19028568.44347  21110299.1774   21110306.6614   21110298.425
        52.0004         47.0004
  -4340663.80046  -3319959.22946  23675922.1094   23675934.4654   23675923.032
        41.0004         36.0004
   -623624.24046   -464308.51546  24072037.6454   24072054.0314   24072039.306
        41.0004         37.0004
  -7969823.25447  -6199731.67146  23884610.4624   23884620.8564   23884610.866
        44.0004         39.0004
 -21525127.73848 -16741603.01748  20606352.7194   20606359.2074   20606352.326
        53.0004         48.0004
 -26448597.49949 -20570228.02348  19898625.7324   19898633.2194   19898625.927
        54.0004         49.0004
  -3765119.31347  -2898827.35946  24119345.6554   24119361.2224   24119344.671
        43.0004         39.0004
  -5536851.48047  -4134544.09046  23484145.8674   23484158.5314   23484146.419
        45.0004         40.0004
  -2805036.07847  -2135501.41246  23795331.4234   23795339.6864   23795331.771
        44.0004         39.0004
 -21150633.84249 -16448642.37948  20000677.5434   20000685.2424   20000677.608
        54.0004         49.0004
 -13100673.49048 -10150525.73447  22727035.3634   22727048.0554   22727035.241
        49.0004         44.0004
 14  5 17  0  4  0.0000000  0 12G13G04G20G26G10G07G08G01G28G02G09G17
  16391135.04846  12764785.36146  24356870.3194   24356876.6104   24356869.574
        40.0004         36.0004
 -24565574.81648 -19079620.76847  21097831.4824   21097838.9584   21097830.834
        52.0004         47.0004
  -4326514.58146  -3308933.84846  23678615.5104   23678623.6874   23678616.341
        41.0004         37.0004
   -631992.79946   -470829.20046  24070446.6924   24070460.9584   24070445.172
        41.0004         37.0004
  -8029297.92647  -6246075.42146  23873293.0944   23873303.4234   23873293.127
        44.0004         39.0004
 -21470824.51848 -16699288.78848  20616686.0684   20616692.4094   20616685.556
        53.0004         48.0004
 -26459612.34549 -20578810.95648  19896529.6494   19896537.0354   19896529.814
        54.0004         49.0004
  -3662182.65047  -2818617.02646  24138933.0814   24138951.3564   24138932.475
        43.0004         39.0004
  -5588450.37047  -4174750.78046  23474326.7684   23474340.1224   23474327.042
        45.0004         40.0004
  -2896023.39847  -2206400.42846  23778017.9954   23778025.7264   23778017.607
        44.0004         39.0004
 -21162264.08449 -16457704.83448  19998464.7664   19998472.0714   19998464.521
        54.0004         49.0004
 -13058105.90848 -10117356.19547  22735135.7294   22735146.7384   22735135.943
        49.0004         44.0004
 14  5 17  0  4 30.0000000  0 12G13G04G20G26G10G07G08G01G28G02G09G17
  16460675.74346  12818973.01046  24370102.7824   24370109.8244   24370102.575
        40.0004         36.0004
 -24630655.32448 -19130332.77847  21085446.5954   21085454.6024   21085446.195
        52.0004         47.0004
  -4312095.67846  -3297698.29446  23681359.9244   23681368.7254   23681359.939
        41.0004         36.0004
   -640044.74247   -477103.19946  24068912.6844   24068928.5454   24068914.178
        42.0004         37.0004
  -8088968.72947  -6292572.00446  23861937.7434   23861947.4124   23861938.484
        44.0004         39.0004
 -21415992.20948 -16656562.28048  20627120.5734   20627126.6744   20627119.843
        53.0004         48.0004
 -26469969.16649 -20586881.14248  19894558.6974   19894566.2284   19894559.126
        54.0004         49.0004
  -3559092.88047  -2738287.38846  24158549.9214   24158567.1764   24158549.866
        43.0004         39.0004
  -5640221.80347  -4215091.91846  23464474.7334   23464487.4764   23464475.290
        45.0004         40.0004
  -2986813.10247  -2277145.44246  23760740.3894   23760749.3044   23760741.023
        43.0004         39.0004
 -21173280.73149 -16466289.15948  19996368.0734   19996375.5754   19996368.174
        54.0004         49.0004
 -13015518.66948 -10084171.33847  22743239.9744   22743251.7314   22743239.595
        49.0004         44.0004
 14  5 17  0  5  0.0000000  0 12G13G04G20G26G10G07G08G01G28G02G09G17
  16530002.47646  12872993.94345  24383294.7034   24383303.4994   24383294.927
        40.0004         35.0004
 -24695301.08848 -19180706.02547  21073145.3264   21073153.0514   21073144.899
        52.0004         47.0004
  -4297409.01146  -3286254.11446  23684156.6554   23684163.9634   23684155.154
        41.0004         36.0004
   -647785.74247   -483134.90346  24067440.7604   24067455.6344   24067439.443
        42.0004         37.0004
  -8148838.75847  -6339223.81146  23850544.7784   23850554.0994   23850545.577
        44.0004         39.0004
 -21360636.88748 -16613428.23448  20637654.2804   20637660.3104   20637653.760
        53.0004         48.0004
 -26479671.11249 -20594441.03648  19892712.3094   19892720.0664   19892712.671
        54.0004         49.0004
  -3455856.70947  -2657843.66246  24178195.8714   24178211.8384   24178195.152
        43.0004         38.0004
  -5692167.29147  -4255568.68346  23454590.5194   23454601.9814   23454590.446
        45.0004         40.0004
  -3077407.04247  -2347737.91446  23743500.8184   23743509.3844   23743501.388
        44.0004         39.0004
 -21183687.32249 -16474398.12148  19994387.6174   19994395.1674   19994387.678
        54.0004         49.0004
 -12972917.81548 -10050975.89447  22751346.7014   22751358.5554   22751346.551
        49.0004         44.0004
 14  5 17  0  5 30.0000000  0 12G13G04G20G26G10G07G08G01G28G02G09G17
  16599115.98246  12926848.72446  24396446.6244   24396455.1024   24396446.757
        40.0004         36.0004
 -24759508.40248 -19230737.62747  21060926.6864   21060934.1004   21060926.219
        52.0004         47.0004
  -4282451.77946  -3274599.08446  23687000.5314   23687011.0244   23687001.028
        41.0004         36.0004
   -655215.82347   -488924.32246  24066026.3154   24066039.6084   24066026.357
        42.0004         37.0004
  -8208905.20447  -6386028.68046  23839114.3494   23839124.7074   23839115.051
        44.0004         39.0004
 -21304759.08348 -16569887.05348  20648287.6464   20648293.8844   20648286.814
        52.0004         48.0004
 -26488715.97749 -20601488.92148  19890990.9744   19890998.6514   19890991.517
        54.0004         49.0004
  -3352475.28047  -2577286.74046  24197868.9474   24197884.4924   24197868.080
        43.0004         38.0004
  -5744283.91747  -4296178.79546  23444673.4384   23444685.4674   23444672.772
        45.0004         41.0004
  -3167801.25747  -2418174.76546  23726298.8044   23726307.6734   23726299.666
        43.0004         39.0004
 -21193482.21149 -16482030.43348  19992523.9264   19992531.3694   19992523.945
        54.0004         50.0004
 -12930304.37148 -10017770.61547  22759456.1994   22759468.5144   22759455.573
        49.0004         44.0004
 14  5 17  0  6  0.0000000  0 12G13G04G20G26G10G07G08G01G28G02G09G17
  16668016.34046  12980537.39145  24409556.9624   24409566.3474   24409558.287
        40.0004         35.0004
 -24823273.77248 -19280424.85647  21048792.2494   21048800.4674   21048791.958
        52.0004         47.0004
  -4267221.40246  -3262731.23846  23689895.8444   23689908.2784   23689898.807
        41.0004         36.0004
   -662335.50447   -494471.91346  24064670.9824   24064686.6084   24064670.807
        42.0004         37.0004
  -8269165.92547  -6432984.93046  23827646.8304   23827657.0274   23827647.850
        44.0004         39.0004
 -21248359.28848 -16525939.13148  20659019.8814   20659025.6434   20659019.467
        52.0004         48.0004
 -26497101.72849 -20608023.20648  19889395.5274   19889402.6464   19889395.663
        54.0004         49.0004
  -3248950.12147  -2496617.81446  24217567.3214   24217585.0684   24217568.549
        43.0004         38.0004
  -5796568.85047  -4336920.06246  23434723.0374   23434735.2334   23434722.987
        45.0004         41.0004
  -3257992.34847  -2488453.33646  23709136.7424   23709145.1194   23709136.431
        43.0004         39.0004
 -21202663.94349 -16489184.95748  19990776.6424   19990783.8144   19990776.354
        54.0004         49.0004
 -12887679.23548  -9984556.24047  22767566.9954   22767578.4084   22767566.918
        49.0004         44.0004
 14  5 17  0  6 30.0000000  0 12G13G04G20G26G10G07G08G01G28G02G09G17
  16736700.66446  13034057.74346  24422629.0414   24422635.1584   24422628.028
        40.0004         36.0004
 -24886596.70248 -19329767.32747  21036742.3034   21036750.4594   21036742.432
        52.0004         47.0004
  -4251718.25746  -3250650.83346  23692848.5964   23692859.1544   23692849.454
        40.0004         36.0004
   -669147.99347   -499780.10646  24063374.6564   24063390.9454   24063374.758
        42.0004         37.0004
  -8329621.38747  -6480092.93346  23816141.4094   23816151.7494   23816142.852
        44.0004         39.0004
 -21191441.83048 -16481587.82948  20669850.8014   20669857.1524   20669850.308
        53.0004         48.0004
 -26504829.35749 -20614044.67348  19887924.7864   19887932.2714   19887924.972
        54.0004         49.0004
  -3145285.48147  -2415840.21446  24237296.2804   24237312.4664   24237295.175
        43.0004         38.0004
  -5849022.03047  -4377792.42846  23424742.1394   23424753.6174   23424741.772
        45.0004         41.0004
  -3347979.67747  -2558573.12446  23692011.5454   23692020.1244   23692012.387
        44.0004         39.0004
 -21211233.80849 -16495862.70548  19989145.6664   19989153.5144   19989145.683
        54.0004         49.0004
 -12845046.47848  -9951335.92147  22775680.1164   22775690.4064   22775679.689
        49.0004         44.0004
 14  5 17  0  7  0.0000000  0 12G13G04G20G26G10G07G08G01G28G02G09G17
  16805168.39446  13087409.35245  24435657.7284   24435664.2384   24435656.883
        40.0004         35.0004
 -24949474.44748 -19378762.90747  21024777.5154   21024784.9414   21024776.791
        52.0004         47.0004
  -4235940.13346  -3238356.16445  23695848.7204   23695860.3594   23695851.642
        40.0004         35.0004
   -675654.11247   -504849.58646  24062136.4354   24062152.4494   24062136.815
        42.0004         38.0004
  -8390269.32647  -6527350.91146  23804600.0324   23804610.3034   23804601.648
        44.0004         39.0004
 -21134007.57948 -16436833.83748  20680780.0504   20680786.2144   20680779.791
        53.0004         48.0004
 -26511897.45549 -20619552.22048  19886579.9594   19886586.9514   19886580.124
        54.0004         49.0004
  -3041483.12947  -2334955.30146  24257048.6254   24257064.8724   24257047.974
        42.0004         38.0004
  -5901641.02647  -4418793.99946  23414728.1384   23414739.5144   23414728.399
        45.0004         41.0004
  -3437760.06447  -2628531.67446  23674927.8944   23674935.2884   23674927.899
        44.0004         39.0004
 -21219190.86649 -16502062.93948  19987631.0774   19987638.4024   19987631.365
        54.0004         49.0004
 -12802407.57248  -9918110.81947  22783793.9474   22783805.2454   22783793.718
        49.0004         44.0004
 14  5 17  0  7 30.0000000  0 12G13G04G20G26G10G07G08G01G28G02G09G17
  16873417.09046  13140590.23745  24448644.2654   24448651.5264   24448643.425
        40.0004         35.0004
 -25011906.34848 -19427411.07147  21012896.8194   21012904.4114   21012896.203
        52.0004         47.0004
  -4219887.44646  -3225847.54345  23698906.5804   23698915.4744   23698906.426
        40.0004         35.0004
   -681857.03347   -509682.79846  24060957.4144   24060970.6344   24060955.989
        43.0004         38.0004
  -8451110.18747  -6574759.21446  23793023.1794   23793033.9954   23793024.330
        44.0004         39.0004
 -21076060.34548 -16391680.11648  20691807.4534   20691813.3994   20691806.961
        53.0004         48.0004
 -26518306.94949 -20624546.56848  19885360.1474   19885367.1914   19885360.381
        54.0004         49.0004
  -2937547.36547  -2253966.40846  24276826.5004   24276843.2874   24276826.232
        42.0004         37.0004
  -5954425.30747  -4459924.37546  23404682.8364   23404694.5604   23404683.527
        45.0004         40.0004
  -3527332.91947  -2698328.50346  23657881.8734   23657890.3494   23657882.305
        44.0004         39.0004
 -21226536.60349 -16507786.82448  19986233.2584   19986240.8824   19986233.394
        54.0004         49.0004
 -12759766.28148  -9884883.85447  22791908.4304   22791918.9104   22791907.823
        48.0004         44.0004
 14  5 17  0  8  0.0000000  0 12G13G04G20G26G10G07G08G01G28G02G09G17
  16941449.43346  13193602.53845  24461589.7814   24461597.5644   24461588.926
        40.0004         35.0004
 -25073886.38148 -19475707.13947  21001102.0094   21001109.8694   21001101.841
        52.0004         47.0004
  -4203554.82846  -3213120.79645  23702014.0644   23702024.1504   23702014.943
        40.0004         35.0004
   -687754.54847   -514278.04346  24059833.2554   24059848.9554   24059833.941
        43.0004         38.0004
  -8512138.92047  -6622313.90246  23781409.9184   23781418.8174   23781410.640
        44.0004         39.0004
 -21017598.17748 -16346125.14848  20702931.8574   20702938.1654   20702931.531
        53.0004         48.0004
 -26524053.26449 -20629024.15648  19884266.4224   19884273.9934   19884266.620
        54.0004         49.0004
  -2833476.85147  -2172872.51646  24296630.3704   24296648.5744   24296630.212
        42.0004         37.0004
  -6007369.40647  -4501179.27246  23394608.8784   23394619.9754   23394608.687
        45.0004         40.0004
  -3616691.78047  -2767958.57746  23640877.2894   23640885.8244   23640878.288
        44.0004         39.0004
 -21233266.84149 -16513031.09048  19984952.7414   19984960.2784   19984952.860
        54.0004         50.0004
 -12717121.12848  -9851653.88147  22800022.7264   22800035.1014   22800023.309
        49.0004         44.0004
 14  5 17  0  8 30.0000000  0 12G13G04G20G26G10G07G08G01G28G02G09G17
  17009260.33446  13246442.31145  24474493.6904   24474501.6784   24474493.521
        40.0004         35.0004
 -25135416.12648 -19523652.32847  20989393.3234   20989400.9324   20989393.078
        52.0004         47.0004
  -4186944.74646  -3200177.84045  23705174.1194   23705185.0254   23705175.288
        40.0004         35.0004
   -693352.23447   -518639.65546  24058767.8244   24058783.0504   24058768.364
        43.0004         38.0004
  -8573358.22847  -6670017.09746  23769759.9054   23769769.7954   23769760.869
        44.0004         39.0004
 -20958627.30748 -16300173.78848  20714153.7384   20714160.4234   20714153.483
        52.0004         48.0004
 -26529139.67549 -20632987.53448  19883298.3674   19883306.1074   19883298.950
        54.0004         49.0004
  -2729278.15546  -2091678.73646  24316459.7354   24316475.9534   24316458.780
        41.0004         37.0004
  -6060475.36947  -4542560.31546  23384500.9394   23384513.8154   23384502.695
        45.0004         40.0004
  -3705838.13847  -2837423.07846  23623913.4524   23623922.0274   23623914.468
        44.0004         39.0004
 -21239385.42049 -16517798.74348  19983788.4844   19983795.5544   19983788.325
        54.0004         49.0004
 -12674478.64648  -9818425.98047  22808138.1314   22808149.6344   22808137.525
        49.0004         44.0004
 14  5 17  0  9  0.0000000  0 12G13G04G20G26G10G07G08G01G28G02G09G17
  17076850.68446  13299110.22045  24487357.0734   24487363.5414   24487355.374
        40.0004         35.0004
 -25196491.55348 -19571243.50747  20977770.9314   20977778.6634   20977770.631
        52.0004         47.0004
  -4170053.54546  -3187015.80446  23708388.7724   23708401.1924   23708389.151
        40.0004         36.0004
   -698649.49447   -522767.18046  24057760.7604   24057774.9574   24057759.819
        43.0004         38.0004
  -8634764.58647  -6717866.04146  23758075.0154   23758084.7174   23758075.288
        44.0004         39.0004
 -20899147.50248 -16253825.85648  20725471.9934   20725478.3184   20725471.660
        52.0004         48.0004
 -26533563.49449 -20636434.60548  19882456.4414   19882463.8094   19882456.834
        54.0004         49.0004
  -2624951.65746  -2010385.38546  24336312.2664   24336326.9934   24336311.649
        41.0004         36.0004
  -6113739.38047  -4584064.49746  23374367.1984   23374378.3474   23374366.642
        45.0004         40.0004
  -3794767.89247  -2906718.78146  23606991.0614   23606998.3154   23606990.695
        44.0004         39.0004
 -21244889.98649 -16522087.94348  19982740.9404   19982748.2114   19982741.024
        54.0004         50.0004
 -12631838.20048  -9785199.67347  22816252.4014   22816263.0434   22816251.585
        49.0004         44.0004
 14  5 17  0  9 30.0000000  0 12G13G04G20G26G10G07G08G01G28G02G09G17
  17144218.14646  13351604.40945  24500176.3734   24500182.4804   24500175.441
        40.0004         35.0004
 -25257111.97748 -19618480.13747  20966235.4174   20966243.1834   20966235.171
        52.0004         47.0004
  -4152881.53846  -3173635.03046  23711654.6784   23711666.6654   23711656.905
        40.0004         36.0004
   -703649.47847   -526663.03946  24056808.9104   24056823.1444   24056808.146
        43.0004         38.0004
  -8696358.54047  -6765861.17346  23746354.7174   23746363.0984   23746354.308
        44.0004         39.0004
 -20839162.45148 -16207084.22648  20736887.3564   20736893.5364   20736887.126
        52.0004         48.0004
 -26537325.92349 -20639366.31148  19881740.6974   19881747.8324   19881740.795
        54.0004         49.0004
  -2520501.48846  -1928995.66246  24356188.1524   24356204.9054   24356187.935
        41.0004         36.0004
  -6167160.50047  -4625691.11746  23364199.2264   23364212.0794   23364200.525
        45.0004         40.0004
  -3883480.04547  -2975844.94246  23590108.8674   23590117.0524   23590108.926
        44.0004         40.0004
 -21249781.90149 -16525899.75448  19981810.1184   19981816.9804   19981809.967
        54.0004         50.0004
 -12589203.81748  -9751978.08547  22824365.3834   22824377.2334   22824365.061
        49.0004         44.0004
 14  5 17  0 10  0.0000000  0 12G13G04G20G26G10G07G08G01G28G02G09G17
  17211363.52846  13403925.58945  24512954.1614   24512960.7564   24512952.812
        40.0004         35.0004
 -25317273.50948 -19665359.19247  20954787.2354   20954794.6284   20954786.903
        52.0004         47.0004
  -4135425.54146  -3160032.90245  23714979.0584   23714990.3894   23714978.639
        40.0004         35.0004
   -708351.90247   -530327.05146  24055913.1884   24055929.3344   24055913.670
        42.0004         38.0004
  -8758136.44247  -6813999.62346  23734598.0214   23734608.0784   23734598.131
        44.0004         39.0004
 -20778672.45148 -16159949.12848  20748397.8454   20748404.1484   20748397.447
        52.0004         48.0004
 -26540424.12849 -20641780.43848  19881150.7334   19881158.2344   19881151.251
        54.0004         49.0004
  -2415928.26846  -1847510.07146  24376088.6204   24376104.2354   24376087.214
        41.0004         36.0004
  -6220735.47647  -4667437.61946  23354004.0464   23354017.6454   23354005.435
        45.0004         40.0004
  -3971970.34247  -3044798.22246  23573270.0274   23573277.7104   23573270.352
        44.0004         39.0004
 -21254059.30249 -16529232.72248  19980995.8704   19981003.0084   19980995.878
        54.0004         50.0004
 -12546575.97648  -9718761.59647  22832477.6164   22832489.5054   22832477.008
        49.0004         44.0004
 14  5 17  0 10 30.0000000  0 12G13G04G20G26G10G07G08G01G28G02G09G17
  17278283.16646  13456070.83245  24525686.2734   24525694.3574   24525687.525
        40.0004         35.0004
 -25376976.37848 -19711880.84447  20943425.8364   20943433.4444   20943425.647
        52.0004         47.0004
  -4117686.87546  -3146210.52646  23718355.1994   23718363.6244   23718354.706
        40.0004         36.0004
   -712761.08547   -533762.54246  24055073.3864   24055088.8944   24055073.799
        42.0004         38.0004
  -8820099.67247  -6862282.49146  23722806.8424   23722815.1884   23722806.624
        44.0004         39.0004
 -20717682.21048 -16112424.23648  20760003.9784   20760010.0214   20760003.908
        52.0004         48.0004
 -26542860.31549 -20643678.71048  19880687.3344   19880694.8084   19880687.512
        54.0004         49.0004
  -2311237.23146  -1765932.64246  24396008.5834   24396025.2024   24396008.803
        40.0004         36.0004
  -6274464.86547  -4709304.45346  23343781.0724   23343792.1144   23343780.747
        44.0004         40.0004
  -4060238.91347  -3113578.72846  23556472.0794   23556479.4084   23556473.269
        44.0004         40.0004
 -21257724.57449 -16532088.71148  19980298.4594   19980305.4694   19980298.481
        54.0004         49.0004
 -12503959.34648  -9685553.84847  22840587.3674   22840598.4304   22840586.729
        49.0004         44.0004
 14  5 17  0 11  0.0000000  0 12G13G04G20G26G10G07G08G01G28G02G09G17
  17344978.47546  13508041.30346  24538378.9134   24538388.0514   24538378.718
        40.0004         36.0004
 -25436216.49648 -19758041.91247  20932152.4874   20932160.1714   20932152.680
        52.0004         47.0004
  -4099661.67946  -3132164.89446  23721782.8194   23721793.6244   23721784.568
        40.0004         36.0004
   -716876.34747   -536969.04246  24054290.0154   24054305.6854   24054291.140
        42.0004         38.0004
  -8882244.77647  -6910707.07446  23710981.3414   23710988.5344   23710980.850
        44.0004         40.0004
 -20656191.56648 -16064509.40648  20771704.9614   20771711.5214   20771704.593
        52.0004         48.0004
 -26544631.75749 -20645059.00048  19880350.0264   19880357.5914   19880350.367
        54.0004         49.0004
  -2206428.55546  -1684263.57046  24415953.5744   24415971.5354   24415953.332
        40.0004         36.0004
  -6328344.31947  -4751288.22346  23333527.4384   23333538.8654   23333527.630
        44.0004         40.0004
  -4148281.32147  -3182183.00046  23539718.7894   23539726.1104   23539718.382
        44.0004         39.0004
 -21260775.49149 -16534465.97848  19979717.7924   19979724.8844   19979717.792
        54.0004         49.0004
 -12461353.96348  -9652354.86647  22848695.2664   22848704.7064   22848694.355
        49.0004         44.0004
 14  5 17  0 11 30.0000000  0 12G13G04G20G26G10G07G08G01G28G02G09G17
  17411446.58146  13559834.71546  24551028.5544   24551037.2344   24551027.262
        40.0004         36.0004
 -25494993.72048 -19803842.28547  20920967.8504   20920975.1894   20920967.449
        52.0004         47.0004
  -4081350.62846  -3117896.50645  23725267.7384   23725279.0794   23725268.199
        40.0004         35.0004
   -720701.39047   -539949.38246  24053562.4474   24053578.8124   24053562.433
        42.0004         38.0004
  -8944572.23147  -6959273.76046  23699119.8134   23699130.0874   23699120.943
        44.0004         39.0004
 -20594204.68648 -16016207.91448  20783500.8484   20783507.2324   20783500.631
        52.0004         48.0004
 -26545739.93749 -20645922.45648  19880139.1084   19880146.5044   19880139.513
        54.0004         49.0004
  -2101506.83046  -1602506.41446  24435920.2644   24435935.5224   24435919.536
        40.0004         36.0004
  -6382374.08447  -4793389.11246  23323245.8404   23323256.6844   23323246.178
        44.0004         40.0004
  -4236097.12047  -3250610.71046  23523007.5774   23523015.6604   23523007.272
        44.0004         39.0004
 -21263214.04749 -16536366.09448  19979253.4714   19979260.4944   19979253.525
        54.0004         49.0004
 -12418763.49248  -9619167.50347  22856799.3054   22856809.3274   22856798.909
        49.0004         44.0004
 14  5 17  0 12  0.0000000  0 12G13G04G20G26G10G07G08G01G28G02G09G17
  17477686.18846  13611450.06645  24563634.1764   24563643.0804   24563632.151
        40.0004         35.0004
 -25553306.03148 -19849280.38947  20909871.6244   20909878.9274   20909871.220
        52.0004         47.0004
  -4062752.76646  -3103404.63545  23728807.2104   23728815.4644   23728808.023
        40.0004         35.0004
   -724238.05947   -542705.03046  24052890.2584   24052904.3944   24052890.135
        42.0004         38.0004
  -9007080.57947  -7007981.40846  23687224.6264   23687235.0234   23687225.147
        44.0004         39.0004
 -20531724.08248 -15967521.69748  20795390.5724   20795396.5574   20795390.297
        52.0004         48.0004
 -26546185.04049 -20646269.23848  19880054.2284   19880061.5654   19880054.860
        54.0004         49.0004
  -1996474.75246  -1520663.26846  24455908.2614   24455924.7374   24455906.517
        41.0004         36.0004
  -6436552.10347  -4835605.53846  23312936.1314   23312947.4484   23312936.140
        44.0004         40.0004
  -4323684.11147  -3318860.10946  23506339.7054   23506348.3154   23506340.796
        44.0004         39.0004
 -21265040.31549 -16537789.09448  19978906.2764   19978913.4954   19978906.034
        54.0004         50.0004
 -12376190.49848  -9585993.76347  22864900.8344   22864912.4264   22864900.345
        49.0004         44.0004
 14  5 17  0 12 30.0000000  0 12G13G04G20G26G10G07G08G01G28G02G09G17
  17543698.51746  13662888.31745  24576193.2154   24576201.9864   24576194.482
        40.0004         35.0004
 -25611149.08948 -19894352.84247  20898863.7604   20898871.2674   20898863.350
        52.0004         47.0004
  -4043864.49446  -3088686.48045  23732401.3984   23732413.2914   23732401.081
        40.0004         35.0004
   -727485.67847   -545235.44946  24052272.1084   24052286.8634   24052271.123
        42.0004         38.0004
  -9069766.10547  -7056827.09746  23675294.8154   23675304.6404   23675296.733
        44.0004         39.0004
 -20468749.38148 -15918450.46748  20807374.7584   20807380.4454   20807373.937
        52.0004         48.0004
 -26545964.18649 -20646097.08848  19880096.2784   19880103.4584   19880096.754
        54.0004         49.0004
  -1891332.62446  -1438734.35846  24475914.2764   24475931.9194   24475914.672
        41.0004         37.0004
  -6490874.48447  -4877934.44846  23302599.2054   23302609.8854   23302598.766
        45.0004         40.0004
  -4411037.42947  -3386927.44246  23489717.0484   23489725.8044   23489717.432
        44.0004         40.0004
 -21266252.05949 -16538733.25148  19978675.6984   19978682.3374   19978675.434
        54.0004         50.0004
 -12333634.96548  -9552833.61947  22872998.0184   22873009.9564   22872998.352
        49.0004         44.0004
 14  5 17  0 13  0.0000000  0 12G13G04G20G26G10G07G08G01G28G02G09G17
  17609481.21246  13714147.61845  24588711.9284   24588719.7634   24588712.340
        40.0004         35.0004
 -25668522.54648 -19939059.36847  20887946.0204   20887953.6154   20887946.001
        52.0004         47.0004
  -4024685.95246  -3073742.14245  23736051.9544   23736062.5134   23736051.996
        40.0004         35.0004
   -730447.56147   -547543.20546  24051708.4184   24051723.7584   24051708.117
        42.0004         38.0004
  -9132629.21147  -7105811.16346  23663332.8714   23663342.6764   23663334.099
        44.0004         39.0004
 -20405284.73048 -15868997.46348  20819451.1564   20819456.8224   20819450.785
        52.0004         48.0004
 -26545078.42049 -20645406.83048  19880265.1084   19880272.2194   19880265.448
        54.0004         49.0004
  -1786084.52846  -1356722.88046  24495943.1064   24495959.6264   24495942.381
        41.0004         37.0004
  -6545340.52447  -4920375.31946  23292233.0484   23292245.8704   23292233.632
        45.0004         40.0004
  -4498156.75847  -3454812.45146  23473138.4934   23473146.9134   23473138.517
        44.0004         40.0004
 -21266850.92049 -16539199.83648  19978561.5444   19978568.5604   19978561.345
        54.0004         50.0004
 -12291100.55848  -9519689.94447  22881093.1274   22881103.9994   22881092.170
        49.0004         44.0004
 14  5 17  0 13 30.0000000  0 12G13G04G20G26G10G07G08G01G28G02G09G17
  17675034.14446  13765227.89945  24601187.9594   24601196.0474   24601186.842
        40.0004         35.0004
 -25725423.82748 -19983397.97047  20877118.2534   20877125.5834   20877117.775
        52.0004         47.0004
  -4005215.14646  -3058570.02845  23739756.9924   23739769.1644   23739756.336
        40.0004         35.0004
   -733124.73247   -549629.12846  24051198.1154   24051212.9014   24051197.551
        42.0004         38.0004
  -9195667.75447  -7154931.93046  23651336.9774   23651346.9344   23651337.764
        44.0004         39.0004
 -20341331.67248 -15819163.87848  20831621.2204   20831627.0874   20831620.761
        52.0004         48.0004
 -26543526.88749 -20644197.79148  19880560.4414   19880567.6164   19880560.703
        54.0004         49.0004
  -1680732.34046  -1274630.27446  24515989.7314   24516007.4714   24515990.488
        41.0004         37.0004
  -6599947.81447  -4962926.24646  23281842.6854   23281853.6344   23281842.626
        45.0004         41.0004
  -4585039.07247  -3522512.76546  23456605.4364   23456612.9364   23456605.817
        44.0004         40.0004
 -21266836.32149 -16539188.39848  19978564.2674   19978571.2934   19978564.410
        54.0004         50.0004
 -12248588.66448  -9486563.80747  22889182.3354   22889193.9934   22889182.234
        48.0004         44.0004
 14  5 17  0 14  0.0000000  0 12G13G04G20G26G10G07G08G01G28G02G09G17
  17740355.69046  13816127.87945  24613615.7654   24613624.9844   24613616.011
        40.0004         35.0004
 -25781851.08248 -20027367.20348  20866380.3674   20866387.7604   20866380.345
        52.0004         48.0004
  -3985451.17246  -3043169.51445  23743518.5404   23743526.1834   23743517.723
        40.0004         35.0004
   -735519.29547   -551494.83446  24050743.9984   24050756.4004   24050742.924
        42.0004         38.0004
  -9258880.72747  -7204188.63546  23639308.0134   23639317.9994   23639308.255
        44.0004         39.0004
 -20276892.75448 -15768951.70248  20843883.0874   20843889.3784   20843882.983
        52.0004         48.0004
 -26541309.75849 -20642470.10748  19880982.2134   19880989.6644   19880982.443
        54.0004         49.0004
  -1575278.97946  -1192458.85046  24536059.9174   24536076.1554   24536057.678
        41.0004         37.0004
  -6654694.51047  -5005585.79746  23271424.4804   23271434.9794   23271424.545
        45.0004         41.0004
  -4671682.22347  -3590026.73146  23440117.5294   23440124.7604   23440118.677
        44.0004         40.0004
 -21266208.68549 -16538699.26748  19978683.7734   19978690.7144   19978683.723
        54.0004         50.0004
 -12206102.07748  -9453457.39147  22897267.4104   22897277.3964   22897267.324
        49.0004         44.0004
 14  5 17  0 14 30.0000000  0 12G13G04G20G26G10G07G08G01G28G02G09G17
  17805443.81646  13866845.96945  24626001.3484   24626009.5564   24626001.803
        40.0004         35.0004
 -25837803.72748 -20070966.61247  20855732.8184   20855739.4984   20855732.506
        52.0004         47.0004
  -3965394.03146  -3027540.53345  23747334.6154   23747339.5664   23747334.357
        40.0004         35.0004
   -737634.25047   -553142.65646  24050340.1694   24050354.5774   24050339.649
        42.0004         38.0004
  -9322267.96747  -7253581.12746  23627244.8114   23627255.3354   23627246.203
        44.0004         39.0004
 -20211971.39948 -15718363.60147  20856237.3304   20856243.3914   20856236.860
        52.0004         47.0004
 -26538427.93149 -20640224.47348  19881530.3894   19881537.4324   19881530.838
        54.0004         49.0004
  -1469728.19446  -1110211.50446  24556143.7804   24556160.7014   24556143.451
        41.0004         37.0004
  -6709579.74947  -5048353.31746  23260980.3944   23260991.3224   23260979.842
        45.0004         41.0004
  -4758084.99947  -3657353.38246  23423675.6664   23423682.5324   23423676.025
        44.0004         40.0004
 -21264969.67149 -16537733.74148  19978919.0604   19978926.2854   19978919.281
        54.0004         50.0004
 -12163643.82148  -9420373.04347  22905346.6204   22905358.2404   22905346.413
        49.0004         44.0004
 14  5 17  0 15  0.0000000  0 12G13G04G20G26G10G07G08G01G28G02G09G17
  17870297.48346  13917381.35645  24638345.0364   24638352.8754   24638342.305
        40.0004         35.0004
 -25893280.28048 -20114195.02948  20845176.1474   20845183.6844   20845175.740
        52.0004         48.0004
  -3945043.00946  -3011682.58745  23751206.4224   23751215.6584   23751207.159
        40.0004         35.0004
   -739471.69647   -554574.25346  24049990.6924   24050005.7364   24049990.237
        43.0004         38.0004
  -9385828.25047  -7303108.45546  23615150.2304   23615159.8794   23615151.141
        44.0004         39.0004
 -20146570.13448 -15667401.54647  20868682.7524   20868688.7104   20868682.573
        52.0004         47.0004
 -26534881.68949 -20637461.12048  19882205.4354   19882212.5504   19882205.549
        54.0004         49.0004
  -1364083.00846  -1027890.60246  24576247.9754   24576262.2874   24576246.496
        41.0004         37.0004
  -6764601.97347  -5091227.58146  23250509.0124   23250520.1594   23250509.377
        45.0004         40.0004
  -4844245.69747  -3724491.40446  23407279.9774   23407286.6454   23407279.451
        44.0004         40.0004
 -21263119.92049 -16536292.32248  19979271.0454   19979278.5144   19979271.326
        54.0004         50.0004
 -12121216.61548  -9387312.90547  22913421.2894   22913431.8324   22913420.425
        48.0004         44.0004
 14  5 17  0 15 30.0000000  0 12G13G04G20G26G10G07G08G01G28G02G09G17
  17934920.19146  13967736.78645  24650643.3964   24650648.3364   24650640.504
        40.0004         35.0004
 -25948273.94348 -20157047.18147  20834710.9274   20834717.8134   20834711.208
        52.0004         47.0004
  -3924392.38246  -2995591.18345  23755137.1794   23755147.0594   23755136.658
        40.0004         35.0004
   -741028.72347   -555787.32446  24049694.5634   24049708.4924   24049693.799
        43.0004         38.0004
  -9449555.44647  -7352765.83446  23603023.1094   23603032.5674   23603024.316
        44.0004         39.0004
 -20080687.09648 -15616064.08547  20881219.8154   20881225.9644   20881219.436
        52.0004         47.0004
 -26530666.10049 -20634176.19948  19883007.5404   19883014.4484   19883007.944
        54.0004         49.0004
  -1258341.15346   -945494.36446  24596370.4024   24596384.9024   24596368.650
        41.0004         37.0004
  -6819754.61347  -5134203.47046  23240014.4684   23240025.5664   23240013.786
        45.0004         41.0004
  -4930157.37947  -3791435.38346  23390930.8854   23390938.3784   23390931.809
        44.0004         40.0004
 -21260654.93949 -16534371.50148  19979740.3004   19979747.3114   19979740.276
        54.0004         50.0004
 -12078817.71948  -9354274.82047  22921489.0404   22921500.3494   22921488.269
        48.0004         44.0004
 14  5 17  0 16  0.0000000  0 12G13G04G20G26G10G07G08G01G28G02G09G17
  17999304.53946  14017906.44645  24662890.6484   24662901.8494   24662891.982
        40.0004         35.0004
 -26002789.63148 -20199526.87947  20824337.2014   20824344.4354   20824336.051
        52.0004         47.0004
  -3903447.01346  -2979270.10045  23759122.0324   23759131.9454   23759121.859
        40.0004         35.0004
   -742313.60447   -556788.35146  24049449.8094   24049463.3594   24049449.182
        43.0004         38.0004
  -9513454.71947  -7402557.30146  23590864.1814   23590872.8194   23590864.912
        44.0004         39.0004
 -20014331.13648 -15564358.10947  20893846.8764   20893853.1934   20893846.532
        52.0004         47.0004
 -26525787.79749 -20630374.87248  19883935.8154   19883943.1124   19883936.203
        54.0004         49.0004
  -1152511.80246   -863029.94346  24616508.2384   24616524.9834   24616507.416
        41.0004         36.0004
  -6875042.21747  -5177284.52746  23229493.2764   23229503.5394   23229493.348
        45.0004         41.0004
  -5015824.09547  -3858188.47646  23374628.1944   23374635.9064   23374630.025
        44.0004         40.0004
 -21257581.46549 -16531976.52648  19980324.8224   19980332.0244   19980324.902
        54.0004         50.0004
 -12036455.96548  -9321265.65947  22929550.5584   22929561.0674   22929549.621
        48.0004         44.0004
 14  5 17  0 16 30.0000000  0 12G13G04G20G26G10G07G08G01G28G02G09G17
  18063453.14046  14067892.42045  24675099.8754   24675106.9374   24675098.371
        40.0004         35.0004
 -26056821.78348 -20241629.79848  20814055.1634   20814062.2964   20814055.171
        52.0004         48.0004
  -3882202.64546  -2962716.01445  23763163.6944   23763174.7834   23763165.429
        40.0004         35.0004
   -743324.86647   -557576.17646  24049256.6714   24049270.2014   24049256.504
        43.0004         38.0004
  -9577520.96947  -7452478.88746  23578671.4194   23578682.2244   23578673.398
        44.0004         39.0004
 -19947501.16348 -15512282.77647  20906564.5314   20906570.5834   20906564.131
        52.0004         47.0004
 -26520243.44249 -20626054.54748  19884990.5814   19884997.8174   19884991.007
        54.0004         49.0004
  -1046594.10146   -780496.67346  24636664.1734   24636679.5404   24636663.429
        41.0004         37.0004
  -6930459.18447  -5220466.37546  23218946.4974   23218958.1294   23218947.023
        45.0004         41.0004
  -5101240.47347  -3924746.52746  23358374.4194   23358381.2464   23358374.304
        45.0004         40.0004
 -21253896.38449 -16529104.97948  19981026.4224   19981033.3614   19981026.328
        54.0004         50.0004
 -11994130.07348  -9288284.45447  22937603.5004   22937615.5054   22937603.775
        48.0004         43.0004
 14  5 17  0 17  0.0000000  0 12G13G04G20G26G10G07G08G01G28G02G09G17
  18127372.46246  14117699.73345  24687264.7734   24687270.1724   24687262.717
        39.0004         35.0004
 -26110361.78348 -20283349.23248  20803867.0134   20803874.1834   20803866.423
        52.0004         48.0004
  -3860650.82046  -2945922.38545  23767266.2004   23767275.7534   23767266.326
        40.0004         35.0004
   -744057.18247   -558146.62346  24049117.9384   24049130.8434   24049116.821
        43.0004         38.0004
  -9641745.76847  -7502524.00246  23566449.9164   23566461.5024   23566451.544
        44.0004         39.0004
 -19880192.56548 -15459834.49747  20919373.0134   20919379.4604   20919372.335
        52.0004         47.0004
 -26514025.70449 -20621209.51548  19886173.8094   19886181.0434   19886174.352
        54.0004         49.0004
   -940583.54946   -697891.05046  24656835.6734   24656852.5154   24656835.945
        41.0004         36.0004
  -6985996.05247  -5263741.64846  23208378.6634   23208390.2434   23208378.761
        45.0004         40.0004
  -5186397.06347  -3991102.12546  23342168.9834   23342177.0404   23342169.816
        45.0004         40.0004
 -21249593.29549 -16525751.86248  19981845.0854   19981852.3034   19981844.914
        54.0004         50.0004
 -11951834.73248  -9255327.05847  22945654.1834   22945665.1414   22945652.451
        48.0004         44.0004
 14  5 17  0 17 30.0000000  0 12G13G04G20G26G10G07G08G01G28G02G09G17
  18191046.49946  14167315.92245  24699379.0594   24699385.8814   24699379.549
        39.0004         35.0004
 -26163422.59548 -20324695.25948  20793769.4834   20793776.9614   20793769.007
        52.0004         48.0004
  -3838805.39146  -2928899.93545  23771422.3734   23771434.6134   23771423.676
        40.0004         35.0004
   -744527.34447   -558512.81446  24049026.5974   24049041.4454   24049027.079
        43.0004         38.0004
  -9706142.47947  -7552703.10046  23554195.9344   23554205.7464   23554196.765
        44.0004         39.0004
 -19812422.39848 -15407026.54447  20932269.5114   20932275.2144   20932268.414
        52.0004         47.0004
 -26507149.65849 -20615851.50548  19887482.3374   19887489.4384   19887482.701
        54.0004         49.0004
   -834497.48046   -615226.59246  24677024.4064   24677041.6464   24677023.395
        41.0004         36.0004
  -7041666.44147  -5307120.97046  23197784.9214   23197795.8684   23197785.022
        45.0004         40.0004
  -5271306.35947  -4057265.03646  23326012.0044   23326019.6154   23326011.403
        45.0004         40.0004
 -21244687.20949 -16521928.88648  19982778.6454   19982785.6964   19982778.435
        54.0004         50.0004
 -11909587.19648  -9222406.90847  22953691.9824   22953704.6744   22953691.929
        48.0004         44.0004
 14  5 17  0 18  0.0000000  0 12G13G04G20G26G10G07G08G01G28G02G09G17
  18254481.04846  14216745.49745  24711450.1844   24711456.8134   24711450.766
        39.0004         35.0004
 -26215995.37948 -20365661.00548  20783765.5004   20783773.1404   20783765.299
        52.0004         48.0004
  -3816658.36146  -2911642.51745  23775638.8094   23775648.1354   23775638.032
        39.0004         35.0004
   -744730.15747   -558670.66346  24048989.6824   24049002.7694   24048988.863
        43.0004         38.0004
  -9770702.72847  -7603009.62446  23541910.8084   23541919.3264   23541911.484
        44.0004         40.0004
 -19744186.21448 -15353855.46747  20945253.6924   20945259.8294   20945253.609
        52.0004         47.0004
 -26499608.45549 -20609975.20148  19888917.0854   19888924.3404   19888917.557
        54.0004         49.0004
   -728331.56346   -532499.88246  24697227.4934   24697242.4214   24697225.887
        40.0004         36.0004
  -7097461.16247  -5350597.16746  23187167.1774   23187179.5234   23187167.343
        45.0004         41.0004
  -5355959.39147  -4123228.25446  23309902.8764   23309910.4344   23309903.256
        45.0004         40.0004
 -21239171.75049 -16517631.07648  19983828.4554   19983835.0804   19983828.291
        54.0004         50.0004
 -11867382.57648  -9189520.19747  22961723.6434   22961735.5094   22961723.234
        48.0004         44.0004
 14  5 17  0 18 30.0000000  0 12G13G04G20G26G10G07G08G01G28G02G09G17
  18317677.31946  14265989.37545  24723478.7844   24723484.9214   24723476.504
        39.0004         35.0004
 -26268076.56548 -20406243.69748  20773854.5614   20773861.4814   20773854.154
        52.0004         48.0004
  -3794206.89946  -2894147.86045  23779910.0344   23779918.0054   23779910.904
        40.0004         35.0004
   -744665.84947   -558620.38446  24049001.2654   24049014.9484   24049000.187
        43.0004         38.0004
  -9835423.15747  -7653440.96346  23529594.5874   23529604.5024   23529595.247
        44.0004         40.0004
 -19675484.94348 -15300321.98247  20958327.5424   20958333.5254   20958327.035
        52.0004         47.0004
 -26491400.27349 -20603579.16748  19890479.4094   19890486.6374   19890479.568
        54.0004         49.0004
   -622086.71646   -449711.67945  24717445.1114   24717460.1124   24717443.617
        40.0004         35.0004
  -7153376.14447  -5394167.08346  23176527.7984   23176537.1834   23176527.167
        45.0004         41.0004
  -5440351.74847  -4188988.36046  23293843.3854   23293850.5434   23293843.628
        45.0004         40.0004
 -21233045.49849 -16512857.31848  19984993.7934   19985000.8984   19984993.620
        54.0004         50.0004
 -11825221.29448  -9156667.24047  22969746.7804   22969757.8894   22969746.298
        48.0004         43.0004
 14  5 17  0 19  0.0000000  0 12G13G04G20G26G10G07G08G01G28G02G09G17
  18380632.13646  14315045.13045  24735456.1414   24735463.4904   24735456.524
        39.0004         35.0004
 -26319666.93448 -20446443.92648  20764036.9834   20764044.3534   20764036.550
        52.0004         48.0004
  -3771452.12946  -2876416.84945  23784240.2414   23784250.7634   23784240.546
        39.0004         35.0004
   -744338.51747   -558365.14046  24049063.4634   24049077.5434   24049063.351
        43.0004         38.0004
  -9900304.63947  -7703997.79546  23517248.8144   23517256.8624   23517248.229
        44.0004         40.0004
 -19606323.37148 -15246429.82547  20971488.2294   20971494.5114   20971487.659
        52.0004         47.0004
 -26482527.51949 -20596665.28948  19892167.7444   19892174.9524   19892168.072
        54.0004         49.0004
   -515767.74746   -366865.70845  24737677.3494   24737690.5394   24737675.641
        40.0004         35.0004
  -7209411.77747  -5437831.00646  23165863.5964   23165874.1124   23165863.817
        46.0004         41.0004
  -5524484.07347  -4254545.83446  23277832.4684   23277841.9854   23277833.436
        45.0004         41.0004
 -21226311.39549 -16507609.92248  19986275.2764   19986282.2384   19986275.380
        54.0004         50.0004
 -11783107.61648  -9123851.38847  22977761.1194   22977771.5114   22977760.183
        48.0004         43.0004
 14  5 17  0 19 30.0000000  0 12G13G04G20G26G10G07G08G01G28G02G09G17
  18443346.38246  14363913.41745  24747390.9214   24747397.5094   24747390.768
        39.0004         35.0004
 -26370763.32748 -20486259.24548  20754313.6954   20754320.6334   20754313.947
        52.0004         48.0004
  -3748391.38046  -2858447.44345  23788628.2854   23788639.5934   23788628.625
        39.0004         35.0004
   -743748.76547   -557905.40446  24049175.6904   24049189.0434   24049174.861
        43.0004         38.0004
  -9965344.28847  -7754677.88546  23504871.3294   23504880.7974   23504871.409
        44.0004         40.0004
 -19536702.33148 -15192179.64047  20984736.5234   20984742.9814   20984735.951
        52.0004         47.0004
 -26472988.78049 -20589232.46348  19893982.8724   19893989.5474   19893983.135
        54.0004         49.0004
   -409375.72046   -283962.83345  24757921.5214   24757940.9974   24757921.096
        39.0004         35.0004
  -7265564.33147  -5481586.04246  23155177.7904   23155187.1644   23155178.112
        46.0004         41.0004
  -5608352.67347  -4319897.81746  23261873.6514   23261880.6014   23261873.192
        45.0004         41.0004
 -21218968.52349 -16501888.14948  19987672.5454   19987679.1794   19987672.496
        54.0004         49.0004
 -11741042.45448  -9091073.33347  22985765.3564   22985776.1624   22985764.979
        48.0004         43.0004
 14  5 17  0 20  0.0000000  0 12G13G04G20G26G10G07G08G01G28G02G09G17
  18505818.65946  14412593.18145  24759279.8144   24759286.5194   24759278.829
        39.0004         35.0004
 -26421364.06848 -20525688.34548  20744684.9174   20744692.2684   20744684.241
        52.0004         48.0004
  -3725024.07846  -2840239.16145  23793075.3454   23793084.1424   23793075.040
        39.0004         35.0004
   -742898.48647   -557242.67546  24049337.0864   24049351.4554   24049336.497
        43.0004         38.0004
 -10030540.84947  -7805480.24746  23492464.6334   23492474.1064   23492465.427
        44.0004         40.0004
 -19466625.27948 -15137574.11947  20998071.9424   20998077.5654   20998071.619
        52.0004         47.0004
 -26462784.82949 -20581281.29048  19895924.8254   19895931.6074   19895924.936
        54.0004         49.0004
   -302913.44446   -201005.20045  24778181.8894   24778200.5644   24778180.769
        39.0004         34.0004
  -7321832.04247  -5525430.80747  23144470.2754   23144480.3074   23144470.417
        46.0004         42.0004
  -5691955.48747  -4385042.69746  23245964.5494   23245971.6484   23245965.004
        45.0004         41.0004
 -21211017.37949 -16495692.40248  19989185.0904   19989192.7234   19989185.439
        54.0004         49.0004
 -11699028.24448  -9058334.99147  22993760.0554   22993772.5954   22993760.065
        48.0004         43.0004
 14  5 17  0 20 30.0000000  0 12G13G04G20G26G10G07G08G01G28G02G09G17
  18568045.64146  14461081.78245  24771117.9514   24771125.8914   24771119.668
        39.0004         35.0004
 -26471470.23548 -20564732.05248  20735150.3134   20735157.0044   20735149.681
        52.0004         48.0004
  -3701351.58346  -2821793.03545  23797579.2014   23797587.5364   23797579.274
        39.0004         35.0004
   -741792.38147   -556380.59546  24049547.3404   24049561.5644   24049546.457
        43.0004         38.0004
 -10095895.11547  -7856405.48246  23480028.7864   23480036.8254   23480028.706
