     2.11           OBSERVATION DATA    G (GPS)             RINEX VERSION / TYPE
teqc  2008Oct2      gpsops              20090118 00:09:52UTCPGM / RUN BY / DATE
    30.0000                                                 INTERVAL
     1     1                                                WAVELENGTH FACT L1/2
     7    L1    L2    P1    P2    C1    S1    S2            # / TYPES OF OBSERV
Linux 2.4.20-8|Pentium IV|gcc -static|Linux|486/DX+         COMMENT
     2.10           OBSERVATION DATA    GPS                 COMMENT
soc2rnx ver 1.20    gpsops              18-Jan-2009 00:09:48COMMENT
S1, if present, is the SNR for the C/A data stream on L1.   COMMENT
 SNR is mapped to RINEX snr flag value [1,4-9]              COMMENT
    SNR:   >316  >100  >31.6  >10  >3.2    >0 bad=0         COMMENT
L1 & L2:      9     8     7     6     5     4     1         COMMENT
                                                            COMMENT
This data is provided as a public service by NASA/JPL.      COMMENT
No warranty is expressed or implied regarding suitability   COMMENT
for use.  For further information, contact:                 COMMENT
Dave Stowers, NASA/JPL m/s 238-600                          COMMENT
4800 Oak Grove Drive, Pasadena CA 91109 USA                 COMMENT
                                                            COMMENT
Forced Modulo Decimation to 30 seconds                      COMMENT
  2009     1    17     0     0    0.0000000     GPS         TIME OF FIRST OBS
GGN                 JPL                                     OBSERVER / AGENCY
CR519992104         ASH701945B_M    SCIT                    ANT # / TYPE
   -33801.4662 -6377516.5323   -82154.3508                  APPROX POSITION XYZ
        0.0083        0.0000        0.0000                  ANTENNA: DELTA H/E/N
ZR220013847         ASHTECH UZ-12       CQ00                REC # / TYPE / VERS
GLPS                                                        MARKER NAME
42005M002                                                   MARKER NUMBER
                                                            END OF HEADER
 09  1 17  0  0  0.0000000  0 12G14G31G 5G 6G18G30G21G24G 9G12G29G22
 115226627.82847  89786972.00247  21926905.8594   21926910.9024   21926906.0944
        51.000          45.000
 123444716.25347  96190676.52047  23490756.4974   23490761.3964   23490755.5204
        45.000          40.000
 124557183.72647  97057532.52347  23702452.3074   23702459.0644   23702453.4594
        45.000          39.000
 129672081.66847 101043148.22447  24675802.4734   24675810.6574   24675802.4024
        42.000          37.000
 123667896.33247  96364593.68847  23533219.4554   23533220.2824   23533218.5814
        47.000          40.000
 122640069.25047  95563665.55247  23337648.8374   23337653.2364   23337648.9514
        48.000          41.000
 106753549.24247  83184568.89947  20314535.9994   20314539.0774   20314536.5864
        54.000          49.000
 113471246.37147  88419129.48647  21592876.4194   21592882.4254   21592876.4374
        52.000          46.000
 117032381.67647  91194039.46247  22270541.5744   22270546.9774   22270541.1664
        49.000          43.000
 128169206.52947  99872077.90547  24389813.7104   24389819.9744   24389813.3924
        43.000          38.000
 117783428.82747  91779278.66247  22413452.1754   22413456.7074   22413452.1504
        50.000          44.000
 127076445.89747  99020600.25747  24181849.0394   24181851.2304   24181849.2864
        44.000          38.000
 09  1 17  0  0 30.0000000  0 12G14G31G 5G 6G18G30G21G24G 9G12G29G22
 115236135.65647  89794380.72747  21928714.9074   21928719.3044   21928715.2724
        51.000          45.000
 123341986.24147  96110627.22347  23471207.2764   23471211.8994   23471206.8574
        45.000          41.000
 124543106.03547  97046562.91747  23699773.9714   23699780.7984   23699774.6584
        45.000          39.000
 129620904.67547 101003270.02947  24666063.6454   24666071.8194   24666064.1744
        43.000          37.000
 123644639.56847  96346471.53647  23528792.7024   23528795.5804   23528793.0154
        47.000          40.000
 122617412.48347  95546010.95747  23333337.2814   23333342.3574   23333337.3404
        48.000          41.000
 106707911.34547  83149006.91747  20305851.6284   20305854.4934   20305851.9644
        55.000          49.000
 113506018.45247  88446224.61247  21599493.1884   21599499.1334   21599493.3814
        52.000          46.000
 117099503.35647  91246342.09647  22283314.6114   22283319.1694   22283314.6864
        50.000          43.000
 128169977.89447  99872678.99047  24389959.5374   24389965.9854   24389959.7444
        43.000          38.000
 117858671.04347  91837908.95047  22427770.7944   22427775.0304   22427770.3794
        50.000          44.000
 127054775.43647  99003714.27047  24177725.7264   24177727.6704   24177725.9314
        44.000          38.000
 09  1 17  0  1  0.0000000  0 12G14G31G 5G 6G18G30G21G24G 9G12G29G22
 115246029.16047  89802089.97547  21930597.6704   21930601.9434   21930597.9074
        51.000          45.000
 123239334.10847  96030638.60247  23451673.4274   23451678.0324   23451673.3694
        46.000          41.000
 124529032.14047  97035596.27447  23697095.7954   23697102.6104   23697096.3564
        46.000          39.000
 129570031.92947 100963628.90747  24656383.1244   24656391.2064   24656383.4534
        42.000          37.000
 123621184.97547  96328195.22847  23524329.6274   23524332.4394   23524329.9454
        47.000          40.000
 122594626.46447  95528255.65247  23329001.1014   23329006.2964   23329000.9654
        47.000          41.000
 106662762.29847  83113825.85447  20297260.0454   20297262.9604   20297260.4074
        54.000          49.000
 113541260.00747  88473685.56547  21606199.4784   21606205.1854   21606199.6064
        52.000          46.000
 117167089.43847  91299006.60747  22296175.6434   22296180.6534   22296175.8744
        48.000          43.000
 128170753.31247  99873283.24947  24390106.7454   24390113.1204   24390106.3264
        43.000          38.000
 117933951.27347  91896568.86147  22442096.4274   22442100.4594   22442096.4054
        50.000          44.000
 127032880.39147  98986653.25847  24173559.2484   24173560.6264   24173559.5634
        45.000          38.000
 09  1 17  0  1 30.0000000  0 12G14G31G 5G 6G18G30G21G24G 9G12G29G22
 115256307.89847  89810099.40547  21932553.4654   21932557.6784   21932553.5864
        51.000          45.000
 123136764.07347  95950713.94447  23432155.0514   23432159.2844   23432155.0544
        46.000          41.000
 124514965.43647  97024635.22947  23694418.8524   23694425.4404   23694419.5764
        45.000          39.000
 129519464.78047 100924225.90747  24646760.5184   24646768.6534   24646760.5604
        41.000          37.000
 123597534.41147  96309766.23247  23519828.9834   23519831.5554   23519829.3264
        47.000          40.000
 122571713.99047  95510401.79047  23324641.3534   23324646.4414   23324640.4674
        47.000          41.000
 106618106.04247  83079028.78347  20288762.2214   20288765.1814   20288762.6984
        55.000          49.000
 113576971.97947  88501513.08547  21612995.3734   21613000.9204   21612995.5474
        53.000          46.000
 117235139.84447  91352032.90047  22309124.8724   22309130.3214   22309125.0634
        49.000          43.000
 128171536.16147  99873893.28747  24390255.9694   24390262.7904   24390256.0524
        43.000          38.000
 118009268.28447  91955257.41847  22456428.4434   22456432.6774   22456428.9194
        50.000          44.000
 127010761.66947  98969417.94547  24169349.3604   24169351.5754   24169349.5084
        44.000          38.000
 09  1 17  0  2  0.0000000  0 12G14G31G 5G 6G18G30G21G24G 9G12G29G22
 115266969.07847  89818406.84747  21934582.3354   21934586.6174   21934582.5884
        50.000          45.000
 123034277.84747  95870854.59247  23412652.5724   23412656.8294   23412652.7374
        47.000          41.000
 124500907.05847  97013680.66047  23691743.8004   23691750.4074   23691744.1764
        45.000          39.000
 129469202.56847 100885060.53647  24637195.6064   24637204.1614   24637195.8934
        42.000          37.000
 123573687.58147  96291184.29947  23515290.9344   23515293.6544   23515291.4804
        47.000          39.000
 122548675.66547  95492449.89547  23320257.2784   23320262.3574   23320257.5664
        48.000          41.000
 106573943.79347  83044616.65347  20280358.4464   20280361.2964   20280358.8024
        54.000          49.000
 113613153.07647  88529706.14147  21619880.5964   21619886.2394   21619880.8094
        52.000          46.000
 117303651.90647  91405418.94847  22322162.8814   22322167.8464   22322163.0034
        49.000          43.000
 128172326.95447  99874509.52647  24390407.0204   24390413.3544   24390406.5334
        43.000          38.000
 118084618.62747  92013971.97447  22470767.4474   22470771.4554   22470767.1004
        50.000          44.000
 126988418.06247  98952007.43247  24165097.6764   24165100.1114   24165097.9534
        44.000          38.000
 09  1 17  0  2 30.0000000  0 12G14G31G 5G 6G18G30G21G24G 9G12G29G22
 115278011.06547  89827011.01047  21936683.3844   21936687.6544   21936683.4614
        50.000          45.000
 122931878.58247  95791063.00747  23393166.6624   23393170.6054   23393166.3794
        46.000          41.000
 124486859.40547  97002734.47747  23689070.4904   23689077.4524   23689070.9824
        45.000          39.000
 129419245.90947 100846133.24647  24627688.7954   24627697.4244   24627689.4354
        42.000          36.000
 123549645.81347  96272450.46447  23510716.2244   23510718.8414   23510716.4204
        47.000          39.000
 122525513.57347  95474401.52847  23315849.7014   23315854.8994   23315849.5674
        47.000          41.000
 106530278.53647  83010591.78547  20272049.2014   20272052.0284   20272049.5704
        54.000          49.000
 113649803.13047  88558264.62647  21626854.9344   21626860.6704   21626854.9724
        52.000          46.000
 117372624.16047  91459163.58747  22335287.7794   22335292.6164   22335287.9814
        49.000          43.000
 128173128.33447  99875134.02147  24390559.2234   24390565.0004   24390559.0134
        44.000          38.000
 118160000.35647  92072710.97847  22485112.2054   22485116.2424   22485111.6334
        50.000          44.000
 126965849.80047  98934421.87347  24160803.4094   24160804.5074   24160803.2614
        45.000          38.000
 09  1 17  0  3  0.0000000  0 12G14G31G 5G 6G18G30G21G24G 9G12G29G22
 115289431.59647  89835910.15847  21938856.4854   21938860.8704   21938856.7944
        50.000          45.000
 122829568.57747  95711340.97047  23373697.6774   23373701.9244   23373697.0124
        46.000          41.000
 124472824.24747  96991798.01947  23686399.3594   23686406.6294   23686399.7514
        45.000          39.000
 129369594.50647 100807443.80947  24618241.5184   24618249.0904   24618241.8034
        41.000          37.000
 123525409.80747  96253565.27147  23506104.0784   23506106.6544   23506104.6234
        47.000          39.000
 122502228.63847  95456257.44547  23311418.9334   23311423.4014   23311418.2104
        48.000          41.000
 106487112.36647  82976955.82647  20263834.9254   20263837.8894   20263835.2884
        55.000          49.000
 113686921.53947  88587188.05547  21633918.1884   21633923.8944   21633918.3524
        52.000          46.000
 117442054.47047  91513265.14947  22348499.7054   22348504.5894   22348499.7834
        49.000          43.000
 128173942.42347  99875768.40947  24390714.2814   24390720.2084   24390713.8404
        44.000          38.000
 118235410.65947  92131472.24547  22499461.9994   22499466.5294   22499461.6624
        49.000          44.000
 126943056.25447  98916660.74047  24156465.4224   24156467.3874   24156465.4594
        44.000          37.000
 09  1 17  0  3 30.0000000  0 12G14G31G 5G 6G18G30G21G24G 9G12G29G22
 115301227.83747  89845102.05047  21941101.2154   21941105.8134   21941101.2614
        50.000          45.000
 122727350.02347  95631690.19747  23354246.1574   23354250.2834   23354245.1994
        46.000          41.000
 124458802.72747  96980872.19347  23683731.4464   23683737.9184   23683731.8384
        45.000          39.000
 129320247.66547 100768991.71447  24608850.2254   24608859.7164   24608850.7784
        41.000          36.000
 123500979.67247  96234528.78647  23501455.1524   23501458.2974   23501455.5484
        47.000          40.000
 122478821.87747  95438018.44147  23306964.5964   23306969.1904   23306964.5324
        48.000          41.000
 106444446.84347  82943709.97347  20255715.9644   20255718.7614   20255716.3824
        54.000          49.000
 113724506.90347  88616475.34847  21641070.3814   21641076.1914   21641070.4184
        52.000          46.000
 117511940.09347  91567721.49047  22361798.5234   22361803.6024   22361798.7744
        49.000          43.000
 128174769.27847  99876412.73747  24390871.8614   24390877.6914   24390871.8784
        44.000          38.000
 118310846.07347  92190253.08247  22513816.8924   22513821.3274   22513816.7284
        50.000          44.000
 126920036.28047  98898723.14047  24152084.8224   24152086.5254   24152085.3274
        44.000          38.000
 09  1 17  0  4  0.0000000  0 12G14G31G 5G 6G18G30G21G24G 9G12G29G22
 115313400.09647  89854586.95347  21943417.6654   21943421.9874   21943417.9184
        50.000          45.000
 122625227.99347  95552114.65647  23334812.9044   23334817.0624   23334812.4434
        46.000          41.000
 124444799.14847  96969960.35447  23681066.1824   23681073.2574   23681066.7374
        45.000          39.000
 129271207.63247 100730778.70547  24599518.1354   24599526.8114   24599518.1504
        41.000          36.000
 123476358.32447  96215343.32747  23496769.7034   23496772.5104   23496770.0344
        47.000          40.000
 122455297.15647  95419687.51147  23302487.7644   23302492.8674   23302487.5344
        48.000          41.000
 106402286.40947  82910857.69247  20247692.9864   20247695.8594   20247693.3834
        55.000          49.000
 113762560.86447  88646127.78147  21648311.7574   21648317.4104   21648311.8044
        52.000          46.000
 117582281.23747  91622532.78347  22375183.6284   22375188.8014   22375184.0294
        49.000          43.000
 128175613.22847  99877070.38847  24391032.2994   24391038.2604   24391032.6594
        44.000          38.000
 118386306.76147  92249053.60247  22528176.9514   22528181.3294   22528176.6474
        50.000          44.000
 126896791.81947  98880610.67347  24147661.6564   24147663.6714   24147661.4884
        43.000          38.000
 09  1 17  0  4 30.0000000  0 12G14G31G 5G 6G18G30G21G24G 9G12G29G22
 115325944.87547  89864362.12647  21945804.9544   21945809.1304   21945805.2434
        51.000          45.000
 122523204.12347  95472615.60047  23315398.3604   23315402.4954   23315397.9304
        47.000          41.000
 124430814.10347  96959062.95347  23678405.2344   23678411.7944   23678405.6594
        45.000          39.000
 129222473.09047 100692803.70447  24590245.3434   24590252.7934   24590245.2594
        42.000          37.000
 123451545.10747  96196008.35147  23492048.1984   23492050.4354   23492048.6594
        48.000          40.000
 122431654.26447  95401264.51247  23297988.6424   23297993.6414   23297988.0964
        47.000          41.000
 106360632.32347  82878399.97147  20239766.6694   20239769.5364   20239767.1094
        54.000          49.000
 113801081.63947  88676143.95547  21655641.9744   21655647.9224   21655642.1964
        52.000          46.000
 117653074.77747  91677696.61247  22388655.6264   22388660.2924   22388655.6484
        49.000          43.000
 128176474.81547  99877741.77647  24391196.3014   24391202.3214   24391196.4394
        43.000          38.000
 118461788.54147  92307870.56147  22542540.6564   22542544.7984   22542540.5234
        50.000          44.000
 126873321.53147  98862322.21747  24143195.1884   24143197.5854   24143194.8844
        44.000          38.000
 09  1 17  0  5  0.0000000  0 12G14G31G 5G 6G18G30G21G24G 9G12G29G22
 115338860.39647  89874426.19647  21948262.3814   21948266.4894   21948262.5714
        50.000          44.000
 122421281.00147  95393195.04547  23296003.1224   23296007.1774   23296002.7764
        47.000          41.000
 124416849.75047  96948181.65447  23675747.8314   23675754.3194   23675748.1664
        46.000          39.000
 129174044.17047 100655066.85947  24581029.0184   24581037.4944   24581029.1764
        42.000          37.000
 123426541.25847  96176524.84047  23487290.2524   23487292.7304   23487290.5124
        48.000          40.000
 122407894.99647  95382750.82247  23293466.9584   23293472.2764   23293466.5834
        47.000          41.000
 106319486.91947  82846338.62947  20231936.7514   20231939.6224   20231937.0924
        54.000          49.000
 113840068.92647  88706523.65547  21663061.0784   21663066.8524   21663061.2174
        52.000          46.000
 117724318.85547  91733211.52647  22402213.1674   22402217.4504   22402213.1754
        50.000          43.000
 128177356.11447  99878428.55647  24391363.8514   24391369.6894   24391363.6984
        42.000          38.000
 118537289.34647  92366702.35147  22556908.0774   22556911.8594   22556907.7664
        49.000          44.000
 126849625.02347  98843857.49447  24138686.0094   24138688.2024   24138686.2924
        44.000          38.000
 09  1 17  0  5 30.0000000  0 12G14G31G 5G 6G18G30G21G24G 9G12G29G22
 115352144.56747  89884777.52547  21950790.4204   21950794.4714   21950790.6324
        51.000          44.000
 122319461.24547  95313855.04447  23276627.6884   23276631.5154   23276627.3194
        48.000          42.000
 124402908.03847  96937318.01747  23673095.4374   23673101.0714   23673096.0854
        45.000          39.000
 129125920.91747 100617568.22147  24571871.5074   24571879.5514   24571871.8074
        43.000          37.000
 123401347.63447  96156893.43947  23482496.0984   23482498.6194   23482496.5284
        47.000          40.000
 122384020.71447  95364147.51747  23288924.0584   23288929.2534   23288923.9924
        48.000          41.000
 106278852.43947  82814675.40447  20224204.5974   20224207.1584   20224205.0124
        55.000          49.000
 113879521.93547  88737266.25347  21670568.7334   21670574.4074   21670568.9064
        52.000          46.000
 117796011.49547  91789075.96847  22415855.5624   22415860.1324   22415855.7784
        50.000          43.000
 128178258.95947  99879132.11547  24391534.9574   24391541.7894   24391534.9364
        42.000          38.000
 118612806.23747  92425546.67447  22571278.1764   22571282.5584   22571278.0004
        49.000          44.000
 126825701.85547  98825216.14447  24134133.5654   24134135.6034   24134133.4784
        44.000          38.000
 09  1 17  0  6  0.0000000  0 12G14G31G 5G 6G18G30G21G24G 9G12G29G22
 115365795.77647  89895414.86147  21953388.2884   21953392.1214   21953388.5174
        51.000          44.000
 122217748.64047  95234598.54447  23257272.4764   23257276.1794   23257272.3334
        48.000          42.000
 124388991.49247  96926473.99547  23670447.1964   23670453.0184   23670447.4654
        45.000          39.000
 129078103.73547 100580308.07447  24562772.6244   24562780.7974   24562772.9574
        43.000          37.000
 123375965.53847  96137115.17747  23477665.8594   23477668.3104   23477666.1984
        47.000          40.000
 122360033.47047  95345456.17347  23284359.9574   23284364.6244   23284359.0884
        47.000          41.000
 106238731.41747  82783412.28347  20216569.6294   20216572.4124   20216570.0614
        54.000          49.000
 113919440.58747  88768371.68647  21678165.0614   21678170.6084   21678165.2454
        52.000          46.000
 117868151.10347  91845288.69447  22429583.1344   22429587.6274   22429583.1744
        50.000          43.000
 128179185.45947  99879854.10447  24391711.7104   24391717.5184   24391711.0754
        44.000          38.000
 118688337.53147  92484402.21847  22585651.1564   22585655.6734   22585650.9084
        49.000          44.000
 126801552.39547  98806398.44147  24129537.4124   24129539.6444   24129537.2194
        43.000          38.000
 09  1 17  0  6 30.0000000  0 12G14G31G 5G 6G18G30G21G24G 9G12G29G22
 115379811.83847  89906336.49747  21956055.4174   21956059.5444   21956055.4574
        51.000          45.000
 122116145.68747  95155427.48547  23237937.8054   23237941.6514   23237937.4764
        48.000          42.000
 124375101.94647  96915651.02147  23667803.5134   23667810.0974   23667804.1074
        45.000          39.000
 129030592.51647 100543286.37047  24553731.0334   24553739.6654   24553731.3524
        43.000          37.000
 123350395.54747  96117190.49947  23472799.7394   23472802.5354   23472800.4104
        47.000          39.000
 122335935.04747  95326678.19847  23279773.9284   23279778.7964   23279773.8144
        48.000          41.000
 106199126.24847  82752551.11947  20209033.1024   20209035.6804   20209033.4764
        55.000          49.000
 113959824.23247  88799839.44847  21685849.6754   21685855.3894   21685849.8074
        52.000          46.000
 117940735.75647  91901848.20147  22443395.4594   22443400.0104   22443395.2804
        49.000          43.000
 128180137.69547  99880596.14547  24391892.8984   24391898.9404   24391892.7054
        43.000          38.000
 118763880.59747  92543266.93547  22600026.5474   22600030.9494   22600026.4964
        49.000          43.000
 126777176.51547  98787404.32147  24124899.7344   24124901.3914   24124899.1294
        45.000          38.000
 09  1 17  0  7  0.0000000  0 12G14G31G 5G 6G18G30G21G24G 9G12G29G22
 115394190.52447  89917540.70247  21958791.4484   21958795.6414   21958791.5814
        51.000          45.000
 122014654.96747  95076343.91047  23218624.4844   23218628.6264   23218623.8224
        47.000          42.000
 124361241.42047  96904850.65047  23665165.8904   23665172.3714   23665166.3334
        45.000          39.000
 128983387.19247 100506503.02947  24544748.3474   24544756.2964   24544748.5104
        42.000          37.000
 123324638.58347  96097120.12947  23467898.5514   23467901.1364   23467898.6984
        47.000          39.000
 122311726.61747  95307814.51047  23275166.7984   23275171.8774   23275166.5414
        47.000          41.000
 106160038.89547  82722093.44947  20201595.0474   20201597.7444   20201595.5104
        55.000          49.000
 114000672.14747  88831668.98047  21693622.9454   21693628.5324   21693623.0054
        52.000          46.000
 118013763.51147  91958752.98447  22457291.6634   22457296.3874   22457291.9634
        49.000          42.000
 128181117.30547  99881359.49847  24392079.0634   24392084.8474   24392078.4554
        43.000          38.000
 118839432.94547  92602138.88347  22614403.7454   22614408.1884   22614403.8724
        49.000          43.000
 126752573.84747  98768233.49247  24120217.4654   24120219.3264   24120218.2714
        45.000          38.000
 09  1 17  0  7 30.0000000  0 12G14G31G 5G 6G18G30G21G24G 9G12G29G22
 115408929.75947  89929025.85347  21961596.5454   21961600.4584   21961596.7824
        51.000          45.000
 121913279.44647  94997350.10647  23199333.1904   23199337.4284   23199332.3554
        47.000          41.000
 124347411.98347  96894074.53047  23662533.8574   23662540.7514   23662534.4014
        45.000          39.000
 128936487.47847 100469957.84247  24535823.4504   24535831.1114   24535823.1964
        43.000          37.000
 123298695.69447  96076904.90447  23462961.5584   23462964.2464   23462961.9064
        47.000          40.000
 122287409.72347  95288866.28847  23270539.7184   23270544.8474   23270539.0804
        47.000          41.000
 106121471.65647  82692041.06447  20194255.9034   20194258.4844   20194256.2404
        55.000          49.000
 114041983.63647  88863859.73747  21701484.4014   21701489.6594   21701484.5454
        52.000          45.000
 118087232.34047  92016001.46447  22471272.5864   22471277.2224   22471272.8864
        49.000          42.000
 128182125.99247  99882145.55547  24392270.8924   24392277.0954   24392270.5944
        43.000          38.000
 118914992.26147  92661016.26547  22628782.3104   22628786.6444   22628781.7354
        49.000          44.000
 126727744.40747  98748885.94247  24115493.0724   24115494.5474   24115493.2124
        45.000          39.000
 09  1 17  0  8  0.0000000  0 12G14G31G 5G 6G18G30G21G24G 9G12G29G22
 115424027.10147  89940790.04847  21964469.4144   21964473.3984   21964469.5854
        51.000          45.000
 121812021.50347  94918447.92747  23180063.8574   23180068.5354   23180063.8424
        47.000          41.000
 124333615.39947  96883323.98847  23659908.2884   23659915.1214   23659908.7284
        44.000          39.000
 128889893.34547 100433650.76547  24526957.0604   24526964.7584   24526956.9654
        42.000          37.000
 123272567.42247  96056545.19147  23457989.8644   23457992.4414   23457990.2254
        48.000          40.000
 122262986.02247  95269834.86147  23265891.6814   23265897.0984   23265891.5644
        47.000          41.000
 106083426.32247  82662395.35347  20187016.1264   20187018.6594   20187016.5364
        54.000          49.000
 114083757.57047  88896410.84247  21709433.5184   21709439.0784   21709433.6644
        52.000          45.000
 118161139.94147  92073591.85547  22485337.2034   22485341.1694   22485337.1664
        49.000          42.000
 128183165.92047  99882955.94347  24392469.2244   24392475.4354   24392468.6784
        43.000          39.000
 118990555.79447  92719896.92547  22643161.4084   22643166.0464   22643160.7994
        48.000          44.000
 126702687.28847  98729360.99447  24110724.4914   24110726.3414   24110724.5394
        44.000          38.000
 09  1 17  0  8 30.0000000  0 12G14G31G 5G 6G18G30G21G24G 9G12G29G22
 115439481.25547  89952832.27447  21967410.1974   21967414.2854   21967410.4054
        51.000          45.000
 121710885.00147  94839640.38247  23160818.2684   23160822.7984   23160817.9024
        47.000          42.000
 124319854.42447  96872601.19547  23657289.8674   23657296.5424   23657290.3814
        45.000          39.000
 128843605.40047 100397582.28747  24518148.1324   24518156.2104   24518148.1694
        42.000          37.000
 123246255.59247  96036042.49347  23452982.6994   23452985.5784   23452982.9504
        47.000          40.000
 122238457.55347  95250721.78147  23261223.9174   23261229.5424   23261223.5124
        47.000          41.000
 106045906.23747  82633158.93447  20179876.1264   20179878.9574   20179876.4804
        54.000          49.000
 114125994.10247  88929322.41547  21717470.9874   21717476.5934   21717471.3094
        52.000          46.000
 118235484.88347  92131523.02447  22499483.9814   22499489.0074   22499484.2004
        49.000          42.000
 128184239.09247  99883792.23947  24392673.3734   24392678.7244   24392673.2304
        43.000          38.000
 119066121.95647  92778779.64847  22657541.2834   22657545.8544   22657540.9764
        49.000          44.000
 126677403.40847  98709659.31847  24105913.2014   24105914.9584   24105912.8024
        45.000          39.000
 09  1 17  0  9  0.0000000  0 12G14G31G 5G 6G18G30G21G24G 9G12G29G22
 115455290.39447  89965151.11347  21970418.4504   21970422.5014   21970418.8844
        51.000          45.000
 121609873.00847  94760929.85547  23141596.1714   23141600.5744   23141595.4594
        47.000          42.000
 124306131.45147  96861908.02547  23654678.5644   23654684.6754   23654679.1934
        45.000          39.000
 128797623.73847 100361752.49347  24509398.7564   24509406.6944   24509398.1174
        43.000          37.000
 123219761.73447  96015397.91347  23447941.0314   23447943.6464   23447941.6054
        48.000          40.000
 122213826.77947  95231528.99347  23256537.1154   23256542.2454   23256536.6184
        47.000          41.000
 106008913.49247  82604333.42247  20172836.8414   20172839.3744   20172837.2664
        55.000          49.000
 114168692.77347  88962594.09447  21725596.2964   21725601.7674   21725596.3044
        52.000          45.000
 118310265.45147  92189793.62747  22513714.4324   22513718.8574   22513714.2864
        49.000          42.000
 128185347.95747  99884656.34947  24392884.1594   24392890.1004   24392883.6294
        44.000          39.000
 119141688.64547  92837662.77547  22671921.1184   22671925.9894   22671921.0604
        49.000          44.000
 126651892.67947  98689780.88647  24101058.5224   24101060.5134   24101058.6324
        45.000          39.000
 09  1 17  0  9 30.0000000  0 12G14G31G 5G 6G18G30G21G24G 9G12G29G22
 115471450.63147  89977743.53647  21973493.5954   21973497.6084   21973493.6894
        51.000          45.000
 121508986.90447  94682317.42947  23122398.3814   23122402.6254   23122398.1454
        48.000          42.000
 124292447.09647  96851244.92447  23652074.0554   23652081.0814   23652074.4504
        44.000          39.000
 128751946.97247 100326160.25547  24500706.8224   24500714.3514   24500706.2064
        42.000          37.000
 123193085.10447  95994610.93347  23442864.6684   23442867.3384   23442865.1044
        48.000          40.000
 122189093.73047  95212256.50947  23251830.6944   23251835.9564   23251830.3594
        48.000          41.000
 105972448.73147  82575919.33147  20165897.5534   20165900.2324   20165897.8904
        54.000          49.000
 114211851.62247  88996224.35147  21733809.0574   21733814.6534   21733809.1154
        52.000          45.000
 118385478.21147  92248401.01247  22528027.2784   22528031.6694   22528027.3754
        49.000          42.000
 128186493.12047  99885548.74347  24393101.6374   24393108.4034   24393101.3964
        44.000          39.000
 119217252.00747  92896543.29847  22686300.2264   22686305.1814   22686300.0874
        49.000          44.000
 126626153.82447  98669724.70047  24096160.9074   24096162.2884   24096160.9654
        45.000          39.000
 09  1 17  0 10  0.0000000  0 12G14G31G 5G 6G18G30G21G24G 9G12G29G22
 115487960.54847  89990608.43147  21976635.4944   21976639.3034   21976635.8204
        51.000          45.000
 121408230.10147  94603805.75347  23103225.1344   23103228.7284   23103225.0714
        48.000          42.000
 124278803.72447  96840613.77447  23649478.2504   23649484.8234   23649478.9614
        46.000          39.000
 128706575.31447 100290805.78547  24492072.8064   24492080.5264   24492072.8644
        42.000          37.000
 123166226.96247  95973682.50447  23437753.7804   23437756.5414   23437754.0954
        47.000          40.000
 122164260.43647  95192905.91247  23247105.2174   23247110.2764   23247104.9204
        48.000          41.000
 105936514.39447  82547918.55547  20159059.6794   20159062.1584   20159060.0044
        54.000          49.000
 114255470.16347  89030212.81147  21742109.2804   21742115.2424   21742109.3604
        52.000          45.000
 118461121.23247  92307343.65147  22542421.5824   22542426.0694   22542421.6774
        49.000          42.000
 128187676.67547  99886471.03947  24393327.6704   24393333.3594   24393327.1384
        46.000          39.000
 119292809.95047  92955419.61247  22700678.5224   22700683.3054   22700678.1174
        49.000          43.000
 126600186.89447  98649490.79647  24091219.0564   24091220.5114   24091219.0694
        45.000          39.000
 09  1 17  0 10 30.0000000  0 12G14G31G 5G 6G18G30G21G24G 9G12G29G22
 115504819.54047  90003745.33447  21979843.5294   21979847.5704   21979843.6214
        51.000          45.000
 121307606.63647  94525397.98147  23084077.1804   23084080.8054   23084076.9284
        48.000          42.000
 124265205.09247  96830017.46247  23646890.6644   23646896.7714   23646891.3044
        46.000          39.000
 128661510.13447 100255690.11647  24483496.8584   24483504.6484   24483496.9944
        41.000          37.000
 123139189.97047  95952614.71747  23432608.9744   23432611.5894   23432609.3414
        48.000          40.000
 122139330.03947  95173479.66047  23242360.9544   23242366.2234   23242360.6294
        47.000          41.000
 105901114.42047  82520334.17047  20152323.1434   20152325.9004   20152323.6334
        54.000          49.000
 114299548.80247  89064559.79047  21750497.2084   21750503.0644   21750497.4854
        51.000          45.000
 118537194.27447  92366621.38947  22556897.6964   22556901.9474   22556897.7514
        49.000          42.000
 128188902.01447  99887425.89847  24393560.5474   24393566.5944   24393560.1934
        44.000          39.000
 119368361.66647  93014291.07247  22715055.4924   22715060.1794   22715055.1564
        49.000          43.000
 126573993.40147  98629080.32947  24086234.6294   24086236.6814   24086234.8214
        45.000          39.000
 09  1 17  0 11  0.0000000  0 12G14G31G 5G 6G18G30G21G24G 9G12G29G22
 115522023.18247  90017150.80147  21983117.1534   21983121.1714   21983117.2974
        51.000          45.000
 121207117.55647  94447094.92447  23064954.8114   23064958.4104   23064954.0674
        48.000          42.000
 124251651.10947  96819455.94947  23644311.8544   23644317.8934   23644312.2404
        46.000          39.000
 128616749.20847 100220811.53847  24474979.1444   24474986.8324   24474978.6664
        42.000          37.000
 123111973.14247  95931406.80947  23427429.5384   23427432.0364   23427430.1284
        47.000          40.000
 122114301.97447  95153977.30547  23237597.8564   23237603.3334   23237597.6344
        47.000          41.000
 105866248.71547  82493166.08947  20145688.4954   20145691.2064   20145688.9214
        54.000          49.000
 114344085.26347  89099263.51747  21758972.0384   21758977.5974   21758972.1354
        51.000          45.000
 118613692.92547  92426230.77847  22571454.7604   22571459.1434   22571454.8284
        49.000          42.000
 128190169.19147  99888413.36647  24393801.3024   24393807.2534   24393801.1114
        44.000          38.000
 119443902.94047  93073154.40747  22729430.6774   22729435.5714   22729430.3794
        49.000          43.000
 126547571.30347  98608491.74347  24081206.9694   24081208.4464   24081206.7644
        45.000          39.000
 09  1 17  0 11 30.0000000  0 12G14G31G 5G 6G18G30G21G24G 9G12G29G22
 115539570.96847  90030824.42947  21986456.4484   21986460.5084   21986456.7624
        51.000          45.000
 121106767.44347  94368900.14847  23045858.8794   23045862.2124   23045858.4634
        49.000          42.000
 124238145.53647  96808932.15347  23641741.3644   23641747.6974   23641742.0254
        46.000          40.000
 128572294.09347 100186171.23247  24466519.6444   24466527.3204   24466520.1724
        41.000          37.000
 123084579.29647  95910060.94947  23422216.8714   23422219.4584   23422217.2734
        48.000          40.000
 122089179.79147  95134401.59447  23232817.5634   23232822.7454   23232817.0884
        48.000          41.000
 105831921.01047  82466417.23447  20139155.8104   20139159.0984   20139156.1194
        54.000          49.000
 114389080.40047  89134324.65047  21767534.3264   21767539.9994   21767534.3244
        51.000          45.000
 118690616.93447  92486171.60047  22586092.8404   22586097.3764   22586092.7734
        48.000          42.000
 128191481.59447  99889436.08447  24394051.1444   24394057.3354   24394050.9594
        44.000          38.000
 119519433.00847  93132008.99147  22743803.4264   22743808.3154   22743803.3314
        48.000          43.000
 126520922.16447  98587726.23047  24076135.3544   24076136.9194   24076135.4044
        44.000          39.000
 09  1 17  0 12  0.0000000  0 12G14G31G 5G 6G18G30G21G24G 9G12G29G22
 115557461.30447  90044764.98147  21989860.7454   21989864.7874   21989860.7804
        51.000          45.000
 121006559.55247  94290816.19847  23026789.2984   23026793.2104   23026789.2864
        48.000          42.000
 124224691.03647  96798448.15047  23639181.2854   23639187.4704   23639181.7564
        45.000          40.000
 128528145.18347 100151769.58247  24458117.9594   24458125.6434   24458118.3814
        41.000          37.000
 123057010.07147  95888578.43147  23416970.7544   23416973.4464   23416971.3444
        48.000          40.000
 122063965.50247  95114754.11947  23228019.7194   23228024.4224   23228019.4124
        48.000          42.000
 105798133.87747  82440089.60347  20132726.4814   20132729.5474   20132726.7874
        54.000          49.000
 114434533.56647  89169742.69347  21776183.9604   21776189.5484   21776184.0794
        52.000          45.000
 118767964.64547  92546442.56947  22600811.2044   22600816.2344   22600811.2594
        48.000          42.000
 128192841.46347  99890495.76047  24394309.9194   24394316.4854   24394309.7994
        44.000          38.000
 119594950.04347  93190853.43947  22758173.8074   22758178.2564   22758173.5624
        48.000          43.000
 126494046.32347  98566784.07447  24071021.2634   24071022.5644   24071021.1264
        45.000          39.000
 09  1 17  0 12 30.0000000  0 12G14G31G 5G 6G18G30G21G24G 9G12G29G22
 115575689.04447  90058968.44547  21993329.4494   21993333.6084   21993329.5744
        50.000          45.000
 120906493.91147  94212843.07147  23007747.4334   23007751.3224   23007746.3584
        48.000          42.000
 124211286.76547  96788003.28247  23636630.2634   23636636.5334   23636630.4924
        45.000          40.000
 128484299.32547 100117604.05047  24449775.1884   24449782.2324   24449775.1524
        42.000          37.000
 123029263.44247  95866957.69347  23411690.6134   23411693.5394   23411690.9154
        48.000          40.000
 122038658.14047  95095034.12447  23223203.5954   23223208.7704   23223203.3264
        48.000          41.000
 105764886.22447  82414182.34147  20126399.7884   20126402.6204   20126400.1644
        54.000          49.000
 114480440.93647  89205514.66347  21784919.9744   21784925.4664   21784920.1774
        52.000          45.000
 118845730.89047  92607039.67747  22615609.8614   22615614.3914   22615609.9844
        48.000          42.000
 128194248.07147  99891591.86847  24394577.3274   24394583.2174   24394577.0304
        44.000          39.000
 119670448.79647  93249683.63747  22772540.8264   22772545.1424   22772540.2214
        48.000          43.000
 126466940.88847  98545663.01847  24065863.1344   24065864.7544   24065863.3544
        45.000          39.000
 09  1 17  0 13  0.0000000  0 12G14G31G 5G 6G18G30G21G24G 9G12G29G22
 115594254.53647  90073435.09047  21996862.2674   21996866.5064   21996862.4904
        51.000          45.000
 120806575.79647  94134984.91047  22988733.6944   22988737.5624   22988733.1214
        48.000          42.000
 124197937.26047  96777601.10447  23634089.8464   23634096.2814   23634090.4264
        45.000          40.000
 128440758.80847 100083676.43547  24441488.7004   24441497.2434   24441488.7724
        41.000          37.000
 123001342.78347  95845201.31247  23406377.8884   23406380.0584   23406378.0984
        49.000          40.000
 122013261.95147  95075244.91747  23218370.6594   23218375.6194   23218370.5534
        48.000          41.000
 105732182.68447  82388699.06547  20120176.5364   20120179.3944   20120176.8814
        54.000          50.000
 114526804.14947  89241641.84047  21793742.5154   21793748.2634   21793742.6214
        51.000          45.000
 118923915.90247  92667963.10547  22630488.2984   22630492.4024   22630488.3314
        48.000          42.000
 128195705.60147  99892727.63247  24394855.0994   24394860.5164   24394854.7034
        44.000          39.000
 119745929.34647  93308499.63747  22786904.4574   22786908.5424   22786904.1614
        48.000          43.000
 126439608.31447  98524364.95147  24060661.9694   24060663.4244   24060661.3814
        44.000          39.000
 09  1 17  0 13 30.0000000  0 12G14G31G 5G 6G18G30G21G24G 9G12G29G22
 115613155.92947  90088163.47947  22000458.9334   22000463.0534   22000459.3104
        50.000          44.000
 120706808.70447  94057244.42647  22969748.4594   22969752.4294   22969748.4164
        48.000          43.000
 124184645.19647  96767243.69247  23631560.1544   23631566.8294   23631560.5784
        46.000          39.000
 128397523.96147 100049987.01347  24433261.8684   24433269.5104   24433262.1524
        43.000          37.000
 122973249.92147  95823310.77847  23401031.6324   23401034.6294   23401032.1154
        48.000          40.000
 121987779.13147  95055388.20447  23213521.2444   23213526.4364   23213520.9164
        48.000          41.000
 105700025.67447  82363641.65847  20114057.3404   20114059.9214   20114057.8094
        54.000          49.000
 114573623.03347  89278124.07747  21802651.7794   21802657.5484   21802652.0944
        51.000          45.000
 119002517.99047  92729211.52947  22645445.6984   22645449.7424   22645445.7874
        48.000          42.000
 128197216.81947  99893905.23947  24395142.4254   24395148.5974   24395142.1314
        44.000          39.000
 119821390.34247  93367300.41147  22801264.1424   22801268.2824   22801263.9254
        48.000          43.000
 126412049.12547  98502890.30647  24055417.0814   24055419.2844   24055417.5674
        46.000          39.000
 09  1 17  0 14  0.0000000  0 12G14G31G 5G 6G18G30G21G24G 9G12G29G22
 115632387.34347  90103149.02547  22004118.5904   22004122.5904   22004118.7454
        50.000          44.000
 120607192.13447  93979621.20947  22950792.1144   22950796.2964   22950791.5514
        49.000          43.000
 124171409.35947  96756930.09947  23629041.7474   23629048.3964   23629042.3324
        46.000          39.000
 128354591.26847 100016533.02147  24425091.7514   24425098.9534   24425092.1224
        42.000          37.000
 122944982.72247  95801284.39247  23395653.0634   23395655.3434   23395653.0954
        48.000          40.000
 121962208.12647  95035462.76247  23208655.9504   23208660.7514   23208655.5444
        48.000          41.000
 105668413.69347  82339008.95247  20108041.6464   20108044.4494   20108042.0724
        54.000          50.000
 114620893.47547  89314958.18747  21811647.0174   21811653.1704   21811647.0954
        52.000          45.000
 119081531.98347  92790780.92547  22660481.4774   22660485.6774   22660481.7164
        48.000          42.000
 128198780.06047  99895123.39547  24395440.4054   24395445.3174   24395439.9154
        44.000          38.000
 119896825.77347  93426081.26847  22815619.0614   22815623.2844   22815618.6754
        48.000          43.000
 126384259.66747  98481236.26247  24050129.3174   24050130.3504   24050129.4964
        45.000          39.000
 09  1 17  0 14 30.0000000  0 12G14G31G 5G 6G18G30G21G24G 9G12G29G22
 115651950.63347  90118393.17747  22007841.2694   22007845.5184   22007841.4574
        50.000          44.000
 120507732.85347  93902120.55947  22931865.5674   22931869.6004   22931865.1984
        49.000          43.000
 124158235.58847  96746664.85347  23626535.0294   23626541.0594   23626535.5844
        45.000          40.000
 128311964.21947  99983317.24347  24416980.1304   24416987.9504   24416980.1854
        43.000          37.000
 122916545.63147  95779125.62147  23390241.2474   23390243.8554   23390241.5554
        47.000          40.000
 121936554.24047  95015472.74947  23203774.0644   23203778.5064   23203773.8364
        48.000          41.000
 105637352.82747  82314805.67847  20102131.1554   20102133.6984   20102131.5514
        54.000          50.000
 114668618.20147  89352146.28447  21820728.8614   21820734.4754   21820729.0474
        52.000          45.000
 119160959.26447  92852672.36347  22675595.9194   22675600.0734   22675596.0724
        47.000          41.000
 128200400.75547  99896386.31047  24395748.1774   24395753.6784   24395747.9264
        43.000          38.000
 119972237.27747  93484843.47847  22829969.5314   22829973.8034   22829969.2864
        48.000          43.000
 126356244.29847  98459406.17247  24044798.1314   24044799.7154   24044798.0454
        45.000          39.000
 09  1 17  0 15  0.0000000  0 12G14G31G 5G 6G18G30G21G24G 9G12G29G22
 115671842.23847  90133893.16047  22011626.6194   22011630.8164   22011626.8184
        50.000          45.000
 120408432.83947  93824744.00447  22912969.2584   22912973.0104   22912968.8774
        48.000          43.000
 124145124.59847  96736448.54347  23624039.6394   23624046.1034   23624039.9164
        45.000          39.000
 128269641.23747  99950338.37647  24408926.4824   24408933.5614   24408926.5644
        43.000          37.000
 122887939.40047  95756835.05047  23384797.5254   23384799.8174   23384798.0384
        48.000          40.000
 121910817.90047  94995418.48947  23198876.5244   23198881.3224   23198875.9844
        48.000          41.000
 105606843.44247  82291032.13947  20096325.2024   20096327.9974   20096325.6314
        54.000          49.000
 114716794.86647  89389686.55047  21829896.4974   21829902.2724   21829896.6184
        51.000          45.000
 119240796.32847  92914883.10747  22690788.1394   22690792.5964   22690788.2724
        47.000          41.000
 128202079.74947  99897694.64547  24396067.4544   24396073.3074   24396066.9574
        43.000          38.000
 120047621.45147  93543584.38547  22844314.8844   22844318.9224   22844314.5084
        49.000          43.000
 126328001.36847  98437398.72847  24039423.4474   24039425.3004   24039423.1774
        45.000          39.000
 09  1 17  0 15 30.0000000  0 12G14G31G 5G 6G18G30G21G24G 9G12G29G22
 115692058.68547  90149646.25647  22015473.4854   22015477.6454   22015473.7674
        50.000          45.000
 120309292.85347  93747492.15047  22894103.5104   22894107.1314   22894103.1384
        48.000          43.000
 124132077.04147  96726281.67047  23621556.4074   23621563.1264   23621556.9874
        45.000          39.000
 128227620.50147  99917595.02347  24400929.7974   24400937.7314   24400929.5314
        41.000          37.000
 122859163.07947  95734411.94647  23379321.8194   23379324.3034   23379322.3814
        48.000          40.000
 121884999.73147  94975300.46047  23193963.3934   23193968.1224   23193962.8644
        48.000          41.000
 105576886.26847  82267688.89347  20090624.7054   20090627.4704   20090625.0854
        54.000          50.000
 114765421.19247  89427577.19047  21839149.7264   21839155.6114   21839149.7054
        51.000          45.000
 119321039.07347  92977409.96847  22706057.5954   22706062.1274   22706057.6854
        46.000          41.000
 128203817.67647  99899048.89047  24396398.1184   24396404.8514   24396398.1364
        43.000          38.000
 120122974.61547  93602301.14447  22858654.2394   22858658.1694   22858653.8644
        48.000          43.000
 126299529.63847  98415213.01847  24034005.7334   24034006.8674   24034005.6674
        45.000          39.000
 09  1 17  0 16  0.0000000  0 12G14G31G 5G 6G18G30G21G24G 9G12G29G22
 115712600.49547  90165652.89647  22019382.3024   22019386.7884   22019382.5964
        50.000          44.000
 120210319.36247  93670370.01647  22875269.2994   22875272.9474   22875268.6484
        48.000          43.000
 124119098.39147  96716168.47847  23619086.7704   23619093.5744   23619086.9154
        45.000          39.000
 128185905.20747  99885089.70047  24392991.6534   24392998.8624   24392991.2934
        42.000          36.000
 122830220.86847  95711859.56647  23373814.0734   23373816.6424   23373814.6424
        47.000          40.000
 121859104.90447  94955122.71147  23189035.6584   23189040.8254   23189035.7414
        48.000          41.000
 105547485.73647  82244779.39347  20085029.7514   20085032.7204   20085030.1834
        54.000          50.000
 114814499.38847  89465819.94347  21848488.9094   21848494.8104   21848488.9144
        52.000          45.000
 119401688.67147  93040253.87447  22721404.6244   22721409.5604   22721404.7644
        46.000          41.000
 128205619.61347  99900453.02147  24396741.1514   24396747.2574   24396741.4584
        44.000          38.000
 120198297.44447  93660994.26047  22872987.4564   22872991.6714   22872987.2314
        49.000          43.000
 126270832.09847  98392851.35847  24028544.5164   24028545.8154   24028544.9294
        46.000          39.000
 09  1 17  0 16 30.0000000  0 12G14G31G 5G 6G18G30G21G24G 9G12G29G22
 115733462.86047  90181909.31347  22023352.2254   22023356.5284   22023352.2694
        50.000          44.000
 120111512.30147  93593377.56547  22856467.1294   22856470.5024   22856466.8454
        48.000          43.000
 124106187.79647  96706108.31647  23616629.9104   23616636.3164   23616630.3634
        46.000          39.000
 128144492.09847  99852819.81047  24385111.5934   24385118.6224   24385111.4164
        41.000          37.000
 122801111.31947  95689176.79047  23368274.8094   23368276.9044   23368275.2474
        48.000          40.000
 121833132.05747  94934884.15547  23184093.1844   23184098.2414   23184093.0884
        47.000          41.000
 105518641.26747  82222303.18347  20079541.0294   20079543.8054   20079541.4744
        54.000          50.000
 114864025.57147  89504411.77147  21857913.5794   21857919.3864   21857913.8004
        51.000          45.000
 119482740.02847  93103410.83047  22736828.0364   22736832.8634   22736828.2294
        46.000          41.000
 128207484.35747  99901906.08147  24397096.3344   24397102.3304   24397095.9764
        44.000          38.000
 120273584.82747  93719659.75447  22887313.8774   22887318.4784   22887313.8114
        48.000          43.000
 126241906.15747  98370311.71847  24023040.3934   24023041.5474   24023040.4374
        45.000          40.000
 09  1 17  0 17  0.0000000  0 12G14G31G 5G 6G18G30G21G24G 9G12G29G22
 115754645.00147  90198414.90947  22027383.1194   22027387.3484   22027383.3994
        51.000          45.000
 120012876.63047  93516518.66147  22837697.3224   22837700.4974   22837697.5814
        49.000          43.000
 124093349.40147  96696104.41347  23614187.1704   23614193.4104   23614187.7454
        46.000          39.000
 128103382.81147  99820786.70647  24377287.4764   24377295.4604   24377287.1924
        42.000          37.000
 122771837.52847  95666366.04347  23362704.2784   23362706.1524   23362704.6484
        48.000          40.000
 121807084.62647  94914587.47747  23179136.2284   23179141.5014   23179135.8144
        48.000          41.000
 105490356.48447  82200263.10247  20074158.4094   20074161.3184   20074158.8534
        54.000          49.000
 114914000.44547  89543353.23947  21867423.4204   21867429.0944   21867423.4274
        51.000          45.000
 119564192.86747  93166880.61147  22752328.2024   22752332.9194   22752327.7974
        47.000          41.000
 128209416.18147  99903411.39747  24397464.1274   24397469.3324   24397464.0614
        44.000          38.000
 120348836.57947  93778297.47547  22901633.6534   22901638.3244   22901633.2094
        48.000          43.000
 126212753.68547  98347595.54947  24017492.7434   24017494.2044   24017492.8054
        45.000          39.000
 09  1 17  0 17 30.0000000  0 12G14G31G 5G 6G18G30G21G24G 9G12G29G22
 115776142.67647  90215166.37447  22031474.0544   22031478.1194   22031474.4034
        50.000          44.000
 119914413.24147  93439793.99147  22818960.5464   22818963.4614   22818960.3494
        49.000          43.000
 124080583.28647  96686156.84947  23611757.6414   23611764.2434   23611758.3414
        45.000          39.000
 128062575.04347  99788988.52947  24369523.0324   24369530.7024   24369523.3214
        42.000          37.000
 122742399.11347  95643426.98747  23357102.5624   23357104.7724   23357102.7314
        48.000          40.000
 121780962.64347  94894232.72247  23174165.4254   23174170.4274   23174165.4674
        47.000          41.000
 105462631.12447  82178658.92447  20068882.6084   20068885.3794   20068883.0174
        54.000          50.000
 114964420.95547  89582641.95147  21877018.2994   21877023.6074   21877018.6084
        51.000          45.000
 119646042.93247  93230659.93047  22767903.5124   22767908.3744   22767903.7344
        47.000          41.000
 128211414.56747  99904968.58347  24397844.0714   24397849.5284   24397843.8284
        44.000          38.000
 120424048.71347  93836904.33447  22915945.9094   22915950.9234   22915945.6434
        47.000          43.000
 126183372.88147  98324701.46747  24011901.5604   24011902.8234   24011901.4864
        46.000          39.000
 09  1 17  0 18  0.0000000  0 12G14G31G 5G 6G18G30G21G24G 9G12G29G22
 115797954.74247  90232162.81247  22035624.8054   22035628.7234   22035625.1124
        51.000          45.000
 119816126.12147  93363206.67747  22800257.1724   22800259.9724   22800256.5374
        49.000          43.000
 124067892.48847  96676267.96347  23609342.6464   23609349.0564   23609343.0214
        46.000          39.000
 128022069.31747  99757425.74847  24361813.9934   24361822.1654   24361814.0424
        42.000          37.000
 122712797.74947  95620360.98447  23351469.2744   23351472.3834   23351469.4294
        48.000          40.000
 121754769.16647  94873822.24947  23169180.7844   23169185.7284   23169180.4944
        47.000          41.000
 105435467.63347  82157492.57147  20063713.4914   20063716.1914   20063713.9274
        54.000          50.000
 115015287.06647  89622277.88347  21886697.6284   21886703.4814   21886697.7074
        51.000          45.000
 119728288.66747  93294747.56447  22783554.5254   22783559.2844   22783554.7314
        48.000          41.000
 128213482.65347  99906580.09547  24398237.6134   24398243.6964   24398237.5944
        44.000          38.000
 120499219.91347  93895479.29547  22930250.6844   22930255.3384   22930249.9804
        48.000          43.000
 126153764.79347  98301630.28447  24006267.2314   24006268.5524   24006267.4564
        45.000          39.000
 09  1 17  0 18 30.0000000  0 12G14G31G 5G 6G18G30G21G24G 9G12G29G22
 115820078.57147  90249402.19147  22039834.9634   22039838.7414   22039835.1374
        51.000          44.000
 119718017.98147  93286758.81747  22781587.9054   22781590.6494   22781587.0054
        49.000          43.000
 124055279.15947  96666439.44947  23606942.7454   23606948.4464   23606943.2254
        46.000          39.000
 127981865.45847  99726098.16647  24354164.5174   24354172.0184   24354164.7324
        43.000          37.000
 122683034.97047  95597169.19247  23345805.5424   23345808.2544   23345806.0924
        48.000          41.000
 121728505.95347  94853357.42847  23164183.0694   23164188.4394   23164182.5894
        47.000          42.000
 105408867.96647  82136765.56247  20058651.8034   20058654.5764   20058652.1604
        54.000          50.000
 115066597.74047  89662260.23147  21896461.9624   21896467.3854   21896462.2484
        51.000          45.000
 119810927.65647  93359141.63147  22799280.1644   22799284.8224   22799280.2294
        47.000          41.000
 128215622.48547  99908247.50547  24398644.7034   24398650.4044   24398644.4464
        44.000          38.000
 120574347.93947  93954020.61747  22944547.0334   22944551.6864   22944546.8614
        48.000          43.000
 126123929.46747  98278382.02347  24000590.1434   24000591.1904   24000589.8364
        46.000          39.000
 09  1 17  0 19  0.0000000  0 12G14G31G 5G 6G18G30G21G24G 9G12G29G22
 115842512.19347  90266882.96547  22044103.8654   22044107.6884   22044104.0894
        50.000          44.000
 119620092.11947  93210452.99247  22762952.7264   22762955.9824   22762952.4734
        49.000          43.000
 124042745.54447  96656673.02747  23604557.6134   23604563.3604   23604558.1304
        46.000          39.000
 127941963.11747  99695005.56347  24346569.9954   24346578.8374   24346570.0334
        42.000          37.000
 122653112.03647  95573852.61047  23340111.6054   23340114.1624   23340112.2634
        48.000          40.000
 121702174.83447  94832839.71747  23159172.5874   23159177.6644   23159172.4104
        48.000          42.000
 105382834.22047  82116479.53047  20053697.6984   20053700.5564   20053698.0284
        54.000          50.000
 115118352.25847  89702588.43547  21906310.4464   21906315.8794   21906310.6254
        51.000          45.000
 119893957.90847  93423840.58947  22815080.0834   22815084.8334   22815080.2604
        47.000          41.000
 128217835.57547  99909971.99347  24399066.0244   24399071.3354   24399066.3284
        44.000          38.000
 120649430.68547  94012526.64347  22958835.1114   22958839.6034   22958834.6794
        48.000          43.000
 126093867.25447  98254956.96347  23994869.3514   23994870.2344   23994869.4014
        45.000          39.000
 09  1 17  0 19 30.0000000  0 12G14G31G 5G 6G18G30G21G24G 9G12G29G22
 115865253.82947  90284603.75247  22048431.3474   22048435.4254   22048431.6384
        51.000          44.000
 119522351.82647  93134291.77247  22744352.9424   22744356.3944   22744352.6204
        48.000          43.000
 124030294.28647  96646970.79647  23602188.3884   23602194.2424   23602188.9154
        46.000          39.000
 127902362.39747  99664147.96047  24339035.1144   24339042.5454   24339035.0684
        43.000          37.000
 122623030.88147  95550412.73947  23334387.2744   23334389.7914   23334387.8004
        48.000          41.000
 121675778.51347  94812271.18647  23154149.3134   23154154.7214   23154148.9854
        47.000          42.000
 105357368.53347  82096636.13747  20048851.7204   20048854.4914   20048852.1434
        54.000          50.000
 115170549.81647  89743261.85947  21916243.4264   21916248.7274   21916243.6774
        51.000          45.000
 119977377.54447  93488842.94147  22830954.3564   22830959.0284   22830954.5334
        48.000          41.000
 128220125.12347  99911756.06147  24399501.2734   24399506.8024   24399501.2524
        44.000          38.000
 120724466.35647  94070996.00547  22973113.7874   22973118.3644   22973113.5364
        48.000          42.000
 126063578.75447  98231355.56247  23989105.2584   23989106.5364   23989105.1564
        45.000          39.000
 09  1 17  0 20  0.0000000  0 12G14G31G 5G 6G18G30G21G24G 9G12G29G22
 115888299.85247  90302561.72947  22052816.8934   22052820.7034   22052817.3864
        51.000          44.000
 119424799.52247  93058277.03947  22725789.3084   22725792.7764   22725788.8004
        48.000          43.000
 124017926.91347  96637333.91247  23599834.8704   23599840.8654   23599835.4264
        46.000          39.000
 127863062.30647  99633524.61047  24331556.0144   24331563.6464   24331556.0394
        42.000          37.000
 122592791.59747  95526849.64847  23328633.3974   23328635.5374   23328633.8014
        48.000          40.000
 121649317.75947  94791652.44847  23149114.3294   23149118.9764   23149113.9334
        48.000          42.000
 105332471.55147  82077235.89847  20044113.9354   20044116.9684   20044114.2374
        54.000          50.000
 115223188.59347  89784279.09947  21926260.3304   21926265.7294   21926260.2544
        52.000          45.000
 120061183.45647  93554146.30747  22846902.3654   22846906.6004   22846902.3914
        47.000          41.000
 128222491.55447  99913600.03947  24399952.1604   24399957.5144   24399951.9224
        44.000          38.000
 120799452.57147  94129426.81247  22987383.2504   22987387.6454   22987383.2774
        48.000          42.000
 126033063.61847  98207577.58847  23983298.6324   23983299.3404   23983298.4634
        45.000          39.000
 09  1 17  0 20 30.0000000  0 12G14G31G 5G 6G18G30G21G24G 9G12G29G22
 115911649.35547  90320756.17147  22057260.0504   22057263.9414   22057260.2074
        51.000          45.000
 119327438.53047  92982411.38047  22707262.2024   22707265.4534   22707262.0034
        49.000          43.000
 124005646.00247  96627764.42547  23597497.8064   23597503.6384   23597498.1344
        45.000          39.000
