     2.11           OBSERVATION DATA    G (GPS)             RINEX VERSION / TYPE
teqc  2008Oct2      gpsops              20090109 00:09:31UTCPGM / RUN BY / DATE
    30.0000                                                 INTERVAL
     1     1                                                WAVELENGTH FACT L1/2
     7    L1    L2    P1    P2    C1    S1    S2            # / TYPES OF OBSERV
Linux 2.4.20-8|Pentium IV|gcc -static|Linux|486/DX+         COMMENT
     2.10           OBSERVATION DATA    GPS                 COMMENT
soc2rnx ver 1.20    gpsops               9-Jan-2009 00:09:26COMMENT
S1, if present, is the SNR for the C/A data stream on L1.   COMMENT
 SNR is mapped to RINEX snr flag value [1,4-9]              COMMENT
    SNR:   >316  >100  >31.6  >10  >3.2    >0 bad=0         COMMENT
L1 & L2:      9     8     7     6     5     4     1         COMMENT
                                                            COMMENT
This data is provided as a public service by NASA/JPL.      COMMENT
No warranty is expressed or implied regarding suitability   COMMENT
for use.  For further information, contact:                 COMMENT
Dave Stowers, NASA/JPL m/s 238-600                          COMMENT
4800 Oak Grove Drive, Pasadena CA 91109 USA                 COMMENT
                                                            COMMENT
Forced Modulo Decimation to 30 seconds                      COMMENT
  2009     1     8     0     0    0.0000000     GPS         TIME OF FIRST OBS
GGN                 JPL                                     OBSERVER / AGENCY
CR519992104         ASH701945B_M    SCIT                    ANT # / TYPE
   -33801.4662 -6377516.5323   -82154.3508                  APPROX POSITION XYZ
        0.0083        0.0000        0.0000                  ANTENNA: DELTA H/E/N
ZR220013847         ASHTECH UZ-12       CQ00                REC # / TYPE / VERS
GLPS                                                        MARKER NAME
42005M002                                                   MARKER NUMBER
                                                            END OF HEADER
 09  1  8  0  0  0.0000000  0 10G30G29G24G 9G22G18G21G14G12G 5
 123866972.35647  96519692.94147  23571120.9174   23571124.4414   23571119.7164
        47.000          41.000
 112603590.26547  87743044.00647  21427760.7344   21427763.7464   21427760.7124
        52.000          47.000
 112191311.85047  87421775.18847  21349317.6814   21349322.1234   21349318.0324
        53.000          47.000
 113440415.94747  88395117.02947  21587000.3494   21587003.6534   21587000.1684
        52.000          46.000
 128107348.24447  99823904.92847  24378018.0234   24378021.2924   24378019.2874
        43.000          38.000
 124789400.54347  97238471.45147  23746650.7714   23746653.9204   23746651.2074
        46.000          39.000
 111304708.83547  86730941.54047  21180581.2814   21180583.0844   21180581.5614
        53.000          47.000
 115823139.85647  90251784.79447  22040421.0334   22040423.6534   22040420.2724
        50.000          44.000
 128070271.84547  99795002.56447  24370973.3564   24370977.2414   24370973.2034
        45.000          39.000
 125386113.58447  97703438.50947  23860204.9154   23860209.5734   23860204.4314
        45.000          39.000
 09  1  8  0  0 30.0000000  0 10G30G29G24G 9G22G18G21G14G12G 5
 123857122.41347  96512017.70347  23569245.8214   23569250.4574   23569245.5234
        47.000          41.000
 112669116.13947  87794103.12747  21440229.9644   21440233.2384   21440229.8124
        52.000          47.000
 112191787.29747  87422145.67547  21349408.1054   21349412.5214   21349408.2774
        54.000          47.000
 113469883.83147  88418079.03647  21592607.4614   21592611.1764   21592607.4394
        52.000          46.000
 128100581.99647  99818632.61847  24376731.1654   24376733.3744   24376731.0794
        42.000          37.000
 124782044.98347  97232739.87847  23745250.9744   23745253.2504   23745251.6834
        47.000          39.000
 111230524.42347  86673135.51947  21166464.1324   21166466.2124   21166464.5794
        53.000          47.000
 115799547.99147  90233401.57247  22035931.0034   22035934.1804   22035931.1074
        50.000          44.000
 128075567.98847  99799129.48047  24371981.1234   24371984.5984   24371981.2184
        44.000          39.000
 125376758.64047  97696148.97047  23858423.9714   23858429.1184   23858424.5344
        45.000          39.000
 09  1  8  0  1  0.0000000  0 10G30G29G24G 9G22G18G21G14G12G 5
 123847065.84347  96504181.46147  23567332.1024   23567336.7034   23567332.0344
        47.000          41.000
 112734878.06047  87845346.18447  21452743.9504   21452747.2664   21452743.5514
        52.000          47.000
 112192701.76047  87422858.25647  21349582.2494   21349586.5614   21349582.3944
        53.000          47.000
 113499884.49247  88441456.18947  21598316.2274   21598320.3154   21598316.3844
        52.000          46.000
 128093646.49247  99813228.37147  24375411.2794   24375413.5714   24375411.3214
        43.000          37.000
 124774468.52947  97226836.18947  23743809.0104   23743811.7114   23743809.7144
        46.000          39.000
 111156614.88247  86615543.67647  21152399.5654   21152401.6954   21152400.1024
        53.000          47.000
 115776432.25547  90215389.35047  22031532.0134   22031535.2244   22031532.1084
        50.000          44.000
 128080746.95247  99803165.07647  24372966.5374   24372970.0784   24372966.0084
        43.000          38.000
 125367279.46947  97688762.63647  23856620.1264   23856625.5144   23856620.9104
        45.000          39.000
 09  1  8  0  1 30.0000000  0 11G30G29G24G 9G22G18G21G14G31G12G 5
 123836801.44447  96496183.27647  23565378.5604   23565383.3664   23565378.4224
        47.000          41.000
 112800871.39147  87896769.55647  21465302.1654   21465305.4454   21465302.0294
        52.000          47.000
 112194054.86947  87423912.63747  21349839.8364   21349844.0544   21349839.7944
        53.000          47.000
 113530416.55947  88465247.42147  21604126.4314   21604130.0364   21604126.5104
        52.000          46.000
 128086538.20247  99807689.51247  24374059.0354   24374060.5684   24374058.9774
        44.000          37.000
 124766669.71547  97220759.23847  23742325.1624   23742327.3974   23742325.4434
        46.000          39.000
 111082981.48147  86558167.01547  21138387.5014   21138389.9514   21138387.8384
        53.000          47.000
 115753790.47347  90197746.44947  22027223.5544   22027226.6854   22027223.8674
        50.000          44.000
 140844179.96857  91956492.57557  24898826.0355   24898830.6275   24898825.6575
        43.000          36.000
 128085809.07547  99807109.64747  24373929.7334   24373933.1114   24373929.5094
        44.000          38.000
 125357675.85147  97681279.34247  23854792.4864   23854798.0594   23854793.3314
        45.000          39.000
 09  1  8  0  2  0.0000000  0 11G30G29G24G 9G22G18G21G14G31G12G 5
 123826330.49747  96488024.14047  23563386.0634   23563390.7894   23563386.3274
        47.000          41.000
 112867094.15747  87948371.71447  21477904.0954   21477907.4704   21477903.9174
        52.000          47.000
 112195848.48447  87425310.26647  21350180.9934   21350185.4174   21350181.1174
        53.000          47.000
 113561480.45047  88489453.06347  21610037.8694   21610041.5264   21610037.8304
        52.000          46.000
 128079257.17847  99802016.04447  24372673.4714   24372675.0474   24372673.6204
        44.000          38.000
 124758648.91647  97214509.30147  23740798.4284   23740801.0624   23740798.6114
        45.000          39.000
 111009628.07047  86501008.52947  21124428.7724   21124431.2454   21124429.1684
        53.000          47.000
 115731622.92447  90180473.07947  22023004.7034   22023008.0214   22023005.0614
        50.000          44.000
 140742569.64847  91877315.84247  24879490.0894   24879494.3054   24879489.5914
        42.000          36.000
 128090756.39447  99810964.75647  24374871.4834   24374874.6964   24374871.2324
        44.000          38.000
 125347949.87447  97673700.70647  23852941.2754   23852947.2974   23852941.8794
        44.000          39.000
 09  1  8  0  2 30.0000000  0 11G30G29G24G 9G22G18G21G14G31G12G 5
 123815653.98347  96479704.83247  23561354.5954   23561359.1854   23561354.9444
        47.000          41.000
 112933543.74447  88000150.61847  21490549.0764   21490552.4434   21490548.6144
        52.000          47.000
 112198083.74847  87427052.03747  21350606.2384   21350610.8544   21350606.2854
        53.000          47.000
 113593076.15047  88514073.10647  21616050.1674   21616053.9524   21616050.2564
        52.000          46.000
 128071802.56547  99796207.33347  24371255.3344   24371256.3704   24371255.4364
        44.000          38.000
 124750405.81247  97208086.15147  23739229.7084   23739232.4684   23739230.0824
        46.000          39.000
 110936557.85547  86444070.69947  21110524.2644   21110526.3014   21110524.5664
        54.000          47.000
 115709929.59647  90163569.22947  22018876.3194   22018880.3294   22018876.4044
        49.000          44.000
 140640859.93347  91798061.66147  24860135.1924   24860139.4974   24860134.4674
        41.000          36.000
 128095590.67147  99814731.78047  24375790.9024   24375794.5704   24375790.9334
        44.000          38.000
 125338103.15347  97666028.01647  23851067.6434   23851073.0444   23851067.7864
        44.000          39.000
 09  1  8  0  3  0.0000000  0 11G30G29G24G 9G22G18G21G14G31G12G 5
 123804771.59247  96471225.10447  23559283.4584   23559288.1294   23559283.2014
        47.000          41.000
 113000216.31347  88052103.26747  21503236.4464   21503239.7304   21503236.2424
        52.000          47.000
 112200760.80147  87429138.05747  21351115.8134   21351119.8884   21351115.9644
        53.000          47.000
 113625202.71047  88539106.81247  21622163.8234   21622167.2474   21622163.9634
        52.000          46.000
 128064171.93047  99790261.44347  24369802.9054   24369804.8774   24369802.6004
        43.000          38.000
 124741939.67547  97201489.19547  23737618.7814   23737621.1984   23737619.2454
        46.000          39.000
 110863773.26547  86387355.44347  21096673.8914   21096675.6274   21096674.2384
        54.000          47.000
 115688708.80147  90147033.58647  22014838.3084   22014841.8734   22014838.4814
        49.000          44.000
 140539051.75247  91718730.78847  24840761.1934   24840765.7694   24840760.5634
        42.000          36.000
 128100312.31447  99818411.04547  24376689.4784   24376693.3234   24376689.4454
        44.000          39.000
 125328136.30147  97658261.69747  23849171.1624   23849176.9334   23849171.6704
        44.000          39.000
 09  1  8  0  3 30.0000000  0 11G30G29G24G 9G22G18G21G14G31G12G 5
 123793684.83947  96462586.11847  23557173.6804   23557178.4394   23557173.3944
        46.000          41.000
 113067109.71547  88104227.99347  21515965.7394   21515969.1094   21515965.7504
        52.000          47.000
 112203881.55347  87431569.82047  21351709.5834   21351713.9054   21351709.6734
        53.000          47.000
 113657861.15347  88564554.96547  21628378.5474   21628382.0484   21628378.6074
        52.000          46.000
 128056365.28947  99784178.40447  24368316.9294   24368318.5764   24368317.0134
        44.000          38.000
 124733250.98447  97194718.83147  23735965.3814   23735967.7984   23735965.9554
        46.000          39.000
 110791277.95747  86330865.60447  21082878.4234   21082880.2474   21082878.8434
        54.000          47.000
 115667960.66247  90130866.25047  22010890.0704   22010893.4764   22010890.2944
        50.000          44.000
 140437147.81147  91639325.26447  24821369.3684   24821374.1654   24821368.5214
        41.000          36.000
 128104923.41247  99822004.16847  24377566.5684   24377570.8214   24377566.2504
        43.000          38.000
 125318051.44647  97650403.45347  23847251.5534   23847257.3274   23847252.3284
        45.000          39.000
 09  1  8  0  4  0.0000000  0 11G30G29G24G 9G22G18G21G14G31G12G 5
 123782395.30847  96453789.12447  23555025.3364   23555029.8384   23555025.1014
        47.000          41.000
 113134222.13747  88156523.38947  21528736.6854   21528740.0144   21528736.4174
        52.000          47.000
 112207448.04847  87434348.91247  21352388.0884   21352392.3594   21352388.2244
        53.000          47.000
 113691052.03847  88590418.01847  21634694.6144   21634697.9164   21634694.7534
        52.000          46.000
 128048382.23947  99777957.90347  24366798.1314   24366800.0504   24366798.1034
        45.000          38.000
 124724340.93347  97187775.96247  23734269.4854   23734272.3784   23734269.9044
        46.000          39.000
 110719076.13547  86274604.45447  21069138.7964   21069140.8494   21069139.2324
        54.000          47.000
 115647685.62547  90115067.55247  22007031.9534   22007035.2624   22007032.0304
        50.000          44.000
 140335151.52247  91559847.77347  24801960.0374   24801964.2384   24801959.3884
        41.000          36.000
 128109426.27047  99825512.97747  24378423.7194   24378427.2104   24378423.5594
        42.000          38.000
 125307851.04547  97642455.16347  23845310.7764   23845316.1674   23845310.6914
        45.000          39.000
 09  1  8  0  4 30.0000000  0 11G30G29G24G 9G22G18G21G14G31G12G 5
 123770902.73847  96444833.91347  23552838.0094   23552843.2464   23552837.7844
        47.000          41.000
 113201549.81847  88208986.51447  21541548.6134   21541552.1934   21541548.0474
        52.000          47.000
 112211460.66647  87437475.62847  21353151.8344   21353156.1054   21353151.9684
        53.000          47.000
 113724773.95347  88616694.85147  21641111.3544   21641115.0964   21641111.4714
        52.000          46.000
 128040220.89447  99771598.47947  24365245.3434   24365246.5394   24365245.2404
        44.000          38.000
 124715208.37147  97180659.71047  23732531.7994   23732534.6484   23732532.3934
        46.000          39.000
 110647170.03347  86218573.74347  21055455.4144   21055457.6214   21055455.8224
        54.000          47.000
 115627882.51447  90099636.60347  22003263.5394   22003266.8494   22003263.9144
        50.000          44.000
 140233064.02847  91480299.23647  24782533.1764   24782538.3944   24782532.9634
        40.000          36.000
 128113821.49147  99828937.94347  24379259.9534   24379263.3194   24379259.7704
        44.000          38.000
 125297535.61947  97634417.26147  23843347.8244   23843352.8714   23843348.6584
        45.000          39.000
 09  1  8  0  5  0.0000000  0 11G30G29G24G 9G22G18G21G14G31G12G 5
 123759205.64747  96435719.34247  23550612.4554   23550617.1754   23550612.1604
        46.000          41.000
 113269087.87547  88261613.56447  21554400.7954   21554404.2724   21554400.6334
        52.000          47.000
 112215918.18047  87440949.02547  21353999.9624   21354004.5084   21353999.9934
        53.000          47.000
 113759024.95047  88643383.96547  21647629.3094   21647632.9314   21647629.3454
        52.000          46.000
 128031878.20647  99765097.73347  24363657.1014   24363659.2264   24363657.2834
        44.000          38.000
 124705851.30447  97173368.51947  23730751.6384   23730753.9804   23730751.9394
        46.000          39.000
 110575560.38047  86162774.03447  21041828.4894   21041830.7194   21041828.8394
        54.000          47.000
 115608548.39447  90084571.09847  21999584.0584   21999587.7134   21999584.3814
        50.000          44.000
 140130885.41447  91400679.72947  24763088.5164   24763094.0634   24763088.7314
        41.000          36.000
 128118108.26247  99832278.36347  24380075.7674   24380078.8994   24380075.5984
        43.000          38.000
 125287104.55047  97626289.23547  23841362.7514   23841368.1184   23841363.6634
        45.000          39.000
 09  1  8  0  5 30.0000000  0 11G30G29G24G 9G22G18G21G14G31G12G 5
 123747309.67247  96426449.81047  23548348.5254   23548353.1704   23548348.1354
        47.000          41.000
 113336838.39947  88314406.17747  21567293.1284   21567296.8384   21567292.9554
        52.000          47.000
 112220826.53147  87444773.71747  21354934.2064   21354938.5894   21354934.2234
        53.000          47.000
 113793810.01247  88670489.23347  21654248.6734   21654252.0654   21654248.6154
        52.000          46.000
 128023357.80347  99758458.52247  24362035.3444   24362037.7514   24362035.4194
        44.000          38.000
 124696274.27647  97165905.93247  23728928.8354   23728931.4964   23728929.5454
        46.000          39.000
 110504255.43847  86107211.76047  21028259.6064   21028261.7104   21028260.0404
        54.000          47.000
 115589687.48547  90069874.31747  21995995.0804   21995998.4804   21995995.2644
        50.000          44.000
 140028622.78147  91320994.74247  24743628.9684   24743633.7964   24743628.7164
        41.000          37.000
 128122293.24147  99835539.43747  24380871.6114   24380875.4054   24380871.0634
        43.000          38.000
 125276564.33247  97618076.15647  23839357.2464   23839362.3724   23839357.8204
        44.000          39.000
 09  1  8  0  6  0.0000000  0 11G30G29G24G 9G22G18G21G14G31G12G 5
 123735211.39247  96417022.61847  23546046.4174   23546050.9524   23546046.4724
        47.000          41.000
 113404794.12147  88367358.69047  21580224.6654   21580228.3434   21580224.1844
        52.000          47.000
 112226182.18547  87448946.96047  21355953.2384   21355957.8214   21355953.3434
        53.000          47.000
 113829124.31247  88698006.89847  21660968.7104   21660972.0944   21660968.8514
        52.000          46.000
 128014654.25047  99751676.59547  24360379.8014   24360381.3544   24360379.3884
        44.000          38.000
 124686472.95847  97158268.55847  23727063.6024   23727066.4964   23727064.1334
        46.000          39.000
 110433253.93347  86051885.92747  21014748.4594   21014750.5674   21014748.9224
        54.000          47.000
 115571294.77847  90055542.38047  21992495.2824   21992498.5934   21992495.5514
        50.000          44.000
 139926273.77747  91241242.43747  24724152.3624   24724157.1104   24724151.8694
        41.000          36.000
 128126373.49047  99838718.88347  24381648.2444   24381652.1094   24381648.0914
        43.000          38.000
 125265912.05547  97609775.75447  23837329.9994   23837335.0304   23837330.5964
        45.000          39.000
 09  1  8  0  6 30.0000000  0 11G30G29G24G 9G22G18G21G14G31G12G 5
 123722913.36947  96407439.78347  23543706.0284   23543710.4354   23543705.7584
        47.000          40.000
 113472954.72847  88420470.85247  21593195.3944   21593198.9554   21593195.2814
        52.000          47.000
 112231988.62147  87453471.46147  21357057.9214   21357062.8084   21357058.0644
        53.000          47.000
 113864969.73747  88725938.41647  21667789.6854   21667793.3864   21667789.7614
        52.000          46.000
 128005769.07047  99744753.12947  24358688.4594   24358690.3094   24358688.3904
        44.000          38.000
 124676449.99447  97150458.48147  23725156.4954   23725158.8254   23725156.9174
        46.000          39.000
 110362561.28147  85996800.75747  21001296.2594   21001298.1394   21001296.6824
        54.000          47.000
 115553372.00847  90041576.62147  21989084.5134   21989088.0734   21989084.8964
        50.000          44.000
 139823843.09647  91161426.45247  24704660.4334   24704664.6644   24704660.1024
        40.000          36.000
 128130352.85647  99841819.69347  24382405.9064   24382408.9894   24382405.1624
        43.000          38.000
 125255151.46647  97601390.94747  23835282.7254   23835287.1394   23835282.8934
        45.000          39.000
 09  1  8  0  7  0.0000000  0 11G30G29G24G 9G22G18G21G14G31G12G 5
 123710415.82547  96397701.48847  23541327.7024   23541332.3494   23541326.8834
        46.000          40.000
 113541316.21447  88473739.53647  21606204.1604   21606207.6484   21606204.0294
        52.000          47.000
 112238245.52447  87458346.97247  21358248.6204   21358253.4404   21358248.6814
        53.000          47.000
 113901344.86347  88754282.69447  21674711.6464   21674715.2114   21674711.5084
        51.000          46.000
 127996699.91547  99737686.30247  24356962.4974   24356964.3164   24356962.7534
        44.000          38.000
 124666203.83447  97142474.48247  23723206.9494   23723208.6554   23723207.3794
        47.000          39.000
 110292179.42047  85941957.76547  20987903.0984   20987904.9304   20987903.4914
        54.000          47.000
 115535917.14147  90027975.45347  21985762.7504   21985766.2664   21985762.9454
        50.000          44.000
 139721331.79747  91081547.68247  24685152.2834   24685156.5414   24685152.1544
        41.000          36.000
 128134231.67247  99844842.21647  24383143.7634   24383147.2154   24383143.7444
        44.000          38.000
 125244282.93347  97592922.05247  23833214.1074   23833219.0324   23833215.1374
        45.000          39.000
 09  1  8  0  7 30.0000000  0 11G30G29G24G 9G22G18G21G14G31G12G 5
 123697719.79647  96387808.52747  23538911.9184   23538916.3004   23538911.5054
        47.000          40.000
 113609876.22347  88527162.91947  21619250.5474   21619254.0074   21619250.1164
        52.000          47.000
 112244954.65447  87463574.87947  21359525.3734   21359530.3764   21359525.5384
        53.000          47.000
 113938249.67347  88783039.71347  21681734.3934   21681737.9914   21681734.4834
        51.000          45.000
 127987446.14647  99730475.62447  24355201.7744   24355203.5074   24355201.3944
        44.000          38.000
 124655735.22147  97134317.15047  23721214.7454   23721216.5324   23721215.1534
        47.000          39.000
 110222111.85147  85887359.67347  20974569.6334   20974571.4334   20974570.1254
        54.000          47.000
 115518930.18847  90014738.90547  21982530.3414   21982533.9894   21982530.5564
        50.000          44.000
 139618742.53847  91001608.13147  24665630.4454   24665635.6604   24665630.0374
        40.000          36.000
 128138011.55247  99847787.62347  24383863.0864   24383866.7894   24383862.4474
        44.000          39.000
 125233308.72847  97584370.78747  23831125.8274   23831130.9114   23831126.5104
        44.000          39.000
 09  1  8  0  8  0.0000000  0 11G30G29G24G 9G22G18G21G14G31G12G 5
 123684827.14047  96377762.34647  23536458.6044   23536462.7334   23536458.4194
        47.000          41.000
 113678633.19747  88580739.77747  21632334.5554   21632338.0834   21632334.1274
        52.000          47.000
 112252118.01447  87469156.72747  21360888.4864   21360893.1144   21360888.5854
        53.000          47.000
 113975685.07647  88812210.18347  21688857.9464   21688861.6194   21688858.0084
        51.000          45.000
 127978008.97647  99723122.03547  24353405.7514   24353407.4064   24353406.1314
        45.000          38.000
 124645045.21747  97125987.30747  23719180.2354   23719182.8764   23719180.6514
        46.000          39.000
 110152363.19747  85833010.08347  20961296.7734   20961298.7754   20961297.1364
        54.000          47.000
 115502411.49047  90001867.22447  21979386.7594   21979390.0984   21979387.0824
        51.000          44.000
 139516078.94647  90921610.63247  24646094.3514   24646098.5704   24646093.4294
        40.000          36.000
 128141695.45647  99850658.25847  24384564.5184   24384567.7704   24384563.8854
        44.000          38.000
 125222231.42547  97575739.19347  23829017.7674   23829022.4214   23829018.0024
        45.000          39.000
 09  1  8  0  8 30.0000000  0 11G30G29G24G 9G22G18G21G14G31G12G 5
 123671736.42347  96367561.82947  23533967.4054   23533971.8274   23533967.5534
        47.000          41.000
 113747582.41647  88634466.43847  21645455.1244   21645458.5744   21645454.8684
        52.000          46.000
 112259734.31747  87475091.52247  21362337.9824   21362342.4654   21362338.1824
        53.000          47.000
 114013648.92347  88841792.43047  21696082.1924   21696086.0584   21696081.9984
        52.000          45.000
 127968384.04447  99715622.15247  24351574.2104   24351576.0944   24351574.6644
        44.000          38.000
 124634131.95647  97117483.48247  23717103.2204   23717106.0494   23717103.7784
        46.000          39.000
 110082934.04647  85778909.46447  20948084.6024   20948086.8004   20948084.9844
        54.000          48.000
 115486358.13747  89989358.15347  21976332.1904   21976335.4284   21976332.6474
        50.000          44.000
 139413341.06347  90841555.25147  24626543.9984   24626547.8994   24626542.8504
        39.000          36.000
 128145282.97547  99853453.76447  24385246.4434   24385250.3154   24385246.1464
        44.000          38.000
 125211050.65747  97567026.96547  23826890.0184   23826894.8834   23826890.6134
        44.000          39.000
 09  1  8  0  9  0.0000000  0 11G30G29G24G 9G22G18G21G14G31G12G 5
 123658448.69747  96357207.80547  23531438.6794   23531443.2294   23531438.3344
        47.000          41.000
 113816720.67147  88688340.40047  21658611.5274   21658615.1284   21658611.3104
        51.000          46.000
 112267804.43647  87481379.94247  21363873.4754   21363878.1914   21363873.6604
        53.000          47.000
 114052140.95847  88871786.25547  21703407.0654   21703410.4964   21703407.0584
        52.000          45.000
 127958570.79847  99707975.50547  24349706.5984   24349708.9834   24349706.8564
        44.000          38.000
 124622995.81347  97108805.98347  23714984.4934   23714986.9984   23714984.9194
        46.000          39.000
 110013827.85247  85725060.49347  20934934.3054   20934936.2874   20934934.7244
        54.000          48.000
 115470769.72747  89977211.36847  21973365.7644   21973369.0454   21973365.6534
        51.000          44.000
 139310531.61247  90761444.06747  24606979.9594   24606983.7714   24606979.6234
        42.000          36.000
 128148775.91147  99856175.58847  24385911.0204   24385914.7594   24385910.7274
        44.000          38.000
 125199768.04647  97558235.39347  23824743.1004   23824747.8444   23824743.6484
        45.000          39.000
 09  1  8  0  9 30.0000000  0 11G30G29G24G 9G22G18G21G14G31G12G 5
 123644966.49747  96346702.24047  23528873.1224   23528877.5784   23528872.5224
        47.000          41.000
 113886047.11047  88742360.99847  21671804.0694   21671807.5664   21671803.7584
        52.000          46.000
 112276331.14047  87488024.13647  21365496.1024   21365500.7104   21365496.2634
        53.000          47.000
 114091162.15247  88902192.40347  21710832.5394   21710836.1014   21710832.4744
        52.000          45.000
 127948569.98547  99700182.72247  24347803.6784   24347805.3974   24347804.1364
        45.000          39.000
 124611638.18947  97099955.91547  23712822.9414   23712825.5014   23712823.4144
        46.000          39.000
 109945049.35947  85671466.86947  20921846.1704   20921848.2714   20921846.5494
        54.000          48.000
 115455646.86347  89965427.35547  21970488.1834   21970491.3634   21970488.6434
        50.000          44.000
 139207654.32847  90681280.00247  24587403.6794   24587406.8984   24587402.9904
        42.000          37.000
 128152177.17147  99858826.01847  24386558.7124   24386561.5034   24386558.6164
        44.000          38.000
 125188386.69047  97549366.87947  23822577.2794   23822581.9214   23822577.8224
        45.000          39.000
 09  1  8  0 10  0.0000000  0 11G30G29G24G 9G22G18G21G14G31G12G 5
 123631289.76747  96336045.10147  23526270.6294   23526274.4984   23526270.3594
        47.000          40.000
 113955558.01347  88796525.33347  21685031.6454   21685035.0824   21685031.5764
        52.000          46.000
 112285314.21447  87495023.94647  21367205.3714   21367210.1734   21367205.5354
        53.000          47.000
 114130711.22447  88933009.88747  21718358.3924   21718362.1384   21718358.4464
        52.000          45.000
 127938380.05047  99692242.58847  24345864.8304   24345866.4064   24345864.7044
        45.000          39.000
 124600058.20747  97090932.58347  23710619.4434   23710621.3154   23710619.8214
        47.000          39.000
 109876600.59747  85618130.18447  20908820.7404   20908822.8194   20908821.1784
        54.000          48.000
 115440988.02247  89954004.89747  21967698.3964   21967701.7574   21967698.4024
        50.000          44.000
 139104710.53247  90601064.11347  24567814.1914   24567817.4244   24567813.4374
        43.000          37.000
 128155487.69747  99861405.70247  24387188.6754   24387191.8624   24387188.3524
        44.000          38.000
 125176907.54147  97540422.13547  23820392.3484   23820397.2904   23820392.9004
        45.000          39.000
 09  1  8  0 10 30.0000000  0 11G30G29G24G 9G22G18G21G14G31G12G 5
 123617418.57347  96325236.43547  23523630.9264   23523634.9934   23523630.7004
        47.000          40.000
 114025250.05247  88850830.81647  21698293.7514   21698297.1694   21698293.5814
        52.000          46.000
 112294754.15847  87502379.75747  21369001.7454   21369006.3784   21369001.8774
        53.000          47.000
 114170787.53047  88964238.19947  21725984.7584   21725988.3684   21725984.6564
        52.000          45.000
 127927999.21047  99684153.67647  24343889.2454   24343891.0244   24343889.2624
        45.000          39.000
 124588255.24047  97081735.48147  23708373.5014   23708375.2804   23708374.0304
        46.000          39.000
 109808484.27547  85565052.53747  20895858.8934   20895860.7204   20895859.2794
        54.000          48.000
 115426791.63347  89942942.80647  21964996.9374   21965000.1114   21964997.3734
        50.000          44.000
 139001702.30447  90520798.04147  24548212.2934   24548216.0274   24548212.0724
        42.000          37.000
 128158707.98447  99863915.07747  24387801.6304   24387804.8724   24387801.4134
        44.000          38.000
 125165331.58647  97531401.98447  23818189.7104   23818194.4724   23818190.1394
        45.000          39.000
 09  1  8  0 11  0.0000000  0 11G30G29G24G 9G22G18G21G14G31G12G 5
 123603355.83847  96314278.51347  23520954.5144   23520958.8764   23520954.5424
        47.000          41.000
 114095122.23547  88905276.67347  21711590.1584   21711593.2824   21711589.9474
        52.000          46.000
 112304653.34047  87510093.40547  21370885.6384   21370890.2424   21370885.8524
        53.000          47.000
 114211391.96047  88995878.04147  21733711.5854   21733715.2924   21733711.6324
        52.000          45.000
 127917428.21447  99675916.58847  24341877.0734   24341878.9424   24341877.5504
        44.000          38.000
 124576231.26947  97072366.16447  23706085.4194   23706087.8634   23706085.9934
        46.000          39.000
 109740705.04447  85512237.56847  20882960.8324   20882962.8264   20882961.1744
        54.000          48.000
 115413058.61747  89932241.78147  21962383.5694   21962387.0674   21962383.7874
        50.000          44.000
 138898633.11147  90440484.42147  24528599.1704   24528602.2094   24528598.9824
        43.000          37.000
 128161841.29447  99866356.68447  24388397.4434   24388400.3814   24388397.0804
        43.000          38.000
 125153661.88147  97522308.78947  23815968.9104   23815973.4894   23815969.5624
        46.000          39.000
 09  1  8  0 11 30.0000000  0 11G30G29G24G 9G22G18G21G14G31G12G 5
 123589091.05047  96303163.13347  23518240.4274   23518244.0534   23518239.5884
        47.000          41.000
 114165160.35347  88959851.83047  21724917.9064   21724920.9124   21724917.6314
        52.000          46.000
 112315001.08547  87518156.59747  21372854.6994   21372859.3114   21372854.6604
        53.000          47.000
 114252512.64647  89027920.15747  21741536.7384   21741540.0794   21741536.7604
        52.000          45.000
 127906654.81547  99667521.78447  24339827.0384   24339829.0194   24339827.2544
        44.000          38.000
 124563975.19847  97062816.00547  23703753.3364   23703755.2394   23703753.4354
        46.000          39.000
 109673254.57747  85459678.77447  20870125.2294   20870127.3344   20870125.5814
        54.000          48.000
 115399776.92847  89921892.44947  21959856.1424   21959859.2574   21959856.2364
        50.000          44.000
 138795494.13747  90360116.42147  24508971.7094   24508975.9254   24508972.1914
        42.000          37.000
 128164878.31447  99868723.23747  24388975.0444   24388978.7404   24388975.1724
        44.000          38.000
 125141888.92947  97513135.13447  23813728.8354   23813733.6454   23813729.6364
        44.000          39.000
 09  1  8  0 12  0.0000000  0 11G30G29G24G 9G22G18G21G14G31G12G 5
 123574645.67347  96291907.04147  23515491.1634   23515495.6644   23515490.7614
        47.000          41.000
 114235382.40947  89014570.31947  21738280.5314   21738283.7674   21738279.9354
        51.000          46.000
 112325818.97647  87526586.13047  21374913.5664   21374917.6584   21374913.6364
        53.000          47.000
 114294169.84747  89060380.34347  21749464.1604   21749467.2434   21749464.1704
        52.000          45.000
 127895699.02647  99658984.86147  24337741.9514   24337743.9624   24337741.9714
        44.000          38.000
 124551508.04847  97053101.36947  23701380.4394   23701382.7314   23701380.9844
        46.000          39.000
 109606156.80047  85407394.79847  20857357.0264   20857359.0214   20857357.4444
        54.000          48.000
 115386966.38647  89911910.24247  21957418.2724   21957421.4594   21957418.5544
        50.000          44.000
 138692308.42547  90279712.02147  24489335.9444   24489340.1664   24489335.9824
        42.000          37.000
 128167841.08847  99871031.92447  24389539.1664   24389542.2124   24389538.4224
        43.000          38.000
 125130035.22547  97503898.56647  23811473.0244   23811477.8544   23811473.3254
        44.000          39.000
 09  1  8  0 12 30.0000000  0 11G30G29G24G 9G22G18G21G14G31G12G 5
 123560009.15347  96280502.01247  23512706.0374   23512710.3664   23512705.5624
        47.000          40.000
 114305774.15647  89069421.01947  21751675.6724   21751679.1734   21751675.3554
        52.000          46.000
 112337096.23147  87535373.61047  21377059.2924   21377063.8854   21377059.5274
        53.000          47.000
 114336351.66647  89093249.31647  21757490.3754   21757493.9774   21757490.5084
        51.000          45.000
 127884548.72047  99650296.37747  24335620.3884   24335622.2624   24335620.7504
        44.000          38.000
 124538818.63647  97043213.53147  23698966.1864   23698968.0884   23698966.3634
        47.000          39.000
 109539403.35347  85355379.14247  20844654.1784   20844656.3504   20844654.6614
        54.000          48.000
 115374614.57147  89902285.49247  21955067.8834   21955071.1254   21955067.9724
        50.000          44.000
 138589067.25747  90199264.41547  24469689.7964   24469693.8474   24469689.5474
        42.000          37.000
 128170719.95047  99873275.23647  24390086.6364   24390089.8834   24390086.3284
        43.000          38.000
 125118090.73847  97494591.26147  23809199.9934   23809204.7664   23809199.6454
        44.000          39.000
 09  1  8  0 13  0.0000000  0 11G30G29G24G 9G22G18G21G14G31G12G 5
 123545184.09647  96268950.06547  23509884.7474   23509889.0334   23509884.7074
        47.000          40.000
 114376334.25547  89124402.91147  21765102.9754   21765106.2664   21765102.8454
        51.000          46.000
 112348835.12647  87544520.80647  21379293.2144   21379297.6784   21379293.4364
        53.000          47.000
 114379058.59347  89126527.46047  21765617.4624   21765620.6524   21765617.6854
        51.000          45.000
 127873204.03547  99641456.42947  24333461.6664   24333462.7084   24333461.5364
        44.000          38.000
 124525907.99747  97033153.30147  23696509.4374   23696511.0274   23696509.7564
        47.000          39.000
 109472998.64647  85303635.22347  20832017.7914   20832019.7884   20832018.1274
        54.000          48.000
 115362721.69347  89893018.34447  21952804.9184   21952807.9464   21952805.0224
        50.000          44.000
 138485774.05847  90118776.23747  24450033.9374   24450037.9854   24450032.9584
        41.000          37.000
 128173517.80947  99875455.44047  24390619.2914   24390622.4964   24390618.8254
        43.000          38.000
 125106058.59047  97485215.63447  23806910.6274   23806914.9114   23806911.1404
        44.000          39.000
 09  1  8  0 13 30.0000000  0 11G30G29G24G 9G22G18G21G14G31G12G 5
 123530170.20047  96257250.98947  23507027.7794   23507031.9764   23507027.5344
        46.000          40.000
 114447058.79347  89179512.94747  21778560.9844   21778564.7204   21778560.7664
        51.000          46.000
 112361035.42347  87554027.53347  21381614.7144   21381619.0804   21381614.8104
        53.000          47.000
 114422289.40347  89160213.82947  21773843.9404   21773847.4944   21773844.1664
        51.000          45.000
 127861663.28947  99632463.69547  24331264.8604   24331267.1874   24331264.8774
        43.000          37.000
 124512775.55447  97022920.24947  23694010.6584   23694012.0574   23694010.9204
        47.000          39.000
 109406945.01547  85252164.87447  20819448.3814   20819450.3124   20819448.8604
        54.000          48.000
 115351286.17047  89884107.58147  21950628.6194   21950632.0094   21950628.9874
        50.000          44.000
 138382430.01047  90038248.44447  24430367.8314   24430372.2214   24430367.2264
        42.000          38.000
 128176235.35347  99877573.08247  24391136.0104   24391139.2144   24391135.7734
        42.000          37.000
 125093939.59047  97475772.30347  23804604.1574   23804608.5674   23804604.7394
        44.000          38.000
 09  1  8  0 14  0.0000000  0 11G30G29G24G 9G22G18G21G14G31G12G 5
 123514968.67747  96245405.68847  23504134.8554   23504139.3984   23504134.3944
        47.000          40.000
 114517945.59747  89234749.42247  21792050.2994   21792054.0814   21792050.1034
        51.000          46.000
 112373698.08647  87563894.55547  21384024.4224   21384028.8054   21384024.5484
        53.000          47.000
 114466043.93447  89194308.29247  21782169.8894   21782173.6154   21782170.0374
        51.000          45.000
 127849926.09847  99623317.86747  24329031.9174   24329033.3864   24329032.0214
        45.000          38.000
 124499421.68147  97012514.65647  23691469.3384   23691470.8874   23691469.6094
        47.000          39.000
 109341245.63947  85200970.57247  20806946.1444   20806948.1004   20806946.4984
        54.000          48.000
 115340307.04847  89875552.45647  21948539.1614   21948542.7124   21948539.3094
        50.000          44.000
 138279038.26847  89957683.48247  24410693.5814   24410697.9144   24410692.3364
        42.000          38.000
 128178874.88047  99879629.89947  24391638.9364   24391642.0134   24391638.5084
        43.000          38.000
 125081735.66347  97466262.79947  23802281.6224   23802286.4354   23802282.1474
        44.000          39.000
 09  1  8  0 14 30.0000000  0 11G30G29G24G 9G22G18G21G14G31G12G 5
 123499580.74247  96233415.13247  23501207.0664   23501210.8504   23501206.6474
        47.000          40.000
 114588991.82547  89290110.11347  21805570.0554   21805573.7634   21805569.9394
        51.000          46.000
 112386823.79047  87574122.38047  21386522.1544   21386526.4974   21386522.2324
        53.000          47.000
 114510321.29447  89228810.16147  21790596.0484   21790599.0854   21790596.1564
        52.000          45.000
 127837991.30947  99614018.09747  24326761.3684   24326762.0684   24326761.2304
        44.000          38.000
 124485847.00847  97001937.00947  23688885.9574   23688887.9854   23688886.2694
        46.000          39.000
 109275903.58147  85150054.69447  20794512.1184   20794513.9244   20794512.5274
        55.000          48.000
 115329783.66447  89867352.44947  21946536.8534   21946539.9314   21946537.0314
        50.000          44.000
 138175601.39847  89877083.35447  24391009.7054   24391014.2164   24391009.0564
        43.000          38.000
 128181437.66647  99881626.94147  24392126.2634   24392129.8794   24392125.7184
        43.000          38.000
 125069448.52447  97456688.45547  23799943.5574   23799947.8704   23799943.8964
        45.000          39.000
 09  1  8  0 15  0.0000000  0 11G30G29G24G 9G22G18G21G14G31G12G 5
 123484007.49747  96221280.19247  23498243.1034   23498247.2964   23498242.7234
        46.000          40.000
 114660194.96447  89345593.08047  21819119.7014   21819123.0594   21819119.1694
        51.000          46.000
 112400413.60347  87584711.86247  21389108.2494   21389112.7234   21389108.3654
        53.000          47.000
 114555121.15647  89263719.16247  21799121.1884   21799124.3884   21799121.4524
        51.000          45.000
 127825858.36447  99604563.89547  24324452.0274   24324453.6974   24324452.4024
        44.000          38.000
 124472052.13647  96991187.77947  23686260.1894   23686262.5234   23686260.8494
        46.000          39.000
 109210922.25647  85099419.90747  20782146.5344   20782148.4144   20782147.0104
        54.000          48.000
 115319715.14147  89859506.87447  21944620.6944   21944623.9784   21944620.8324
        50.000          45.000
 138072122.05147  89796450.13747  24371318.0664   24371322.4774   24371317.7794
        43.000          37.000
 128183925.39947  99883565.50147  24392599.7704   24392602.5144   24392599.2384
        44.000          38.000
 125057080.17847  97447050.81947  23797589.9174   23797594.0504   23797590.4634
        45.000          39.000
 09  1  8  0 15 30.0000000  0 12G30G29G24G 6G 9G22G18G21G14G31G12G 5
 123468250.22447  96209001.86647  23495244.7534   23495248.7844   23495244.0644
        47.000          40.000
 114731552.61547  89401196.43947  21832698.8404   21832701.9354   21832698.6414
        51.000          46.000
 112414468.41147  87595663.66947  21391782.7874   21391787.1944   21391782.9734
        53.000          47.000
 142059158.32057  92903215.35557  25130040.7115   25130046.4725   25130041.2475
        40.000          36.000
 114600443.10147  89299035.00247  21807745.5144   21807748.8254   21807745.6344
        52.000          45.000
 127813527.06847  99594955.14547  24322105.3554   24322106.3644   24322105.6684
        44.000          38.000
 124458037.15047  96980267.03747  23683593.5654   23683595.3174   23683593.6404
        46.000          39.000
 109146304.92047  85049068.74647  20769850.1434   20769851.9214   20769850.5574
        54.000          48.000
 115310100.81047  89852015.21647  21942791.1534   21942794.4474   21942791.4664
        50.000          44.000
 137968602.95247  89715785.94547  24351619.3484   24351623.6164   24351618.7764
        43.000          37.000
 128186340.17247  99885447.18947  24393058.9704   24393061.9444   24393058.9024
        44.000          38.000
 125044632.70447  97437351.55247  23795221.0274   23795225.4114   23795221.6384
        45.000          39.000
 09  1  8  0 16  0.0000000  0 12G30G29G24G 6G 9G22G18G21G14G31G12G 5
 123452309.30147  96196580.43247  23492211.3514   23492215.0424   23492211.1204
        47.000          40.000
 114803061.28547  89456917.48447  21846306.2924   21846309.3864   21846305.9634
        51.000          46.000
 112428988.23547  87606977.82647  21394545.8524   21394550.2514   21394546.0684
        53.000          47.000
 141995377.25447  92853515.83847  25117904.0524   25117908.3444   25117903.9054
        40.000          36.000
 114646285.70047  89334756.53847  21816468.9334   21816472.2624   21816469.1184
        52.000          45.000
 127800995.92347  99585190.68747  24319720.0644   24319722.0714   24319720.4444
        45.000          38.000
 124443801.81547  96969174.58747  23680884.8354   23680886.8744   23680885.1104
        46.000          39.000
 109082053.95647  84999003.06847  20757623.5704   20757625.3074   20757623.8784
        54.000          48.000
 115300939.12147  89844876.26747  21941047.7454   21941050.7274   21941048.0424
        50.000          44.000
 137865045.52047  89635091.91247  24331913.0834   24331917.6894   24331912.3334
        42.000          37.000
 128188683.49447  99887273.19747  24393504.9834   24393507.5264   24393504.7214
        43.000          38.000
 125032107.16347  97427591.42047  23792837.9534   23792841.8104   23792838.4954
        45.000          39.000
 09  1  8  0 16 30.0000000  0 12G30G29G24G 6G 9G22G18G21G14G31G12G 5
 123436185.13947  96184016.20447  23489142.8764   23489146.6864   23489142.5304
        46.000          40.000
 114874717.72247  89512753.66547  21859942.2294   21859945.3384   21859942.2354
        52.000          46.000
 112443972.97747  87618654.25447  21397397.4474   21397401.7554   21397397.6314
        53.000          47.000
 141931880.43447  92804037.79247  25105820.8624   25105826.3724   25105821.0944
        40.000          35.000
 114692647.80647  89370882.88047  21825291.3204   21825294.6744   21825291.4204
        51.000          45.000
 127788263.17947  99575269.12447  24317297.0344   24317299.5184   24317297.6114
        44.000          38.000
 124429345.90947  96957910.26147  23678133.7774   23678136.2714   23678134.2174
        46.000          39.000
 109018171.86347  84949224.83047  20745467.1144   20745469.1694   20745467.5094
        54.000          48.000
 115292228.18147  89838088.55447  21939389.9664   21939393.0044   21939390.1814
        50.000          44.000
 137761451.95647  89554369.71447  24312200.0524   24312204.2854   24312199.1984
        43.000          37.000
 128190955.88847  99889043.96547  24393936.2544   24393939.7294   24393936.2104
        42.000          38.000
 125019504.63347  97417771.28847  23790439.6674   23790443.5254   23790440.0104
        45.000          39.000
 09  1  8  0 17  0.0000000  0 12G30G29G24G 6G 9G22G18G21G14G31G12G 5
 123419879.73347  96171310.75447  23486040.1114   23486043.9114   23486039.8944
        47.000          40.000
 114946520.01747  89568703.50947  21873605.6364   21873608.8824   21873605.4874
        51.000          46.000
 112459423.98347  87630694.00747  21400337.3804   21400341.7654   21400337.6354
        53.000          47.000
 141868669.19447  92754782.30147  25093791.5804   25093798.0434   25093792.3004
        40.000          35.000
 114739529.15147  89407413.82047  21834212.6054   21834215.7794   21834212.7534
        51.000          45.000
 127775328.71847  99565190.35747  24314836.4514   24314838.2574   24314836.7314
        44.000          38.000
 124414670.32047  96946474.77047  23675341.4224   23675343.5844   23675341.7214
        46.000          39.000
 108954662.19547  84899736.78647  20733381.6834   20733383.5864   20733382.0294
        54.000          48.000
 115283967.56047  89831651.74547  21937818.2864   21937820.9934   21937818.2234
        50.000          44.000
 137657825.13247  89473621.59947  24292479.9084   24292484.7944   24292479.7364
        42.000          37.000
 128193159.76547  99890761.29547  24394356.1064   24394360.2934   24394355.5084
        44.000          38.000
 125006827.47647  97407893.01847  23788027.1094   23788031.3504   23788027.9944
        45.000          39.000
 09  1  8  0 17 30.0000000  0 12G30G29G24G 6G 9G22G18G21G14G31G12G 5
 123403394.37147  96158465.07747  23482903.1194   23482906.6214   23482902.7264
        47.000          40.000
 115018465.94547  89624765.28647  21887296.2864   21887299.5904   21887295.6594
        51.000          46.000
 112475342.62747  87643098.15547  21403366.8014   21403371.0774   21403366.8744
        53.000          47.000
 141805745.09147  92705750.59247  25081818.0644   25081823.0304   25081817.8064
        40.000          35.000
 114786929.62147  89444349.27247  21843232.5414   21843235.9204   21843232.5124
        51.000          45.000
 127762192.88347  99554954.69447  24312336.8704   24312337.6924   24312337.2744
        45.000          38.000
 124399776.31947  96934869.07047  23672506.8784   23672509.2344   23672507.4794
        45.000          39.000
 108891528.76647  84850541.91347  20721367.8504   20721369.6114   20721368.2964
        54.000          48.000
 115276156.96547  89825565.59347  21936331.7134   21936334.5934   21936332.0444
        50.000          44.000
 137554168.30447  89392850.11147  24272754.4564   24272759.5414   24272754.4304
        42.000          37.000
 128195297.43847  99892427.07047  24394762.9754   24394766.2634   24394763.0274
        43.000          38.000
 124994078.15547  97397958.51447  23785600.8204   23785604.8564   23785601.4784
        45.000          39.000
 09  1  8  0 18  0.0000000  0 12G30G29G24G 6G 9G22G18G21G14G31G12G 5
 123386729.19047  96145479.28447  23479731.7994   23479735.8534   23479731.1264
        47.000          40.000
 115090551.77347  89680936.06747  21901013.8164   21901017.2364   21901013.4914
        51.000          46.000
 112491727.91947  87655865.92047  21406484.7574   21406489.1064   21406484.8534
        53.000          47.000
 141743107.81747  92656942.40247  25069899.2244   25069903.0424   25069898.9594
        40.000          35.000
 114834847.04547  89481687.53747  21852350.5334   21852354.3644   21852350.5604
        51.000          45.000
 127748853.25647  99544560.23647  24309798.8324   24309799.3244   24309798.8034
        45.000          38.000
 124384662.76647  96923092.29047  23669630.7094   23669633.4284   23669631.0184
        46.000          39.000
 108828773.40247  84801641.64447  20709425.7404   20709427.8894   20709426.0964
        54.000          48.000
 115268794.07947  89819828.31247  21934930.5974   21934933.5604   21934930.8944
        50.000          44.000
 137450482.85747  89312056.34447  24253023.6234   24253028.3984   24253023.3014
        43.000          37.000
 128197369.73947  99894041.88747  24395157.3134   24395161.1314   24395157.0764
        43.000          38.000
 124981257.28447  97387968.24547  23783161.4024   23783165.5724   23783161.8114
        45.000          39.000
 09  1  8  0 18 30.0000000  0 12G30G29G24G 6G 9G22G18G21G14G31G12G 5
 123369885.99647  96132354.78647  23476526.0114   23476530.0594   23476525.7354
        47.000          40.000
 115162774.91847  89737213.84247  21914757.3654   21914760.7974   21914757.2754
        51.000          46.000
 112508581.06147  87668998.24947  21409691.6844   21409696.1034   21409691.9354
        53.000          47.000
 121680793.32457 112608394.37157  25058033.6035   25058037.4415   25058034.3705
        40.000          35.000
 114883281.26247  89519428.50947  21861567.7144   21861570.8974   21861567.8954
        51.000          45.000
 127735310.15047  99534007.22347  24307220.7404   24307222.3324   24307221.3654
        45.000          38.000
 124369330.20447  96911144.86547  23666712.8644   23666714.9174   23666713.4544
        46.000          39.000
 108766399.84347  84753038.88247  20697556.4544   20697558.5124   20697556.7534
        55.000          48.000
 115261878.13747  89814439.29247  21933614.5144   21933617.5344   21933614.5804
        51.000          44.000
 137346771.75247  89231242.55747  24233288.2214   24233293.2454   24233287.2904
        43.000          38.000
 128199378.78947  99895607.42447  24395539.6554   24395542.8234   24395538.9604
        43.000          38.000
 124968367.11347  97377923.98547  23780707.9204   23780713.0894   23780708.4364
        44.000          39.000
 09  1  8  0 19  0.0000000  0 12G30G29G24G 6G 9G22G18G21G14G31G12G 5
 123352865.88447  96119092.43247  23473287.3224   23473291.3244   23473286.9294
        47.000          40.000
 115235133.69647  89793597.31447  21928526.7794   21928530.1514   21928526.2464
        51.000          46.000
 112525903.00447  87682495.87747  21412988.2614   21412992.4704   21412988.3074
        53.000          47.000
 141618729.32457  92560030.93357  25046224.6555   25046229.4935   25046224.1855
        40.000          35.000
 114932232.38747  89557572.25947  21870882.8184   21870886.2404   21870882.9404
        51.000          45.000
 127721563.32047  99523295.46647  24304605.4794   24304606.7554   24304605.3724
        46.000          39.000
 124353779.87847  96899027.74347  23663754.1674   23663755.8434   23663754.4124
        46.000          39.000
 108704411.52347  84704736.29847  20685760.6044   20685762.4774   20685761.0754
        54.000          48.000
 115255408.52247  89809398.07747  21932383.5984   21932386.4344   21932383.6564
        51.000          44.000
 137243038.20147  89150411.33147  24213547.8644   24213552.8334   24213546.7744
        43.000          38.000
 128201326.75747  99897125.37747  24395910.5434   24395913.2204   24395910.0874
        44.000          38.000
 124955410.15047  97367827.67547  23778242.1964   23778246.9954   23778242.8634
        45.000          39.000
 09  1  8  0 19 30.0000000  0 12G30G29G24G 6G 9G22G18G21G14G31G12G 5
 123335668.97347  96105692.31747  23470015.0754   23470019.1734   23470014.4774
        46.000          40.000
 115307624.14847  89850083.38447  21942321.0674   21942324.5864   21942320.7654
        51.000          46.000
 112543693.29047  87696358.45447  21416373.4774   21416377.6424   21416373.7174
        53.000          47.000
 141556958.18647  92511897.61747  25034469.5984   25034475.1264   25034469.3794
        40.000          35.000
 114981698.03747  89596116.93747  21880295.7834   21880299.3314   21880295.8994
        51.000          45.000
 127707610.85547  99512423.46647  24301950.0784   24301951.2484   24301950.3854
        44.000          38.000
 124338011.02847  96886740.34847  23660753.1054   23660755.5684   23660753.2224
        46.000          39.000
 108642810.42047  84656735.44947  20674038.2684   20674040.1594   20674038.5684
        55.000          48.000
 115249383.33947  89804703.15647  21931236.8584   21931239.8534   21931236.9214
        51.000          45.000
 137139283.64147  89069563.71147  24193804.5514   24193809.1484   24193803.6064
        43.000          38.000
 128203214.36647  99898596.27247  24396269.4594   24396273.1454   24396269.1144
        43.000          38.000
 124942387.13947  97357679.91747  23775764.3644   23775769.0434   23775764.4094
        45.000          39.000
 09  1  8  0 20  0.0000000  0 12G30G29G24G 6G 9G22G18G21G14G31G12G 5
 123318296.19147  96092155.17147  23466708.4444   23466713.1454   23466708.3694
        46.000          40.000
 115380243.37847  89906669.80247  21956140.3774   21956143.7854   21956140.2514
        51.000          46.000
 112561952.22447  87710586.20347  21419847.7844   21419852.2364   21419847.7744
        53.000          47.000
 141495476.46647  92463989.80347  25022769.9344   25022774.7454   25022770.3524
        40.000          35.000
 115031676.97547  89635061.58747  21889806.5394   21889809.8074   21889806.7054
        51.000          45.000
 127693451.58347  99501390.31347  24299255.5204   24299256.5974   24299255.2494
        45.000          39.000
 124322023.93347  96874282.87847  23657710.9214   23657713.2474   23657711.3054
        45.000          39.000
 108581599.31847  84609038.49647  20662390.2074   20662392.0694   20662390.4994
        54.000          48.000
 115243801.00847  89800353.32547  21930174.6714   21930177.6374   21930174.9594
        51.000          45.000
 137035510.08247  88988701.28847  24174056.8594   24174061.6794   24174057.0764
        44.000          38.000
 128205043.21247  99900021.41947  24396617.3344   24396620.4494   24396617.4054
        43.000          38.000
 124929299.47147  97347481.78447  23773273.8744   23773278.1514   23773274.2894
        45.000          39.000
 09  1  8  0 20 30.0000000  0 12G30G29G24G 6G 9G22G18G21G14G31G12G 5
 123300750.96547  96078483.64047  23463369.9544   23463374.2904   23463369.5754
        47.000          40.000
 115452990.44547  89963355.82347  21969983.5804   21969987.0214   21969983.0374
        51.000          46.000
 112580682.16147  87725180.96647  21423412.0494   21423416.5114   21423412.1024
        53.000          47.000
 141434286.74147  92416309.51347  25011125.3244   25011131.5634   25011125.8084
        41.000          35.000
 115082170.63647  89674407.31647  21899415.1414   21899418.1374   21899415.3404
        51.000          45.000
 127679087.08747  99490197.26847  24296521.8914   24296523.4304   24296522.0714
        45.000          39.000
 124305820.95147  96861657.19247  23654627.5634   23654630.0544   23654628.0714
        46.000          39.000
 108520782.97347  84561649.14747  20650817.0194   20650818.9224   20650817.3434
        54.000          48.000
 115238662.18347  89796349.07247  21929196.7514   21929199.9884   21929196.9914
        50.000          45.000
 136931722.11647  88907827.64147  24154306.5914   24154311.3654   24154307.0364
        43.000          39.000
 128206816.64047  99901403.35147  24396954.9944   24396958.4764   24396954.3424
        42.000          38.000
 124916150.99747  97337236.28447  23770771.7904   23770776.4744   23770772.2464
        45.000          39.000
 09  1  8  0 21  0.0000000  0 12G30G29G24G 6G 9G22G18G21G14G31G12G 5
 123283032.00447  96064676.73847  23459997.9814   23460002.3694   23459997.3704
        47.000          41.000
 115525860.70447  90020137.84747  21983850.3314   21983853.8884   21983850.1524
        51.000          46.000
 112599881.18247  87740141.25047  21427065.4864   21427070.0704   21427065.6114
        53.000          47.000
 141373387.51147  92368855.54647  24999538.0204   24999541.8684   24999537.0314
        42.000          35.000
 115133175.69047  89714151.52747  21909120.9934   21909124.1564   21909121.1254
        51.000          45.000
 127664514.18647  99478841.81647  24293748.4694   24293750.2824   24293748.7504
        45.000          39.000
 124289399.99747  96848861.65247  23651502.8834   23651505.3094   23651503.1784
        46.000          39.000
 108460362.07947  84514567.93447  20639319.6364   20639321.1754   20639320.1224
        55.000          48.000
 115233963.18247  89792687.55347  21928302.4254   21928305.6264   21928302.4664
        51.000          45.000
 136827920.18347  88826943.11247  24134553.8254   24134558.3654   24134553.3004
        43.000          39.000
 128208534.68847  99902742.12447  24397282.0234   24397285.1674   24397281.5674
        43.000          38.000
 124902941.31147  97326943.09447  23768257.7354   23768262.2564   23768258.3884
        45.000          39.000
 09  1  8  0 21 30.0000000  0 12G30G29G24G 6G 9G22G18G21G14G31G12G 5
 123265140.38547  96050735.30247  23456593.7404   23456597.6754   23456593.3414
        47.000          41.000
 115598851.21447  90077013.57347  21997740.2324   21997743.5204   21997740.0164
        51.000          46.000
 112619549.60247  87755467.29947  21430808.2274   21430812.7234   21430808.3224
        53.000          47.000
 141312779.21347  92321628.29147  24988003.2274   24988008.2654   24988003.7084
        40.000          35.000
 115184690.69847  89754293.11847  21918923.9064   21918927.2624   21918924.0024
        51.000          44.000
 127649732.41147  99467323.60047  24290935.7894   24290937.3264   24290935.8244
        45.000          38.000
 124272761.43547  96835896.55547  23648336.5984   23648338.5514   23648337.0654
        46.000          40.000
 108400339.73847  84467797.29247  20627897.7734   20627899.4394   20627898.1254
        55.000          48.000
 115229702.78847  89789367.80447  21927491.4994   21927494.5014   21927491.7314
        50.000          44.000
 136724106.83647  88746049.67847  24114798.7284   24114802.9404   24114797.2724
        43.000          38.000
 128210198.48947  99904038.64747  24397598.5024   24397601.5704   24397598.5524
        43.000          38.000
 124889671.96947  97316603.42247  23765732.4754   23765736.5624   23765732.9944
        45.000          39.000
 09  1  8  0 22  0.0000000  0 12G30G29G24G 6G 9G22G18G21G14G31G12G 5
