     2.11           OBSERVATION DATA    G (GPS)             RINEX VERSION / TYPE
teqc  2008Oct2      gpsops              20090104 00:09:08UTCPGM / RUN BY / DATE
    30.0000                                                 INTERVAL
     1     1                                                WAVELENGTH FACT L1/2
     7    L1    L2    P1    P2    C1    S1    S2            # / TYPES OF OBSERV
Linux 2.4.20-8|Pentium IV|gcc -static|Linux|486/DX+         COMMENT
     2.10           OBSERVATION DATA    GPS                 COMMENT
soc2rnx ver 1.20    gpsops               4-Jan-2009 00:09:01COMMENT
S1, if present, is the SNR for the C/A data stream on L1.   COMMENT
 SNR is mapped to RINEX snr flag value [1,4-9]              COMMENT
    SNR:   >316  >100  >31.6  >10  >3.2    >0 bad=0         COMMENT
L1 & L2:      9     8     7     6     5     4     1         COMMENT
                                                            COMMENT
This data is provided as a public service by NASA/JPL.      COMMENT
No warranty is expressed or implied regarding suitability   COMMENT
for use.  For further information, contact:                 COMMENT
Dave Stowers, NASA/JPL m/s 238-600                          COMMENT
4800 Oak Grove Drive, Pasadena CA 91109 USA                 COMMENT
                                                            COMMENT
Forced Modulo Decimation to 30 seconds                      COMMENT
  2009     1     3     0     0    0.0000000     GPS         TIME OF FIRST OBS
GGN                 JPL                                     OBSERVER / AGENCY
CR519992104         ASH701945B_M    SCIT                    ANT # / TYPE
   -33801.4662 -6377516.5323   -82154.3508                  APPROX POSITION XYZ
        0.0083        0.0000        0.0000                  ANTENNA: DELTA H/E/N
ZR220013847         ASHTECH UZ-12       CQ00                REC # / TYPE / VERS
GLPS                                                        MARKER NAME
42005M002                                                   MARKER NUMBER
                                                            END OF HEADER
 09  1  3  0  0  0.0000000  0 10G 5G30G24G14G29G21G18G12G 9G22
 125589553.81847  97861971.52247  23898907.8704   23898915.0474   23898909.0094
        46.000          39.000
 124083205.33747  96688189.28847  23612265.5604   23612270.1914   23612265.3374
        46.000          40.000
 112532215.83947  87687430.58047  21414176.7164   21414181.2554   21414176.9144
        54.000          47.000
 117286644.67347  91392175.68747  22318918.2254   22318921.6484   22318917.9854
        49.000          43.000
 110194092.55647  85865518.61847  20969245.4194   20969248.1264   20969244.7894
        53.000          48.000
 114549426.46547  89259282.41647  21798037.7684   21798039.4924   21798038.1584
        52.000          45.000
 124892379.78747  97318728.00047  23766238.4744   23766241.0524   23766238.8024
        45.000          39.000
 127770965.81347  99561764.64647  24314025.6644   24314030.1194   24314025.4224
        44.000          38.000
 112682222.50547  87804304.02747  21442735.0024   21442738.5794   21442735.1554
        53.000          47.000
 128252479.02547  99937002.14747  24405629.5824   24405632.7954   24405629.8164
        43.000          37.000
 09  1  3  0  0 30.0000000  0 10G 5G30G24G14G29G21G18G12G 9G22
 125586441.14247  97859546.08047  23898316.5174   23898322.6374   23898317.0994
        46.000          39.000
 124082246.78347  96687442.40847  23612083.0944   23612088.2444   23612083.0094
        46.000          40.000
 112515956.36847  87674760.86247  21411082.5864   21411087.0954   21411082.7744
        54.000          47.000
 117243157.29147  91358289.45347  22310642.1864   22310645.9454   22310642.3504
        48.000          43.000
 110247971.66947  85907502.34247  20979497.9144   20979501.1324   20979497.4454
        53.000          48.000
 114466684.02847  89194807.79947  21782292.4074   21782294.2344   21782292.8564
        52.000          45.000
 124893880.50747  97319897.42347  23766523.6464   23766526.4474   23766523.9264
        46.000          39.000
 127782215.21847  99570530.49247  24316166.0854   24316171.2794   24316166.0944
        42.000          38.000
 112690228.25447  87810542.28147  21444258.5134   21444262.4484   21444258.5964
        53.000          47.000
 128251629.43047  99936340.21547  24405468.7064   24405471.0904   24405467.9344
        43.000          37.000
 09  1  3  0  1  0.0000000  0 10G 5G30G24G14G29G21G18G12G 9G22
 125583153.08847  97856983.97947  23897690.4304   23897696.4024   23897690.9324
        46.000          39.000
 124081065.61647  96686522.07347  23611858.6624   23611863.4384   23611858.4594
        46.000          40.000
 112500071.05547  87662382.70047  21408059.7324   21408064.3754   21408059.8664
        54.000          47.000
 117200142.20547  91324771.24647  22302456.6624   22302460.8254   22302457.1524
        49.000          43.000
 110302196.07847  85949755.12347  20989816.4334   20989819.4934   20989816.2644
        53.000          48.000
 114384087.63547  89130446.98847  21766574.7084   21766576.6204   21766575.0624
        52.000          45.000
 124895175.28847  97320906.36747  23766770.2564   23766772.7364   23766770.8164
        46.000          39.000
 127793297.43147  99579166.07547  24318274.1044   24318279.8224   24318273.7304
        43.000          38.000
 112698742.86047  87817177.05947  21445878.8324   21445882.7274   21445878.9344
        53.000          47.000
 128250663.40147  99935587.55747  24405286.0314   24405287.2324   24405285.5094
        43.000          37.000
 09  1  3  0  1 30.0000000  0 10G 5G30G24G14G29G21G18G12G 9G22
 125579689.41647  97854285.03747  23897031.6194   23897037.4164   23897032.4784
        46.000          39.000
 124079660.80947  96685427.47447  23611590.8464   23611595.8694   23611590.8484
        46.000          39.000
 112484560.53347  87650296.57647  21405108.1054   21405112.8774   21405108.1304
        53.000          47.000
 117157598.54347  91291620.37347  22294361.0634   22294364.4824   22294361.2124
        49.000          43.000
 110356761.76847  85992273.84047  21000199.9604   21000203.0924   21000199.6104
        53.000          48.000
 114301639.17247  89066201.44147  21750885.5124   21750887.2514   21750885.9334
        52.000          45.000
 124896262.24947  97321753.37447  23766977.2244   23766979.6594   23766977.4294
        46.000          39.000
 127804212.48047  99587671.40647  24320351.7384   24320357.1104   24320351.3914
        44.000          38.000
 112707766.44247  87824208.43147  21447595.9044   21447599.8624   21447595.9614
        53.000          47.000
 128249578.30347  99934742.09647  24405078.5054   24405080.3474   24405078.7694
        44.000          38.000
 09  1  3  0  2  0.0000000  0 10G 5G30G24G14G29G21G18G12G 9G22
 125576053.04147  97851451.51147  23896339.5694   23896345.6434   23896339.9674
        45.000          39.000
 124078034.45347  96684160.23447  23611281.1734   23611286.1314   23611281.3734
        46.000          39.000
 112469428.47647  87638505.35847  21402228.6044   21402233.3064   21402228.6744
        53.000          47.000
 117115528.83647  91258838.81347  22286355.6194   22286358.7164   22286355.9494
        49.000          43.000
 110411668.32747  86035058.16447  21010648.2804   21010651.7374   21010648.0234
        53.000          48.000
 114219343.43747  89002074.90147  21735224.9784   21735226.6834   21735225.5494
        53.000          46.000
 124897142.44047  97322439.25247  23767144.3894   23767147.1024   23767144.6074
        45.000          39.000
 127814962.80747  99596048.39147  24322397.4064   24322403.0334   24322397.5774
        43.000          38.000
 112717301.90747  87831638.68147  21449410.3614   21449414.2854   21449410.5384
        53.000          47.000
 128248374.61847  99933804.23447  24404849.9614   24404851.9934   24404850.3334
        44.000          37.000
 09  1  3  0  2 30.0000000  0 10G 5G30G24G14G29G21G18G12G 9G22
 125572245.12347  97848484.32547  23895615.0304   23895620.9504   23895615.1624
        46.000          39.000
 124076186.68047  96682720.45447  23610930.0074   23610934.2914   23610929.8874
        46.000          40.000
 112454676.70547  87627010.46747  21399421.5314   21399426.1964   21399421.6404
        53.000          47.000
 117073933.42147  91226426.83747  22278439.9074   22278443.7224   22278439.9614
        49.000          43.000
 110466913.24047  86078106.14047  21021161.0794   21021164.3564   21021160.7224
        53.000          48.000
 114137203.83447  88938070.03047  21719594.3694   21719596.3294   21719594.7044
        52.000          46.000
 124897815.77047  97322963.95547  23767272.4324   23767275.1214   23767272.6854
        45.000          39.000
 127825550.19247  99604298.42147  24324412.1764   24324417.5424   24324411.6034
        44.000          38.000
 112727350.36947  87839468.67447  21451322.6994   21451326.5214   21451322.7914
        53.000          47.000
 128247051.20947  99932773.07947  24404597.4944   24404599.5644   24404597.7224
        44.000          37.000
 09  1  3  0  3  0.0000000  0 10G 5G30G24G14G29G21G18G12G 9G22
 125568265.28547  97845383.18147  23894857.5484   23894863.5424   23894858.3074
        46.000          39.000
 124074116.26747  96681107.18947  23610536.0454   23610540.7954   23610536.0434
        46.000          40.000
 112440305.93047  87615812.46647  21396686.8444   21396691.4004   21396686.9054
        54.000          47.000
 117032811.75147  91194383.99847  22270614.8844   22270618.5404   22270615.1554
        49.000          43.000
 110522492.24747  86121414.45147  21031737.5934   21031740.5784   21031737.4194
        53.000          48.000
 114055221.81747  88874187.95847  21703993.4084   21703995.5824   21703993.9044
        52.000          45.000
 124898279.87847  97323325.62347  23767360.8184   23767362.9574   23767361.1154
        46.000          39.000
 127835973.89747  99612420.91747  24326395.6264   24326400.3404   24326395.5544
        42.000          38.000
 112737911.29647  87847697.98347  21453332.3714   21453336.1994   21453332.5564
        53.000          47.000
 128245604.95747  99931646.18647  24404322.7234   24404324.4054   24404322.5624
        44.000          37.000
 09  1  3  0  3 30.0000000  0 10G 5G30G24G14G29G21G18G12G 9G22
 125564115.59047  97842149.68447  23894067.9564   23894073.7644   23894068.1834
        45.000          39.000
 124071824.31147  96679321.29947  23610099.5194   23610104.6064   23610099.2404
        46.000          40.000
 112426318.91747  87604913.49547  21394025.3074   21394029.5974   21394025.4524
        54.000          47.000
 116992165.01647  91162711.24747  22262880.2064   22262883.6424   22262880.2894
        49.000          43.000
 110578403.84747  86164981.92847  21042376.9164   21042380.2944   21042376.5174
        53.000          48.000
 113973401.48247  88810431.87947  21688423.5144   21688425.9224   21688423.9604
        52.000          46.000
 124898535.15347  97323524.56147  23767409.0994   23767411.9574   23767409.7684
        46.000          39.000
 127846235.57647  99620417.13347  24328348.0194   24328352.5764   24328347.2714
        43.000          38.000
 112748987.01747  87856328.43847  21455440.0474   21455443.8594   21455440.2954
        53.000          47.000
 128244035.15447  99930423.03047  24404024.2234   24404026.2874   24404024.0344
        42.000          37.000
 09  1  3  0  4  0.0000000  0 10G 5G30G24G14G29G21G18G12G 9G22
 125559796.66747  97838784.32647  23893245.6874   23893251.6604   23893246.7324
        46.000          39.000
 124069310.80847  96677362.76747  23609621.4404   23609625.8544   23609621.2534
        47.000          40.000
 112412717.11347  87594314.67747  21391436.8804   21391441.3274   21391436.9654
        53.000          47.000
 116951993.22947  91131408.59947  22255235.4634   22255239.3814   22255235.5634
        49.000          43.000
 110634644.81847  86208806.05247  21053079.3114   21053082.6824   21053079.1264
        53.000          48.000
 113891745.51347  88746803.86847  21672884.9844   21672887.1654   21672885.2904
        52.000          45.000
 124898580.88047  97323560.20847  23767418.0234   23767420.8204   23767418.9034
        46.000          39.000
 127856336.23147  99628287.85447  24330269.9764   24330275.1954   24330269.6544
        43.000          38.000
 112760577.61747  87865360.10047  21457645.6544   21457649.2744   21457645.6924
        53.000          47.000
 128242339.95347  99929102.15747  24403700.8364   24403703.3584   24403701.0544
        44.000          37.000
 09  1  3  0  4 30.0000000  0 10G 5G30G24G14G29G21G18G12G 9G22
 125555310.01147  97835288.28247  23892392.0464   23892398.0204   23892392.7484
        45.000          39.000
 124066576.24047  96675231.98447  23609101.4254   23609105.2374   23609101.5354
        47.000          40.000
 112399502.77947  87584017.78847  21388922.2694   21388926.7214   21388922.2724
        53.000          47.000
 116912297.35147  91100476.78347  22247681.5904   22247685.3264   22247681.6094
        48.000          43.000
 110691213.03047  86252885.16747  21063844.1434   21063847.1554   21063843.8524
        53.000          48.000
 113810257.31247  88683306.57347  21657378.2484   21657380.4124   21657378.5004
        52.000          45.000
 124898417.20947  97323432.69547  23767386.8054   23767389.2404   23767387.7514
        46.000          39.000
 127866277.83847  99636034.68747  24332161.3194   24332166.7174   24332161.0454
        43.000          38.000
 112772684.86447  87874794.35147  21459949.6074   21459953.0374   21459949.6654
        53.000          47.000
 128240518.38847  99927682.84647  24403354.4144   24403355.9044   24403354.8034
        44.000          38.000
 09  1  3  0  5  0.0000000  0 10G 5G30G24G14G29G21G18G12G 9G22
 125550656.69147  97831662.35947  23891506.5954   23891512.4814   23891506.7294
        46.000          39.000
 124063620.74047  96672929.02247  23608538.6604   23608543.2124   23608538.6084
        47.000          40.000
 112386677.59747  87574024.15147  21386481.6584   21386486.1834   21386481.6954
        53.000          47.000
 116873077.40347  91069915.83447  22240218.3924   22240222.0674   22240218.7364
        49.000          43.000
 110748105.62047  86297217.04447  21074670.2594   21074673.5184   21074669.9634
        53.000          48.000
 113728939.86647  88619942.33947  21641904.0394   21641906.1794   21641904.4944
        52.000          45.000
 124898043.00947  97323141.16547  23767315.6724   23767318.3824   23767316.2364
        45.000          39.000
 127876061.27547  99643658.25347  24334022.8424   24334028.4784   24334022.5334
        42.000          38.000
 112785309.40947  87884631.69247  21462351.6274   21462355.4784   21462351.7324
        53.000          47.000
 128238568.78447  99926163.74047  24402983.5154   24402986.1784   24402983.6204
        43.000          38.000
 09  1  3  0  5 30.0000000  0 10G 5G30G24G14G29G21G18G12G 9G22
 125545836.48447  97827906.40947  23890589.2814   23890595.1454   23890589.8224
        45.000          39.000
 124060443.35247  96670453.17747  23607933.7034   23607938.5544   23607933.7194
        47.000          40.000
 112374242.00547  87564334.09247  21384115.0664   21384119.8434   21384115.2094
        53.000          47.000
 116834332.87147  91039725.32947  22232845.3304   22232849.0594   22232845.4414
        49.000          43.000
 110805318.94547  86341798.84847  21085557.7924   21085560.8114   21085557.6384
        53.000          48.000
 113647795.14147  88556712.70047  21626462.6424   21626464.6374   21626463.1974
        52.000          46.000
 124897456.42847  97322684.11647  23767204.0924   23767206.3174   23767204.3134
        46.000          39.000
 127885685.84347  99651158.07947  24335853.9734   24335859.6094   24335853.6274
        43.000          38.000
 112798450.76147  87894871.73547  21464852.5464   21464856.0124   21464852.5734
        53.000          47.000
 128236488.21647  99924542.56447  24402587.1434   24402589.0244   24402587.2804
        44.000          38.000
 09  1  3  0  6  0.0000000  0 10G 5G30G24G14G29G21G18G12G 9G22
 125540852.82147  97824023.09247  23889640.6624   23889646.9404   23889641.2444
        45.000          39.000
 124057046.68147  96667806.45747  23607287.7684   23607291.9134   23607287.4624
        47.000          40.000
 112362199.97647  87554950.69247  21381823.6644   21381828.3704   21381823.7464
        53.000          47.000
 116796066.44947  91009907.38947  22225563.5464   22225567.0934   22225563.8454
        49.000          43.000
 110862852.34047  86386630.05247  21096505.8804   21096508.9864   21096505.5054
        53.000          48.000
 113566828.64247  88493621.92947  21611055.2844   21611057.3724   21611055.6854
        52.000          46.000
 124896659.16447  97322062.90547  23767052.4024   23767054.3514   23767053.0024
        47.000          39.000
 127895155.03947  99658536.77947  24337655.8124   24337661.6734   24337655.1944
        43.000          38.000
 112812112.22947  87905517.05647  21467452.0134   21467455.8404   21467452.0544
        53.000          47.000
 128234278.73747  99922820.96947  24402167.0014   24402168.9744   24402166.2214
        43.000          37.000
 09  1  3  0  6 30.0000000  0 10G 5G30G24G14G29G21G18G12G 9G22
 125535705.44247  97820012.20147  23888660.9424   23888667.5104   23888661.4824
        45.000          39.000
 124053429.27347  96664987.73347  23606599.3654   23606603.7494   23606599.1164
        47.000          40.000
 112350551.81947  87545874.21447  21379606.9804   21379611.6674   21379607.0254
        53.000          47.000
 116758276.55747  90980460.77147  22218372.1064   22218375.7354   22218372.1234
        49.000          43.000
 110920701.63547  86431707.40947  21107514.2264   21107517.3664   21107514.0354
        53.000          48.000
 113486041.87447  88430671.21447  21595682.0944   21595684.2604   21595682.5634
        52.000          46.000
 124895649.72147  97321276.35647  23766860.6904   23766862.5464   23766860.9944
        46.000          39.000
 127904468.87447  99665794.43147  24339428.4954   24339433.9954   24339428.4894
        43.000          38.000
 112826293.05447  87916567.08147  21470150.6404   21470154.4114   21470150.9084
        53.000          47.000
 128231936.68747  99920996.04647  24401721.2484   24401723.4684   24401720.5724
        44.000          37.000
 09  1  3  0  7  0.0000000  0 10G 5G30G24G14G29G21G18G12G 9G22
 125530395.77847  97815874.86247  23887650.8884   23887656.6994   23887650.9954
        45.000          39.000
 124049591.92447  96661997.61947  23605869.2074   23605873.5504   23605868.7974
        48.000          40.000
 112339299.77847  87537106.39447  21377466.1614   21377470.3564   21377466.2604
        54.000          47.000
 116720963.94847  90951386.06847  22211271.9084   22211275.1344   22211272.2284
        50.000          43.000
 110978864.71747  86477029.27447  21118582.2544   21118585.3814   21118581.9154
        53.000          48.000
 113405438.44647  88367863.36347  21580343.6024   21580345.8864   21580344.0004
        52.000          45.000
 124894427.90747  97320324.30847  23766627.5804   23766629.6384   23766627.6994
        46.000          39.000
 127913629.07047  99672932.35147  24341171.5524   24341177.3224   24341171.3534
        42.000          38.000
 112840994.35247  87928022.65847  21472948.2084   21472951.8184   21472948.2634
        53.000          47.000
 128229461.19547  99919067.16347  24401250.6064   24401251.6614   24401250.1094
        45.000          37.000
 09  1  3  0  7 30.0000000  0 10G 5G30G24G14G29G21G18G12G 9G22
 125524924.58847  97811611.66847  23886609.6454   23886615.9154   23886609.7784
        45.000          39.000
 124045534.21247  96658835.81147  23605097.7474   23605101.4964   23605097.2544
        47.000          40.000
 112328444.81547  87528647.99247  21375400.5684   21375404.8604   21375400.7674
        54.000          47.000
 116684128.57247  90922683.22047  22204262.6154   22204265.7284   22204262.7254
        50.000          43.000
 111037338.34847  86522593.12447  21129709.4194   21129712.6614   21129709.0944
        53.000          48.000
 113325020.82147  88305200.29947  21565040.6794   21565042.8114   21565041.0634
        52.000          46.000
 124892992.75547  97319206.02847  23766354.2294   23766356.8084   23766354.9484
        46.000          39.000
 127922635.99647  99679950.80747  24342885.1554   24342890.9804   24342884.8334
        42.000          38.000
 112856216.66147  87939884.22747  21475844.8604   21475848.4514   21475844.9214
        53.000          47.000
 128226850.38847  99917032.79847  24400753.4954   24400755.2024   24400753.6734
        44.000          38.000
 09  1  3  0  8  0.0000000  0 10G 5G30G24G14G29G21G18G12G 9G22
 125519293.07147  97807223.54247  23885537.8154   23885544.2394   23885538.1004
        45.000          39.000
 124041256.55847  96655502.60547  23604282.9934   23604287.7784   23604282.3704
        47.000          40.000
 112317989.09347  87520500.67447  21373410.8714   21373415.1534   21373411.0804
        53.000          47.000
 116647770.67747  90894352.44647  22197343.6434   22197347.0424   22197343.9314
        49.000          43.000
 111096119.93447  86568396.94347  21140895.1844   21140898.4354   21140895.0304
        53.000          48.000
 113244792.16947  88242684.47847  21549773.7914   21549775.9304   21549774.2424
        52.000          46.000
 124891344.33747  97317921.56647  23766041.0334   23766043.2444   23766041.7014
        46.000          39.000
 127931490.86047  99686850.78847  24344570.1074   24344576.0254   24344569.4934
        43.000          38.000
 112871960.61647  87952152.26547  21478840.9064   21478844.5554   21478841.0134
        53.000          47.000
 128224102.61647  99914891.74047  24400230.4264   24400232.2464   24400229.9994
        44.000          37.000
 09  1  3  0  8 30.0000000  0 10G 5G30G24G14G29G21G18G12G 9G22
 125513501.51647  97802710.69947  23884435.6914   23884441.7664   23884436.4954
        46.000          39.000
 124036758.73147  96651997.84447  23603426.9844   23603432.3604   23603426.1844
        47.000          40.000
 112307933.11347  87512664.85247  21371496.9814   21371501.5064   21371497.0574
        53.000          47.000
 116611889.56747  90866393.19847  22190515.6984   22190519.0014   22190516.1054
        50.000          43.000
 111155205.90647  86614437.95347  21152138.9344   21152141.9864   21152138.6114
        53.000          48.000
 113164754.74547  88180317.66947  21534543.1094   21534545.1964   21534543.5564
        52.000          46.000
 124889480.71147  97316469.41647  23765686.0744   23765688.9554   23765686.5784
        45.000          39.000
 127940194.03247  99693632.55447  24346226.3654   24346232.4834   24346226.3364
        42.000          38.000
 112888226.13047  87964826.71447  21481936.1054   21481939.8664   21481936.2464
        53.000          46.000
 128221215.88047  99912642.37347  24399680.7264   24399682.5574   24399680.4784
        43.000          37.000
 09  1  3  0  9  0.0000000  0 10G 5G30G24G14G29G21G18G12G 9G22
 125507553.19047  97798075.69647  23883303.8004   23883310.0364   23883304.6614
        45.000          39.000
 124032043.02147  96648323.28447  23602529.9254   23602534.5024   23602529.4344
        47.000          40.000
 112298280.65547  87505143.46047  21369660.1414   21369664.8574   21369660.1814
        53.000          47.000
 116576487.57747  90838807.27747  22183779.0034   22183782.3874   22183778.8694
        49.000          43.000
 111214595.46147  86660715.51147  21163440.6024   21163443.4244   21163440.2694
        53.000          48.000
 113084913.85847  88118104.00847  21519350.0194   21519352.3244   21519350.4994
        53.000          46.000
 124887403.26847  97314850.63147  23765290.5254   23765293.6394   23765290.8884
        46.000          39.000
 127948748.78947  99700298.66647  24347854.1604   24347860.1074   24347853.9324
        43.000          38.000
 112905016.06547  87977909.80347  21485130.9954   21485134.9034   21485131.0834
        53.000          47.000
 128218191.15147  99910285.47747  24399105.1744   24399107.2504   24399105.3334
        44.000          38.000
 09  1  3  0  9 30.0000000  0 10G 5G30G24G14G29G21G18G12G 9G22
 125501448.41947  97793318.81147  23882142.0324   23882148.2794   23882142.4504
        45.000          39.000
 124027108.65047  96644478.35647  23601590.3724   23601595.3084   23601590.3064
        46.000          40.000
 112289032.69847  87497937.25447  21367900.3124   21367904.8484   21367900.3824
        53.000          47.000
 116541564.19647  90811594.30847  22177133.3534   22177136.3864   22177133.5694
        49.000          43.000
 111274285.39747  86707227.13347  21174799.0934   21174802.2354   21174798.7634
        53.000          48.000
 113005271.91547  88056045.36047  21504194.5764   21504196.7914   21504194.9014
        52.000          46.000
 124885111.31147  97313064.71647  23764854.5334   23764857.2274   23764855.1794
        46.000          40.000
 127957155.42347  99706849.34147  24349454.2174   24349459.8254   24349453.9814
        44.000          38.000
 112922330.14847  87991401.31047  21488425.8634   21488429.5054   21488425.8914
        53.000          47.000
 128215026.32747  99907819.43147  24398503.1464   24398504.7624   24398504.0524
        44.000          38.000
 09  1  3  0 10  0.0000000  0 10G 5G30G24G14G29G21G18G12G 9G22
 125495186.52647  97788439.47547  23880950.5194   23880956.3834   23880950.4074
        46.000          39.000
 124021954.02347  96640461.77247  23600609.4814   23600614.6414   23600609.0294
        46.000          40.000
 112280189.05347  87491046.11047  21366217.5894   21366222.1534   21366217.8114
        53.000          47.000
 116507117.37047  90784752.68447  22170577.9534   22170581.2604   22170577.9874
        49.000          43.000
 111334270.63247  86753968.84947  21186214.0364   21186217.0674   21186213.8224
        53.000          48.000
 112925829.98447  87994142.57247  21489077.1004   21489079.3754   21489077.5784
        52.000          46.000
 124882602.32547  97311109.68247  23764377.4084   23764379.8064   23764377.7804
        46.000          40.000
 127965413.22447  99713284.06347  24351025.7394   24351030.2504   24351025.7094
        44.000          38.000
 112940166.80247  88005300.02747  21491820.2324   21491823.7594   21491820.4304
        53.000          47.000
 128211718.20947  99905241.72747  24397873.1684   24397875.4404   24397873.5514
        44.000          37.000
 09  1  3  0 10 30.0000000  0 10G 5G30G24G14G29G21G18G12G 9G22
 125488772.77747  97783441.82547  23879729.8734   23879736.0104   23879730.7634
        46.000          39.000
 124016583.78847  96636277.18247  23599587.1084   23599592.8124   23599586.8404
        46.000          40.000
 112271755.26147  87484474.32447  21364612.5904   21364617.3204   21364612.6184
        53.000          47.000
 116473151.51647  90758285.83447  22164114.5604   22164118.1424   22164114.4504
        49.000          44.000
 111394552.82347  86800941.95947  21197685.2664   21197688.3584   21197685.0684
        53.000          48.000
 112846595.13047  87932401.13947  21473999.1814   21474001.4274   21473999.6164
        52.000          46.000
 124879880.35247  97308988.69447  23763859.0524   23763861.6874   23763859.4504
        46.000          40.000
 127973527.82947  99719607.20447  24352569.8494   24352574.9994   24352569.6434
        43.000          38.000
 112958531.13647  88019609.90947  21495314.6114   21495318.1984   21495314.6634
        53.000          47.000
 128208269.05947  99902554.11947  24397216.8264   24397219.0714   24397217.0644
        43.000          37.000
 09  1  3  0 11  0.0000000  0 10G 5G30G24G14G29G21G18G12G 9G22
 125482203.25847  97778322.79247  23878479.1304   23878485.6944   23878479.8994
        44.000          39.000
 124010993.11447  96631920.82947  23598523.4234   23598528.8164   23598523.6944
        46.000          40.000
 112263727.76847  87478219.13447  21363084.9494   21363089.5264   21363085.0424
        53.000          47.000
 116439661.32747  90732189.63147  22157741.5354   22157744.9004   22157741.7934
        50.000          44.000
 111455124.11747  86848140.37047  21209211.7304   21209214.8134   21209211.3154
        53.000          48.000
 112767565.46547  87870819.60147  21458960.3184   21458962.7764   21458960.7464
        53.000          46.000
 124876939.30847  97306696.99847  23763299.5724   23763301.9964   23763299.8994
        46.000          40.000
 127981494.76747  99725815.25247  24354086.3074   24354091.0094   24354086.1374
        44.000          38.000
 112977418.44547  88034327.31547  21498908.8954   21498912.2014   21498909.1014
        53.000          46.000
 128204672.93447  99899751.99747  24396532.6094   24396534.9494   24396532.3404
        43.000          37.000
 09  1  3  0 11 30.0000000  0 10G 5G30G24G14G29G21G18G12G 9G22
 125475483.51947  97773086.70647  23877200.3204   23877206.8124   23877200.6124
        46.000          39.000
 124005186.70547  96627396.39047  23597418.5144   23597423.5734   23597418.6504
        46.000          40.000
 112256112.23947  87472284.96247  21361635.7644   21361640.3174   21361635.8244
        53.000          47.000
 116406651.41147  90706467.67847  22151459.9284   22151463.1504   22151460.0134
        49.000          44.000
 111515985.61147  86895564.90747  21220793.1224   21220796.2934   21220792.8294
        53.000          48.000
 112688748.43647  87809403.74347  21443962.2694   21443964.4114   21443962.7884
        53.000          46.000
 124873783.27147  97304237.77247  23762699.2054   23762701.4194   23762699.1644
        46.000          39.000
 127989319.72047  99731912.67247  24355575.5514   24355579.8324   24355575.0464
        43.000          38.000
 112996833.53247  88049455.97647  21502603.1014   21502606.6664   21502603.2704
        52.000          46.000
 128200932.58547  99896837.50147  24395820.9384   24395823.0134   24395821.4034
        43.000          38.000
 09  1  3  0 12  0.0000000  0 10G 5G30G24G14G29G21G18G12G 9G22
 125468611.45147  97767731.93747  23875892.6464   23875899.2714   23875892.9114
        45.000          39.000
 123999161.55747  96622701.47447  23596271.7944   23596277.0364   23596271.6854
        46.000          40.000
 112248907.22647  87466670.67147  21360264.8014   21360269.2304   21360264.9194
        53.000          47.000
 116374118.65147  90681117.53547  22145269.0284   22145272.4624   22145269.3034
        49.000          44.000
 111577131.68047  86943211.17947  21232428.9634   21232431.9814   21232428.6634
        53.000          48.000
 112610143.84647  87748153.43747  21429004.0474   21429006.4224   21429004.4214
        53.000          46.000
 124870408.67047  97301608.24147  23762056.9124   23762059.0974   23762057.1224
        46.000          39.000
 127997001.15347  99737898.24947  24357036.9674   24357041.4094   24357036.9544
        43.000          38.000
 113016773.51147  88064993.63847  21506397.8734   21506401.2624   21506398.0404
        53.000          46.000
 128197043.48647  99893807.09147  24395080.3874   24395082.3384   24395080.6764
        44.000          37.000
 09  1  3  0 12 30.0000000  0 10G 5G30G24G14G29G21G18G12G 9G22
 125461591.29147  97762261.77347  23874556.6684   23874563.1384   23874557.1674
        45.000          39.000
 123992921.04047  96617838.74747  23595084.4794   23595089.7044   23595084.0324
        46.000          40.000
 112242116.91047  87461379.51847  21358972.6394   21358977.0244   21358972.8224
        53.000          47.000
 116342065.45247  90656141.07347  22139169.4604   22139172.7374   22139169.5524
        50.000          44.000
 111638562.36247  86991079.22047  21244118.7914   21244121.9964   21244118.5644
        53.000          48.000
 112531757.94547  87687073.53047  21414087.7984   21414089.7294   21414088.3504
        53.000          46.000
 124866818.27347  97298810.54647  23761373.2084   23761375.9944   23761373.6654
        46.000          39.000
 128004543.16647  99743775.18747  24358472.0044   24358476.4814   24358471.1094
        43.000          38.000
 113037241.89947  88080943.05247  21510292.6314   21510296.4384   21510292.6334
        52.000          46.000
 128193006.99647  99890661.83447  24394312.8834   24394314.1964   24394312.6114
        44.000          38.000
 09  1  3  0 13  0.0000000  0 10G 5G30G24G14G29G21G18G12G 9G22
 125454423.22447  97756676.35247  23873192.9764   23873198.8464   23873193.5494
        45.000          39.000
 123986464.76147  96612807.88347  23593855.7774   23593860.8664   23593855.4144
        46.000          40.000
 112235741.81747  87456411.91447  21357759.3954   21357763.9944   21357759.5684
        53.000          47.000
 116310491.21347  90631537.82747  22133161.2124   22133164.4334   22133161.6044
        50.000          44.000
 111700273.70847  87039165.96547  21255862.0884   21255865.3914   21255861.8824
        53.000          48.000
 112453592.43147  87626165.34847  21399213.4444   21399215.0774   21399213.9284
        53.000          46.000
 124863010.28047  97295843.30547  23760648.9454   23760651.1314   23760649.4474
        46.000          39.000
 128011945.35947  99749543.17747  24359880.4594   24359885.5994   24359880.2664
        42.000          38.000
 113058238.61047  88097304.14747  21514288.0974   21514292.0684   21514288.0654
        52.000          46.000
 128188821.24547  99887400.27147  24393515.7754   24393518.2284   24393516.1414
        43.000          37.000
 09  1  3  0 13 30.0000000  0 10G 5G30G24G14G29G21G18G12G 9G22
 125447105.08447  97750974.00047  23871800.4884   23871806.1444   23871800.8614
        45.000          39.000
 123979789.37647  96607606.30047  23592585.6584   23592590.6754   23592585.2634
        46.000          40.000
 112229780.18547  87451766.49747  21356625.0514   21356629.4264   21356625.2094
        53.000          47.000
 116279392.47047  90607305.09847  22127243.3244   22127246.4144   22127243.5464
        50.000          44.000
 111762259.73847  87087466.75847  21267657.5414   21267661.0284   21267657.1144
        53.000          48.000
 112375647.20547  87565428.81347  21384380.8394   21384382.5624   21384381.2424
        53.000          46.000
 124858980.97147  97292703.61047  23759882.2494   23759884.3754   23759882.4674
        46.000          39.000
 128019205.69247  99755200.61747  24361261.9114   24361266.8264   24361262.2984
        43.000          38.000
 113079760.44447  88114074.43247  21518383.6724   21518387.3714   21518383.7544
        52.000          46.000
 128184481.38747  99884018.60047  24392689.8204   24392692.1474   24392689.9694
        44.000          37.000
 09  1  3  0 14  0.0000000  0 10G 5G30G24G14G29G21G18G12G 9G22
 125439644.27947  97745160.48647  23870380.2254   23870386.2844   23870380.9874
        45.000          39.000
 123972901.32147  96602238.96447  23591274.4474   23591280.0234   23591274.2684
        46.000          40.000
 112224239.64347  87447449.19047  21355570.7434   21355575.2004   21355570.7914
        54.000          47.000
 116248775.18847  90583447.52547  22121417.1394   22121419.9964   22121417.4264
        50.000          44.000
 111824524.01647  87135984.37647  21279505.9824   21279509.4464   21279505.9324
        53.000          48.000
 112297931.68847  87504871.28147  21369592.1234   21369594.0944   21369592.4834
        53.000          47.000
 124854736.16547  97289396.00947  23759074.1984   23759076.4944   23759074.6354
        45.000          39.000
 128026331.72547  99760753.43047  24362618.3994   24362622.6304   24362618.2414
        42.000          38.000
 113101813.74347  88131258.84347  21522580.2284   21522583.7684   21522580.2984
        52.000          46.000
 128179991.58947  99880520.12547  24391836.4144   24391837.3674   24391836.2474
        44.000          38.000
 09  1  3  0 14 30.0000000  0 10G 5G30G24G14G29G21G18G12G 9G22
 125432038.81547  97739234.24547  23868932.9704   23868938.7034   23868933.8154
        45.000          39.000
 123965797.90847  96596703.84147  23589923.0554   23589928.2124   23589922.8834
        46.000          40.000
 112219118.57547  87443458.75247  21354596.3034   21354600.8514   21354596.5944
        53.000          47.000
 116218636.12647  90559962.59047  22115681.7174   22115684.6014   22115681.7904
        50.000          44.000
 111887060.35047  87184713.98247  21291406.3744   21291409.5604   21291406.2134
        53.000          48.000
 112220445.36947  87444492.34447  21354847.0174   21354848.9794   21354847.4424
        53.000          46.000
 124850272.55947  97285917.89847  23758224.6904   23758227.2794   23758224.7364
        46.000          39.000
 128033321.66447  99766200.17547  24363947.9254   24363953.2544   24363947.5484
        42.000          38.000
 113124395.86147  88148855.32347  21526877.3094   21526881.1014   21526877.5814
        52.000          46.000
 128175347.72047  99876901.58347  24390951.9234   24390953.4224   24390952.2894
        44.000          37.000
 09  1  3  0 15  0.0000000  0 10G 5G30G24G14G29G21G18G12G 9G22
 125424290.27047  97733196.51947  23867458.8274   23867464.0734   23867458.7054
        45.000          39.000
 123958479.93247  96591001.50947  23588530.5744   23588535.6374   23588530.6264
        47.000          40.000
 112214418.36147  87439796.26147  21353701.6944   21353706.2664   21353701.8154
        53.000          47.000
 116188975.22447  90536850.24247  22110037.3854   22110040.4604   22110037.6964
        51.000          44.000
 111949865.89647  87233653.36547  21303357.9194   21303360.9504   21303357.4494
        53.000          48.000
 112143191.86247  87384294.81747  21340145.9414   21340148.0174   21340146.3274
        53.000          46.000
 124845589.88347  97282269.09047  23757334.0664   23757336.3944   23757334.8154
        45.000          39.000
 128040176.66847  99771541.78547  24365252.3694   24365256.9634   24365251.9314
        43.000          38.000
 113147507.29547  88166864.25147  21531275.2604   21531279.0844   21531275.3824
        52.000          46.000
 128170548.64247  99873162.09947  24390038.8134   24390040.2584   24390039.1424
        44.000          37.000
 09  1  3  0 15 30.0000000  0 10G 5G30G24G14G29G21G18G12G 9G22
 125416398.44547  97727047.14047  23865957.1214   23865962.3024   23865957.5714
        45.000          39.000
 123950946.36347  96585131.18747  23587097.2974   23587101.9344   23587097.1644
        47.000          40.000
 112210139.01347  87436461.71847  21352887.3584   21352891.8674   21352887.5244
        53.000          47.000
 116159790.92547  90514109.27547  22104483.5644   22104486.7364   22104483.8484
        50.000          44.000
 112012936.64747  87282799.39447  21315359.8674   21315363.1034   21315359.6324
        53.000          48.000
 112066173.06447  87324280.17447  21325489.8184   21325491.7274   21325490.0814
        53.000          46.000
 124840686.55447  97278448.34547  23756400.6824   23756403.2424   23756401.0224
        46.000          39.000
 128046897.02347  99776778.47047  24366531.5724   24366536.0714   24366531.4944
        43.000          38.000
 113171146.99747  88185284.81247  21535773.8214   21535777.6994   21535773.8654
        53.000          46.000
 128165591.88847  99869299.73747  24389095.6454   24389096.8274   24389095.8304
        44.000          37.000
 09  1  3  0 16  0.0000000  0 11G 5G30G24G31G14G29G21G18G12G 9G22
 125408366.92047  97720788.92047  23864428.3644   23864433.7494   23864428.7524
        46.000          39.000
 123943199.94447  96579095.00147  23585622.9884   23585627.6494   23585622.1304
        47.000          40.000
 112206284.39247  87433458.12947  21352153.7044   21352158.4394   21352153.8144
        53.000          47.000
 142105299.99557  92939162.59957  25138826.2825   25138832.1525   25138826.2465
        39.000          35.000
 116131085.54147  90491741.49747  22099021.3664   22099024.3594   22099021.5174
        50.000          44.000
 112076272.17747  87332151.73347  21327412.2364   21327415.3924   21327412.1314
        53.000          48.000
 111989394.01547  87264452.35147  21310879.2344   21310881.1624   21310879.6024
        53.000          47.000
 124835564.54547  97274457.17747  23755425.7714   23755428.3834   23755426.1954
        46.000          39.000
 128053485.97147  99781912.76847  24367784.7344   24367789.8324   24367784.5884
        42.000          38.000
 113195317.49647  88204118.99347  21540373.3964   21540377.2564   21540373.4364
        52.000          46.000
 128160478.26047  99865315.13447  24388122.4034   24388124.5764   24388122.5654
        43.000          37.000
 09  1  3  0 16 30.0000000  0 11G 5G30G24G31G14G29G21G18G12G 9G22
 125400196.74147  97714422.64347  23862873.1154   23862879.5564   23862873.6514
        45.000          39.000
 123935240.76047  96572893.03947  23584108.4164   23584112.9654   23584107.0494
        46.000          40.000
 112202855.32347  87430786.13247  21351501.1844   21351505.9894   21351501.2534
        53.000          47.000
 142005067.88447  92861059.82947  25119753.5714   25119758.8334   25119751.8554
        39.000          35.000
 116102858.68347  90469746.58347  22093649.8744   22093652.9624   22093650.1934
        50.000          44.000
 112139869.25347  87381707.88747  21339514.3814   21339517.4244   21339514.0754
        53.000          48.000
 111912857.65147  87204813.64547  21296314.6114   21296316.9894   21296314.9434
        53.000          47.000
 124830223.25147  97270295.15047  23754410.0244   23754411.6394   23754410.3504
        46.000          39.000
 128059944.68647  99786945.58847  24369013.7914   24369018.8694   24369013.0974
        43.000          38.000
 113220018.54947  88223366.58947  21545073.7814   21545077.7324   21545073.9634
        52.000          46.000
 128155206.44247  99861207.28347  24387119.3534   24387120.3714   24387119.1744
        43.000          37.000
 09  1  3  0 17  0.0000000  0 11G 5G30G24G31G14G29G21G18G12G 9G22
 125391888.66847  97707948.93847  23861292.4834   23861298.5444   23861292.7934
        45.000          39.000
 123927068.72547  96566525.22047  23582553.1294   23582557.8364   23582552.6324
        47.000          40.000
 112199852.78147  87428446.48847  21350930.0054   21350934.6504   21350930.0904
        53.000          47.000
 141904710.26247  92782859.29847  25100655.5744   25100659.9074   25100653.3884
        39.000          35.000
 116075109.40847  90448123.82247  22088369.2104   22088372.3734   22088369.2974
        50.000          44.000
 112203724.39547  87431465.13047  21351665.6184   21351668.6314   21351665.4824
        53.000          47.000
 111836566.66947  87145366.13547  21281797.0144   21281799.3054   21281797.2154
        53.000          47.000
 124824661.69647  97265961.49647  23753351.5744   23753353.4304   23753351.8744
        46.000          39.000
 128066273.86647  99791877.48347  24370218.2344   24370223.8074   24370217.9864
        43.000          38.000
 113245250.03647  88243027.50847  21549874.9854   21549878.8574   21549875.0474
        52.000          46.000
 128149774.61147  99856974.74447  24386085.8604   24386086.8994   24386085.8364
        43.000          37.000
 09  1  3  0 17 30.0000000  0 11G 5G30G24G31G14G29G21G18G12G 9G22
 125383443.75247  97701368.58847  23859685.3324   23859691.3444   23859685.6804
        45.000          39.000
 123918684.45347  96559992.02947  23580957.6174   23580962.5854   23580957.5104
        47.000          40.000
 112197277.98847  87426440.16647  21350439.9254   21350444.5834   21350440.0114
        53.000          47.000
 141804229.24447  92704562.58247  25081534.5574   25081540.0724   25081532.8324
        39.000          35.000
 116047837.40147  90426872.93747  22083179.2624   22083182.4014   22083179.4044
        50.000          44.000
 112267834.86647  87481421.35247  21363865.3354   21363868.4074   21363865.0264
        53.000          47.000
 111760523.72647  87086111.90547  21267326.5744   21267328.6684   21267327.0564
        53.000          47.000
 124818879.57547  97261455.96347  23752251.3964   23752253.0124   23752251.7794
        46.000          39.000
 128072474.66247  99796709.35047  24371398.7114   24371403.2594   24371398.1204
        44.000          39.000
 113271012.08547  88263101.84847  21554777.2204   21554781.3834   21554777.1314
        52.000          46.000
 128144181.28547  99852616.34047  24385020.5434   24385022.9624   24385020.7474
        42.000          37.000
 09  1  3  0 18  0.0000000  0 11G 5G30G24G31G14G29G21G18G12G 9G22
 125374863.61047  97694682.87947  23858052.6764   23858058.3884   23858053.0514
        45.000          39.000
 123910088.42647  96553293.82547  23579322.3724   23579326.7664   23579322.2864
        47.000          40.000
 112195132.41147  87424768.30347  21350031.5834   21350036.4804   21350031.6624
        53.000          47.000
 141703626.85547  92626171.30647  25062390.5954   25062395.7814   25062388.7244
        39.000          36.000
 116021042.55347  90405993.88047  22078080.8094   22078083.7414   22078081.1704
        50.000          44.000
 112332197.78947  87531574.27647  21376113.2214   21376116.4464   21376112.8204
        53.000          48.000
 111684732.28847  87027053.65347  21252903.8674   21252906.0104   21252904.2734
        53.000          47.000
 124812876.48847  97256778.24447  23751108.5844   23751110.6374   23751108.9984
        45.000          39.000
 128078548.60847  99801442.36447  24372554.9514   24372559.2104   24372554.7134
        44.000          39.000
 113297305.11247  88283589.92747  21559780.8234   21559784.4434   21559780.9164
        52.000          46.000
 128138425.63947  99848131.45047  24383925.3854   24383927.5254   24383925.3584
        43.000          37.000
 09  1  3  0 18 30.0000000  0 11G 5G30G24G31G14G29G21G18G12G 9G22
 125366148.38747  97687891.90247  23856393.9734   23856399.5594   23856394.4564
        45.000          39.000
 123901280.16447  96546430.24447  23577646.0584   23577650.6854   23577646.3124
        47.000          40.000
 112193416.03247  87423430.86747  21349705.1774   21349709.6924   21349705.3634
        53.000          47.000
 141602903.90947  92547686.08047  25043222.5994   25043228.2674   25043221.0404
        39.000          36.000
 115994723.45847  90385485.52747  22073072.4344   22073075.3374   22073072.5024
        50.000          44.000
 112396809.39147  87581920.96847  21388408.6734   21388411.5674   21388408.3634
        53.000          47.000
 111609194.30047  86968192.89647  21238529.4424   21238531.4984   21238529.7754
        53.000          47.000
 124806651.23947  97251927.44647  23749924.2884   23749925.9684   23749924.6554
        46.000          39.000
 128084495.68047  99806076.50647  24373685.7854   24373690.6284   24373685.5924
        44.000          38.000
 113324128.14947  88304491.00447  21564885.1194   21564888.5414   21564885.3504
        52.000          46.000
 128132505.25047  99843518.21947  24382798.9904   24382800.6854   24382798.7034
        43.000          37.000
 09  1  3  0 19  0.0000000  0 11G 5G30G24G31G14G29G21G18G12G 9G22
 125357302.85547  97680999.39647  23854710.3874   23854716.4864   23854711.0104
        45.000          39.000
 123892263.09347  96539403.95147  23575929.7414   23575934.5734   23575930.0644
        47.000          40.000
 112192133.33447  87422431.35747  21349460.7894   21349465.5234   21349460.9174
        53.000          47.000
 141502065.81947  92469111.09347  25024034.1254   25024039.7734   25024032.0404
        39.000          36.000
 115968882.82747  90365350.01447  22068154.9934   22068157.6894   22068155.1374
        50.000          44.000
 112461670.09747  87632461.77447  21400751.2424   21400754.3064   21400751.1514
        53.000          47.000
 111533916.28647  86909534.71547  21224204.6444   21224206.6034   21224205.0584
        53.000          47.000
 124800207.29247  97246906.22147  23748697.5104   23748700.0444   23748698.3314
        46.000          39.000
 128090321.09847  99810615.95047  24374794.1444   24374798.7654   24374793.7784
        43.000          38.000
 113351484.31847  88325807.51747  21570090.7694   21570094.6814   21570090.7164
        52.000          46.000
 128126422.19147  99838778.21647  24381641.4874   24381643.3064   24381641.4134
        43.000          38.000
 09  1  3  0 19 30.0000000  0 11G 5G30G24G31G14G29G21G18G12G 9G22
 125348325.52547  97674004.17047  23853001.9914   23853007.8484   23853002.2494
        45.000          39.000
 123883035.52347  96532213.64747  23574174.0204   23574178.4584   23574173.7644
        46.000          40.000
 112191283.18047  87421768.89047  21349299.2634   21349303.6834   21349299.4384
        53.000          47.000
 141401111.85747  92390445.81847  25004823.2264   25004827.6954   25004820.9514
        39.000          36.000
 115943518.00347  90345585.25347  22063327.9804   22063331.1864   22063328.0554
        50.000          44.000
 112526774.58247  87683192.54847  21413140.2384   21413143.2344   21413139.8544
        52.000          47.000
 111458898.68247  86851079.45347  21209929.3424   21209931.3064   21209929.8754
        53.000          47.000
 124793541.87247  97241712.42047  23747429.4384   23747431.8624   23747429.5614
        46.000          39.000
 128096022.92147  99815059.06647  24375878.7374   24375883.9954   24375878.2994
        44.000          38.000
 113379371.41447  88347537.74447  21575397.6054   21575401.0574   21575397.7854
        52.000          46.000
 128120172.63247  99833908.50047  24380452.4004   24380453.2134   24380452.4574
        43.000          37.000
 09  1  3  0 20  0.0000000  0 11G 5G30G24G31G14G29G21G18G12G 9G22
 125339217.65247  97666907.19347  23851268.7694   23851274.7254   23851269.2754
        45.000          39.000
 123873597.61847  96524859.44247  23572377.7244   23572382.5904   23572377.0934
        46.000          40.000
 112190866.59547  87421444.29147  21349220.0764   21349224.5474   21349220.2414
        53.000          47.000
 141300044.01447  92311691.80247  24985590.7714   24985596.3044   24985588.6704
        39.000          36.000
 115918628.31147  90326190.72247  22058591.8754   22058594.8484   22058592.1064
        50.000          44.000
 112592119.53347  87734110.69547  21425574.6824   21425577.8734   21425574.4094
        53.000          47.000
 111384144.28747  86792829.29247  21195704.0674   21195705.9104   21195704.5854
        53.000          47.000
 124786654.04547  97236345.28647  23746118.3984   23746120.8044   23746118.9084
        46.000          39.000
 128101602.29847  99819406.75547  24376941.5254   24376945.5174   24376940.9454
        44.000          39.000
 113407789.35447  88369681.60947  21580805.3114   21580808.9504   21580805.3744
        52.000          46.000
 128113755.07347  99828907.85347  24379230.5944   24379231.8394   24379230.9694
        43.000          37.000
 09  1  3  0 20 30.0000000  0 11G 5G30G24G31G14G29G21G18G12G 9G22
 125329982.26747  97659710.88547  23849510.7294   23849517.0714   23849511.3964
        45.000          39.000
 123863951.61147  96517343.09147  23570542.3764   23570547.2584   23570541.5034
        47.000          41.000
 112190886.29647  87421459.64547  21349223.7444   21349228.3444   21349223.7824
        53.000          47.000
 141198865.81347  92232851.77847  24966336.7674   24966341.7934   24966336.1604
        41.000          36.000
 115894214.97547  90307167.37547  22053946.1334   22053948.8124   22053946.2804
        50.000          44.000
 112657703.85647  87785215.36147  21438055.0994   21438058.0414   21438054.9004
        52.000          47.000
 111309657.88447  86734787.94247  21181529.6354   21181531.6324   21181529.9834
        53.000          47.000
 124779545.09047  97230805.86747  23744765.9984   23744767.7224   23744766.3564
        47.000          39.000
 128107062.54647  99823661.61347  24377980.3344   24377984.7104   24377980.0294
        44.000          38.000
 113436739.75247  88392240.37647  21586314.3644   21586318.1584   21586314.5064
        52.000          46.000
 128107170.15447  99823776.79747  24377977.9904   24377979.6564   24377978.3594
        44.000          38.000
 09  1  3  0 21  0.0000000  0 11G 5G30G24G31G14G29G21G18G12G 9G22
 125320619.99947  97652415.70447  23847729.6974   23847735.3004   23847729.9344
        45.000          39.000
 123854097.41847  96509664.52447  23568667.3894   23568672.3524   23568667.0584
        47.000          41.000
 112191342.67947  87421815.27247  21349310.5484   21349315.1314   21349310.6844
        53.000          47.000
 141097578.25847  92153926.51547  24947062.3204   24947068.1584   24947061.8084
        41.000          36.000
 115870276.68547  90288514.20547  22049390.8674   22049393.5934   22049390.9954
        50.000          44.000
 112723523.86247  87836503.68547  21450579.9974   21450583.0984   21450579.7234
        52.000          47.000
 111235441.79447  86676957.23047  21167406.8514   21167408.9014   21167407.2344
        53.000          47.000
 124772214.42847  97225093.69247  23743370.8484   23743373.2414   23743371.1444
        47.000          40.000
 128112404.18947  99827824.06747  24378996.3824   24379000.8304   24378996.2644
        43.000          38.000
 113466221.83747  88415213.44947  21591924.4704   21591928.2284   21591924.5154
        52.000          46.000
 128100415.35147  99818513.39047  24376691.9784   24376693.4304   24376692.3764
        43.000          37.000
 09  1  3  0 21 30.0000000  0 11G 5G30G24G31G14G29G21G18G12G 9G22
 125311132.05447  97645022.58547  23845924.2154   23845929.8554   23845924.8774
        45.000          39.000
 123844035.07647  96501823.77147  23566752.2394   23566757.6264   23566752.1974
        47.000          41.000
 112192236.80747  87422511.99747  21349480.9114   21349485.2654   21349481.0674
        53.000          47.000
 140996183.68747  92074917.84047  24927767.5794   24927772.6504   24927767.2814
        42.000          37.000
 115846813.13947  90270230.95747  22044925.7044   22044928.6584   22044925.9414
        50.000          44.000
 112789576.84647  87887973.55147  21463149.6774   21463152.7304   21463149.3574
        53.000          47.000
 111161498.95447  86619339.44147  21153335.9694   21153338.0524   21153336.3624
        53.000          47.000
 124764661.85147  97219208.59247  23741933.6424   23741935.7224   23741934.0144
        46.000          39.000
 128117628.39647  99831894.99947  24379990.0334   24379995.0154   24379989.6394
        44.000          38.000
 113496235.07447  88438600.39447  21597635.6884   21597639.6494   21597635.8704
        52.000          46.000
 128093489.57447  99813116.72747  24375374.5744   24375376.0894   24375374.4684
        43.000          37.000
 09  1  3  0 22  0.0000000  0 11G 5G30G24G31G14G29G21G18G12G 9G22
 125301520.30247  97637532.99047  23844095.1624   23844100.7654   23844095.6714
        45.000          39.000
 123833765.83547  96493821.79347  23564798.0544   23564803.6224   23564797.8444
        47.000          41.000
 112193570.66947  87423551.37047  21349734.5774   21349738.9634   21349734.6484
        53.000          47.000
 140894684.79947  91995827.89447  24908453.4184   24908457.9924   24908452.9814
        42.000          37.000
 115823824.56647  90252317.81347  22040550.9834   22040553.9964   22040550.9464
        50.000          44.000
 112855860.15947  87939622.87147  21475763.0764   21475766.1324   21475763.0544
        52.000          47.000
 111087833.06247  86561937.46147  21139317.7004   21139319.9994   21139318.0534
        53.000          47.000
 124756887.43247  97213150.62247  23740454.1514   23740456.3354   23740454.2434
        46.000          39.000
 128122736.92447  99835875.82847  24380962.5984   24380966.6764   24380962.9074
        43.000          38.000
 113526780.35347  88462401.92547  21603448.3054   21603451.9184   21603448.3674
        52.000          46.000
 128086392.47747  99807586.55147  24374024.0114   24374025.6814   24374024.0724
        44.000          37.000
 09  1  3  0 22 30.0000000  0 11G 5G30G24G31G14G29G21G18G12G 9G22
 125291786.67647  97629948.44747  23842242.3924   23842248.5394   23842243.1854
        45.000          39.000
 123823290.78547  96485659.46747  23562804.8144   23562810.1874   23562805.0064
        47.000          41.000
 112195345.46247  87424934.33047  21350072.0704   21350076.7924   21350072.2184
        53.000          47.000
 140793083.90347  91916658.46347  24889118.8144   24889123.8014   24889118.8824
        41.000          37.000
 115801310.50047  90234774.42347  22036266.8124   22036269.7524   22036267.2754
        50.000          44.000
 112922371.27947  87991449.70347  21488419.7994   21488422.9334   21488419.5574
        52.000          47.000
 111014447.53047  86504753.94247  21125352.8144   21125355.1754   21125353.1274
        53.000          47.000
 124748891.47547  97206920.02347  23738932.3774   23738934.9434   23738932.7274
        46.000          39.000
 128127731.81447  99839768.06547  24381912.8954   24381917.3214   24381912.8234
        44.000          38.000
 113557857.87347  88486618.19847  21609362.4564   21609365.9534   21609362.4294
        52.000          46.000
 128079123.01947  99801922.09547  24372640.8394   24372641.5654   24372640.8324
        44.000          38.000
 09  1  3  0 23  0.0000000  0 11G 5G30G24G31G14G29G21G18G12G 9G22
 125281930.65847  97622268.51547  23840367.0314   23840372.3754   23840367.0574
        45.000          39.000
 123812608.91047  96477335.99647  23560772.5394   23560777.2904   23560772.8124
        47.000          41.000
 112197560.43847  87426660.29547  21350493.5534   21350498.3704   21350493.6224
        53.000          47.000
 140691381.36647  91837409.82747  24869765.0614   24869769.8474   24869765.2884
        41.000          36.000
 115779268.86047  90217599.16147  22032072.1914   22032075.2124   22032072.3694
        50.000          44.000
 112989106.02147  88043450.80447  21501118.8304   21501122.1704   21501118.3014
        52.000          47.000
 110941343.60047  86447789.84447  21111441.8444   21111443.8694   21111442.2554
        54.000          47.000
 124740672.09947  97200515.33847  23737368.1774   23737370.9354   23737368.7124
        46.000          39.000
 128132612.42147  99843571.22247  24382841.4934   24382846.2584   24382841.5504
        44.000          38.000
 113589465.91047  88511247.86747  21615376.9484   21615380.5514   21615377.1244
        52.000          46.000
 128071678.31047  99796121.06547  24371223.9334   24371225.4314   24371224.4164
        43.000          38.000
 09  1  3  0 23 30.0000000  0 11G 5G30G24G31G14G29G21G18G12G 9G22
 125271956.82747  97614496.80747  23838468.9404   23838474.6944   23838469.6374
        45.000          39.000
 123801723.55047  96468853.94647  23558700.7174   23558705.6614   23558700.6064
        47.000          41.000
 112200219.73647  87428732.48047  21350999.7284   21351004.1244   21350999.8574
        53.000          47.000
 140589581.91847  91758085.62747  24850393.6504   24850398.2474   24850393.0564
        42.000          36.000
 115757701.72547  90200793.63047  22027967.9654   22027971.3674   22027968.0704
        50.000          44.000
 113056064.04347  88095625.89747  21513860.5734   21513863.6874   21513860.4534
        52.000          47.000
 110868527.50747  86391050.03547  21097585.5774   21097587.2874   21097585.9554
        54.000          47.000
 124732232.22247  97193938.84047  23735761.9664   23735764.8654   23735762.7994
        46.000          39.000
 128137383.34247  99847289.00747  24383749.1484   24383753.8404   24383748.9334
