     2.11           OBSERVATION DATA    G (GPS)             RINEX VERSION / TYPE
teqc  2008Oct2      gpsops              20090114 00:09:30UTCPGM / RUN BY / DATE
    30.0000                                                 INTERVAL
     1     1                                                WAVELENGTH FACT L1/2
     7    L1    L2    P1    P2    C1    S1    S2            # / TYPES OF OBSERV
Linux 2.4.20-8|Pentium IV|gcc -static|Linux|486/DX+         COMMENT
     2.10           OBSERVATION DATA    GPS                 COMMENT
soc2rnx ver 1.20    gpsops              14-Jan-2009 00:09:27COMMENT
S1, if present, is the SNR for the C/A data stream on L1.   COMMENT
 SNR is mapped to RINEX snr flag value [1,4-9]              COMMENT
    SNR:   >316  >100  >31.6  >10  >3.2    >0 bad=0         COMMENT
L1 & L2:      9     8     7     6     5     4     1         COMMENT
                                                            COMMENT
This data is provided as a public service by NASA/JPL.      COMMENT
No warranty is expressed or implied regarding suitability   COMMENT
for use.  For further information, contact:                 COMMENT
Dave Stowers, NASA/JPL m/s 238-600                          COMMENT
4800 Oak Grove Drive, Pasadena CA 91109 USA                 COMMENT
                                                            COMMENT
Forced Modulo Decimation to 30 seconds                      COMMENT
  2009     1    13     0     0    0.0000000     GPS         TIME OF FIRST OBS
GGN                 JPL                                     OBSERVER / AGENCY
CR519992104         ASH701945B_M    SCIT                    ANT # / TYPE
   -33801.4662 -6377516.5323   -82154.3508                  APPROX POSITION XYZ
        0.0083        0.0000        0.0000                  ANTENNA: DELTA H/E/N
ZR220013847         ASHTECH UZ-12       CQ00                REC # / TYPE / VERS
GLPS                                                        MARKER NAME
42005M002                                                   MARKER NUMBER
                                                            END OF HEADER
 09  1 13  0  0  0.0000000  0 12G30G18G 6G14G 9G22G21G 5G24G12G29G31
 123305035.28947  96081825.14847  23464184.2604   23464189.2854   23464184.0954
        47.000          41.000
 124312765.63547  96867088.50047  23655931.3704   23655936.4734   23655932.9484
        46.000          39.000
 131471827.06747 102445556.14847  25018272.0344   25018279.1954   25018272.0494
        40.000          35.000
 115183179.65347  89753115.24147  21918639.2964   21918643.0154   21918638.9954
        51.000          45.000
 115088491.17447  89679314.56047  21900635.0054   21900639.2354   21900635.3454
        51.000          45.000
 127672650.77547  99485168.32647  24295306.0584   24295310.0854   24295306.8694
        45.000          39.000
 108512106.76247  84554883.89247  20649170.8694   20649173.1744   20649171.2784
        55.000          48.000
 124970065.84047  97379239.77147  23781036.8124   23781043.7194   23781037.5814
        44.000          39.000
 112587403.44047  87730420.27047  21424688.0094   21424693.6384   21424688.1204
        53.000          47.000
 128167681.41947  99870894.64247  24389519.1934   24389524.0244   24389519.8914
        43.000          38.000
 115404500.63747  89925561.90547  21960763.8384   21960767.0584   21960763.2274
        51.000          46.000
 126880268.35547  98867725.67247  24144522.6294   24144527.7774   24144521.8734
        44.000          39.000
 09  1 13  0  0 30.0000000  0 12G30G18G 6G14G 9G22G21G 5G24G12G29G31
 123287340.76247  96068037.20647  23460817.4214   23460822.1184   23460816.6414
        47.000          41.000
 124296355.25947  96854301.24547  23652809.7414   23652813.0514   23652810.1254
        46.000          39.000
 131410896.77147 102398077.99947  25006677.9934   25006685.0384   25006677.6344
        41.000          35.000
 115178831.59947  89749727.17547  21917811.1494   21917815.4294   21917811.4304
        50.000          45.000
 115139485.73847  89719050.60547  21910339.2254   21910343.1964   21910339.3874
        51.000          45.000
 127658092.70047  99473824.49247  24292535.4854   24292540.2114   24292536.0334
        44.000          38.000
 108451804.69447  84507895.28147  20637695.6254   20637698.0254   20637696.0324
        55.000          49.000
 124956883.03547  97368967.45947  23778528.4894   23778534.4674   23778528.6694
        44.000          39.000
 112606651.17547  87745418.51047  21428351.0034   21428356.1684   21428351.0794
        53.000          47.000
 128169338.86947  99872186.19247  24389835.0074   24389840.2534   24389834.9104
        43.000          38.000
 115477213.35247  89982221.15347  21974600.3214   21974604.3074   21974599.7544
        51.000          46.000
 126776468.91047  98786843.11947  24124770.0724   24124774.8624   24124768.9364
        44.000          39.000
 09  1 13  0  1  0.0000000  0 12G30G18G 6G14G 9G22G21G 5G24G12G29G31
 123269474.33047  96054115.31447  23457417.1244   23457422.4024   23457417.1144
        47.000          41.000
 124279727.83347  96841344.84947  23649645.4304   23649648.8294   23649645.9974
        46.000          39.000
 131350258.30447 102350827.25747  24995138.7264   24995145.8884   24995138.8384
        41.000          35.000
 115174922.92647  89746681.48647  21917067.6064   21917071.5834   21917067.7454
        50.000          45.000
 115190991.28447  89759184.82447  21920140.5754   21920144.2824   21920140.5424
        51.000          44.000
 127643326.36247  99462318.35347  24289725.1664   24289729.1944   24289725.6144
        45.000          38.000
 108391902.22147  84461218.04647  20626296.5474   20626299.0734   20626296.9514
        55.000          49.000
 124943641.74847  97358649.57847  23776008.8034   23776014.6794   23776009.3744
        45.000          39.000
 112626369.07747  87760783.11447  21432103.1544   21432108.1204   21432103.1714
        53.000          47.000
 128170942.16047  99873435.49447  24390140.3444   24390144.7844   24390140.0054
        43.000          38.000
 115550048.90547  90038976.11447  21988460.3414   21988464.5404   21988460.1144
        51.000          46.000
 126672659.42447  98705952.74647  24105015.5794   24105020.2764   24105014.2484
        43.000          39.000
 09  1 13  0  1 30.0000000  0 12G30G18G 6G14G 9G22G21G 5G24G12G29G31
 123251436.02547  96040059.48247  23453984.5744   23453989.8184   23453984.7044
        47.000          41.000
 124262883.31747  96828219.29247  23646440.2614   23646443.1714   23646440.4524
        47.000          39.000
 131289911.65747 102303803.93547  24983655.4384   24983662.7014   24983654.9134
        40.000          36.000
 115171451.99047  89743976.88647  21916406.9474   21916411.2334   21916406.9964
        51.000          45.000
 115243005.88547  89799715.69547  21930038.2844   21930042.2354   21930038.4624
        50.000          44.000
 127628351.13747  99450649.45947  24286876.3124   24286879.1404   24286876.2034
        44.000          38.000
 108332401.52147  84414853.87247  20614974.1014   20614976.3944   20614974.5604
        55.000          49.000
 124930342.93147  97348286.86347  23773478.4764   23773484.3854   23773478.9254
        45.000          39.000
 112646556.68747  87776513.72047  21435944.6214   21435950.0084   21435944.6714
        53.000          47.000
 128172492.38047  99874643.48347  24390435.0964   24390439.8904   24390434.9634
        43.000          38.000
 115623003.84747  90095824.11047  22002343.2474   22002347.5684   22002343.2174
        51.000          46.000
 126568841.97247  98625056.17147  24085259.9424   24085264.1894   24085258.8804
        44.000          39.000
 09  1 13  0  2  0.0000000  0 12G30G18G 6G14G 9G22G21G 5G24G12G29G31
 123233230.05147  96025873.02947  23450519.6694   23450525.0374   23450519.3024
        46.000          40.000
 124245824.38547  96814926.68347  23643193.9884   23643197.0114   23643194.5444
        47.000          39.000
 131229859.79447 102257010.29047  24972227.5984   24972234.4354   24972227.0654
        40.000          36.000
 115168419.73447  89741614.12747  21915829.8974   21915834.1454   21915830.3334
        51.000          45.000
 115295531.03147  89840644.40447  21940033.6464   21940037.7594   21940033.7334
        50.000          44.000
 127613168.32047  99438818.82747  24283986.8694   24283989.7134   24283986.4914
        44.000          38.000
 108273308.34847  84368807.25947  20603728.8524   20603731.2854   20603729.2304
        55.000          49.000
 124916990.89847  97337882.70247  23770937.7364   23770943.8214   23770938.3864
        45.000          39.000
 112667216.88847  87792612.58847  21439876.3354   21439881.4394   21439876.4574
        53.000          46.000
 128173993.76347  99875813.41547  24390720.8414   24390725.8584   24390720.4114
        42.000          38.000
 115696077.75747  90152764.81247  22016248.7604   22016253.1004   22016248.6204
        50.000          46.000
 126465021.90947  98544157.57547  24065503.6274   24065507.9034   24065503.4064
        44.000          38.000
 09  1 13  0  2 30.0000000  0 12G30G18G 6G14G 9G22G21G 5G24G12G29G31
 123214854.05247  96011554.07447  23447022.5414   23447027.9894   23447022.2724
        47.000          41.000
 124228548.13947  96801464.72247  23639906.1994   23639909.6034   23639906.6664
        46.000          39.000
 131170100.14747 102210444.33847  24960855.3824   24960862.5784   24960855.4024
        40.000          36.000
 115165821.34447  89739589.42647  21915335.4474   21915339.7564   21915335.6424
        51.000          45.000
 115348562.46047  89881967.61947  21950124.9974   21950129.3334   21950125.0194
        50.000          44.000
 127597773.93147  99426823.31447  24281057.5934   24281060.6934   24281057.6574
        45.000          38.000
 108214621.71447  84323077.43847  20592560.8914   20592563.8004   20592561.3274
        55.000          49.000
 124903584.06447  97327435.83247  23768386.0414   23768392.4724   23768386.9204
        45.000          39.000
 112688346.66647  87809077.35847  21443897.2104   21443902.1194   21443897.4484
        53.000          46.000
 128175444.96847  99876944.24447  24390997.2934   24391002.3504   24390996.5344
        43.000          38.000
 115769264.95847  90209793.78947  22030175.6614   22030180.1014   22030175.4654
        50.000          45.000
 126361197.92547  98463255.92747  24045746.5184   24045750.6194   24045746.9214
        44.000          39.000
 09  1 13  0  3  0.0000000  0 12G30G18G 6G14G 9G22G21G 5G24G12G29G31
 123196310.17847  95997104.29847  23443494.2924   23443499.1414   23443493.9394
        47.000          41.000
 124211056.30347  96787834.76447  23636577.7664   23636581.1334   23636578.1484
        46.000          39.000
 131110634.19747 102164107.28047  24949539.4044   24949547.3314   24949539.0434
        40.000          36.000
 115163656.54847  89737902.59447  21914923.5214   21914927.2554   21914923.6564
        51.000          45.000
 115402099.85747  89923685.08447  21960312.7094   21960316.9994   21960312.5844
        50.000          44.000
 127582169.05547  99414663.77547  24278087.8114   24278090.8354   24278087.7504
        45.000          38.000
 108156345.88647  84277667.71947  20581471.6994   20581474.4244   20581472.1964
        55.000          49.000
 124890125.46347  97316948.64347  23765825.2394   23765831.0804   23765825.9964
        45.000          39.000
 112709947.54747  87825909.22047  21448007.4594   21448012.7124   21448007.7524
        53.000          46.000
 128176848.81947  99878038.15847  24391264.4334   24391269.4114   24391264.0344
        42.000          38.000
 115842563.67347  90266909.66647  22044123.8674   22044128.3504   22044123.5314
        50.000          45.000
 126257373.90747  98382354.26047  24025989.2104   24025993.7074   24025990.0424
        44.000          39.000
 09  1 13  0  3 30.0000000  0 12G30G18G 6G14G 9G22G21G 5G24G12G29G31
 123177601.56047  95982526.17347  23439934.2524   23439939.0424   23439934.3624
        47.000          41.000
 124193351.28847  96774038.68647  23633208.8744   23633211.4924   23633209.4724
        47.000          40.000
 131051464.53647 102118001.10147  24938280.1714   24938287.2314   24938279.2004
        38.000          35.000
 115161925.88847  89736554.05247  21914594.1054   21914597.8344   21914594.3854
        51.000          45.000
 115456144.29247  89965797.65747  21970597.0734   21970601.6114   21970597.3154
        50.000          44.000
 127566354.36647  99402340.75047  24275078.5564   24275081.1664   24275078.6464
        45.000          39.000
 108098485.84247  84232581.98447  20570461.1244   20570463.7834   20570461.5014
        54.000          49.000
 124876618.79947  97306423.98847  23763255.0794   23763260.8064   23763255.6604
        45.000          39.000
 112732021.43047  87843109.66447  21452207.8674   21452213.1654   21452207.9934
        53.000          46.000
 128178208.67447  99879097.82847  24391522.3124   24391527.4554   24391522.2034
        43.000          38.000
 115915972.69847  90324111.50047  22058093.2144   22058097.4954   22058092.7354
        51.000          45.000
 126153554.14547  98301455.91347  24006232.9024   24006237.0774   24006232.8624
        44.000          39.000
 09  1 13  0  4  0.0000000  0 12G30G18G 6G14G 9G22G21G 5G24G12G29G31
 123158726.74247  95967818.53847  23436342.4374   23436347.4974   23436342.0754
        47.000          41.000
 124175430.70447  96760074.62547  23629798.3344   23629801.2714   23629798.8794
        46.000          39.000
 130992588.83147 102072123.97547  24927075.9824   24927083.8704   24927075.9334
        38.000          35.000
 115160625.32047  89735540.64547  21914346.7494   21914350.8814   21914346.8104
        51.000          45.000
 115510691.84747  90008302.26247  21980977.2664   21980981.7044   21980977.1644
        50.000          44.000
 127550326.42147  99389851.57247  24272028.3844   24272031.5844   24272028.4734
        45.000          39.000
 108041041.49447  84187820.16747  20559529.9244   20559532.6124   20559530.2124
        55.000          49.000
 124863062.99847  97295861.02747  23760675.9814   23760681.3904   23760676.2974
        45.000          39.000
 112754565.75447  87860676.67347  21456498.0184   21456503.3554   21456498.2464
        52.000          46.000
 128179523.58047  99880122.47947  24391772.7694   24391777.8784   24391772.5864
        43.000          38.000
 115989487.15747  90381395.48747  22072082.7264   22072086.7244   22072082.3914
        50.000          45.000
 126049738.34147  98220560.61847  23986477.4114   23986481.4214   23986476.7754
        44.000          39.000
 09  1 13  0  4 30.0000000  0 12G30G18G 6G14G 9G22G21G 5G24G12G29G31
 123139688.54047  95952983.59547  23432719.5834   23432724.6904   23432719.0724
        47.000          41.000
 124157296.72247  96745944.28847  23626347.2744   23626350.3134   23626347.4494
        46.000          39.000
 130934009.72847 102026477.98047  24915928.5454   24915936.1744   24915929.1274
        39.000          35.000
 115159755.12747  89734862.59847  21914181.2544   21914185.0104   21914181.4474
        51.000          45.000
 115565743.23347  90051199.45247  21991453.0954   21991457.2274   21991453.2124
        50.000          44.000
 127534086.67647  99377197.31147  24268937.7084   24268940.7244   24268937.7074
        44.000          38.000
 107984017.44547  84143385.85947  20548678.5804   20548681.0704   20548679.0074
        55.000          49.000
 124849461.93947  97285262.81447  23758087.6724   23758093.3434   23758088.1924
        45.000          39.000
 112777582.63147  87878611.91147  21460877.8624   21460883.2194   21460877.9184
        53.000          47.000
 128180797.25747  99881114.95847  24392015.5784   24392020.3684   24392015.5134
        43.000          38.000
 116063106.07147  90438760.86147  22086092.0634   22086095.9674   22086091.7294
        50.000          45.000
 125945931.44947  98139672.27647  23966723.2294   23966727.5154   23966723.2514
        45.000          39.000
 09  1 13  0  5  0.0000000  0 12G30G18G 6G14G 9G22G21G 5G24G12G29G31
 123120488.29447  95938022.36247  23429066.1144   23429071.1854   23429065.6624
        47.000          41.000
 124138949.55547  96731647.83747  23622855.7494   23622859.1054   23622856.2784
        46.000          39.000
 130875727.36047 101981063.18147  24904837.3924   24904846.2414   24904838.1704
        40.000          35.000
 115159313.80847  89734518.73447  21914097.0544   21914101.1104   21914097.4344
        51.000          45.000
 115621296.98647  90094488.11347  22002024.7784   22002028.5974   22002024.9604
        51.000          44.000
 127517634.35547  99364377.42647  24265807.1044   24265809.8744   24265807.1264
        44.000          38.000
 107927416.74547  84099281.43547  20537907.5424   20537910.3264   20537907.8404
        55.000          49.000
 124835817.39247  97274630.72647  23755490.8704   23755496.5544   23755491.0724
        45.000          39.000
 112801072.30447  87896915.55747  21465348.1364   21465353.2504   21465348.4984
        53.000          47.000
 128182031.76447  99882076.92147  24392250.2444   24392255.0114   24392249.7704
        43.000          38.000
 116136826.48647  90496205.32847  22100120.7054   22100124.5294   22100120.3574
        50.000          45.000
 125842135.68247  98058792.59247  23946971.0744   23946975.5514   23946971.1944
        45.000          39.000
 09  1 13  0  5 30.0000000  0 12G30G18G 6G14G 9G22G21G 5G24G12G29G31
 123101125.79547  95922934.70947  23425381.2944   23425386.3784   23425381.4724
        47.000          41.000
 124120388.88447  96717185.00847  23619324.0874   23619327.3794   23619324.3494
        46.000          39.000
 130817741.02447 101935879.07047  24893803.3854   24893811.0904   24893803.5704
        41.000          35.000
 115159298.42547  89734506.77347  21914094.0054   21914098.2634   21914094.3994
        51.000          45.000
 115677350.30747  90138166.04947  22012691.2684   22012695.2964   22012691.2654
        51.000          44.000
 127500967.44147  99351390.33447  24262634.8794   24262638.3584   24262635.0034
        43.000          38.000
 107871240.38547  84055507.66047  20527217.7754   20527220.2874   20527218.0974
        55.000          49.000
 124822129.83047  97263965.12147  23752886.4594   23752892.0564   23752886.8094
        45.000          39.000
 112825033.34547  87915586.49847  21469907.7344   21469912.7574   21469907.9004
        53.000          46.000
 128183226.45047  99883007.85347  24392477.5884   24392482.1934   24392477.3204
        44.000          38.000
 116210644.42147  90553725.78647  22114167.5954   22114171.5874   22114167.3294
        50.000          45.000
 125738352.33647  97977922.57047  23927221.7544   23927226.1044   23927220.9234
        44.000          39.000
 09  1 13  0  6  0.0000000  0 12G30G18G 6G14G 9G22G21G 5G24G12G29G31
 123081603.42547  95907722.48447  23421666.1484   23421671.4934   23421665.9004
        47.000          41.000
 124101616.05947  96702556.85347  23615751.9854   23615754.5034   23615752.1624
        47.000          40.000
 130760052.69047 101890927.12147  24882825.9984   24882832.7944   24882826.1614
        40.000          35.000
 115159709.01347  89734826.74847  21914172.2834   21914176.2054   21914172.4334
        51.000          45.000
 115733903.68447  90182233.63247  22023452.9144   22023457.3064   22023453.1804
        51.000          44.000
 127484086.61947  99338236.56647  24259421.8774   24259426.0074   24259421.9884
        43.000          37.000
 107815492.78147  84012067.99147  20516609.2194   20516611.7324   20516609.5434
        55.000          49.000
 124808402.35847  97253268.40847  23750273.8374   23750279.8864   23750274.3484
        45.000          39.000
 112849467.23347  87934625.89847  21474557.2594   21474562.3944   21474557.3934
        53.000          46.000
 128184384.98647  99883910.62547  24392697.9364   24392702.9544   24392697.8044
        44.000          39.000
 116284558.65547  90611321.27847  22128233.0134   22128236.9904   22128232.9024
        50.000          45.000
 125634585.31447  97897065.25947  23907475.1384   23907479.8104   23907474.1964
        45.000          39.000
 09  1 13  0  6 30.0000000  0 12G30G18G 6G14G 9G22G21G 5G24G12G29G31
 123061922.70447  95892386.86747  23417921.1844   23417926.0824   23417920.7044
        46.000          41.000
 124082632.00247  96687764.11547  23612139.0104   23612142.0024   23612139.5894
        47.000          40.000
 130702662.86447 101846207.81447  24871904.2114   24871912.1274   24871904.9934
        41.000          34.000
 115160544.05747  89735477.45647  21914331.2654   21914335.1964   21914331.3734
        51.000          45.000
 115790955.70447  90226689.78447  22034309.8284   22034313.8924   22034310.1034
        51.000          44.000
 127466991.29647  99324915.63247  24256169.1784   24256172.4944   24256169.3374
        43.000          37.000
 107760176.95447  83968964.76147  20506083.1774   20506085.5404   20506083.5914
        55.000          49.000
 124794637.07247  97242542.23747  23747654.4644   23747660.0774   23747655.2104
        45.000          39.000
 112874374.31747  87954034.01747  21479297.0264   21479302.2254   21479297.2664
        53.000          46.000
 128185509.39547  99884786.81347  24392912.2824   24392917.1874   24392912.2204
        45.000          39.000
 116358566.68047  90668989.85547  22142316.3684   22142320.1364   22142316.2124
        50.000          45.000
 125530836.89047  97816222.41847  23887732.8204   23887736.9834   23887732.2654
        45.000          39.000
 09  1 13  0  7  0.0000000  0 12G30G18G 6G14G 9G22G21G 5G24G12G29G31
 123042083.68947  95876927.90047  23414146.2774   23414150.3184   23414145.6754
        47.000          41.000
 124063435.73847  96672806.03147  23608485.7854   23608489.3404   23608486.3364
        47.000          40.000
 130645570.74447 101801720.44347  24861041.2744   24861048.5624   24861040.5654
        41.000          35.000
 115161800.60347  89736456.60547  21914570.0874   21914574.4304   21914570.4224
        51.000          45.000
 115848504.17447  90271532.76247  22045260.7544   22045264.8824   22045260.9464
        51.000          44.000
 127449679.95247  99311426.36247  24252874.8794   24252878.0404   24252874.4534
        43.000          37.000
 107705294.17647  83926198.97847  20495639.2594   20495641.7534   20495639.6364
        55.000          49.000
 124780834.48847  97231786.99147  23745027.7294   23745033.6044   23745027.8584
        45.000          39.000
 112899753.61047  87973810.09147  21484126.3934   21484131.6254   21484126.5634
        53.000          46.000
 128186600.14147  99885636.78047  24393120.0734   24393124.0014   24393119.8434
        44.000          38.000
 116432664.39747  90726728.33847  22156416.4484   22156420.4854   22156415.9114
        50.000          45.000
 125427109.19247  97735395.72947  23867994.0804   23867998.0084   23867994.1204
        45.000          39.000
 09  1 13  0  7 30.0000000  0 12G30G18G 6G14G 9G22G21G 5G24G12G29G31
 123022088.46247  95861347.21747  23410341.1024   23410345.3764   23410341.3394
        47.000          41.000
 124044029.13547  96657684.02347  23604793.3954   23604796.4574   23604793.2664
        46.000          40.000
 130588777.63647 101757466.10247  24850233.9534   24850241.0274   24850233.2864
        42.000          35.000
 115163477.76047  89737763.49847  21914889.3344   21914893.4984   21914889.4494
        51.000          45.000
 115906548.61847  90316762.21547  22056306.3394   22056310.2274   22056306.5494
        51.000          44.000
 127432153.09247  99297769.17047  24249539.3304   24249543.4474   24249539.3164
        43.000          38.000
 107650848.38247  83883773.70847  20485278.5274   20485281.0684   20485278.8954
        55.000          49.000
 124766997.61247  97221005.03547  23742394.9804   23742400.3744   23742395.6374
        45.000          39.000
 112925606.13047  87993954.91847  21489045.9964   21489051.3594   21489046.1874
        53.000          46.000
 128187659.79147  99886462.48247  24393321.5004   24393325.4294   24393321.5674
        44.000          38.000
 116506850.31147  90784535.53947  22170533.5774   22170537.8904   22170533.1934
        50.000          45.000
 125323405.59847  97654587.79747  23848259.7754   23848264.2394   23848259.8494
        46.000          39.000
 09  1 13  0  8  0.0000000  0 12G30G18G 6G14G 9G22G21G 5G24G12G29G31
 123001938.42347  95845645.89747  23406506.9254   23406511.0884   23406506.2934
        47.000          41.000
 124024412.60247  96642398.44247  23601060.5014   23601063.4684   23601060.8074
        46.000          39.000
 130532284.09047 101713445.17847  24839483.0534   24839490.6324   24839483.2044
        42.000          35.000
 115165574.69647  89739397.49447  21915288.4724   21915292.4874   21915288.7234
        51.000          45.000
 115965087.52747  90362376.98347  22067445.8714   22067449.6784   22067445.9214
        51.000          44.000
 127414410.01447  99283943.49847  24246162.8824   24246166.5614   24246162.7624
        42.000          37.000
 107596842.40347  83841691.13647  20475001.6554   20475003.9494   20475002.0754
        55.000          49.000
 124753128.20047  97210197.72747  23739755.6914   23739761.0284   23739756.0194
        45.000          39.000
 112951931.86947  88014468.48247  21494055.5014   21494060.7914   21494055.7224
        53.000          46.000
 128188690.14247  99887265.38147  24393517.4704   24393522.1354   24393517.2984
        44.000          38.000
 116581121.86647  90842409.46547  22184667.2024   22184671.2854   22184666.8494
        50.000          45.000
 125219728.82147  97573800.76247  23828531.0404   23828535.2114   23828530.3914
        46.000          40.000
 09  1 13  0  8 30.0000000  0 12G30G18G 6G14G 9G22G21G 5G24G12G29G31
 122981635.30747  95829825.29747  23402643.2344   23402648.0084   23402642.6814
        47.000          41.000
 124004586.52547  96626949.58347  23597287.4534   23597290.4124   23597288.2354
        46.000          39.000
 130476090.76547 101669658.18947  24828790.8234   24828796.6864   24828789.9844
        40.000          35.000
 115168089.72647  89741357.27747  21915767.0184   21915771.1024   21915767.3074
        51.000          45.000
 116024119.77447  90408376.15347  22078679.2344   22078682.9874   22078679.3124
        50.000          44.000
 127396450.48547  99269949.15747  24242745.2374   24242748.6814   24242745.2474
        44.000          37.000
 107543279.12647  83799953.53647  20464808.5894   20464811.1934   20464808.9234
        54.000          49.000
 124739228.48347  97199366.81847  23737110.5964   23737116.4594   23737111.0774
        45.000          39.000
 112978731.20347  88035351.07747  21499155.2314   21499160.4954   21499155.3294
        53.000          46.000
 128189693.62647  99888047.32947  24393708.3994   24393712.5724   24393708.2824
        44.000          39.000
 116655476.87047  90900348.42447  22198816.4664   22198820.4404   22198816.1354
        50.000          45.000
 125116081.74047  97493036.85747  23808807.3754   23808811.9804   23808807.0294
        45.000          40.000
 09  1 13  0  9  0.0000000  0 12G30G18G 6G14G 9G22G21G 5G24G12G29G31
 122961179.08547  95813885.39247  23398750.2114   23398755.0984   23398750.0194
        47.000          41.000
 123984551.01147  96611337.52347  23593474.8334   23593477.8624   23593475.4024
        47.000          39.000
 130420197.02847 101626104.65747  24818153.4374   24818161.0664   24818153.3624
        43.000          36.000
 115171020.28547  89743640.84947  21916324.4584   21916328.6564   21916324.6454
        51.000          45.000
 116083643.06047  90454757.96447  22090006.0504   22090009.9894   22090006.1794
        50.000          44.000
 127378272.77847  99255784.82847  24239286.5214   24239289.4284   24239287.0504
        44.000          38.000
 107490160.46147  83758562.38647  20454700.4124   20454703.1494   20454700.7584
        54.000          49.000
 124725299.34547  97188512.96147  23734460.0914   23734465.7684   23734460.7484
        45.000          39.000
 113006002.87347  88056601.72647  21504345.0234   21504350.2084   21504345.2554
        53.000          46.000
 128190670.58047  99888808.62947  24393894.4634   24393898.6354   24393893.7824
        44.000          39.000
 116729910.98447  90958349.02547  22212980.8604   22212984.8154   22212980.3404
        50.000          45.000
 125012465.54447  97412297.01647  23789089.5204   23789094.4574   23789089.2794
        45.000          40.000
 09  1 13  0  9 30.0000000  0 12G30G18G 6G14G 9G22G21G 5G24G12G29G31
 122940571.61447  95797827.62747  23394828.8604   23394833.6214   23394828.8204
        47.000          41.000
 123964306.89047  96595562.91647  23589622.4574   23589625.6524   23589622.9414
        46.000          40.000
 130364603.86447 101582785.31947  24807575.1074   24807582.1534   24807574.8544
        41.000          36.000
 115174365.43347  89746247.47547  21916961.0334   21916965.2314   21916961.3834
        51.000          45.000
 116143656.38847  90501521.61247  22101426.0484   22101430.4154   22101426.0704
        50.000          44.000
 127359877.07347  99241450.61247  24235785.5284   24235788.8474   24235785.9484
        44.000          38.000
 107437489.37647  83717520.00047  20444677.4134   20444680.0084   20444677.7804
        54.000          49.000
 124711343.19847  97177638.07947  23731803.9364   23731809.6834   23731804.6814
        45.000          39.000
 113033747.37347  88078220.81747  21509624.6244   21509629.5624   21509624.7394
        53.000          46.000
 128191623.44247  99889551.16747  24394074.9624   24394080.3094   24394074.7124
        43.000          38.000
 116804422.24247  91016409.73847  22227159.7834   22227163.6564   22227159.8424
        50.000          45.000
 124908883.80747  97331584.02147  23769378.2454   23769383.5644   23769377.7204
        45.000          40.000
 09  1 13  0 10  0.0000000  0 12G30G18G 6G14G 9G22G21G 5G24G12G29G31
 122919814.67947  95781653.40247  23390878.9024   23390883.6994   23390878.4234
        47.000          41.000
 123943855.22047  96579626.58647  23585730.7024   23585733.6834   23585731.1494
        47.000          40.000
 130309312.10547 101539700.87447  24797052.1334   24797060.1274   24797052.8144
        41.000          36.000
 115178123.93147  89749176.18447  21917676.3364   21917680.4284   21917676.6754
        51.000          45.000
 116204158.98947  90548666.51147  22112939.3374   22112943.9594   22112939.3964
        50.000          44.000
 127341263.77047  99226946.83247  24232243.6994   24232246.3174   24232243.6714
        44.000          38.000
 107385269.31147  83676829.05947  20434740.1844   20434742.8614   20434740.4794
        54.000          49.000
 124697362.35747  97166743.94447  23729143.3934   23729149.1194   23729143.5954
        45.000          39.000
 113061965.45447  88100208.92847  21514994.1914   21514999.4274   21514994.2214
        52.000          46.000
 128192554.40347  99890276.59647  24394252.4024   24394257.2474   24394251.7454
        44.000          38.000
 116879008.74647  91074529.08047  22241353.1284   22241356.8674   22241353.0704
        50.000          45.000
 124805339.66547  97250900.32447  23749674.5074   23749679.8794   23749673.6864
        44.000          40.000
 09  1 13  0 10 30.0000000  0 12G30G18G 6G14G 9G22G21G 5G24G12G29G31
 122898909.37347  95765363.54647  23386900.5784   23386905.4304   23386900.0204
        47.000          41.000
 123923196.31047  96563528.76747  23581799.4704   23581802.2104   23581799.8264
        46.000          40.000
 130254321.64947 101496851.22147  24786588.0314   24786595.4554   24786588.1344
        41.000          35.000
 115182293.53947  89752425.24847  21918469.8864   21918474.0904   21918470.0904
        51.000          45.000
 116265148.90847  90596191.15047  22124545.5644   22124549.5674   22124545.6814
        50.000          44.000
 127322431.21347  99212272.24047  24228659.1084   24228663.0184   24228659.3504
        43.000          38.000
 107333502.33447  83636491.17447  20424889.4304   20424891.9974   20424889.8744
        55.000          49.000
 124683358.36147  97155831.74647  23726478.5704   23726484.8584   23726479.3594
        45.000          39.000
 113090656.31447  88122565.43547  21520453.8764   21520459.1644   21520454.0424
        53.000          46.000
 128193465.03747  99890986.19447  24394426.2754   24394430.2344   24394425.9134
        44.000          39.000
 116953667.53047  91132704.74847  22255560.5544   22255563.9164   22255560.1554
        50.000          45.000
 124701835.33147  97170247.64547  23729978.3504   23729983.3124   23729978.1674
        44.000          40.000
 09  1 13  0 11  0.0000000  0 12G30G18G 6G14G 9G22G21G 5G24G12G29G31
 122877856.54547  95748958.72747  23382894.5874   23382899.2874   23382894.1484
        48.000          41.000
 123902330.39047  96547269.64447  23577828.8444   23577831.8764   23577829.1004
        47.000          40.000
 130199632.49247 101454236.33547  24776181.3744   24776188.1834   24776181.1764
        41.000          36.000
 115186871.92947  89755992.83547  21919340.9374   21919345.0704   21919341.2704
        51.000          45.000
 116326624.40647  90644094.15547  22136243.5404   22136247.7684   22136243.5924
        49.000          44.000
 127303379.52547  99197426.88347  24225033.7864   24225037.3344   24225033.7704
        43.000          38.000
 107282190.84447  83596508.21547  20415125.1534   20415127.5704   20415125.5454
        54.000          49.000
 124669332.74947  97144902.70147  23723809.9794   23723815.6454   23723810.0354
        45.000          39.000
 113119819.52947  88145290.01347  21526003.7154   21526008.5374   21526003.8204
        52.000          46.000
 128194356.78947  99891681.07947  24394596.1034   24394600.1364   24394595.8754
        44.000          39.000
 117028395.54847  91190934.35847  22269780.8514   22269784.4424   22269780.5394
        50.000          45.000
 124598373.09447  97089627.78447  23710290.0264   23710295.1834   23710290.2074
        45.000          40.000
 09  1 13  0 11 30.0000000  0 12G30G18G 6G14G 9G22G21G 5G24G12G29G31
 122856658.90747  95732441.08647  23378860.7994   23378865.5744   23378860.9314
        47.000          41.000
 123881259.27347  96530850.63247  23573818.8524   23573822.0424   23573819.2674
        46.000          39.000
 130145246.04047 101411857.29647  24765832.2024   24765839.5934   24765831.8574
        41.000          36.000
 115191859.00447  89759878.88447  21920289.8394   21920294.0574   21920290.1524
        51.000          45.000
 116388585.03847  90692375.17947  22148034.4734   22148038.4644   22148034.4554
        50.000          43.000
 127284107.87647  99182410.12147  24221367.1654   24221370.3874   24221367.0814
        44.000          38.000
 107231338.48247  83556883.01447  20405448.2034   20405450.7564   20405448.4794
        54.000          49.000
 124655288.67947  97133959.29847  23721136.8354   23721143.2654   23721137.6454
        45.000          39.000
 113149456.37547  88168383.65247  21531643.3724   21531648.3034   21531643.5724
        53.000          46.000
 128195232.48847  99892363.48347  24394762.1654   24394766.8394   24394762.1374
        44.000          39.000
 117103191.47647  91249216.88547  22284014.0174   22284017.8394   22284013.4934
        50.000          45.000
 124494957.04847  97009043.89647  23690611.0544   23690615.6544   23690610.3754
        45.000          40.000
 09  1 13  0 12  0.0000000  0 12G30G18G 6G14G 9G22G21G 5G24G12G29G31
 122835307.98847  95715804.01247  23374797.5414   23374802.5674   23374796.9994
        47.000          41.000
 123859973.91447  96514264.68447  23569768.2004   23569771.2864   23569768.5954
        47.000          40.000
 130091153.14147 101369707.05147  24755537.5994   24755546.1934   24755538.5244
        41.000          36.000
 115197243.32047  89764074.47347  21921314.5644   21921318.6914   21921314.6074
        50.000          45.000
 116451019.57147  90741025.48447  22159915.5004   22159919.6054   22159915.5984
        50.000          44.000
 127264607.22647  99167214.94047  24217656.7144   24217659.1044   24217656.2654
        43.000          38.000
 107180938.70547  83517610.47947  20395857.3874   20395859.9024   20395857.7854
        54.000          49.000
 124641218.44847  97122995.50847  23718459.6094   23718465.7794   23718460.1124
        46.000          39.000
 113179556.79447  88191838.52247  21537371.2974   21537376.3114   21537371.5484
        53.000          46.000
 128196084.40747  99893027.32547  24394924.7374   24394929.1464   24394924.4964
        45.000          39.000
 117178042.79147  91307542.57747  22298257.8104   22298261.4444   22298257.6594
        50.000          45.000
 124391579.74047  96928490.19247  23670938.9464   23670943.1604   23670938.5044
        46.000          40.000
 09  1 13  0 12 30.0000000  0 12G30G18G 6G14G 9G22G21G 5G24G12G29G31
 122813822.48047  95699062.04747  23370709.4944   23370713.5894   23370708.9484
        47.000          41.000
 123838492.21947  96497525.74847  23565680.8064   23565683.0204   23565681.3504
        48.000          40.000
 130037371.37247 101327799.24747  24745304.2534   24745311.1714   24745304.4534
        42.000          36.000
 115203040.39747  89768591.70247  21922417.5524   21922421.7554   21922417.8634
        51.000          45.000
 116513943.96247  90790057.48447  22171889.4264   22171893.9224   22171889.5294
        50.000          43.000
 127244894.55147  99151854.52347  24213904.6554   24213907.7404   24213904.8854
        43.000          38.000
 107131010.93047  83478705.74147  20386356.4454   20386358.8744   20386356.7414
        55.000          49.000
 124627141.28347  97112026.33447  23715780.8364   23715786.5924   23715781.6304
        45.000          39.000
 113210138.11647  88215668.11547  21543190.5484   21543195.9594   21543190.8204
        53.000          46.000
 128196931.74247  99893687.62847  24395085.7424   24395090.0424   24395085.3224
        44.000          39.000
 117252964.48447  91365923.10247  22312515.0024   22312518.8264   22312515.1134
        50.000          45.000
 124288261.61247  96847982.60747  23651278.0934   23651282.2694   23651277.5944
        46.000          40.000
 09  1 13  0 13  0.0000000  0 12G30G18G 6G14G 9G22G21G 5G24G12G29G31
 122792196.23347  95682210.43347  23366594.0404   23366598.4524   23366593.6624
        47.000          40.000
 123816807.39847  96480628.52947  23561554.4414   23561557.0974   23561554.8784
        47.000          40.000
 129983893.27047 101286128.03447  24735127.8584   24735134.2614   24735128.1794
        42.000          36.000
 115209240.92447  89773423.31447  21923597.4804   21923601.8444   21923597.5504
        51.000          45.000
 116577348.83147  90839463.88947  22183955.0464   22183958.8084   22183955.1544
        50.000          43.000
 127224961.52947  99136322.43547  24210111.1954   24210113.8294   24210111.4824
        43.000          37.000
 107081550.48447  83440165.15647  20376944.4484   20376946.8454   20376944.8984
        54.000          49.000
 124613051.48147  97101047.28947  23713099.9234   23713105.2694   23713100.3214
        46.000          39.000
 113241192.71247  88239866.49447  21549100.0964   21549105.2164   21549100.2794
        52.000          46.000
 128197768.34347  99894339.52447  24395245.0944   24395249.5984   24395244.5664
        44.000          39.000
 117327946.15347  91424350.36647  22326783.4304   22326787.4114   22326783.0494
        50.000          45.000
 124184997.37647  96767517.01747  23631627.5374   23631631.6334   23631627.3694
        46.000          40.000
 09  1 13  0 13 30.0000000  0 12G30G18G 6G14G 9G22G21G 5G24G12G29G31
 122770428.64247  95665248.70447  23362451.9934   23362456.2424   23362451.4934
        48.000          41.000
 123794918.41847  96463572.22847  23557388.7564   23557391.7024   23557389.2064
        47.000          40.000
 129930717.43747 101244692.40947  24725007.7684   24725015.4794   24725008.0804
        42.000          36.000
 115215841.60847  89778566.74247  21924853.6174   21924857.4194   21924853.9784
        51.000          45.000
 116641231.02147  90889242.24147  22196111.2134   22196115.1434   22196111.2314
        50.000          43.000
 127204805.84647  99120616.85847  24206275.7264   24206278.8394   24206275.7814
        43.000          37.000
 107032558.31647  83401989.46047  20367621.4284   20367623.9784   20367621.7014
        54.000          49.000
 124598949.39847  97090058.68347  23710416.7364   23710421.8014   23710417.3454
        46.000          40.000
 113272718.54647  88264432.07447  21555099.2084   21555104.5124   21555099.4544
        52.000          46.000
 128198594.53547  99894983.32247  24395402.2894   24395406.6654   24395402.0754
        43.000          39.000
 117402983.63147  91482821.12447  22341062.6034   22341066.5024   22341062.3374
        50.000          45.000
 124081788.80347  96687094.80347  23611987.3484   23611991.4804   23611987.2674
        46.000          40.000
 09  1 13  0 14  0.0000000  0 12G30G18G 6G14G 9G22G21G 5G24G12G29G31
 122748524.35447  95648180.44447  23358283.7634   23358288.0754   23358283.3494
        48.000          41.000
 123772829.18647  96446359.88647  23553185.3394   23553188.2424   23553185.8694
        47.000          40.000
 129877847.41747 101203495.02847  24714947.2764   24714955.1824   24714947.6634
        42.000          36.000
 115222843.36747  89784022.68547  21926185.9594   21926189.8734   21926186.1184
        51.000          45.000
 116705591.85547  90939393.55347  22208358.7614   22208362.8294   22208358.8824
        50.000          43.000
 127184430.44447  99104740.01547  24202398.3574   24202401.5314   24202398.3334
        44.000          37.000
 106984040.05447  83364183.03747  20358388.8804   20358391.2454   20358389.2264
        55.000          49.000
 124584840.02847  97079064.42047  23707731.1094   23707736.9934   23707732.1384
        46.000          39.000
 113304718.52147  88289367.11447  21561188.7034   21561194.0084   21561188.9054
        53.000          46.000
 128199415.65347  99895623.16747  24395558.5524   24395563.2094   24395558.0924
        43.000          39.000
 117478077.22347  91541335.60447  22355352.5004   22355356.6844   22355352.2354
        50.000          45.000
 123978641.14447  96606720.06247  23592358.9184   23592362.9384   23592358.3544
        45.000          40.000
 09  1 13  0 14 30.0000000  0 12G30G18G 6G14G 9G22G21G 5G24G12G29G31
 122726480.27347  95631003.26247  23354089.0804   23354093.1914   23354088.6284
        48.000          41.000
 123750535.63747  96428988.32947  23548942.8794   23548945.5624   23548943.3574
        48.000          40.000
 129825278.65747 101162532.40947  24704944.0974   24704951.5024   24704943.8694
        41.000          36.000
 115230239.91847  89789786.27647  21927593.3804   21927597.1924   21927593.5764
        51.000          45.000
 116770425.16047  90989913.02547  22220696.2524   22220699.9764   22220696.4864
        49.000          43.000
 127163830.41747  99088688.14147  24198478.0014   24198481.0734   24198478.7464
        43.000          37.000
 106935993.25047  83326743.98947  20349245.8834   20349248.3084   20349246.3154
        55.000          49.000
 124570720.66147  97068062.35647  23705044.0974   23705050.3714   23705044.6694
        45.000          39.000
 113337187.82547  88314667.87147  21567367.6384   21567372.5974   21567367.8254
        52.000          46.000
 128200228.25547  99896256.39247  24395713.4224   24395718.2264   24395713.1154
        44.000          39.000
 117553219.88847  91599888.31947  22369651.7374   22369655.6204   22369651.6074
        50.000          45.000
 123875552.53247  96526391.32647  23572741.2124   23572745.6774   23572740.1544
        45.000          40.000
 09  1 13  0 15  0.0000000  0 12G30G18G 6G14G 9G22G21G 5G24G12G29G31
 122704300.88547  95613720.63247  23349868.4444   23349872.6124   23349867.8654
        48.000          41.000
 123728041.50547  96411460.45847  23544662.2724   23544665.0894   23544662.5424
        47.000          40.000
 129773014.46147 101121807.12947  24694998.6644   24695005.2964   24694998.2104
        42.000          36.000
 115238032.59147  89795858.53047  21929076.1134   21929080.2034   21929076.3474
        50.000          45.000
 116835732.66947  91040802.01247  22233123.6794   22233127.4064   22233123.6564
        49.000          43.000
 127143008.03247  99072463.01347  24194515.8294   24194518.4454   24194515.4904
        44.000          37.000
 106888424.03447  83289677.08847  20340193.7584   20340196.1504   20340194.1154
        55.000          49.000
 124556596.34047  97057056.43547  23702356.7364   23702362.0544   23702357.0454
        45.000          39.000
 113370129.14447  88340336.42347  21573635.8644   21573641.1434   21573636.0844
        53.000          46.000
 128201037.73247  99896887.20047  24395867.7994   24395871.4864   24395867.4514
        44.000          39.000
 117628412.35147  91658479.84547  22383960.6624   22383964.0324   22383960.3454
        50.000          44.000
 123772528.69247  96446113.07347  23553136.6234   23553140.9524   23553135.3214
        45.000          40.000
 09  1 13  0 15 30.0000000  0 12G30G18G 6G14G 9G22G21G 5G24G12G29G31
 122681987.68447  95596333.75547  23345621.9554   23345626.8774   23345621.6074
        47.000          41.000
 123705347.91647  96393777.18647  23540344.0344   23540347.1794   23540344.4204
        47.000          40.000
 129721055.37747 101081319.60947  24685110.7524   24685118.3904   24685110.8034
        43.000          37.000
 115246219.72147  89802238.15847  21930633.9594   21930638.2024   21930634.0074
        50.000          45.000
 116901512.66347  91092059.17347  22245641.5914   22245645.1544   22245641.5934
        50.000          43.000
 127121963.63647  99056064.86647  24190511.1114   24190513.5204   24190510.4114
        43.000          37.000
 106841335.07547  83252984.40847  20331233.0694   20331235.3924   20331233.4504
        54.000          49.000
 124542469.37847  97046048.44047  23699668.0424   23699673.9774   23699668.3374
        45.000          39.000
 113403542.48447  88366372.79347  21579994.5054   21579999.4564   21579994.7234
        52.000          46.000
 128201845.99647  99897517.05547  24396020.8004   24396025.5754   24396020.6204
        44.000          38.000
 117703652.45547  91717108.47747  22398277.9094   22398281.7364   22398277.4454
        50.000          44.000
 123669572.94547  96365887.88047  23533544.9114   23533549.2074   23533544.1304
        45.000          40.000
 09  1 13  0 16  0.0000000  0 12G30G18G 6G14G 9G22G21G 5G24G12G29G31
 122659542.04047  95578843.67647  23341350.6594   23341355.4774   23341349.9784
        48.000          41.000
 123682455.20747  96375938.73747  23535987.6024   23535990.6324   23535988.1104
        47.000          40.000
 129669401.23647 101041069.69947  24675281.3404   24675288.5254   24675281.2924
        41.000          36.000
 115254799.12847  89808923.44747  21932266.7254   21932270.9904   21932266.9304
        51.000          45.000
 116967763.20947  91143683.01147  22258248.6414   22258252.4464   22258248.7134
        49.000          43.000
 127100696.14947  99039492.87747  24186464.0784   24186466.8114   24186463.6464
        43.000          38.000
 106794728.54247  83216667.64747  20322364.0214   20322366.4124   20322364.3954
        55.000          49.000
 124528341.52047  97035039.76847  23696979.6614   23696985.3924   23696980.5044
        45.000          39.000
 113437427.42847  88392776.64747  21586442.4644   21586447.3594   21586442.6054
        53.000          46.000
 128202654.75147  99898147.29647  24396174.3984   24396179.3024   24396174.6834
        44.000          38.000
 117778937.07247  91775771.80547  22412604.1944   22412608.0164   22412604.0474
        49.000          44.000
 123566687.61547  96285717.57147  23513966.3144   23513970.8234   23513965.9144
        45.000          40.000
 09  1 13  0 16 30.0000000  0 12G30G18G 6G14G 9G22G21G 5G24G12G29G31
 122636963.35547  95561249.92747  23337053.9194   23337058.9044   23337054.0444
        48.000          41.000
 123659362.11947  96357944.15547  23531592.9014   23531595.7584   23531593.1994
        47.000          39.000
 129618050.32947 101001056.06647  24665509.6024   24665516.5704   24665509.5284
        42.000          37.000
 115263767.09747  89815911.52147  21933973.2704   21933977.4484   21933973.5324
        51.000          45.000
 117034480.67047  91195670.67347  22270944.1184   22270948.5544   22270943.9334
        50.000          43.000
 127079203.37547  99022745.37547  24182373.8814   24182376.7314   24182373.9164
        44.000          38.000
 106748604.80247  83180727.09147  20313586.7954   20313589.3024   20313587.1444
        54.000          49.000
 124514212.66747  97024030.34147  23694290.5514   23694296.4104   23694291.0654
        45.000          39.000
 113471781.38347  88419545.95647  21592979.5884   21592984.8954   21592979.7114
        52.000          46.000
 128203463.53547  99898777.57247  24396328.4664   24396333.4444   24396328.6314
        44.000          38.000
 117854261.74647  91834466.34947  22426937.7794   22426941.6134   22426937.4324
        49.000          44.000
 123463873.56447  96205602.81047  23494401.3224   23494405.5834   23494401.0444
        45.000          41.000
 09  1 13  0 17  0.0000000  0 12G30G18G 6G14G 9G22G21G 5G24G12G29G31
 122614256.40547  95543556.22947  23332733.1434   23332737.5854   23332732.9124
        47.000          41.000
 123636072.99047  96339796.82647  23527160.9794   23527164.2384   23527161.8414
        47.000          39.000
 129567005.92747 100961281.26447  24655796.2954   24655803.6324   24655796.0374
        43.000          37.000
 115273124.85147  89823203.32447  21935754.1734   21935758.0834   21935754.5684
        51.000          45.000
 117101666.66647  91248023.43547  22283729.6094   22283733.3804   22283729.5854
        50.000          43.000
 127057488.23147  99005824.60647  24178241.6044   24178244.5724   24178242.4044
        44.000          38.000
 106702969.95447  83145167.48847  20304902.7824   20304905.4304   20304903.2004
        55.000          49.000
 124500088.10047  97013024.26347  23691602.8314   23691608.9294   23691603.7394
        44.000          39.000
 113506607.35047  88446683.07047  21599606.9864   21599612.1634   21599607.0434
        52.000          46.000
 128204277.97547  99899412.23147  24396483.1784   24396488.1364   24396482.8144
        43.000          38.000
 117929627.24047  91893192.69647  22441279.2164   22441283.0874   22441279.1094
        50.000          44.000
 123361136.55847  96125548.07947  23474851.4754   23474855.4144   23474850.9294
        46.000          41.000
 09  1 13  0 17 30.0000000  0 12G30G18G 6G14G 9G22G21G 5G24G12G29G31
 122591420.46047  95525762.02447  23328387.2654   23328392.0644   23328386.8474
        48.000          41.000
 123612586.09447  96321495.39547  23522691.8054   23522694.7374   23522692.3744
        47.000          39.000
 129516266.23647 100921743.89747  24646141.0724   24646148.1104   24646140.7714
        42.000          37.000
 115282868.53947  89830795.84247  21937608.3244   21937612.3204   21937608.5434
        51.000          45.000
 117169316.90047  91300737.93447  22296602.5094   22296607.1754   22296602.7904
        49.000          43.000
 127035548.23747  98988728.59747  24174067.1884   24174069.4384   24174066.9474
        44.000          38.000
 106657824.23747  83109989.02447  20296312.0024   20296314.4174   20296312.2764
        55.000          49.000
 124485967.52147  97002021.29347  23688915.6834   23688921.7484   23688916.1784
        45.000          39.000
 113541902.93647  88474186.12847  21606323.6044   21606328.4334   21606323.7034
        53.000          46.000
 128205097.07247  99900050.54447  24396639.1384   24396643.5104   24396638.3824
        43.000          38.000
 118005028.89947  91951947.21347  22455627.8484   22455631.4024   22455628.1254
        49.000          44.000
 123258477.04347  96045553.74747  23455316.0534   23455319.9414   23455316.0564
        46.000          41.000
 09  1 13  0 18  0.0000000  0 12G30G18G 6G14G 9G22G21G 5G24G12G29G31
 122568457.24147  95507868.66047  23324017.4694   23324022.3634   23324016.9244
        48.000          41.000
 123588902.42647  96303040.64147  23518184.8254   23518187.8694   23518185.2414
        47.000          39.000
 129465831.26947 100882443.99647  24636542.9794   24636550.2194   24636542.9654
        41.000          37.000
 115292995.97947  89838687.39147  21939535.6004   21939539.2144   21939535.7374
        51.000          45.000
 117237429.77447  91353812.92547  22309563.9774   22309568.4514   22309564.1964
        50.000          43.000
 127013383.22847  98971457.25347  24169848.2764   24169850.6214   24169848.3444
        44.000          37.000
 106613169.83047  83075193.40147  20287814.6084   20287816.9694   20287815.0614
        55.000          49.000
 124471853.05847  96991023.06747  23686229.6324   23686235.3934   23686230.2824
        45.000          39.000
 113577667.60347  88502054.71047  21613129.1774   21613134.3224   21613129.3314
        53.000          46.000
 128205922.85247  99900694.07647  24396795.9864   24396801.0894   24396795.5414
        44.000          38.000
 118080463.93747  92010727.76247  22469983.0584   22469986.2184   22469982.8124
        49.000          44.000
 123155897.99047  95965622.10547  23435795.7734   23435799.7954   23435795.8644
        47.000          41.000
 09  1 13  0 18 30.0000000  0 12G30G18G 6G14G 9G22G21G 5G24G12G29G31
 122545369.41347  95489878.19847  23319624.1934   23319629.0314   23319624.4984
        48.000          41.000
 123565024.50847  96284434.51547  23513641.3364   23513643.8284   23513641.5804
        47.000          40.000
 129415702.74347 100843382.86547  24627003.3244   24627011.0944   24627003.3424
        41.000          36.000
 115303507.16947  89846877.96247  21941535.7144   21941539.6214   21941535.7664
        51.000          45.000
 117306005.35647  91407248.48147  22322613.9364   22322617.7934   22322614.1654
        50.000          43.000
 126990994.51747  98954011.62347  24165588.5504   24165590.8704   24165588.3694
        44.000          38.000
 106569010.95647  83040783.90347  20279411.3424   20279413.7664   20279411.6844
        55.000          49.000
 124457748.35147  96980032.46147  23683546.0104   23683551.0684   23683546.5674
        46.000          39.000
 113613902.65947  88530289.82247  21620024.5994   21620029.9734   21620024.7084
        52.000          46.000
 128206759.31147  99901345.92347  24396955.1604   24396959.7124   24396954.9234
        44.000          38.000
 118155931.74247  92069533.83947  22484343.8324   22484347.6574   22484343.4614
        49.000          44.000
 123053404.18647  95885756.89547  23416291.8854   23416295.6504   23416291.9344
        47.000          41.000
 09  1 13  0 19  0.0000000  0 12G30G18G 6G14G 9G22G21G 5G24G12G29G31
 122522156.88347  95471790.56547  23315207.1514   23315211.5774   23315206.9284
        47.000          41.000
 123540950.98747  96265675.97347  23509060.2004   23509062.8434   23509060.4484
        47.000          40.000
 129365879.02647 100804559.22347  24617522.3934   24617528.9134   24617522.7064
        42.000          36.000
 115314398.24447  89855364.54747  21943608.0464   21943611.9594   21943608.2214
        51.000          45.000
 117375039.98647  91461041.74547  22335750.3144   22335754.3144   22335750.7124
        50.000          43.000
 126968379.94847  98936390.00947  24161284.6064   24161286.8924   24161284.6204
        44.000          37.000
 106525348.36647  83006761.12147  20271102.5754   20271105.0644   20271102.9954
        54.000          49.000
 124443653.65747  96969049.66947  23680863.8574   23680869.3064   23680864.7164
        46.000          39.000
 113650605.80747  88558889.68347  21627008.8234   21627014.2684   21627009.0024
        52.000          46.000
 128207606.12247  99902005.84247  24397116.5764   24397120.6544   24397116.2584
        43.000          38.000
 118231428.15747  92128362.20047  22498709.9914   22498714.4094   22498709.4654
        49.000          44.000
 122950996.21447  95805958.56947  23396804.3314   23396808.2344   23396804.1244
        46.000          41.000
 09  1 13  0 19 30.0000000  0 12G30G18G 6G14G 9G22G21G 5G24G12G29G31
 122498822.84547  95453608.24247  23310766.9894   23310770.7614   23310766.4054
        48.000          41.000
 123516684.75247  96246767.26047  23504442.2714   23504445.3064   23504442.7794
        48.000          40.000
 129316361.78047 100765974.43647  24608100.1274   24608107.4644   24608100.3124
        41.000          36.000
 115325668.56147  89864146.63847  21945752.6804   21945756.5324   21945752.9094
        51.000          45.000
 117444533.31147  91515192.43247  22348974.6164   22348978.5694   22348974.7574
        50.000          43.000
 126945540.94947  98918593.46447  24156938.2384   24156940.6374   24156938.4214
        44.000          38.000
 106482185.83047  82973127.99747  20262889.0004   20262891.5004   20262889.3654
        55.000          49.000
 124429572.52947  96958077.43247  23678184.4434   23678189.9494   23678184.8304
        46.000          39.000
 113687778.37347  88587855.32247  21634082.6364   21634088.0764   21634082.7494
        52.000          46.000
 128208466.93547  99902676.66147  24397280.9044   24397284.7674   24397280.1254
        44.000          38.000
 118306952.15647  92187212.06147  22513082.0224   22513085.9334   22513081.8164
        49.000          44.000
 122848678.69447  95726230.72047  23377333.7134   23377337.8604   23377333.3334
        46.000          41.000
 09  1 13  0 20  0.0000000  0 12G30G18G 6G14G 9G22G21G 5G24G12G29G31
 122475366.15347  95435330.34047  23306303.1004   23306307.0674   23306302.7564
        48.000          41.000
 123492223.86547  96227706.87747  23499787.4294   23499790.2874   23499787.6024
        47.000          40.000
 129267148.35947 100727626.39947  24598733.9794   24598741.6454   24598734.2624
        41.000          36.000
 115337313.96447  89873221.00447  21947968.4584   21947972.7174   21947968.4694
        51.000          45.000
 117514480.91247  91569697.09447  22362285.1364   22362289.1434   22362285.4214
        49.000          43.000
 126922474.19247  98900619.45347  24152549.0544   24152551.4564   24152549.3264
        44.000          38.000
 106439523.07347  82939884.30647  20254770.5444   20254772.9454   20254770.9124
        54.000          49.000
 124415504.22647  96947115.20547  23675507.4504   23675512.4504   23675507.6634
        46.000          39.000
 113725416.94347  88617184.07947  21641245.0004   21641250.2094   21641245.1124
        52.000          46.000
 128209340.74147  99903357.62447  24397446.4854   24397450.7984   24397446.6094
        42.000          38.000
 118382498.54047  92246079.36247  22527458.1854   22527462.1004   22527458.0294
        49.000          44.000
 122746451.63247  95646573.36447  23357880.2634   23357884.7064   23357879.8904
        46.000          41.000
 09  1 13  0 20 30.0000000  0 12G30G18G 6G14G 9G22G21G 5G24G12G29G31
 122451792.24847  95416961.11347  23301817.2984   23301821.3894   23301816.9534
        47.000          41.000
 123467573.02447  96208498.47947  23495096.7624   23495099.0984   23495097.0784
        48.000          40.000
 129218243.04647 100689518.43947  24589428.1344   24589435.7464   24589428.6704
        42.000          37.000
