     2.11           OBSERVATION DATA    G (GPS)             RINEX VERSION / TYPE
teqc  2008Oct2      gpsops              20090103 00:09:39UTCPGM / RUN BY / DATE
    30.0000                                                 INTERVAL
     1     1                                                WAVELENGTH FACT L1/2
     7    L1    L2    P1    P2    C1    S1    S2            # / TYPES OF OBSERV
Linux 2.4.20-8|Pentium IV|gcc -static|Linux|486/DX+         COMMENT
     2.10           OBSERVATION DATA    GPS                 COMMENT
soc2rnx ver 1.20    gpsops               3-Jan-2009 00:09:28COMMENT
S1, if present, is the SNR for the C/A data stream on L1.   COMMENT
 SNR is mapped to RINEX snr flag value [1,4-9]              COMMENT
    SNR:   >316  >100  >31.6  >10  >3.2    >0 bad=0         COMMENT
L1 & L2:      9     8     7     6     5     4     1         COMMENT
                                                            COMMENT
This data is provided as a public service by NASA/JPL.      COMMENT
No warranty is expressed or implied regarding suitability   COMMENT
for use.  For further information, contact:                 COMMENT
Dave Stowers, NASA/JPL m/s 238-600                          COMMENT
4800 Oak Grove Drive, Pasadena CA 91109 USA                 COMMENT
                                                            COMMENT
Forced Modulo Decimation to 30 seconds                      COMMENT
  2009     1     2     0     0    0.0000000     GPS         TIME OF FIRST OBS
GGN                 JPL                                     OBSERVER / AGENCY
CR519992104         ASH701945B_M    SCIT                    ANT # / TYPE
   -33801.4662 -6377516.5323   -82154.3508                  APPROX POSITION XYZ
        0.0083        0.0000        0.0000                  ANTENNA: DELTA H/E/N
ZR220013847         ASHTECH UZ-12       CQ00                REC # / TYPE / VERS
GLPS                                                        MARKER NAME
42005M002                                                   MARKER NUMBER
                                                            END OF HEADER
 09  1  2  0  0  0.0000000  0 10G29G24G22G21G18G12G14G 9G30G 5
 109773271.07447  85537594.00847  20889174.8074   20889177.7614   20889174.3304
        54.000          49.000
 112679706.69647  87802350.70447  21442247.4684   21442252.1514   21442247.5234
        53.000          47.000
 128256303.48847  99939967.73947  24406367.9694   24406370.6714   24406368.9564
        42.000          37.000
 115235074.46347  89793556.92947  21928510.9934   21928511.3644   21928510.6424
        52.000          45.000
 124871705.38947  97302634.24047  23762286.4744   23762289.1814   23762287.1554
        46.000          39.000
 127681696.80047  99492209.41947  24297035.7544   24297042.7464   24297035.0814
        42.000          38.000
 117678649.35347  91697627.67747  22393519.5884   22393523.2654   22393519.4474
        48.000          42.000
 112634796.30347  87767356.92047  21433702.1184   21433705.3334   21433702.2154
        53.000          47.000
 124083965.79847  96688780.07847  23612411.1064   23612414.4194   23612410.5334
        46.000          40.000
 125599020.36047  97869349.96247  23900710.1604   23900714.8604   23900710.3074
        45.000          39.000
 09  1  2  0  0 30.0000000  0 10G29G24G22G21G18G12G14G 9G30G 5
 109824293.25647  85577351.55647  20898883.9044   20898887.1624   20898883.7404
        54.000          49.000
 112660441.79447  87787339.10047  21438581.5824   21438585.8254   21438581.7244
        53.000          47.000
 128256353.79247  99940006.97547  24406379.1914   24406380.4704   24406379.3574
        43.000          37.000
 115151240.76747  89728231.99147  21912557.2464   21912559.1084   21912557.6224
        51.000          45.000
 124874872.97547  97305102.52847  23762889.6834   23762891.8544   23762890.0884
        46.000          39.000
 127694351.19347  99502070.03447  24299443.7804   24299449.6904   24299442.9814
        42.000          38.000
 117631247.37647  91660691.13847  22384498.6684   22384502.2874   22384498.5734
        48.000          42.000
 112638661.39547  87770368.70547  21434437.6114   21434441.4094   21434437.6734
        52.000          47.000
 124084829.86547  96689453.38547  23612574.1454   23612579.7534   23612574.7224
        46.000          40.000
 125597375.05247  97868067.95947  23900397.0514   23900402.6864   23900397.7834
        45.000          39.000
 09  1  2  0  1  0.0000000  0 10G29G24G22G21G18G12G14G 9G30G 5
 109875683.72647  85617396.09047  20908663.3444   20908666.3794   20908663.0594
        54.000          49.000
 112641537.05547  87772608.14747  21434984.1094   21434988.4964   21434984.3004
        53.000          47.000
 128256302.09347  99939966.73847  24406369.4694   24406370.7834   24406369.4574
        43.000          37.000
 115067530.28847  89663003.06747  21896627.5904   21896629.5724   21896627.9494
        52.000          45.000
 124877842.03547  97307416.10747  23763454.5964   23763456.5554   23763455.3494
        45.000          39.000
 127706832.49147  99511795.77347  24301819.3314   24301824.9154   24301818.7764
        43.000          38.000
 117584314.08047  91624119.81047  22375567.6004   22375571.1374   22375567.7224
        48.000          42.000
 112643027.91947  87773771.22547  21435268.4684   21435272.1574   21435268.4744
        53.000          47.000
 124085472.76547  96689954.36747  23612696.7484   23612701.5404   23612696.6884
        46.000          40.000
 125595548.45347  97866644.68947  23900049.2584   23900055.0874   23900049.7524
        45.000          39.000
 09  1  2  0  1 30.0000000  0 10G29G24G22G21G18G12G14G 9G30G 5
 109927436.04347  85657722.57747  20918511.4364   20918514.5074   20918511.0854
        54.000          49.000
 112622990.85847  87758156.57447  21431454.7894   21431459.1674   21431454.8744
        53.000          47.000
 128256143.27947  99939843.00947  24406339.4604   24406340.2554   24406339.2384
        42.000          37.000
 114983942.37347  89597869.64547  21880721.3974   21880723.5994   21880721.9394
        52.000          45.000
 124880607.99647  97309571.42447  23763981.1074   23763983.2154   23763981.4594
        46.000          39.000
 127719137.74647  99521384.28647  24304161.2414   24304166.1944   24304161.6584
        43.000          38.000
 117537846.88947  91587911.67347  22366725.0844   22366728.6204   22366725.1644
        48.000          42.000
 112647893.38447  87777562.52847  21436194.3884   21436197.9454   21436194.4834
        53.000          47.000
 124085890.81547  96690280.14747  23612776.4104   23612781.3384   23612776.1234
        46.000          40.000
 125593537.85547  97865078.05447  23899666.5824   23899672.3424   23899666.9794
        44.000          38.000
 09  1  2  0  2  0.0000000  0 10G29G24G22G21G18G12G14G 9G30G 5
 109979550.73147  85698331.42747  20928428.5524   20928431.5214   20928428.3744
        54.000          49.000
 112604808.03747  87743988.14647  21427994.7814   21427999.0144   21427994.8794
        53.000          47.000
 128255878.88347  99939637.03347  24406288.5324   24406290.3104   24406288.5914
        42.000          37.000
 114900483.37847  89532836.68447  21864839.5634   21864841.7484   21864839.9564
        51.000          45.000
 124883173.46147  97311570.51347  23764469.1784   23764471.4014   23764469.5284
        45.000          39.000
 127731271.11147  99530838.90247  24306470.2594   24306475.1684   24306470.1864
        44.000          38.000
 117491849.59247  91552069.69947  22357971.8194   22357975.4474   22357971.6494
        48.000          42.000
 112653261.95347  87781745.85847  21437216.0274   21437219.8024   21437216.1324
        53.000          47.000
 124086087.20547  96690433.19347  23612813.8814   23612818.6254   23612813.7154
        46.000          40.000
 125591347.18947  97863371.08647  23899250.0884   23899255.3364   23899250.2444
        45.000          39.000
 09  1  2  0  2 30.0000000  0 10G29G24G22G21G18G12G14G 9G30G 5
 110032024.23347  85739219.87347  20938413.7794   20938416.7774   20938413.4974
        53.000          49.000
 112586989.55647  87730103.62247  21424603.9564   21424608.3764   21424604.0744
        54.000          47.000
 128255506.18747  99939346.65947  24406217.9214   24406219.6734   24406217.5094
        43.000          37.000
 114817154.70647  89467905.25847  21848982.4744   21848984.5234   21848982.8674
        52.000          45.000
 124885536.32847  97313411.74947  23764918.7014   23764921.0624   23764918.9324
        45.000          39.000
 127743232.44647  99540159.43047  24308746.7284   24308751.1964   24308746.4744
        43.000          38.000
 117446321.24647  91516593.14147  22349308.2144   22349311.9924   22349308.7204
        48.000          42.000
 112659134.06347  87786321.56047  21438333.5024   21438337.1644   21438333.6514
        53.000          47.000
 124086061.13947  96690412.87247  23612808.6604   23612813.4894   23612808.3424
        46.000          40.000
 125588976.31947  97861523.70247  23898798.4234   23898804.3294   23898798.8584
        45.000          39.000
 09  1  2  0  3  0.0000000  0 10G29G24G22G21G18G12G14G 9G30G 5
 110084854.56447  85780386.37147  20948467.0194   20948470.1674   20948466.6154
        53.000          49.000
 112569537.96447  87716504.98247  21421282.9674   21421287.4064   21421283.0924
        53.000          47.000
 128255023.96747  99938970.96547  24406126.0014   24406127.7994   24406126.1524
        42.000          37.000
 114733959.90847  89403078.15947  21833150.9444   21833153.2674   21833151.3694
        52.000          45.000
 124887696.65247  97315095.15147  23765329.5674   23765332.0144   23765329.9904
        46.000          39.000
 127755023.17147  99549347.06847  24310989.8024   24310995.1624   24310989.8424
        44.000          38.000
 117401263.22847  91481483.05747  22340733.7134   22340737.6644   22340734.0094
        48.000          42.000
 112665511.28147  87791290.85447  21439546.7714   21439550.7504   21439546.8064
        53.000          47.000
 124085813.01347  96690219.55247  23612761.9714   23612766.1854   23612761.5284
        46.000          40.000
 125586426.79747  97859537.12147  23898313.5864   23898318.9104   23898313.6944
        46.000          39.000
 09  1  2  0  3 30.0000000  0 10G29G24G22G21G18G12G14G 9G30G 5
 110138037.13947  85821827.33947  20958587.4074   20958590.5004   20958587.2264
        54.000          48.000
 112552453.09447  87703192.10147  21418032.0064   21418036.1604   21418032.1844
        53.000          47.000
 128254429.24547  99938507.57647  24406012.8054   24406014.8164   24406012.1544
        43.000          37.000
 114650900.58047  89338356.62047  21817345.3124   21817347.5084   21817345.7284
        52.000          45.000
 124889651.85447  97316618.71647  23765701.8624   23765704.0474   23765702.4214
        45.000          39.000
 127766642.74047  99558401.33847  24313201.3364   24313205.9144   24313200.9024
        43.000          38.000
 117356674.48947  91446738.65447  22332248.6814   22332252.7414   22332248.8164
        48.000          43.000
 112672393.25047  87796653.45347  21440856.4964   21440860.2454   21440856.7484
        53.000          47.000
 124085341.07347  96689851.83247  23612671.7064   23612676.6584   23612671.5504
        46.000          40.000
 125583697.65847  97857410.57147  23897794.0134   23897799.5814   23897794.7854
        46.000          39.000
 09  1  2  0  4  0.0000000  0 10G29G24G22G21G18G12G14G 9G30G 5
 110191571.54047  85863542.46047  20968774.8214   20968777.6524   20968774.7234
        53.000          48.000
 112535738.93847  87690168.09047  21414851.3054   21414855.5364   21414851.4964
        54.000          47.000
 128253722.05347  99937956.57747  24405878.4254   24405879.0944   24405878.1994
        43.000          37.000
 114567981.45647  89273744.33447  21801566.3814   21801568.5074   21801566.6304
        52.000          45.000
 124891403.20347  97317983.42647  23766034.9434   23766037.4604   23766035.3354
        45.000          39.000
 127778093.67947  99567324.17447  24315379.9774   24315384.6794   24315379.8964
        43.000          38.000
 117312557.36847  91412361.73447  22323853.6154   22323857.8274   22323853.7194
        49.000          43.000
 112679782.93347  87802411.68247  21442262.6744   21442266.3014   21442262.7964
        53.000          47.000
 124084647.36747  96689311.32647  23612539.6024   23612544.2774   23612539.7214
        46.000          40.000
 125580791.74647  97855146.27747  23897241.3054   23897246.6024   23897241.5384
        45.000          39.000
 09  1  2  0  4 30.0000000  0 10G29G24G22G21G18G12G14G 9G30G 5
 110245454.70547  85905529.35647  20979028.2464   20979031.3384   20979027.8624
        53.000          48.000
 112519397.23547  87677434.29847  21411741.5564   21411745.8204   21411741.6934
        53.000          47.000
 128252900.90547  99937316.76747  24405721.3574   24405723.1484   24405720.7634
        42.000          37.000
 114485205.31847  89209243.46647  21785814.6424   21785816.4904   21785815.2084
        52.000          45.000
 124892949.91047  97319188.67747  23766328.9124   23766331.6094   23766329.4074
        45.000          39.000
 127789376.62147  99576116.11347  24317526.6304   24317531.7824   24317526.8814
        42.000          38.000
 117268912.09847  91378352.49747  22315548.1604   22315551.7414   22315548.4504
        48.000          43.000
 112687680.87247  87808565.94947  21443765.4964   21443769.2264   21443765.6624
        53.000          47.000
 124083731.64647  96688597.80547  23612365.4154   23612370.3324   23612365.3974
        46.000          40.000
 125577709.91647  97852744.91147  23896654.6044   23896660.3744   23896655.2024
        45.000          39.000
 09  1  2  0  5  0.0000000  0 10G29G24G22G21G18G12G14G 9G30G 5
 110299683.95147  85947785.91547  20989347.6614   20989350.6004   20989347.4834
        53.000          48.000
 112503429.75847  87664992.11047  21408702.9864   21408707.5294   21408703.1704
        53.000          47.000
 128251964.42247  99936587.11247  24405543.7364   24405545.1614   24405543.7144
        44.000          37.000
 114402575.23647  89144856.39947  21770090.6454   21770092.5854   21770090.9734
        52.000          45.000
 124894291.39647  97320234.02147  23766584.5374   23766586.8354   23766585.1244
        46.000          39.000
 127800492.94247  99584778.22647  24319641.6444   24319647.0454   24319641.1024
        43.000          38.000
 117225739.71647  91344711.73947  22307332.6184   22307336.4334   22307332.8094
        49.000          43.000
 112696088.61747  87815117.48047  21445365.5104   21445369.1294   21445365.6544
        53.000          47.000
 124082594.00047  96687711.35747  23612149.4884   23612153.7974   23612149.0394
        46.000          40.000
 125574453.13947  97850207.23147  23896034.6974   23896040.3324   23896035.2644
        46.000          39.000
 09  1  2  0  5 30.0000000  0 10G29G24G22G21G18G12G14G 9G30G 5
 110354254.55947  85990308.47147  20999732.1214   20999735.1454   20999731.7854
        53.000          48.000
 112487836.61747  87652841.61347  21405735.7354   21405740.3034   21405735.8604
        53.000          47.000
 128250908.70447  99935764.50847  24405342.2814   24405344.1044   24405342.8164
        43.000          38.000
 114320092.10947  89080583.84247  21754394.8674   21754396.4824   21754395.2014
        52.000          45.000
 124895424.87647  97321117.28247  23766799.8894   23766802.7504   23766800.7194
        46.000          39.000
 127811441.55047  99593309.63447  24321725.4524   24321730.5724   24321725.1534
        44.000          38.000
 117183038.27747  91311437.95347  22299206.8314   22299210.3744   22299207.2104
        49.000          43.000
 112705004.58347  87822065.02047  21447062.1154   21447065.7824   21447062.0964
        53.000          47.000
 124081232.37647  96686650.36347  23611889.8144   23611894.2154   23611889.9084
        46.000          39.000
 125571020.12547  97847532.20947  23895381.9504   23895387.1634   23895382.3254
        46.000          39.000
 09  1  2  0  6  0.0000000  0 10G29G24G22G21G18G12G14G 9G30G 5
 110409166.86447  86033097.28147  21010181.5094   21010184.7854   21010181.2394
        53.000          48.000
 112472622.31347  87640986.31347  21402840.5434   21402845.0144   21402840.6104
        53.000          47.000
 128249735.38347  99934850.27347  24405119.4694   24405121.3524   24405120.0904
        44.000          38.000
 114237761.84247  89016430.38447  21738727.7884   21738729.4854   21738728.2554
        53.000          45.000
 124896352.49447  97321840.12147  23766976.6124   23766978.6654   23766976.9904
        45.000          39.000
 127822226.25947  99601713.33847  24323778.0514   24323783.1514   24323777.9374
        43.000          38.000
 117140811.23047  91278533.80747  22291171.3904   22291174.4574   22291171.5004
        49.000          43.000
 112714432.93847  87829411.82347  21448856.1784   21448859.9884   21448856.3054
        53.000          46.000
 124079650.11747  96685417.45747  23611588.4314   23611593.1564   23611588.8044
        45.000          39.000
 125567414.96247  97844723.04447  23894695.5384   23894701.0034   23894696.1664
        45.000          39.000
 09  1  2  0  6 30.0000000  0 10G29G24G22G21G18G12G14G 9G30G 5
 110464416.66147  86076149.07447  21020695.3324   21020698.4394   21020694.9334
        53.000          48.000
 112457787.34547  87629426.60247  21400017.6984   21400022.0244   21400017.7234
        54.000          47.000
 128248441.38147  99933842.01047  24404872.9934   24404874.0074   24404873.1464
        42.000          37.000
 114155585.98547  88952397.25747  21723090.2564   21723092.0254   21723090.7154
        52.000          45.000
 124897072.18847  97322400.95947  23767113.3054   23767115.7344   23767113.7744
        46.000          39.000
 127832846.60747  99609988.97747  24325798.6384   24325804.0114   24325798.4934
        44.000          38.000
 117099057.68247  91245998.62547  22283225.8804   22283229.2594   22283225.8374
        48.000          43.000
 112724373.25747  87837157.55447  21450747.7624   21450751.4634   21450747.8944
        53.000          47.000
 124077845.57447  96684011.35147  23611245.6814   23611249.4754   23611245.5374
        46.000          39.000
 125563637.21447  97841779.39647  23893976.8164   23893982.5134   23893976.8414
        45.000          39.000
 09  1  2  0  7  0.0000000  0 10G29G24G22G21G18G12G14G 9G30G 5
 110520001.47747  86119461.92347  21031272.8864   21031275.7364   21031272.7684
        53.000          48.000
 112443333.63047  87618163.97147  21397267.2064   21397271.5764   21397267.3094
        54.000          47.000
 128247025.41947  99932738.69447  24404603.5954   24404604.5494   24404603.4464
        43.000          37.000
 114073567.68447  88888486.90847  21707482.5944   21707484.6194   21707482.9654
        52.000          45.000
 124897583.29947  97322799.26447  23767210.8434   23767212.8484   23767211.0354
        46.000          39.000
 127843303.93647  99618137.57047  24327789.3924   24327793.5854   24327789.1604
        44.000          38.000
 117057778.28947  91213832.91647  22275370.3354   22275374.4064   22275370.8474
        48.000          43.000
 112734826.67947  87845303.10847  21452737.1404   21452740.7864   21452737.2304
        53.000          47.000
 124075818.70747  96682431.99147  23610859.9744   23610863.9204   23610859.9834
        46.000          40.000
 125559687.97347  97838702.11547  23893225.4264   23893230.4954   23893225.8004
        46.000          39.000
 09  1  2  0  7 30.0000000  0 10G29G24G22G21G18G12G14G 9G30G 5
 110575918.26947  86163033.46447  21041913.2404   21041916.4494   21041912.8164
        53.000          48.000
 112429262.58747  87607199.53047  21394589.7224   21394593.6804   21394589.7354
        54.000          47.000
 128245485.80547  99931539.03047  24404310.4414   24404312.1304   24404311.1394
        43.000          37.000
 113991709.74547  88824701.51847  21691905.4734   21691907.6494   21691905.8094
        52.000          45.000
 124897884.91947  97323034.31347  23767268.1034   23767270.3484   23767268.6044
        46.000          39.000
 127853598.75847  99626159.56547  24329747.6024   24329752.2724   24329747.4104
        43.000          38.000
 117016972.85047  91182036.51547  22267605.4664   22267609.0054   22267605.8364
        49.000          43.000
 112745793.58247  87853848.78447  21454824.1554   21454827.6034   21454824.3224
        53.000          47.000
 124073569.61747  96680679.47147  23610431.8214   23610436.1684   23610431.5034
        46.000          40.000
 125555567.80647  97835491.64447  23892441.0104   23892446.4254   23892441.6164
        46.000          39.000
 09  1  2  0  8  0.0000000  0 10G29G24G22G21G18G12G14G 9G30G 5
 110632165.90547  86206862.79447  21052616.7724   21052619.9934   21052616.5284
        53.000          48.000
 112415577.65447  87596535.95647  21391985.3764   21391989.5934   21391985.4794
        53.000          47.000
 128243822.53747  99930243.01947  24403993.6974   24403995.7244   24403994.0694
        44.000          37.000
 113910016.96547  88761044.82047  21676359.9124   21676361.9234   21676360.2644
        52.000          45.000
 124897978.46447  97323107.23047  23767286.1824   23767288.3364   23767286.8424
        45.000          39.000
 127863734.07347  99634057.25147  24331676.1204   24331681.3674   24331676.0634
        43.000          38.000
 116976643.32747  91150610.96747  22259931.1904   22259934.5604   22259931.2044
        49.000          43.000
 112757276.44447  87862796.50547  21457009.1874   21457012.5944   21457009.3224
        53.000          47.000
 124071100.21847  96678755.28147  23609961.9924   23609965.9714   23609961.5994
        47.000          40.000
 125551279.52147  97832150.18747  23891625.1114   23891630.4344   23891625.6124
        45.000          39.000
 09  1  2  0  8 30.0000000  0 10G29G24G22G21G18G12G14G 9G30G 5
 110688740.21947  86250946.68647  21063382.7184   21063385.6704   21063382.4834
        53.000          48.000
 112402278.72647  87586173.17147  21389454.6934   21389458.9614   21389454.7064
        53.000          47.000
 128242032.23447  99928848.04047  24403653.2854   24403654.9174   24403653.7674
        43.000          37.000
 113828490.20647  88697517.47047  21660845.8624   21660847.7844   21660846.0624
        52.000          45.000
 124897861.46347  97323016.09847  23767263.7724   23767265.7564   23767264.3974
        46.000          39.000
 127873708.55747  99641829.60747  24333574.0164   24333579.4334   24333573.7744
        42.000          38.000
 116936788.43447  91119555.26047  22252346.7454   22252350.6274   22252346.9694
        48.000          43.000
 112769274.73347  87872145.85147  21459292.3464   21459295.6694   21459292.4414
        53.000          46.000
 124068408.62147  96676657.96047  23609450.0794   23609453.5614   23609450.1294
        47.000          40.000
 125546822.36247  97828677.13247  23890776.6494   23890781.8784   23890777.2054
        45.000          39.000
 09  1  2  0  9  0.0000000  0 10G29G24G22G21G18G12G14G 9G30G 5
 110745639.42647  86295283.73447  21074210.1834   21074213.3164   21074209.8664
        53.000          48.000
 112389368.90847  87576113.57947  21386997.9924   21387002.1774   21386997.9984
        53.000          47.000
 128240114.55947  99927353.78647  24403288.5064   24403290.3104   24403288.3764
        44.000          37.000
 113747134.07847  88634123.08347  21645364.3734   21645366.2694   21645364.7384
        52.000          45.000
 124897534.53947  97322761.38947  23767201.3774   23767203.7064   23767201.9364
        46.000          39.000
 127883524.77847  99649478.63947  24335442.0364   24335447.2474   24335441.8234
        43.000          38.000
 116897409.89647  91088870.73947  22244853.3404   22244856.9234   22244853.6174
        49.000          43.000
 112781790.47147  87881898.40847  21461673.7724   21461677.3084   21461673.8584
        53.000          46.000
 124065496.40947  96674388.72447  23608895.3934   23608899.5624   23608895.7054
        46.000          40.000
 125542198.50647  97825074.17247  23889896.5754   23889902.3154   23889896.7764
        45.000          39.000
 09  1  2  0  9 30.0000000  0 10G29G24G22G21G18G12G14G 9G30G 5
 110802858.69347  86339870.17447  21085098.8334   21085101.7134   21085098.6284
        53.000          48.000
 112376847.68647  87566356.79747  21384615.0274   21384619.6364   21384615.2344
        53.000          47.000
 128238066.28847  99925757.77747  24402898.6834   24402900.1524   24402898.7334
        44.000          38.000
 113665949.31247  88570862.23647  21629915.3254   21629917.0554   21629915.7304
        52.000          45.000
 124896994.80947  97322340.83047  23767098.5464   23767101.0884   23767098.8954
        46.000          39.000
 127893181.58447  99657003.47147  24337279.2974   24337284.5324   24337279.0234
        42.000          38.000
 116858505.69547  91058555.82447  22237450.2614   22237453.7254   22237450.4494
        48.000          43.000
 112794822.29647  87892053.10747  21464153.7454   21464157.0884   21464153.7944
        53.000          46.000
 124062361.87647  96671946.25147  23608299.1494   23608303.2864   23608299.0144
        46.000          40.000
 125537406.98147  97821340.56747  23888984.9064   23888990.3084   23888985.5774
        45.000          39.000
 09  1  2  0 10  0.0000000  0 10G29G24G22G21G18G12G14G 9G30G 5
 110860400.04947  86384707.59347  21096048.4484   21096051.3454   21096048.0124
        53.000          48.000
 112364721.38347  87556907.73047  21382307.5264   21382312.0934   21382307.7014
        53.000          47.000
 128235890.28147  99924062.24447  24402484.7944   24402485.9114   24402484.1354
        43.000          37.000
 113584943.50647  88507740.84147  21614500.3834   21614502.2994   21614500.8394
        52.000          46.000
 124896246.35347  97321757.64647  23766956.1554   23766958.5704   23766956.9724
        46.000          39.000
 127902684.80447  99664408.62547  24339087.4214   24339093.3984   24339086.7444
        42.000          38.000
 116820080.86547  91028614.46147  22230138.0274   22230141.4364   22230138.2584
        49.000          43.000
 112808375.75647  87902614.27247  21466732.6954   21466736.4084   21466732.7174
        53.000          47.000
 124059009.30847  96669333.88247  23607661.1704   23607665.2184   23607660.9024
        47.000          40.000
 125532453.23547  97817480.55947  23888042.2854   23888047.7544   23888042.5504
        45.000          39.000
 09  1  2  0 10 30.0000000  0 10G29G24G22G21G18G12G14G 9G30G 5
 110918255.28147  86429789.59547  21107057.8514   21107060.7804   21107057.6884
        53.000          48.000
 112352986.29047  87547763.51847  21380074.3844   21380078.9084   21380074.3934
        53.000          47.000
 128233579.81847  99922261.90447  24402044.9434   24402046.7614   24402044.4044
        43.000          37.000
 113504114.46847  88444757.18347  21599119.2274   21599121.1724   21599119.5864
        52.000          46.000
 124895283.30647  97321007.23247  23766773.0374   23766775.2154   23766773.7254
        46.000          39.000
 127912029.96547  99671690.58647  24340866.1474   24340871.5394   24340866.3174
        43.000          38.000
 116782130.33947  90999042.67647  22222916.0564   22222919.7104   22222916.3434
        49.000          43.000
 112822445.86847  87913578.02447  21469410.2924   21469413.8954   21469410.5374
        53.000          46.000
 124055433.67047  96666547.69347  23606981.0224   23606984.8744   23606980.5614
        47.000          40.000
 125527333.24847  97813491.00447  23887067.6534   23887073.3024   23887068.1884
        45.000          39.000
 09  1  2  0 11  0.0000000  0 10G29G24G22G21G18G12G14G 9G30G 5
 110976425.44947  86475117.00347  21118127.1874   21118130.2004   21118126.9674
        53.000          48.000
 112341647.92247  87538928.43147  21377917.0554   21377921.1204   21377917.2414
        54.000          47.000
 128231137.37147  99920358.74947  24401579.8674   24401581.3904   24401580.0984
        44.000          37.000
 113423469.27447  88381916.79147  21583772.7804   21583774.8334   21583773.2764
        52.000          46.000
 124894108.83147  97320092.08247  23766549.3274   23766551.5744   23766549.4994
        46.000          39.000
 127921222.43747  99678853.52047  24342615.5354   24342620.9134   24342615.4254
        43.000          38.000
 116744658.01847  90969843.53347  22215785.3614   22215788.6854   22215785.6204
        49.000          43.000
 112837037.40147  87924948.07747  21472186.7824   21472190.5334   21472186.9914
        53.000          46.000
 124051639.07447  96663590.87247  23606258.8184   23606262.7814   23606258.6324
        47.000          40.000
 125522051.87347  97809375.69347  23886062.9574   23886068.1604   23886062.9604
        45.000          39.000
 09  1  2  0 11 30.0000000  0 10G29G24G22G21G18G12G14G 9G30G 5
 111034905.98347  86520686.24547  21129255.6494   21129258.7304   21129255.4224
        53.000          48.000
 112330706.10947  87530402.35147  21375835.0164   21375839.0304   21375835.2124
        54.000          47.000
 128228559.54247  99918350.06147  24401089.9764   24401091.5314   24401089.9024
        44.000          38.000
 113343008.74947  88319220.28547  21568461.6194   21568463.6954   21568462.0234
        52.000          46.000
 124892720.61647  97319010.37847  23766285.2664   23766287.0494   23766285.7074
        46.000          39.000
 127930260.96947  99685896.50947  24344335.6134   24344341.0394   24344334.7764
        42.000          38.000
 116707662.35347  90941015.80047  22208745.5504   22208748.5674   22208745.7504
        49.000          43.000
 112852149.36347  87936723.65747  21475062.5494   21475066.0594   21475062.6934
        53.000          47.000
 124047623.89447  96660462.19547  23605495.3544   23605498.6774   23605494.8254
        47.000          40.000
 125516608.25447  97805133.96547  23885026.5064   23885032.6294   23885026.9884
        45.000          39.000
 09  1  2  0 12  0.0000000  0 10G29G24G22G21G18G12G14G 9G30G 5
 111093695.11047  86566495.95047  21140442.9964   21140445.9444   21140442.7444
        53.000          48.000
 112320163.53147  87522187.36247  21373828.8224   21373832.8854   21373829.0854
        53.000          47.000
 128225845.87647  99916235.56347  24400573.2294   24400574.2714   24400572.7374
        43.000          38.000
 113262737.46947  88256671.25147  21553186.7294   21553188.5464   21553187.0944
        53.000          46.000
 124891119.43147  97317762.72747  23765980.8734   23765983.0514   23765981.5554
        46.000          39.000
 127939148.00047  99692821.49647  24346026.6174   24346032.6744   24346026.1324
        43.000          38.000
 116671144.52347  90912560.39947  22201796.3764   22201799.5684   22201796.7274
        49.000          43.000
 112867783.59147  87948906.19447  21478037.7694   21478041.1214   21478037.8504
        53.000          46.000
 124043389.56447  96657162.74147  23604688.9684   23604693.0184   23604688.6074
        46.000          40.000
 125511004.58747  97800767.52947  23883960.2454   23883966.1514   23883960.3144
        45.000          39.000
 09  1  2  0 12 30.0000000  0 10G29G24G22G21G18G12G14G 9G30G 5
 111152788.88047  86612543.04147  21151688.2264   21151690.9634   21151687.8994
        53.000          48.000
 112310020.62547  87514283.80547  21371898.4404   21371902.6424   21371898.5194
        53.000          47.000
 128222993.83947  99914013.24247  24400029.9984   24400031.4334   24400029.7914
        43.000          37.000
 113182656.77947  88194270.72547  21537947.7934   21537949.6644   21537948.2304
        52.000          46.000
 124889303.75747  97316347.93947  23765634.8524   23765637.3684   23765635.4864
        45.000          39.000
 127947883.59247  99699628.42447  24347689.1634   24347694.7724   24347689.0634
        42.000          38.000
 116635103.73647  90884476.72747  22194937.9474   22194941.0384   22194938.3354
        50.000          43.000
 112883939.34847  87961495.12347  21481112.0574   21481115.5744   21481112.1984
        53.000          47.000
 124038935.03747  96653691.70647  23603841.1824   23603845.9914   23603840.5424
        47.000          40.000
 125505240.93647  97796276.43047  23882863.6304   23882869.2794   23882864.3494
        45.000          39.000
 09  1  2  0 13  0.0000000  0 10G29G24G22G21G18G12G14G 9G30G 5
 111212185.18147  86658825.86847  21162990.9954   21162993.7554   21162990.7334
        53.000          48.000
 112300279.90247  87506693.63847  21370044.6984   21370049.2544   21370044.9354
        53.000          47.000
 128220002.78347  99911682.57047  24399460.8804   24399462.7664   24399460.6754
        44.000          38.000
 113102770.58047  88132021.75747  21522746.1664   21522748.1334   21522746.5104
        52.000          46.000
 124887273.49547  97314765.94147  23765248.3694   23765250.9314   23765248.6254
        46.000          39.000
 127956469.26447  99706318.55247  24349322.5774   24349328.0834   24349322.2174
        43.000          38.000
 116599540.71147  90856765.32747  22188170.3684   22188173.8324   22188170.4964
        49.000          43.000
 112900618.01747  87974491.51947  21484285.8684   21484289.2864   21484285.8544
        53.000          47.000
 124034261.24547  96650049.81647  23602952.0314   23602956.2924   23602951.4634
        47.000          40.000
 125499318.92447  97791661.91447  23881736.8214   23881742.5214   23881737.6174
        45.000          39.000
 09  1  2  0 13 30.0000000  0 10G29G24G22G21G18G12G14G 9G30G 5
 111271881.84447  86705342.74747  21174350.9084   21174353.7774   21174350.4894
        53.000          48.000
 112290942.98247  87499418.12547  21368267.9194   21368272.2784   21368268.0914
        53.000          47.000
 128216871.57347  99909242.71047  24398865.4504   24398866.4714   24398865.7864
        43.000          38.000
 113023082.41147  88069927.09647  21507581.7344   21507583.7904   21507582.1724
        52.000          46.000
 124885028.10547  97313016.31747  23764821.1214   23764823.6754   23764821.8714
        46.000          40.000
 127964906.47447  99712893.04047  24350928.7594   24350933.7084   24350928.1814
        44.000          38.000
 116564455.69147  90829426.40947  22181493.9374   22181497.2974   22181494.3434
        49.000          43.000
 112917820.62447  87987896.17247  21487559.3354   21487562.9124   21487559.3714
        53.000          47.000
 124029368.54947  96646237.35747  23602020.4804   23602025.0554   23602020.3094
        46.000          40.000
 125493240.05047  97786925.18747  23880580.1114   23880585.3694   23880580.2524
        46.000          39.000
 09  1  2  0 14  0.0000000  0 10G29G24G22G21G18G12G14G 9G30G 5
 111331876.13547  86752091.53547  21185767.4894   21185770.3194   21185767.2024
        53.000          48.000
 112282011.59747  87492458.61147  21366568.5984   21366572.8524   21366568.7154
        53.000          47.000
 128213598.64047  99906692.42147  24398241.9854   24398243.3754   24398242.3494
        43.000          37.000
 112943595.59347  88007989.32947  21492455.9494   21492457.8834   21492456.3164
        52.000          46.000
 124882567.57247  97311099.04647  23764353.3504   23764355.4264   23764353.5974
        46.000          40.000
 127973196.79747  99719353.10347  24352506.4354   24352510.7714   24352506.0144
        44.000          38.000
 116529849.00147  90802460.21747  22174908.3574   22174911.8154   22174908.4964
        49.000          43.000
 112935547.61747  88001709.44947  21490932.9354   21490936.2194   21490933.2264
        53.000          47.000
 124024257.55047  96642254.78947  23601047.7654   23601052.4734   23601047.4764
        46.000          40.000
 125487005.59547  97782067.22547  23879393.1084   23879398.9004   23879393.5314
        46.000          39.000
 09  1  2  0 14 30.0000000  0 10G29G24G22G21G18G12G14G 9G30G 5
 111392165.60047  86799070.33547  21197240.1464   21197243.1234   21197239.8914
        53.000          48.000
 112273487.88347  87485816.76547  21364946.2744   21364951.1004   21364946.4534
        53.000          47.000
 128210183.39247  99904031.21047  24397592.3354   24397593.3514   24397592.4714
        43.000          37.000
 112864313.23247  87946210.89347  21477368.9664   21477370.9204   21477369.1764
        53.000          46.000
 124879892.31847  97309014.45047  23763843.9274   23763846.2794   23763844.1864
        46.000          40.000
 127981341.64547  99725699.78947  24354056.2954   24354061.0734   24354055.7654
        44.000          38.000
 116495721.42147  90775867.34547  22168414.2874   22168417.2044   22168414.1464
        49.000          43.000
 112953800.42347  88015932.44047  21494405.9944   21494409.3304   21494406.0644
        53.000          46.000
 124018928.95947  96638102.68347  23600033.6064   23600038.7724   23600033.3094
        46.000          40.000
 125480617.27747  97777089.36547  23878177.8884   23878183.2534   23878178.6064
        46.000          40.000
 09  1  2  0 15  0.0000000  0 10G29G24G22G21G18G12G14G 9G30G 5
 111452745.37647  86846275.36247  21208768.1364   21208771.0404   21208767.7734
        53.000          48.000
 112265371.54047  87479492.35647  21363401.9034   21363406.2214   21363401.9564
        53.000          47.000
 128206622.71647  99901256.70247  24396914.1704   24396915.7634   24396914.2384
        43.000          37.000
 112785236.74047  87884592.87147  21462321.1634   21462323.2954   21462321.4024
        53.000          46.000
 124876999.46747  97306760.30147  23763293.5474   23763295.8804   23763293.9414
        46.000          40.000
 127989340.10147  99731932.37747  24355578.3774   24355583.2234   24355578.3454
        44.000          38.000
 116462070.70247  90749646.05047  22162010.3894   22162014.0094   22162010.5474
        49.000          43.000
 112972577.39347  88030563.87647  21497979.3544   21497982.4514   21497979.4964
        53.000          46.000
 124013380.93247  96633779.58747  23598977.6314   23598982.7894   23598977.9574
        46.000          40.000
 125474074.15947  97771990.87947  23876932.3954   23876937.8654   23876933.0624
        45.000          39.000
 09  1  2  0 15 30.0000000  0 10G29G24G22G21G18G12G14G 9G30G 5
 111513614.28747  86893705.67747  21220351.0054   21220353.9514   21220350.7494
        53.000          48.000
 112257665.54047  87473487.69147  21361935.4754   21361939.8234   21361935.6654
        53.000          47.000
 128202916.31847  99898368.63047  24396209.4444   24396210.9774   24396209.5264
        44.000          38.000
 112706370.68447  87823138.82147  21447313.7204   21447315.4274   21447314.1524
        53.000          46.000
 124873890.05847  97304337.40347  23762701.8214   23762704.0864   23762702.1594
        45.000          39.000
 127997194.99147  99738053.09647  24357073.3024   24357078.0334   24357072.7984
        44.000          38.000
 116428898.64747  90723797.74047  22155698.0774   22155701.2404   22155698.3594
        50.000          44.000
 112991880.58847  88045605.35447  21501652.2624   21501655.5504   21501652.3904
        53.000          46.000
 124007615.31247  96629286.93047  23597880.5884   23597885.4164   23597880.9204
        46.000          40.000
 125467378.97947  97766773.87747  23875658.2604   23875664.2384   23875658.2194
        44.000          39.000
 09  1  2  0 16  0.0000000  0 10G29G24G22G21G18G12G14G 9G30G 5
 111574770.31647  86941359.72947  21231988.6864   21231991.5524   21231988.3814
        53.000          48.000
 112250371.85047  87467804.30647  21360547.6254   21360551.8084   21360547.7364
        53.000          47.000
 128199063.63547  99895366.59347  24395475.7584   24395477.6404   24395476.0954
        43.000          37.000
 112627718.54347  87761851.46547  21432346.3994   21432348.5964   21432346.7734
        53.000          46.000
 124870564.20847  97301745.85547  23762069.0454   23762071.2744   23762069.1764
        45.000          39.000
 128004908.66047  99744063.80047  24358541.0914   24358545.3414   24358540.7444
        43.000          38.000
 116396205.63147  90698322.70747  22149476.9274   22149480.1864   22149476.9194
        49.000          43.000
 113011711.10347  88061057.72747  21505426.0964   21505429.2194   21505426.2794
        53.000          46.000
 124001633.26447  96624625.62847  23596742.2134   23596747.0284   23596742.3424
        46.000          40.000
 125460533.47147  97761439.75447  23874355.5394   23874361.6214   23874355.4794
        46.000          39.000
 09  1  2  0 16 30.0000000  0 10G29G24G22G21G18G12G14G 9G30G 5
 111636209.72947  86989234.59747  21243680.1754   21243683.2134   21243679.9414
        53.000          48.000
 112243491.60547  87462443.08347  21359238.2794   21359242.3294   21359238.4774
        53.000          47.000
 128195062.85947  99892249.15047  24394714.6264   24394716.5404   24394714.9014
        45.000          38.000
 112549283.01047  87700732.88247  21417420.7214   21417422.5534   21417421.2194
        53.000          46.000
 124867021.12147  97298985.02147  23761394.4634   23761396.8194   23761394.8634
        45.000          39.000
 128012480.72547  99749964.11947  24359981.2094   24359986.4104   24359980.7314
        43.000          38.000
 116363991.21247  90673220.61647  22143346.4734   22143349.8334   22143346.7244
        49.000          44.000
 113032068.93147  88076920.99547  21509299.8884   21509303.4954   21509299.9694
        52.000          46.000
 123995434.55247  96619795.48947  23595562.8074   23595567.7354   23595562.4844
        46.000          40.000
 125453538.31547  97755989.03347  23873024.3904   23873030.5914   23873024.7744
        45.000          39.000
 09  1  2  0 17  0.0000000  0 10G29G24G22G21G18G12G14G 9G30G 5
 111697928.83647  87037327.40847  21255424.9854   21255428.1264   21255424.7544
        53.000          48.000
 112237025.04747  87457404.21947  21358007.6354   21358012.0824   21358007.7584
        53.000          47.000
 128190911.30747  99889014.22947  24393925.0914   24393926.2264   24393925.1644
        44.000          38.000
 112471066.25547  87639784.77647  21402536.6564   21402538.0164   21402536.9914
        53.000          46.000
 124863259.48847  97296053.90947  23760678.8394   23760680.6204   23760679.3924
        46.000          39.000
 128019911.88547  99755754.66347  24361395.7624   24361400.8174   24361395.7074
        43.000          38.000
 116332254.23147  90648490.54947  22137307.4014   22137310.3164   22137307.5304
        50.000          44.000
 113052953.24947  88093194.52047  21513273.9214   21513277.5904   21513273.9084
        52.000          46.000
 123989018.57147  96614796.06247  23594341.6144   23594346.6864   23594341.4814
        46.000          40.000
 125446393.69247  97750421.84547  23871664.7154   23871670.5354   23871665.4174
        46.000          39.000
 09  1  2  0 17 30.0000000  0 10G29G24G22G21G18G12G14G 9G30G 5
 111759926.60847  87085637.35647  21267222.6184   21267225.8634   21267222.1034
        53.000          48.000
 112230975.45447  87452690.25847  21356856.5804   21356860.8024   21356856.8084
        53.000          47.000
 128186609.78147  99885662.41947  24393105.5604   24393107.8254   24393105.9284
        44.000          37.000
 112393072.73447  87579010.61947  21387694.7084   21387696.2734   21387695.1324
        53.000          46.000
 124859280.55047  97292953.45847  23759921.6894   23759923.8614   23759921.9254
        45.000          39.000
 128027204.83547  99761437.49347  24362783.7894   24362788.3694   24362784.0554
        43.000          38.000
 116300996.32447  90624133.78047  22131359.1754   22131362.2954   22131359.3674
        49.000          44.000
 113074366.19747  88109879.95847  21517348.7304   21517352.3234   21517348.8774
        52.000          46.000
 123982387.54647  96609629.08247  23593079.8894   23593084.4154   23593079.6324
        47.000          40.000
 125439102.51347  97744740.45047  23870277.3864   23870282.9344   23870278.0984
        45.000          39.000
 09  1  2  0 18  0.0000000  0 10G29G24G22G21G18G12G14G 9G30G 5
 111822198.06747  87134160.55847  21279072.3944   21279075.7504   21279072.2094
        53.000          48.000
 112225342.17747  87448300.69947  21355784.6004   21355788.7114   21355784.7014
        53.000          47.000
 128182154.79547  99882191.04847  24392259.1044   24392259.0854   24392258.9074
        44.000          38.000
 112315303.77547  87518411.44347  21372895.8034   21372897.4584   21372896.2324
        53.000          46.000
 124855081.86847  97289681.77547  23759122.7584   23759124.7284   23759122.8494
        45.000          39.000
 128034359.14547  99767012.35147  24364145.1554   24364149.8684   24364145.0344
        43.000          38.000
 116270215.54547  90600148.79747  22125501.6624   22125504.8994   22125502.0854
        50.000          44.000
 113096306.41147  88126976.25247  21521523.8034   21521527.3144   21521524.0404
        52.000          46.000
 123975539.56047  96604293.02647  23591776.6094   23591781.5964   23591776.2964
        46.000          40.000
 125431663.97547  97738944.23547  23868862.1114   23868867.0644   23868862.3694
        45.000          39.000
 09  1  2  0 18 30.0000000  0 10G29G24G22G21G18G12G14G 9G30G 5
 111884743.87247  87182897.53047  21290974.6194   21290977.5534   21290974.4404
        53.000          48.000
 112220130.02847  87444239.29447  21354792.9154   21354797.1994   21354793.0694
        53.000          47.000
 128177548.31947  99878601.64847  24391381.9614   24391383.0494   24391382.0484
        45.000          37.000
 112237765.65347  87457992.14147  21358140.8574   21358142.7914   21358141.2704
        53.000          46.000
 124850666.45547  97286241.23047  23758281.9274   23758284.9734   23758282.1204
        45.000          39.000
 128041379.15247  99772482.56747  24365480.6684   24365485.3564   24365480.0734
        43.000          38.000
 116239915.05947  90576538.06747  22119735.7364   22119738.6884   22119735.9114
        50.000          44.000
 113118777.34347  88144486.08547  21525799.7074   21525803.1294   21525799.8394
        52.000          46.000
 123968478.37347  96598790.84447  23590432.7974   23590437.7174   23590432.7554
        46.000          40.000
 125424082.65947  97733036.78047  23867419.0274   23867423.8734   23867419.8274
        45.000          39.000
 09  1  2  0 19  0.0000000  0 10G29G24G22G21G18G12G14G 9G30G 5
 111947558.19647  87231843.74847  21302927.7604   21302930.6924   21302927.3984
        52.000          48.000
 112215337.49047  87440504.86047  21353880.7344   21353885.0614   21353880.8554
        53.000          47.000
 128172785.62647  99874890.51047  24390475.7034   24390475.9824   24390475.8214
        44.000          37.000
 112160458.49247  87397752.81647  21343429.6664   21343431.5294   21343430.0584
        53.000          46.000
 124846030.56847  97282628.85847  23757400.4374   23757402.3654   23757401.1634
        45.000          39.000
 128048263.10047  99777846.72647  24366790.3774   24366795.2504   24366790.1604
        43.000          38.000
 116210091.65247  90553299.09047  22114060.5834   22114063.5174   22114060.6414
        50.000          44.000
 113141776.55547  88162407.57947  21530176.4964   21530179.9104   21530176.5614
        52.000          46.000
 123961201.24947  96593120.40647  23589048.3874   23589052.8654   23589048.2484
        47.000          40.000
 125416356.80447  97727016.70047  23865948.6494   23865954.3894   23865949.1474
        45.000          39.000
 09  1  2  0 19 30.0000000  0 10G29G24G22G21G18G12G14G 9G30G 5
 112010638.64247  87280997.33247  21314931.5654   21314934.6274   21314931.3784
        53.000          48.000
 112210966.43147  87437098.84947  21353048.9794   21353053.2124   21353049.1014
        53.000          47.000
 128167866.32047  99871057.31447  24389539.5564   24389540.6584   24389539.9514
        43.000          37.000
 112083385.98447  87337696.32747  21328763.2214   21328765.0444   21328763.6584
        53.000          46.000
 124841175.00347  97278845.32647  23756475.9714   23756478.3134   23756476.5054
        45.000          39.000
 128055012.73247  99783106.18547  24368074.8594   24368079.8994   24368075.1514
        43.000          38.000
 116180745.70647  90530432.15747  22108476.2254   22108479.2344   22108476.3884
        50.000          44.000
 113165304.74847  88180741.25347  21534653.5974   21534657.2904   21534653.7604
        52.000          46.000
 123953709.33447  96587282.58447  23587622.9094   23587627.2884   23587622.7514
        47.000          40.000
 125408488.15647  97720885.31347  23864451.6124   23864456.6344   23864452.1144
        45.000          39.000
 09  1  2  0 20  0.0000000  0 10G29G24G22G21G18G12G14G 9G30G 5
 112073984.70947  87330357.89447  21326986.1274   21326988.9074   21326985.9594
        53.000          48.000
 112207020.43647  87434024.05847  21352297.8864   21352302.3284   21352298.0544
        53.000          47.000
 128162791.15547  99867102.70247  24388573.5664   24388575.1154   24388573.8804
        44.000          37.000
 112006553.41547  87277826.79447  21314142.5154   21314144.1194   21314142.9354
        53.000          46.000
 124836101.46547  97274891.93647  23755510.4834   23755512.8494   23755510.9754
        46.000          39.000
 128061631.70247  99788263.82347  24369334.1074   24369339.2044   24369334.0414
        42.000          38.000
 116151879.24747  90507938.85747  22102982.9704   22102986.1724   22102983.1104
        50.000          44.000
 113189364.11747  88199488.83747  21539232.0844   21539235.7724   21539232.1814
        52.000          46.000
 123946004.88547  96581279.14047  23586156.5564   23586160.7094   23586156.0654
        46.000          40.000
 125400480.23047  97714645.43947  23862927.4894   23862932.6564   23862928.3314
        46.000          39.000
 09  1  2  0 20 30.0000000  0 10G29G24G22G21G18G12G14G 9G30G 5
 112137590.69747  87379921.00047  21339089.9714   21339092.6324   21339089.6294
        53.000          47.000
 112203497.97247  87431279.28847  21351627.6964   21351632.0754   21351627.7164
        53.000          47.000
 128157556.28847  99863023.63747  24387577.2374   24387578.5444   24387577.3574
        43.000          37.000
 111929961.28947  87218144.63947  21299567.2874   21299569.3614   21299567.7414
        53.000          46.000
 124830806.97547  97270766.36847  23754503.2664   23754505.7834   23754504.0184
        45.000          39.000
 128068118.76547  99793318.70947  24370568.6084   24370573.9514   24370568.2574
        42.000          38.000
 116123489.42747  90485816.95247  22097580.5314   22097583.5424   22097580.7714
        50.000          44.000
 113213952.53447  88218648.66847  21543911.2494   21543914.6894   21543911.3324
        52.000          46.000
 123938085.86747  96575108.52347  23584649.5114   23584653.8684   23584648.3534
        46.000          40.000
 125392331.70147  97708295.99847  23861376.8314   23861382.5644   23861377.2104
        45.000          39.000
 09  1  2  0 21  0.0000000  0 10G29G24G22G21G18G12G14G 9G30G 5
 112201455.55047  87429685.80747  21351242.9464   21351245.7864   21351242.8414
        53.000          47.000
 112200402.12247  87428866.94447  21351038.6634   21351043.0804   21351038.7624
        53.000          47.000
 128152162.12047  99858820.44847  24386551.2794   24386551.8024   24386551.2764
        44.000          37.000
 111853614.04447  87158653.29547  21285038.8674   21285041.0564   21285039.1064
        53.000          47.000
 124825292.70547  97266469.54747  23753454.1164   23753455.5624   23753454.3514
        46.000          39.000
 128074476.16647  99798272.58647  24371778.2704   24371783.6324   24371778.2264
        43.000          38.000
 116095577.52447  90464067.45447  22092268.8724   22092271.9244   22092269.0874
        50.000          44.000
 113239071.66447  88238222.03647  21548690.9574   21548694.6344   21548691.0074
        52.000          46.000
 123929954.56247  96568772.47547  23583102.2904   23583106.3494   23583101.4024
        46.000          40.000
 125384045.34547  97701839.16947  23859799.9624   23859805.6654   23859800.2734
        45.000          39.000
 09  1  2  0 21 30.0000000  0 10G29G24G22G21G18G12G14G 9G30G 5
 112265576.68547  87479650.31347  21363444.7764   21363447.5164   21363444.4554
        52.000          47.000
 112197734.30247  87426788.13447  21350530.8884   21350535.3044   21350530.8914
        53.000          47.000
 128146607.62247  99854492.29947  24385493.9104   24385495.1344   24385494.0494
        42.000          37.000
 111777515.01147  87099355.36347  21270557.9034   21270559.8254   21270558.2914
        53.000          47.000
 124819558.78547  97262001.58747  23752362.9894   23752364.5934   23752363.4894
        46.000          39.000
 128080705.66847  99803126.79547  24372964.7674   24372968.7244   24372963.8554
        44.000          38.000
 116068143.68447  90442690.47747  22087048.1144   22087051.3984   22087048.4154
        50.000          44.000
 113264722.18347  88258209.48047  21553571.8184   21553575.8984   21553571.8264
        52.000          46.000
 123921611.40747  96562271.36747  23581514.3684   23581518.9114   23581514.3344
        47.000          40.000
 125375622.75447  97695276.15647  23858196.9284   23858203.3384   23858197.5544
        46.000          39.000
 09  1  2  0 22  0.0000000  0 10G29G24G22G21G18G12G14G 9G30G 5
 112329949.19247  87529810.69947  21375694.4844   21375697.3934   21375694.0554
        53.000          48.000
 112195494.25947  87425042.65547  21350104.5824   21350109.1684   21350104.6514
        53.000          47.000
 128140889.61047  99850036.73747  24384405.4804   24384406.9504   24384405.3654
        42.000          37.000
 111701665.48947  87040251.86447  21256124.1834   21256126.0414   21256124.4724
        53.000          47.000
 124813602.74447  97257360.52047  23751229.7984   23751231.2304   23751229.8264
        46.000          39.000
 128086806.95647  99807881.06847  24374125.5434   24374130.4234   24374125.7514
        43.000          38.000
 116041185.65347  90421684.25247  22081918.5894   22081921.6794   22081918.6834
        50.000          44.000
 113290902.41047  88278609.68247  21558553.9154   21558557.6194   21558553.9634
        52.000          46.000
 123913055.10547  96555604.14947  23579886.4934   23579890.5434   23579886.5034
        46.000          40.000
 125367063.20547  97688606.45847  23856568.5004   23856573.8264   23856568.8324
        45.000          39.000
 09  1  2  0 22 30.0000000  0 10G29G24G22G21G18G12G14G 9G30G 5
 112394572.64447  87580166.63547  21387992.1044   21387994.8784   21387991.8044
        53.000          47.000
 112193685.11747  87423632.95247  21349760.3164   21349764.8074   21349760.5434
        53.000          47.000
 128135008.83347  99845454.35147  24383286.7274   24383287.9244   24383286.5364
        43.000          38.000
 111626070.57047  86981346.74947  21241738.7694   21241740.7344   21241739.0424
        53.000          47.000
 124807426.45247  97252547.85847  23750054.1364   23750055.8894   23750054.7414
        45.000          39.000
 128092783.37447  99812538.07147  24375262.1934   24375267.2554   24375261.8994
        44.000          38.000
 116014705.08947  90401050.08047  22076879.2824   22076882.7004   22076879.8724
        50.000          44.000
 113317614.57647  88299424.37647  21563637.3014   21563640.4954   21563637.4664
        52.000          46.000
 123904288.40147  96548772.97447  23578218.3824   23578222.1004   23578218.3884
        47.000          40.000
 125358370.23847  97681832.78347  23854914.2914   23854919.3834   23854914.5494
        45.000          39.000
 09  1  2  0 23  0.0000000  0 10G29G24G22G21G18G12G14G 9G30G 5
 112459443.23547  87630715.13947  21400336.4724   21400339.3104   21400336.3864
        53.000          47.000
 112192307.60547  87422559.57347  21349498.0024   21349502.5824   21349498.2324
        53.000          47.000
 128128963.54147  99840743.78947  24382136.2394   24382138.2164   24382136.0494
        43.000          37.000
 111550733.10847  86922642.24347  21227402.7294   21227404.4574   21227403.0944
        53.000          47.000
 124801029.46947  97247563.23447  23748836.6744   23748838.9614   23748837.1324
        46.000          39.000
 128098635.67947  99817098.36647  24376375.9944   24376380.4404   24376375.7264
        43.000          38.000
 115988701.68147  90380787.72447  22071931.2174   22071933.8274   22071931.4354
        50.000          44.000
 113344858.32447  88320653.29747  21568821.3814   21568824.9704   21568821.4834
        52.000          46.000
 123895311.23047  96541777.81247  23576509.4764   23576513.8964   23576509.8414
        47.000          40.000
 125349544.76447  97674955.83647  23853234.5144   23853239.9664   23853235.1484
        45.000          39.000
 09  1  2  0 23 30.0000000  0 10G29G24G22G21G18G12G14G 9G30G 5
 112524557.52047  87681453.53647  21412727.2524   21412730.1474   21412727.0514
        52.000          47.000
 112191362.25847  87421822.94347  21349318.3364   21349322.5804   21349318.4734
        53.000          47.000
 128122751.80247  99835903.52647  24380954.3804   24380955.1974   24380954.5324
        43.000          37.000
 111475655.38447  86864140.13347  21213115.9794   21213117.7674   21213116.4104
        53.000          47.000
 124794410.63547  97242405.72547  23747576.8494   23747579.4384   23747577.4144
        46.000          39.000
 128104364.36747  99821562.31847  24377465.6684   24377471.1004   24377465.3954
        43.000          38.000
 115963173.80147  90360895.89947  22067072.9004   22067076.2864   22067073.0314
        50.000          44.000
 113372632.84647  88342295.81347  21574106.9434   21574110.0484   21574107.0614
        52.000          46.000
 123886123.35847  96534618.46347  23574761.2854   23574765.0404   23574761.2484
        47.000          40.000
 125340587.22347  97667975.99847  23851530.0524   23851535.6204   23851530.1414
        44.000          39.000
 09  1  2  0 24  0.0000000  0 10G29G24G22G21G18G12G14G 9G30G 5
 112589915.22747  87732381.61447  21425164.2794   21425167.2244   21425163.9484
        52.000          47.000
 112190852.71647  87421425.90647  21349221.6134   21349225.7094   21349221.7974
        53.000          47.000
 128116374.90947  99830934.56147  24379740.8434   24379741.3294   24379740.6484
        43.000          37.000
 111400842.66347  86805844.51347  21198879.6144   21198881.3824   21198880.0744
        53.000          47.000
 124787572.41047  97237077.26047  23746275.6614   23746277.7024   23746276.0694
        46.000          39.000
 128109973.15847  99825932.88147  24378533.7954   24378537.8344   24378533.4744
        43.000          38.000
 115938123.42547  90341376.15847  22062306.4754   22062309.3424   22062306.7124
        50.000          44.000
 113400940.46047  88364353.71947  21579493.5884   21579496.9624   21579493.6794
        52.000          46.000
 123876727.23747  96527296.84747  23572972.8954   23572977.0634   23572972.3864
        46.000          40.000
 125331501.34847  97660896.16847  23849800.7814   23849806.6454   23849801.2674
        45.000          39.000
 09  1  2  0 24 30.0000000  0 10G29G24G22G21G18G12G14G 9G30G 5
 112655509.81047  87783494.27347  21437646.5894   21437649.4684   21437646.3804
        52.000          47.000
 112190776.49847  87421366.52347  21349206.8914   21349211.2684   21349207.0104
        53.000          47.000
 128109827.80047  99825832.95647  24378495.3984   24378496.1874   24378495.1794
        43.000          38.000
