     2.11           OBSERVATION DATA    G (GPS)             RINEX VERSION / TYPE
teqc  2008Oct2      gpsops              20090110 00:09:16UTCPGM / RUN BY / DATE
    30.0000                                                 INTERVAL
     1     1                                                WAVELENGTH FACT L1/2
     7    L1    L2    P1    P2    C1    S1    S2            # / TYPES OF OBSERV
Linux 2.4.20-8|Pentium IV|gcc -static|Linux|486/DX+         COMMENT
     2.10           OBSERVATION DATA    GPS                 COMMENT
soc2rnx ver 1.20    gpsops              10-Jan-2009 00:09:11COMMENT
S1, if present, is the SNR for the C/A data stream on L1.   COMMENT
 SNR is mapped to RINEX snr flag value [1,4-9]              COMMENT
    SNR:   >316  >100  >31.6  >10  >3.2    >0 bad=0         COMMENT
L1 & L2:      9     8     7     6     5     4     1         COMMENT
                                                            COMMENT
This data is provided as a public service by NASA/JPL.      COMMENT
No warranty is expressed or implied regarding suitability   COMMENT
for use.  For further information, contact:                 COMMENT
Dave Stowers, NASA/JPL m/s 238-600                          COMMENT
4800 Oak Grove Drive, Pasadena CA 91109 USA                 COMMENT
                                                            COMMENT
Forced Modulo Decimation to 30 seconds                      COMMENT
  2009     1     9     0     0    0.0000000     GPS         TIME OF FIRST OBS
GGN                 JPL                                     OBSERVER / AGENCY
CR519992104         ASH701945B_M    SCIT                    ANT # / TYPE
   -33801.4662 -6377516.5323   -82154.3508                  APPROX POSITION XYZ
        0.0083        0.0000        0.0000                  ANTENNA: DELTA H/E/N
ZR220013847         ASHTECH UZ-12       CQ00                REC # / TYPE / VERS
GLPS                                                        MARKER NAME
42005M002                                                   MARKER NUMBER
                                                            END OF HEADER
 09  1  9  0  0  0.0000000  0 11G 9G14G30G 5G18G24G22G12G21G29G31
 113698111.91247  88595915.68947  21636043.3684   21636047.6294   21636043.3484
        52.000          46.000
 115630235.14947  90101461.24347  22003715.2184   22003720.0604   22003716.3324
        50.000          44.000
 123782441.50647  96453816.23747  23555041.6854   23555049.1434   23555041.4414
        47.000          41.000
 125318429.54847  97650706.63147  23847316.6794   23847323.4884   23847317.2814
        45.000          39.000
 124724863.65047  97188199.68347  23734352.1014   23734355.7004   23734353.5594
        46.000          39.000
 112208461.96247  87435150.06947  21352571.1574   21352576.7364   21352571.3734
        53.000          47.000
 128046510.88247  99776486.15347  24366452.9084   24366455.4854   24366453.3924
        45.000          38.000
 128104643.74847  99821778.49647  24377520.7194   24377526.8204   24377520.5084
        42.000          38.000
 110703128.23247  86262178.69047  21066102.7734   21066105.5334   21066103.2134
        54.000          47.000
 113138660.53547  88159985.83947  21529576.1894   21529580.9874   21529576.1204
        52.000          47.000
 130304892.53047 101536261.78047  24796210.5494   24796215.9284   24796209.7834
        41.000          36.000
 09  1  9  0  0 30.0000000  0 11G 9G14G30G 5G18G24G22G12G21G29G31
 113731932.75147  88622269.60447  21642478.8524   21642483.3874   21642478.8344
        52.000          46.000
 115610599.77047  90086160.97547  21999978.9874   21999983.2524   21999979.3154
        50.000          44.000
 123770913.01147  96444832.99747  23552848.3284   23552854.0484   23552847.8344
        47.000          41.000
 125308092.44147  97642651.78047  23845349.7194   23845356.2294   23845350.4304
        45.000          39.000
 124715686.71347  97181048.87047  23732606.6214   23732610.1474   23732607.1754
        46.000          39.000
 112212568.26047  87438349.77247  21353352.6624   21353357.8794   21353352.8394
        53.000          47.000
 128038316.50747  99770100.99147  24364893.8334   24364896.1004   24364893.9934
        44.000          38.000
 128109004.54047  99825176.59347  24378350.9534   24378356.5884   24378350.6644
        43.000          38.000
 110631294.30747  86206204.23247  21052433.0074   21052436.0194   21052433.3374
        54.000          47.000
 113205984.46247  88212446.01847  21542387.8104   21542392.3314   21542387.3774
        52.000          47.000
 130202783.70547 101456696.61247  24776778.9914   24776784.1644   24776778.5784
        40.000          36.000
 09  1  9  0  1  0.0000000  0 12G 9G14G30G 5G18G24G22G12G 6G21G29G31
 113766283.94247  88649036.77847  21649015.9464   21649020.1014   21649015.9644
        52.000          46.000
 115591434.84047  90071227.29547  21996332.0074   21996336.3164   21996332.2054
        50.000          44.000
 123759181.39847  96435691.47247  23550615.9904   23550621.7724   23550615.5414
        46.000          41.000
 125297641.40947  97634508.15347  23843360.9324   23843367.5234   23843361.4494
        45.000          39.000
 124706286.68347  97173724.21347  23730817.9874   23730821.2214   23730818.5584
        47.000          39.000
 112217121.24747  87441897.54747  21354218.9744   21354224.3634   21354219.0544
        53.000          47.000
 128029941.91047  99763575.39047  24363299.8294   24363302.5514   24363299.9254
        44.000          38.000
 128113258.65647  99828491.56447  24379160.3164   24379165.9674   24379160.2574
        42.000          38.000
 143455982.42957  93991649.01957  25395848.7165   25395854.1155   25395849.0355
        40.000          35.000
 110559759.06447  86150462.50347  21038820.2684   21038823.3994   21038820.6064
        54.000          47.000
 113273519.97347  88265071.07347  21555239.5424   21555244.0884   21555239.4354
        52.000          47.000
 130100585.69447 101377061.95447  24757331.0244   24757336.8144   24757331.0924
        41.000          37.000
 09  1  9  0  1 30.0000000  0 12G 9G14G30G 5G18G24G22G12G 6G21G29G31
 113801167.09747  88676218.47547  21655653.8664   21655658.2394   21655653.9544
        52.000          46.000
 115572741.06047  90056660.73547  21992774.8904   21992778.8544   21992775.2864
        50.000          44.000
 123747248.98347  96426393.47747  23548345.0674   23548351.0234   23548344.8994
        47.000          40.000
 125287079.47847  97626278.11747  23841351.2344   23841357.6074   23841351.6714
        45.000          39.000
 124696664.85647  97166226.72647  23728987.0884   23728990.6324   23728987.5124
        46.000          39.000
 112222123.21047  87445795.16547  21355170.9624   21355176.3344   21355171.0374
        53.000          47.000
 128021387.65347  99756909.80047  24361672.0074   24361675.0454   24361671.7444
        44.000          38.000
 128117409.69647  99831726.22347  24379950.1334   24379956.1824   24379949.4084
        43.000          38.000
 143386465.71447  93937480.20647  25382620.8464   25382626.7314   25382620.5794
        40.000          35.000
 110488527.18647  86094957.15647  21025265.3954   21025268.1654   21025265.8124
        54.000          47.000
 113341265.74947  88317859.96747  21568131.0804   21568135.5664   21568130.7804
        52.000          47.000
 129998302.21547 101297360.68447  24737867.4434   24737872.2784   24737866.8754
        41.000          37.000
 09  1  9  0  2  0.0000000  0 12G 9G14G30G 5G18G24G22G12G 6G21G29G31
 113836580.47947  88703813.33747  21662392.8904   21662397.1144   21662393.1134
        52.000          46.000
 115554516.72147  90042459.96547  21989306.7914   21989311.1834   21989307.0374
        50.000          44.000
 123735115.70547  96416938.95647  23546036.2554   23546042.1024   23546036.3244
        47.000          40.000
 125276407.30847  97617962.17347  23839320.4514   23839326.9364   23839320.7344
        45.000          39.000
 124686820.08647  97158555.52547  23727113.4004   23727116.8744   23727113.7424
        47.000          39.000
 112227574.13147  87450042.63247  21356208.0964   21356213.5864   21356208.2704
        53.000          47.000
 128012651.49447  99750102.46747  24360009.0374   24360012.1764   24360009.4904
        44.000          38.000
 128121456.94747  99834880.01847  24380720.1174   24380726.5124   24380720.0934
        43.000          38.000
 143317215.04647  93883518.70347  25369442.1634   25369447.5224   25369442.9654
        39.000          35.000
 110417600.74247  86039689.81347  21011768.4324   21011771.2684   21011768.8104
        54.000          47.000
 113409217.95547  88370809.72147  21581061.8554   21581066.4504   21581061.3134
        52.000          47.000
 129895934.49247 101217593.75247  24718386.9804   24718392.0614   24718386.5254
        40.000          36.000
 09  1  9  0  2 30.0000000  0 12G 9G14G30G 5G18G24G22G12G 6G21G29G31
 113872523.92947  88731821.23947  21669232.3784   21669236.8914   21669232.4454
        52.000          46.000
 115536761.02747  90028624.37947  21985928.1624   21985932.2014   21985928.4554
        50.000          44.000
 123722781.83647  96407328.15447  23543689.1694   23543695.0014   23543688.7524
        46.000          40.000
 125265625.87447  97609561.09247  23837269.0274   23837274.8674   23837269.1124
        45.000          39.000
 124676752.25847  97150710.50647  23725197.8484   23725200.8284   23725197.9364
        46.000          39.000
 112233474.69047  87454640.45147  21357330.8784   21357336.5544   21357330.8994
        52.000          47.000
 128003732.27247  99743152.46447  24358312.0144   24358314.8244   24358312.1674
        43.000          38.000
 128125402.21347  99837954.32447  24381471.3244   24381476.5434   24381470.5564
        43.000          38.000
 143248231.03247  93829764.95947  25356315.5124   25356321.5454   25356315.9074
        39.000          34.000
 110346982.55247  85984662.66647  20998330.3254   20998333.0344   20998330.7284
        54.000          47.000
 113477373.45447  88423917.89447  21594031.6404   21594036.0124   21594031.5634
        52.000          47.000
 129793484.56647 101137762.73747  24698891.4984   24698896.5884   24698890.9194
        40.000          36.000
 09  1  9  0  3  0.0000000  0 12G 9G14G30G 5G18G24G22G12G 6G21G29G31
 113908999.02347  88760243.40547  21676173.4384   21676178.0094   21676173.3964
        52.000          46.000
 115519475.17147  90015154.89947  21982638.6154   21982642.8854   21982638.6814
        50.000          44.000
 123710250.06747  96397563.13947  23541304.0854   23541310.3364   23541303.5984
        47.000          41.000
 125254738.93147  97601077.79347  23835197.0534   23835203.5964   23835197.8914
        45.000          39.000
 124666463.24547  97142693.14747  23723239.8674   23723242.5284   23723240.4244
        47.000          39.000
 112239828.08547  87459591.13947  21358539.9724   21358545.5744   21358540.0574
        53.000          47.000
 127994630.82047  99736060.48447  24356580.3774   24356582.4374   24356580.2414
        44.000          38.000
 128129248.89347  99840951.84747  24382202.8734   24382208.7214   24382203.0944
        44.000          39.000
 143179516.85347  93776221.52247  25343238.1744   25343245.5494   25343238.9474
        39.000          34.000
 110276677.80647  85929879.76447  20984951.7794   20984954.5124   20984952.3394
        54.000          48.000
 113545731.66147  88477184.01647  21607039.6924   21607044.2274   21607039.5314
        52.000          47.000
 129690956.78947 101057871.09247  24679380.4994   24679385.9774   24679380.1064
        40.000          36.000
 09  1  9  0  3 30.0000000  0 12G 9G14G30G 5G18G24G22G12G 6G21G29G31
 113946001.60247  88789076.60247  21683214.6744   21683219.2194   21683214.8554
        52.000          46.000
 115502654.65947  90002048.03447  21979437.6374   21979441.9154   21979437.7804
        50.000          44.000
 123697517.56947  96387641.69747  23538881.6224   23538887.0574   23538881.0634
        47.000          41.000
 125243744.11547  97592510.43047  23833104.7484   23833110.9684   23833105.1544
        44.000          39.000
 124655949.45947  97134500.63347  23721239.1614   23721242.0694   23721239.5884
        47.000          39.000
 112246631.31647  87464892.34647  21359834.6374   21359840.3064   21359834.7894
        53.000          47.000
 127985342.48047  99728822.86547  24354812.2194   24354815.1844   24354812.3884
        44.000          38.000
 128132995.01247  99843871.00547  24382915.7714   24382921.9964   24382915.2314
        44.000          39.000
 143111069.64947  93722886.05247  25330212.6914   25330220.3094   25330214.0594
        40.000          35.000
 110206685.81447  85875340.56747  20971632.6964   20971635.5054   20971633.1404
        54.000          48.000
 113614285.73447  88530602.75547  21620084.9184   21620089.5594   21620084.5294
        52.000          47.000
 129588349.24447 100977917.25847  24659854.8754   24659860.0044   24659854.1524
        40.000          36.000
 09  1  9  0  4  0.0000000  0 12G 9G14G30G 5G18G24G22G12G 6G21G29G31
 113983536.29347  88818324.42947  21690357.2374   21690361.9054   21690357.3054
        51.000          46.000
 115486303.94347  89989307.23047  21976326.2774   21976330.4834   21976326.6064
        51.000          44.000
 123684590.02047  96377568.27647  23536421.9284   23536427.3914   23536421.7344
        47.000          41.000
 125232647.97047  97583864.12147  23830993.0264   23830999.2894   23830993.6464
        45.000          39.000
 124645215.76847  97126136.77047  23719196.6564   23719199.7294   23719196.8434
        46.000          39.000
 112253890.18647  87470548.59447  21361215.9214   21361221.3964   21361216.0764
        53.000          47.000
 127975871.36847  99721442.85447  24353010.4924   24353012.6274   24353010.6504
        45.000          38.000
 128136646.75047  99846716.61347  24383610.6574   24383616.2594   24383610.5124
        44.000          39.000
 143042895.20347  93669763.12947  25317241.1274   25317247.4004   25317241.2394
        40.000          35.000
 110137014.45347  85821051.21547  20958374.4924   20958377.4884   20958374.8604
        54.000          48.000
 113683037.86947  88584175.82947  21633168.1744   21633172.5714   21633167.9204
        52.000          47.000
 129485669.32347 100897907.03447  24640315.7944   24640320.9824   24640314.7434
        40.000          36.000
 09  1  9  0  4 30.0000000  0 12G 9G14G30G 5G18G24G22G12G 6G21G29G31
 114021599.79147  88847984.31847  21697600.4474   21697605.1794   21697600.3084
        52.000          45.000
 115470419.19747  89976929.53747  21973303.5684   21973307.8384   21973303.8994
        50.000          44.000
 123671465.78347  96367341.61847  23533924.3414   23533930.3104   23533924.2954
        47.000          41.000
 125221449.32347  97575137.93047  23828862.0334   23828868.6834   23828862.3844
        45.000          39.000
 124634259.36447  97117599.35847  23717111.4104   23717114.3754   23717111.6214
        46.000          39.000
 112261602.95047  87476558.53147  21362683.7364   21362689.1684   21362683.8584
        53.000          47.000
 127966213.14347  99713917.05147  24351172.4104   24351175.4304   24351172.6864
        44.000          38.000
 128140202.84547  99849487.67747  24384287.0764   24384292.9224   24384286.4334
        43.000          39.000
 142974991.87447  93616851.44947  25304319.5754   25304325.4264   25304319.5834
        39.000          35.000
 110067664.14647  85767012.03647  20945177.5724   20945180.4854   20945177.9264
        54.000          48.000
 113751982.76147  88637899.10147  21646287.9364   21646292.3014   21646287.5694
        52.000          46.000
 129382916.76147 100817840.21447  24620762.6504   24620767.3604   24620761.7194
        41.000          36.000
 09  1  9  0  5  0.0000000  0 12G 9G14G30G 5G18G24G22G12G 6G21G29G31
 114060189.85747  88878054.52447  21704943.9714   21704948.3244   21704944.0804
        52.000          45.000
 115454997.62447  89964912.75047  21970368.9694   21970373.0144   21970369.0424
        51.000          45.000
 123658142.99647  96356960.24947  23531388.6294   23531394.9214   23531388.1294
        47.000          41.000
 125210147.48047  97566331.33747  23826712.0554   23826717.9144   23826712.0164
        45.000          39.000
 124623078.44047  97108886.99247  23714983.3234   23714987.0424   23714984.1584
        46.000          39.000
 112269767.95147  87482920.86047  21364237.3134   21364242.8884   21364237.5194
        53.000          47.000
 127956365.02747  99706243.25447  24349298.3114   24349301.1814   24349298.5104
        44.000          39.000
 128143662.52247  99852183.62447  24384945.1514   24384950.8134   24384944.9164
        45.000          38.000
 142907358.36647  93564150.04147  25291449.0224   25291455.1674   25291449.3284
        40.000          35.000
 109998635.72147  85713223.66847  20932041.9214   20932044.7954   20932042.3594
        54.000          48.000
 113821114.87847  88691768.26747  21659443.1424   21659447.7274   21659442.8834
        51.000          46.000
 129280091.19747 100737716.47347  24601195.8074   24601200.3764   24601195.2864
        42.000          36.000
 09  1  9  0  5 30.0000000  0 12G 9G14G30G 5G18G24G22G12G 6G21G29G31
 114099309.91947  88908537.71247  21712388.3084   21712392.7964   21712388.3074
        52.000          46.000
 115440042.44047  89953259.38147  21967522.9884   21967527.2864   21967523.2684
        50.000          45.000
 123644626.39247  96346427.83347  23528816.9024   23528822.5004   23528816.3804
        47.000          41.000
 125198748.05947  97557448.70847  23824542.3054   23824548.6974   23824542.7784
        45.000          39.000
 124611676.66047  97100002.54647  23712813.9034   23712817.2974   23712814.2884
        46.000          39.000
 112278390.30447  87489639.56947  21365878.1214   21365883.6114   21365878.3824
        53.000          47.000
 127946330.11047  99698423.92447  24347388.9124   24347391.6494   24347389.1184
        45.000          39.000
 128147031.41047  99854808.81947  24385586.5714   24385591.6274   24385586.7544
        44.000          38.000
 142839999.59347  93511662.66647  25278631.6084   25278636.6394   25278631.3494
        40.000          35.000
 109929936.40847  85659691.75847  20918968.8164   20918971.7374   20918969.2444
        54.000          48.000
 113890435.79047  88745784.54347  21672634.6144   21672639.1254   21672634.3244
        52.000          46.000
 129177199.12947 100657540.92347  24581615.9834   24581620.0884   24581616.0054
        42.000          37.000
 09  1  9  0  6  0.0000000  0 12G 9G14G30G 5G18G24G22G12G 6G21G29G31
 114138957.48147  88939431.94347  21719933.1204   21719937.4774   21719933.0424
        52.000          46.000
 115425550.45647  89941966.95447  21964765.3754   21964769.3254   21964765.6824
        50.000          44.000
 123630914.74847  96335743.43247  23526207.8314   23526212.9914   23526207.1784
        47.000          41.000
 125187250.57947  97548489.64947  23822353.7934   23822360.3034   23822353.9884
        44.000          39.000
 124600052.09447  97090944.50347  23710601.9044   23710604.8824   23710602.1524
        46.000          39.000
 112287468.82447  87496713.72847  21367605.7394   21367611.2994   21367605.8504
        53.000          47.000
 127936105.42547  99690456.74447  24345442.8054   24345445.3024   24345443.0654
        45.000          39.000
 128150309.00847  99857362.86147  24386210.2084   24386215.5674   24386210.2914
        44.000          38.000
 142772914.34847  93459388.47347  25265864.9914   25265871.3464   25265865.3044
        41.000          36.000
 109861567.11847  85606417.00247  20905958.7204   20905961.4824   20905959.0674
        54.000          48.000
 113959940.57147  88799944.08847  21685861.0524   21685865.5454   21685861.0704
        52.000          46.000
 129074240.88647 100577313.81847  24562024.4374   24562027.9784   24562023.4924
        42.000          37.000
 09  1  9  0  6 30.0000000  0 12G 9G14G30G 5G18G24G22G12G 6G21G29G31
 114179132.89047  88970737.48347  21727578.1474   21727582.8314   21727578.0664
        52.000          45.000
 115411521.83147  89931035.57547  21962095.6674   21962099.8674   21962095.8164
        50.000          44.000
 123617010.08947  96324908.64747  23523561.3744   23523566.9434   23523561.3314
        47.000          41.000
 125175657.45647  97539456.08447  23820147.9134   23820154.0924   23820148.3094
        45.000          39.000
 124588205.74247  97081713.62447  23708347.6254   23708350.4934   23708348.1104
        46.000          39.000
 112297005.19547  87504144.65347  21369420.4084   21369425.9384   21369420.5014
        53.000          47.000
 127925690.82847  99682341.56147  24343461.2954   24343463.8724   24343461.2024
        45.000          38.000
 128153497.69147  99859847.63547  24386817.1884   24386821.8844   24386817.2084
        44.000          38.000
 142706104.35047  93407328.72947  25253151.8994   25253157.4984   25253152.1674
        42.000          37.000
 109793531.70747  85553402.41347  20893012.0294   20893014.7424   20893012.4434
        54.000          48.000
 114029627.09247  88854245.25347  21699122.0874   21699126.4894   21699121.8374
        52.000          46.000
 128971219.31247 100497037.39047  24542419.6834   24542423.5734   24542419.8324
        42.000          37.000
 09  1  9  0  7  0.0000000  0 12G 9G14G30G 5G18G24G22G12G 6G21G29G31
 114219835.21447  89002453.61147  21735323.6094   21735328.2594   21735323.6464
        52.000          45.000
 115397955.25247  89920464.23847  21959514.1074   21959518.3074   21959514.3844
        50.000          44.000
 123602912.89047  96313923.82247  23520878.9694   23520884.4784   23520878.4824
        47.000          41.000
 125163969.91047  97530348.92747  23817923.6784   23817930.1984   23817924.3124
        45.000          39.000
 124576137.32447  97072309.71947  23706050.7764   23706053.8164   23706051.4884
        47.000          39.000
 112306999.92247  87511932.73147  21371322.6124   21371328.0154   21371322.6874
        53.000          47.000
 127915084.60647  99674077.06447  24341442.1434   24341445.0794   24341442.4544
        44.000          38.000
 128156599.17647  99862264.46547  24387407.0784   24387412.5794   24387406.7394
        43.000          38.000
 142639570.27747  93355483.98947  25240491.1524   25240497.0744   25240491.4284
        42.000          36.000
 109725833.22647  85500650.37147  20880129.3434   20880132.1484   20880129.7054
        54.000          48.000
 114099492.42047  88908685.74047  21712417.2014   21712421.2644   21712417.1044
        52.000          46.000
 128868136.74947 100416713.42147  24522803.4434   24522808.1194   24522803.7934
        42.000          37.000
 09  1  9  0  7 30.0000000  0 12G 9G14G30G 5G18G24G22G12G 6G21G29G31
 114261060.56647  89034577.29547  21743168.5644   21743172.8994   21743168.6924
        52.000          46.000
 115384846.78547  89910249.87047  21957019.4834   21957023.6604   21957019.5824
        50.000          44.000
 123588620.75947  96302787.12747  23518159.3084   23518164.7734   23518158.4994
        47.000          41.000
 125152186.47847  97521167.06047  23815681.8324   23815688.1174   23815682.5034
        45.000          39.000
 124563843.84847  97062730.43947  23703711.4274   23703714.5264   23703711.9074
        46.000          39.000
 112317450.22247  87520075.81147  21373311.0884   21373316.5004   21373311.1004
        53.000          47.000
 127904283.06947  99665660.36747  24339386.9284   24339389.5414   24339386.9904
        44.000          38.000
 128159610.94247  99864611.37847  24387979.6494   24387985.9534   24387979.8364
        43.000          38.000
 142573309.67147  93303852.33647  25227882.1534   25227887.6254   25227881.9694
        41.000          36.000
 109658471.25647  85448160.53847  20867310.7544   20867313.6114   20867311.0354
        54.000          48.000
 114169530.54147  88963260.87147  21725745.1874   21725749.0574   21725744.7644
        52.000          46.000
 128764992.23847 100336341.18347  24503175.6634   24503180.0174   24503175.7134
        42.000          37.000
 09  1  9  0  8  0.0000000  0 12G 9G14G30G 5G18G24G22G12G 6G21G29G31
 114302813.80247  89067112.32647  21751114.1774   21751118.1124   21751114.2064
        51.000          45.000
 115372200.69447  89900395.80147  21954612.9794   21954617.0304   21954613.1644
        50.000          44.000
 123574139.80347  96291503.27847  23515403.2724   23515409.0484   23515402.7434
        47.000          40.000
 125140314.06147  97511915.86047  23813421.7904   23813428.9944   23813422.0754
        44.000          39.000
 124551330.68447  97052979.98147  23701330.0884   23701333.4634   23701330.6254
        46.000          39.000
 112328362.25647  87528578.68547  21375387.7414   21375392.9474   21375387.8784
        53.000          47.000
 127893290.68147  99657094.96047  24337294.7724   24337297.8364   24337294.9044
        44.000          38.000
 128162540.34847  99866894.09447  24388537.6224   24388542.9524   24388536.5694
        43.000          38.000
 142507328.80647  93252438.67047  25215326.3684   25215332.0974   25215326.4534
        40.000          36.000
 109591453.88347  85395939.22447  20854557.7244   20854560.5254   20854558.0774
        54.000          48.000
 114239743.78847  89017972.47147  21739105.8984   21739110.3864   21739105.2534
        51.000          46.000
 128661793.07947 100255926.37347  24483537.1614   24483541.9204   24483537.0034
        42.000          37.000
 09  1  9  0  8 30.0000000  0 12G 9G14G30G 5G18G24G22G12G 6G21G29G31
 114345094.38847  89100058.27147  21759159.3814   21759163.8124   21759159.5034
        51.000          45.000
 115360015.94047  89890901.20547  21952294.3224   21952298.4534   21952294.5844
        50.000          44.000
 123559470.84247  96280072.94847  23512612.1684   23512617.5504   23512611.7264
        47.000          41.000
 125128354.17247  97502596.51847  23811146.1344   23811152.8054   23811146.5994
        45.000          39.000
 124538597.90547  97043058.38747  23698907.3364   23698910.1924   23698907.5974
        47.000          39.000
 112339737.01847  87537442.12647  21377552.2124   21377557.6484   21377552.3934
        53.000          47.000
 127882106.39747  99648380.02447  24335166.6134   24335168.7464   24335166.8034
        45.000          38.000
 128165388.80647  99869113.76547  24389079.5714   24389084.2284   24389078.8014
        43.000          38.000
 142441628.41847  93201243.53047  25202823.5644   25202829.1424   25202823.7524
        41.000          36.000
 109524784.43347  85343989.02447  20841870.8964   20841873.8084   20841871.2634
        54.000          48.000
 114310129.48247  89072818.43847  21752500.0244   21752504.5294   21752499.7684
        52.000          46.000
 128558541.68247 100175470.87247  24463888.8234   24463893.8084   24463888.2364
        42.000          37.000
 09  1  9  0  9  0.0000000  0 12G 9G14G30G 5G18G24G22G12G 6G21G29G31
 114387898.20147  89133411.92347  21767304.7994   21767308.8934   21767305.1054
        51.000          45.000
 115348288.46747  89881762.93847  21950063.0534   21950066.7494   21950063.2044
        50.000          44.000
 123544611.60247  96268494.34747  23509784.5654   23509790.1344   23509784.3274
        47.000          40.000
 125116305.15647  97493207.71447  23808853.4724   23808859.7594   23808854.7054
        44.000          39.000
 124525642.36747  97032963.19847  23696442.0474   23696444.1724   23696442.5704
        47.000          39.000
 112351571.62747  87546663.87947  21379804.2354   21379809.5984   21379804.4374
        53.000          47.000
 127870725.55847  99639511.93547  24333001.3424   24333003.1654   24333000.9664
        44.000          38.000
 128168154.61147  99871269.00747  24389605.8734   24389610.6894   24389605.0714
        43.000          37.000
 142376206.07547  93150265.06347  25190374.8314   25190379.8014   25190374.7134
        41.000          36.000
 109458462.64647  85292309.72247  20829250.3634   20829253.0294   20829250.6974
        54.000          48.000
 114380681.20447  89127793.78947  21765925.6204   21765930.0234   21765925.5114
        52.000          46.000
 128455237.27047 100094974.03747  24444230.6514   24444235.1264   24444229.5064
        41.000          38.000
 09  1  9  0  9 30.0000000  0 12G 9G14G30G 5G18G24G22G12G 6G21G29G31
 114431226.23447  89167174.05547  21775549.6574   21775554.3544   21775549.9114
        51.000          45.000
 115337018.54647  89872981.19447  21947918.0024   21947922.4644   21947918.2054
        50.000          45.000
 123529563.92547  96256768.90647  23506920.8174   23506926.5974   23506920.6524
        46.000          40.000
 125104169.99647  97483751.79447  23806544.2074   23806550.6264   23806544.9914
        45.000          39.000
 124512465.67547  97022695.70947  23693934.8264   23693937.1154   23693935.1024
        46.000          39.000
 112363868.31147  87556245.69447  21382144.1314   21382149.5234   21382144.2174
        53.000          47.000
 127859148.97547  99630491.28247  24330797.4884   24330800.3424   24330797.4334
        43.000          38.000
 128170840.72347  99873362.18247  24390116.2174   24390122.2584   24390116.1754
        42.000          38.000
 142311064.13247  93099505.07947  25177978.6484   25177983.8064   25177978.6444
        42.000          36.000
 109392492.73147  85240904.61047  20816696.7164   20816699.4874   20816697.1674
        54.000          48.000
 114451397.98147  89182897.75647  21779382.3234   21779386.9474   21779382.0984
        51.000          46.000
 128351883.45247 100014438.71047  24424562.8364   24424568.1374   24424562.2554
        43.000          38.000
 09  1  9  0 10  0.0000000  0 12G 9G14G30G 5G18G24G22G12G 6G21G29G31
 114475078.08747  89201344.36547  21783894.3814   21783898.9024   21783894.5594
        52.000          45.000
 115326205.55447  89864555.50247  21945860.4914   21945864.7034   21945860.6344
        50.000          45.000
 123514329.27247  96244897.77047  23504022.0264   23504027.5064   23504021.4974
        47.000          40.000
 125091950.77247  97474230.38147  23804218.7854   23804225.3634   23804219.5974
        44.000          39.000
 124499068.02147  97012256.03647  23691385.2254   23691387.8574   23691385.5004
        47.000          39.000
 112376627.97947  87566188.28447  21384572.1734   21384577.5754   21384572.3084
        53.000          47.000
 127847375.98447  99621317.58747  24328558.0804   24328559.7204   24328557.8064
        44.000          38.000
 128173449.15647  99875394.79647  24390613.5914   24390618.7774   24390613.0764
        43.000          38.000
 142246203.55947  93048964.36247  25165635.3144   25165640.6014   25165635.9604
        41.000          36.000
 109326878.34547  85189776.53247  20804210.7534   20804213.5324   20804211.0834
        55.000          48.000
 114522276.96447  89238128.11547  21792870.0694   21792874.8664   21792869.8294
        51.000          46.000
 128248482.95247  99933867.01347  24404886.5354   24404891.1774   24404885.5544
        44.000          38.000
 09  1  9  0 10 30.0000000  0 12G 9G14G30G 5G18G24G22G12G 6G21G29G31
 114519453.30047  89235922.48847  21792338.9374   21792342.8624   21792339.2574
        52.000          45.000
 115315848.59847  89856485.16447  21943889.5254   21943893.7974   21943889.6834
        50.000          45.000
 123498908.94947  96232881.93547  23501087.6214   23501092.7444   23501087.4494
        47.000          40.000
 125079649.53847  97464645.04547  23801878.0954   23801884.2514   23801878.7954
        45.000          38.000
 124485450.29247  97001644.86647  23688793.4624   23688796.6794   23688794.0114
        46.000          39.000
 112389851.67847  87576492.45047  21387088.7394   21387094.1494   21387088.9364
        53.000          47.000
 127835405.99747  99611990.40047  24326280.3894   24326282.3464   24326280.3574
        44.000          38.000
 128175982.07247  99877368.57247  24391094.9404   24391100.5854   24391094.8924
        43.000          38.000
 142181625.53647  92998643.80547  25153347.3794   25153353.2254   25153347.5794
        40.000          35.000
 109261622.64047  85138927.94247  20791793.1144   20791795.7254   20791793.5214
        55.000          48.000
 114593316.01347  89293483.19247  21806388.5674   21806393.2044   21806388.4044
        51.000          46.000
 128145038.51547  99853261.08747  24385201.5714   24385206.6284   24385200.8364
        43.000          38.000
 09  1  9  0 11  0.0000000  0 12G 9G14G30G 5G18G24G22G12G 6G21G29G31
 114564349.71747  89270906.73347  21800882.5534   21800886.7284   21800882.7514
        52.000          45.000
 115305944.90147  89848768.01147  21942005.0114   21942008.8454   21942005.3034
        51.000          45.000
 123483302.17547  96220720.83147  23498117.3694   23498123.2674   23498117.0114
        46.000          40.000
 125067265.88847  97454995.49747  23799521.4214   23799527.4394   23799522.0754
        44.000          39.000
 124471610.57747  96990860.71047  23686159.7284   23686162.6044   23686159.9484
        46.000          39.000
 112403538.07947  87587157.16547  21389693.2034   21389698.6374   21389693.4244
        53.000          47.000
 127823236.42347  99602507.65147  24323964.2174   24323966.7294   24323964.5294
        44.000          38.000
 128178438.67347  99879282.92747  24391562.6834   24391567.9594   24391562.4074
        44.000          38.000
 142117328.93647  92948542.54247  25141111.7564   25141116.8554   25141112.2214
        40.000          35.000
 109196726.88047  85088359.83447  20779443.6624   20779446.4514   20779444.1384
        54.000          48.000
 114664510.29047  89348959.23347  21819936.4904   21819940.9604   21819935.9834
        51.000          46.000
 128041550.74247  99772621.36347  24365508.3044   24365513.0044   24365507.8714
        42.000          38.000
 09  1  9  0 11 30.0000000  0 12G 9G14G30G 5G18G24G22G12G 6G21G29G31
 114609769.26847  89306298.62247  21809525.6214   21809529.5394   21809525.6854
        52.000          45.000
 115296496.65447  89841405.74347  21940206.7364   21940210.9544   21940207.0734
        50.000          44.000
 123467512.69747  96208417.36247  23495112.9764   23495118.2394   23495112.6364
        47.000          40.000
 125054804.50047  97445285.38747  23797150.4234   23797156.7374   23797150.7674
        45.000          39.000
 124457551.99747  96979906.01847  23683484.4794   23683487.2834   23683484.8994
        47.000          39.000
 112417690.67947  87598185.15647  21392386.3854   21392391.8874   21392386.5654
        53.000          47.000
 127810869.33947  99592871.02247  24321610.4894   24321612.4434   24321610.6464
        44.000          38.000
 128180823.89247  99881141.62147  24392016.5094   24392021.4634   24392016.1294
        44.000          38.000
 142053317.59147  92898663.59047  25128930.7174   25128936.1644   25128931.1584
        41.000          36.000
 109132196.74747  85038076.61547  20767164.0674   20767166.5264   20767164.3954
        54.000          48.000
 114735860.03847  89404556.41947  21833514.1704   21833518.2604   21833513.9654
        52.000          46.000
 127938024.77747  99691951.89947  24345807.8374   24345812.7244   24345807.4144
        43.000          38.000
 09  1  9  0 12  0.0000000  0 12G 9G14G30G 5G18G24G22G12G 6G21G29G31
 114655708.14547  89342095.18747  21818267.3934   21818271.3384   21818267.5654
        52.000          45.000
 115287499.22847  89834394.78147  21938494.9674   21938498.7024   21938495.2384
        51.000          44.000
 123451538.75947  96195970.15647  23492073.3024   23492078.6644   23492073.1114
        46.000          40.000
 125042264.36347  97435513.91447  23794764.2724   23794770.0754   23794764.7734
        45.000          39.000
 124443272.13147  96968778.90047  23680767.3474   23680770.4634   23680767.6684
        47.000          39.000
 112432307.25747  87609574.68747  21395167.8754   21395173.3134   21395168.0384
        53.000          47.000
 127798301.23547  99583077.74447  24319218.4924   24319221.7404   24319218.6674
        44.000          38.000
 128183136.45147  99882943.72847  24392456.3694   24392461.0834   24392456.1224
        44.000          38.000
 141989589.30647  92849005.19047  25116804.4634   25116809.2324   25116803.9154
        41.000          35.000
 109068032.68147  84988078.65247  20754953.9574   20754956.6034   20754954.2664
        54.000          48.000
 114807359.77047  89460270.47847  21847119.9174   21847124.0654   21847119.6164
        51.000          46.000
 127834460.28447  99611252.40047  24326100.0174   24326104.8104   24326099.3974
        42.000          38.000
 09  1  9  0 12 30.0000000  0 12G 9G14G30G 5G18G24G22G12G 6G21G29G31
 114702165.64847  89378295.86247  21827107.8194   21827111.9304   21827107.7804
        52.000          45.000
 115278952.06947  89827734.67647  21936868.2354   21936872.3074   21936868.1564
        51.000          44.000
 123435381.17847  96183379.82547  23488998.6984   23489003.9274   23488998.4304
        47.000          40.000
 125029647.06047  97425682.30347  23792363.0014   23792369.0144   23792363.4894
        45.000          39.000
 124428771.14647  96957479.48147  23678007.9734   23678010.9624   23678008.2194
        46.000          39.000
 112447388.26847  87621326.10947  21398037.7564   21398042.9444   21398037.9774
        53.000          47.000
 127785531.07247  99573127.01047  24316788.8164   24316791.4864   24316788.8244
        45.000          38.000
 128185377.67647  99884690.24247  24392882.0974   24392887.6794   24392881.6884
        43.000          38.000
 141926144.92047  92799567.98147  25104731.1034   25104735.7754   25104731.0284
        40.000          35.000
 109004237.50747  84938368.13847  20742814.1034   20742816.9444   20742814.5384
        54.000          48.000
 114879006.38147  89516098.98447  21860753.9564   21860758.1294   21860753.8994
        52.000          46.000
 127730859.54347  99530524.63547  24306385.5774   24306390.1914   24306384.8214
        43.000          38.000
 09  1  9  0 13  0.0000000  0 12G 9G14G30G 5G18G24G22G12G 6G21G29G31
 114749144.30547  89414902.63547  21836047.6234   21836051.6144   21836047.7434
        51.000          45.000
 115270857.11447  89821426.94247  21935328.0204   21935331.6044   21935328.3084
        50.000          44.000
 123419044.80947  96170650.19047  23485890.1284   23485895.5404   23485889.9124
        47.000          41.000
 125016957.80447  97415794.65847  23789948.3094   23789953.9114   23789949.1144
        45.000          39.000
 124414052.66747  96946010.59647  23675206.8674   23675209.9304   23675207.2944
        46.000          40.000
 112462937.66147  87633442.51147  21400996.6754   21401001.8804   21400996.7404
        53.000          47.000
 127772561.18647  99563020.62447  24314320.9514   24314322.7354   24314321.3154
        45.000          38.000
 128187552.85647  99886385.29347  24393296.2704   24393301.8254   24393295.8334
        44.000          38.000
 141862988.60547  92750355.27547  25092712.0394   25092718.1254   25092712.4864
        40.000          35.000
 108940817.95147  84888950.30547  20730745.8604   20730748.5354   20730746.2064
        54.000          48.000
 114950800.68947  89572042.58147  21874415.9204   21874420.1384   21874415.7284
        51.000          46.000
 127627228.62347  99449773.34647  24286665.0394   24286670.0264   24286664.6494
        42.000          37.000
 09  1  9  0 13 30.0000000  0 12G 9G14G30G 5G18G24G22G12G 6G21G29G31
 114796640.36447  89451912.57147  21845085.5914   21845089.9914   21845085.6714
        51.000          45.000
 115263210.33847  89815468.43047  21933872.6964   21933876.5734   21933872.9564
        51.000          44.000
 123402527.16347  96157779.29547  23482746.8134   23482752.1194   23482746.5754
        47.000          41.000
 125004195.18447  97405849.82847  23787519.3864   23787525.4034   23787519.9174
        45.000          39.000
 124399114.01047  96934370.12347  23672364.0644   23672367.2534   23672364.6504
        46.000          39.000
 112478953.15447  87645922.10947  21404044.3224   21404049.6594   21404044.4404
        53.000          47.000
 127759387.98147  99552755.84347  24311814.4694   24311815.8734   24311814.7004
        45.000          38.000
 128189660.66447  99888027.84847  24393697.3624   24393702.5104   24393697.4484
        45.000          38.000
 141800117.86847  92701365.10547  25080748.9984   25080754.0994   25080748.6194
        41.000          35.000
 108877773.70447  84839824.92447  20718748.9074   20718751.5404   20718749.3874
        54.000          48.000
 115022736.93047  89628096.78647  21888104.6574   21888109.1764   21888103.9814
        51.000          46.000
 127523566.79647  99368997.98147  24266938.9604   24266943.6174   24266938.5244
        42.000          38.000
 09  1  9  0 14  0.0000000  0 12G 9G14G30G 5G18G24G22G12G 6G21G29G31
 114844653.02647  89489325.04647  21854221.9354   21854226.3514   21854221.8644
        51.000          45.000
 115256010.63547  89809858.29247  21932502.6924   21932506.3824   21932502.8924
        50.000          44.000
 123385829.11347  96144767.84447  23479569.3304   23479574.7154   23479568.6814
        47.000          41.000
 124991360.72747  97395849.02147  23785077.6474   23785083.1954   23785077.6424
        45.000          39.000
 124383955.09747  96922558.03247  23669479.0894   23669482.0464   23669479.7124
        46.000          39.000
 112495434.94647  87658765.05247  21407180.6774   21407185.9954   21407180.8074
        53.000          47.000
 127746011.07747  99542332.33147  24309268.5074   24309270.2544   24309269.0834
        44.000          38.000
 128191702.48047  99889618.97647  24394085.5794   24394091.0424   24394085.4554
        44.000          38.000
 141737533.47147  92652598.06647  25068839.9514   25068844.6064   25068839.4204
        39.000          36.000
 108815107.48847  84790994.11347  20706823.8374   20706826.7384   20706824.1464
        54.000          48.000
 115094811.83047  89684259.02847  21901820.1354   21901824.6524   21901819.9234
        51.000          46.000
 127419876.35947  99288200.28947  24247206.7634   24247212.4614   24247206.5484
        43.000          38.000
 09  1  9  0 14 30.0000000  0 12G 9G14G30G 5G18G24G22G12G 6G21G29G31
 114893184.88347  89527142.11047  21863457.4904   21863461.6004   21863457.7624
        51.000          45.000
 115249260.23047  89804598.26447  21931218.1924   21931222.1254   21931218.1384
        51.000          44.000
 123368955.43047  96131619.55347  23476357.9234   23476363.6824   23476357.5764
        47.000          40.000
 124978459.89647  97385796.46747  23782622.0094   23782628.2874   23782622.3894
        45.000          39.000
 124368580.01647  96910577.49847  23666553.3444   23666556.2984   23666553.7004
        46.000          39.000
 112512387.36747  87671974.72147  21410406.6034   21410411.9484   21410406.6944
        53.000          47.000
 127732432.81247  99531751.91347  24306684.1574   24306686.9334   24306684.6604
        45.000          38.000
 128193683.64347  99891162.80047  24394462.4854   24394468.1974   24394462.1014
        43.000          38.000
 121675198.71957 112604017.48957  25056982.9055   25056991.1915   25056986.1115
        41.000          35.000
 108752825.97047  84742463.05947  20694972.1034   20694974.7914   20694972.3754
        55.000          48.000
 115167026.78047  89740530.39547  21915562.2964   21915566.7524   21915562.2924
        51.000          46.000
 127316163.46447  99207385.10947  24227471.1874   24227476.1734   24227469.6794
        42.000          38.000
 09  1  9  0 15  0.0000000  0 12G 9G14G30G 5G18G24G22G12G 6G21G29G31
 114942229.82347  89565358.96947  21872790.5864   21872794.7474   21872790.5554
        51.000          45.000
 115242952.47047  89799683.15947  21930017.8094   21930021.7244   21930018.0684
        51.000          45.000
 123351901.82647  96118331.04847  23473112.6784   23473118.6114   23473112.4194
        47.000          41.000
 124965489.26947  97375689.54947  23780153.6794   23780160.0824   23780154.1174
        45.000          39.000
 124352983.78747  96898424.64247  23663585.6924   23663588.4944   23663585.9934
        46.000          39.000
 112529805.81847  87685547.53647  21413721.3234   21413726.5984   21413721.4004
        53.000          47.000
 127718647.20847  99521009.94647  24304061.8074   24304063.3414   24304061.6324
        45.000          39.000
 128195600.93347  99892656.89047  24394827.2864   24394832.7414   24394827.0964
        44.000          38.000
 141613281.99857  92555790.76657  25045185.6715   25045189.6715   25045185.5345
        41.000          35.000
 108690927.05147  84694230.14447  20683193.1154   20683195.7904   20683193.5324
        54.000          48.000
 115239373.72247  89796904.62247  21929329.3944   21929333.7384   21929328.7774
        51.000          46.000
 127212425.18047  99126550.14747  24207729.9514   24207735.5914   24207728.8134
        44.000          38.000
 09  1  9  0 15 30.0000000  0 12G 9G14G30G 5G18G24G22G12G 6G21G29G31
 114991791.17147  89603978.22847  21882221.6344   21882226.0444   21882221.7344
        51.000          45.000
 115237090.71347  89795115.58247  21928902.2964   21928906.2774   21928902.4154
        51.000          45.000
 123334673.88047  96104906.69947  23469834.2494   23469840.6994   23469834.0854
        46.000          41.000
 124952454.81647  97365532.88247  23777673.2134   23777679.2974   23777673.3964
        45.000          39.000
 124337171.20547  96886103.20847  23660576.1634   23660579.4914   23660576.4964
        46.000          39.000
 112547694.49147  87699486.75747  21417125.2764   21417130.5734   21417125.5494
        53.000          47.000
 127704657.29847  99510108.76147  24301398.6904   24301400.6804   24301398.9634
        45.000          39.000
 128197460.02047  99894105.61247  24395181.0474   24395186.3084   24395180.6034
        42.000          38.000
 141551565.26147  92507699.82547  25033441.0344   25033446.8294   25033441.3264
        40.000          35.000
 108629417.99347  84646301.01947  20671488.3564   20671491.1014   20671488.7024
        55.000          48.000
 115311854.20547  89853382.90347  21943121.9634   21943126.3614   21943121.6434
        51.000          46.000
 127108668.70047  99045700.99247  24187985.9684   24187991.1294   24187985.7204
        44.000          39.000
 09  1  9  0 16  0.0000000  0 12G 9G14G30G 5G18G24G22G12G 6G21G29G31
 115041866.47847  89642997.97847  21891750.7344   21891754.8034   21891750.9124
        52.000          45.000
 115231672.07147  89790893.29247  21927871.3104   21927875.2954   21927871.5324
        50.000          45.000
 123317271.04647  96091346.06547  23466522.5264   23466528.5424   23466522.2984
        47.000          41.000
 124939356.64747  97355326.55947  23775181.0024   23775187.0194   23775181.3344
        46.000          39.000
 124321140.96747  96873612.15547  23657526.1174   23657528.9384   23657526.2904
        46.000          39.000
 112566052.26347  87713791.50647  21420618.3864   21420624.0894   21420618.4704
        53.000          47.000
 127690461.77147  99499047.34047  24298697.2614   24298699.5954   24298697.5064
        45.000          39.000
 128199260.60747  99895508.76047  24395523.7764   24395529.5654   24395523.3324
        43.000          38.000
 141490138.63947  92459834.93447  25021752.6894   25021757.4614   25021752.3404
        41.000          35.000
 108568299.85047  84598676.49347  20659857.9884   20659860.4804   20659858.3494
        54.000          48.000
 115384463.97247  89909961.92947  21956939.3664   21956943.7664   21956939.1434
        51.000          46.000
 127004894.50747  98964838.03547  24168238.5344   24168243.6344   24168238.8334
        44.000          39.000
 09  1  9  0 16 30.0000000  0 12G 9G14G30G 5G18G24G22G12G 6G21G29G31
 115092454.10347  89682416.93847  21901377.1464   21901381.1354   21901377.3204
        51.000          45.000
 115226694.31447  89787014.54647  21926923.9444   21926928.0944   21926924.0354
        50.000          45.000
 123299693.30547  96077649.17047  23463177.9134   23463183.2934   23463177.3524
        47.000          41.000
 124926195.96947  97345071.54747  23772676.5494   23772682.5904   23772676.9504
        45.000          39.000
 124304892.70747  96860951.22047  23654433.7634   23654436.6474   23654434.2694
        46.000          39.000
 112584878.87747  87728461.58347  21424201.1024   21424206.7204   21424201.2304
        53.000          47.000
 127676058.44647  99487824.01847  24295956.8394   24295959.1094   24295956.9224
        45.000          39.000
 128201004.07147  99896867.39947  24395855.2714   24395860.7784   24395854.6154
        43.000          38.000
 141429002.02347  92412195.99647  25010117.8944   25010124.1074   25010117.6754
        41.000          35.000
 108507575.20147  84551358.59047  20648302.3354   20648304.9504   20648302.7214
        55.000          48.000
 115457199.38447  89966638.85947  21970780.1874   21970784.8424   21970779.6984
        51.000          46.000
 126901104.45147  98883962.71247  24148488.1894   24148492.9594   24148488.2824
        44.000          39.000
 09  1  9  0 17  0.0000000  0 12G 9G14G30G 5G18G24G22G12G 6G21G29G31
 115143554.19847  89722235.22547  21911101.0514   21911105.0964   21911101.2074
        51.000          45.000
 115222157.69647  89783479.55947  21926060.5074   21926064.7984   21926060.7344
        51.000          45.000
 123281943.27647  96063818.00647  23459800.1914   23459805.9604   23459799.5534
        47.000          41.000
 124912975.59447  97334770.01847  23770160.6174   23770166.9794   23770160.8344
        44.000          39.000
 124288427.68047  96848121.38047  23651300.6984   23651303.7154   23651301.0974
        46.000          39.000
 112604175.93847  87743498.24147  21427873.3214   21427878.8614   21427873.4404
        53.000          47.000
 127661447.83447  99476439.17247  24293175.9454   24293178.6414   24293176.2544
        44.000          38.000
 128202693.36647  99898183.80147  24396176.7584   24396181.8834   24396176.4304
        43.000          38.000
 141368157.21347  92364784.43747  24998539.4394   24998544.4804   24998539.8334
        41.000          35.000
 108447247.95247  84504350.34947  20636822.7714   20636825.0634   20636823.1204
        55.000          49.000
 115530058.72647  90023412.36847  21984645.0114   21984649.6974   21984644.8674
        51.000          46.000
 126797302.13847  98803077.84047  24128734.9964   24128740.1194   24128734.1434
        43.000          39.000
 09  1  9  0 17 30.0000000  0 12G 9G14G30G 5G18G24G22G12G 6G21G29G31
 115195164.89947  89762451.38647  21920922.1974   21920926.2394   21920922.3674
        51.000          44.000
 115218060.23847  89780286.77547  21925280.6484   21925284.4674   21925280.7954
        50.000          45.000
 123264021.40547  96049852.94947  23456389.7654   23456395.7944   23456389.7364
        47.000          41.000
 124899696.73047  97324422.90147  23767633.5584   23767639.3114   23767633.9324
        45.000          39.000
 124271745.92347  96835122.67447  23648126.4894   23648128.7034   23648126.7264
        46.000          39.000
 112623943.30447  87758901.37147  21431634.9204   21431640.4254   21431634.9484
        53.000          47.000
 127646628.94547  99464892.01447  24290356.1604   24290358.7334   24290356.4504
        45.000          38.000
 128204329.55847  99899458.84147  24396488.1494   24396493.0584   24396488.0224
        43.000          38.000
 141307604.26847  92317600.29947  24987017.0614   24987022.1504   24987016.5124
        41.000          35.000
 108387320.45947  84457653.61147  20625418.7474   20625421.4044   20625419.1914
        55.000          49.000
 115603038.66447  90080279.84347  21998532.7094   21998537.2384   21998532.4324
        51.000          46.000
 126693489.87947  98722185.19847  24108980.3114   24108985.2664   24108978.7084
        43.000          39.000
 09  1  9  0 18  0.0000000  0 12G 9G14G30G 5G18G24G22G12G 6G21G29G31
 115247285.70347  89803065.02047  21930840.4224   21930844.3904   21930840.4724
        51.000          44.000
 115214400.92747  89777435.39847  21924584.4634   21924588.5344   21924584.7854
        50.000          45.000
 123245929.36347  96035755.29047  23452947.2524   23452952.9794   23452947.0694
        47.000          41.000
 124886361.51247  97314031.88547  23765095.7704   23765102.1794   23765096.2454
        45.000          39.000
 124254848.06247  96821955.53747  23644911.0074   23644913.5474   23644911.5494
        47.000          39.000
 112644181.48547  87774671.37147  21435486.2784   21435491.7234   21435486.3664
        53.000          47.000
 127631601.26847  99453182.18647  24287496.8094   24287498.3264   24287496.6084
        44.000          38.000
 128205914.47947  99900693.92147  24396789.0134   24396794.8664   24396789.0484
        43.000          38.000
 141247344.08047  92270644.30847  24975549.0554   24975555.1404   24975548.8854
        40.000          36.000
 108327795.72747  84411270.71047  20614091.7264   20614094.1594   20614092.1264
        55.000          49.000
 115676137.02547  90137239.59647  22012442.8494   22012447.4444   22012442.6824
        51.000          46.000
 126589670.17047  98641286.75347  24089224.2794   24089229.1854   24089223.0574
        43.000          39.000
 09  1  9  0 18 30.0000000  0 12G 9G14G30G 5G18G24G22G12G 6G21G29G31
 115299915.16047  89844075.01547  21940855.5024   21940859.5094   21940855.6254
        50.000          44.000
 115211178.05247  89774924.10147  21923971.1874   21923974.8574   21923971.2534
        51.000          44.000
 123227667.79047  96021525.54547  23449471.4014   23449477.4724   23449471.0914
        46.000          41.000
 124872971.44147  97303598.12347  23762547.9484   23762553.7974   23762548.5954
        45.000          39.000
 124237734.27947  96808620.17947  23641654.3804   23641657.0664   23641654.6914
        46.000          39.000
 112664890.40847  87790808.17847  21439427.1094   21439432.6074   21439427.2024
        53.000          47.000
 127616363.93347  99441309.01147  24284597.1644   24284598.8594   24284596.9764
        44.000          38.000
 128207449.68047  99901890.26247  24397081.5074   24397087.2824   24397081.1964
        43.000          38.000
 141187376.95447  92223916.62447  24964137.5224   24964143.6034   24964137.8114
        41.000          36.000
 108268676.64747  84365203.90147  20602841.5554   20602844.1344   20602841.9504
        55.000          49.000
 115749350.93047  90194289.38047  22026374.8454   22026379.7874   22026374.7094
        50.000          46.000
 126485845.41147  98560384.38347  24069467.4404   24069471.4664   24069467.0064
        44.000          39.000
 09  1  9  0 19  0.0000000  0 12G 9G14G30G 5G18G24G22G12G 6G21G29G31
 115353051.99447  89885480.36847  21950966.8654   21950971.0854   21950966.8984
        50.000          44.000
 115208390.28647  89772751.84947  21923440.4174   21923444.4354   21923440.8934
        51.000          45.000
 123209237.95447  96007164.67647  23445964.3564   23445970.1394   23445963.9894
        47.000          41.000
 124859528.38647  97293123.06647  23759989.7264   23759995.8864   23759990.2124
        45.000          39.000
 124220404.79947  96795116.73147  23638356.5244   23638359.4804   23638356.8474
        47.000          40.000
 112686070.50447  87807312.13847  21443457.5814   21443462.9554   21443457.8224
        53.000          47.000
 127600916.23447  99429271.89647  24281657.9454   24281659.8014   24281657.7404
        44.000          38.000
 128208937.33747  99903049.53847  24397364.4404   24397370.0804   24397364.8594
        43.000          38.000
 141127703.65447  92177417.90147  24952782.8274   24952788.6294   24952782.8264
        37.000          36.000
 108209966.21447  84319455.52447  20591669.1554   20591672.1674   20591669.4894
        55.000          49.000
 115822677.63647  90251427.06547  22040328.4164   22040333.2974   22040328.1914
        50.000          46.000
 126382018.21447  98479480.11847  24049709.6414   24049713.5504   24049709.7394
        44.000          38.000
 09  1  9  0 19 30.0000000  0 12G 9G14G30G 5G18G24G22G12G 6G21G29G31
 115406695.64447  89927280.63347  21961174.7764   21961178.9184   21961174.7284
        50.000          44.000
 115206036.53947  89770917.79447  21922992.6074   21922996.6144   21922992.7744
        51.000          45.000
 123190641.45047  95992673.96347  23442425.7704   23442431.2544   23442425.3274
        47.000          41.000
 124846034.61547  97282608.51647  23757421.7974   23757427.7624   23757422.5224
        45.000          39.000
 124202860.54747  96781445.92047  23635017.7864   23635020.6554   23635018.5804
        46.000          40.000
 112707722.53347  87824183.83647  21447577.6064   21447583.0484   21447577.8384
        52.000          46.000
 127585258.15547  99417070.83947  24278677.9554   24278679.4894   24278677.8124
        44.000          38.000
 128210378.80247  99904172.83847  24397638.7254   24397644.0084   24397638.3654
        43.000          38.000
 141068324.95947  92131148.76947  24941483.7674   24941489.0824   24941482.7974
        39.000          36.000
 108151667.61547  84274028.04947  20580575.6114   20580578.3994   20580576.0944
        55.000          49.000
 115896114.55947  90308650.63647  22054302.8664   22054307.7154   22054302.3624
        51.000          46.000
 126278191.38547  98398576.13447  24029952.1074   24029956.1514   24029952.5704
        44.000          39.000
 09  1  9  0 20  0.0000000  0 12G 9G14G30G 5G18G24G22G12G 6G21G29G31
 115460844.34147  89969474.44847  21971479.1914   21971483.3704   21971479.2844
        50.000          44.000
 115204114.79947  89769420.36647  21922627.0854   21922630.7014   21922627.2774
        51.000          45.000
 123171878.65047  95978053.66947  23438854.8074   23438861.2224   23438854.8754
        47.000          41.000
 124832491.20947  97272055.27247  23754844.5734   23754850.0774   23754845.0024
        45.000          39.000
 124185101.46047  96767607.72647  23631638.3954   23631640.7034   23631638.9074
        47.000          39.000
 112729845.98847  87841422.87847  21451787.5244   21451792.9664   21451787.6014
        53.000          46.000
 127569388.06547  99404704.60447  24275658.0954   24275659.9834   24275658.4314
        45.000          38.000
 128211775.40747  99905261.15847  24397904.6514   24397909.9004   24397904.3734
        43.000          38.000
 141009240.92347  92085109.26747  24930239.9544   24930245.5604   24930239.7394
        39.000          35.000
 108093782.99647  84228923.15347  20569560.3724   20569563.1524   20569560.7954
        54.000          49.000
 115969658.82147  90365957.83947  22068298.0194   22068302.7364   22068297.7924
        51.000          45.000
 126174366.79047  98317673.90847  24010194.3624   24010198.9634   24010194.6304
        44.000          39.000
 09  1  9  0 20 30.0000000  0 12G 9G14G30G 5G18G24G22G12G 6G21G29G31
 115515497.60947  90012061.43747  21981879.3044   21981883.6694   21981879.3354
        50.000          44.000
 115202624.18747  89768258.87647  21922343.2934   21922347.3024   21922343.2744
        51.000          45.000
 123152951.21047  95963305.07147  23435253.1444   23435259.1414   23435252.8044
        47.000          41.000
 124818900.54947  97261465.20847  23752258.8284   23752264.1234   23752259.1474
        46.000          39.000
 124167128.46947  96753602.84847  23628217.8784   23628220.9044   23628218.0804
        46.000          39.000
