     2.11           OBSERVATION DATA    G (GPS)             RINEX VERSION / TYPE
teqc  2013Mar15     gpsops              20140601 00:23:07UTCPGM / RUN BY / DATE
Linux 2.4.21-27.ELsmp|Opteron|gcc -static|Linux x86_64|=+   COMMENT
BIT 2 OF LLI FLAGS DATA COLLECTED UNDER A/S CONDITION       COMMENT
GLPS                                                        MARKER NAME
42005M002                                                   MARKER NUMBER
GGN                 JPL                                     OBSERVER / AGENCY
ZR220013847         ASHTECH UZ-12       CQ00                REC # / TYPE / VERS
CR519992104         ASH701945B_M    SCIT                    ANT # / TYPE
   -33801.4662 -6377516.5323   -82154.3508                  APPROX POSITION XYZ
        0.0083        0.0000        0.0000                  ANTENNA: DELTA H/E/N
     1     1                                                WAVELENGTH FACT L1/2
     7    L1    L2    P1    P2    C1    S1    S2            # / TYPES OF OBSERV
    30.0000                                                 INTERVAL
                                                            COMMENT
This data is provided as a public service by NASA/JPL.      COMMENT
No warranty is expressed or implied regarding suitability   COMMENT
for use.  For further information, contact:                 COMMENT
Dave Stowers, NASA/JPL m/s 238-600                          COMMENT
4800 Oak Grove Drive, Pasadena CA 91109 USA                 COMMENT
                                                            COMMENT
Forced Modulo Decimation to 30 seconds                      COMMENT
 SNR is mapped to RINEX snr flag value [0-9]                COMMENT
  L1 & L2: min(max(int(snr_dBHz/6), 0), 9)                  COMMENT
pseudorange smoothing corrections not applied               COMMENT
  2014     5    31     0     0    0.0000000     GPS         TIME OF FIRST OBS
                                                            END OF HEADER
 14  5 31  0  0  0.0000000  0  9G06G08G10G28G04G07G26G02G17
  -6078096.01748  -4716500.28848  21085126.6674   21085134.4394   21085126.116
        53.0004         49.0004
 -15788031.02848 -12294086.21748  20481856.6654   20481862.3724   20481856.905
        52.0004         48.0004
 -15487811.09447 -12063507.85047  22524031.2004   22524037.4234   22524031.784
        47.0004         43.0004
 -10041852.78448  -7827035.12147  22317201.9134   22317208.3434   22317202.164
        48.0004         43.0004
 -28590149.33248 -22230895.53948  20318256.1804   20318261.5354   20318256.094
        53.0004         49.0004
 -12857632.94948  -9989552.74447  22216925.3014   22216930.3574   22216925.021
        48.0004         44.0004
   -304371.13547   -222652.17846  24180068.4334   24180077.9744   24180067.649
        43.0004         38.0004
  -9864232.43148  -7670674.69847  22192654.3574   22192658.5774   22192654.920
        49.0004         44.0004
  -9372267.36747  -7260280.91446  23546408.1824   23546417.2294   23546407.695
        46.0004         41.0004
 14  5 31  0  0 30.0000000  0  9G06G08G10G28G04G07G26G02G17
  -6016094.07748  -4668187.06848  21096925.5114   21096933.6884   21096924.374
        53.0004         49.0004
 -15726566.34148 -12246191.62148  20493553.1124   20493558.7664   20493553.540
        52.0004         48.0004
 -15559714.58547 -12119536.45147  22510347.9624   22510355.0894   22510349.483
        47.0004         43.0004
 -10100023.17448  -7872362.50647  22306132.0904   22306139.1974   22306132.542
        48.0004         44.0004
 -28600832.67148 -22239220.16848  20316222.9474   20316228.6634   20316222.794
        53.0004         49.0004
 -12760948.07548  -9914213.87947  22235323.8814   22235327.8894   22235323.568
        48.0004         44.0004
   -290053.43947   -211495.44446  24182793.2374   24182801.8714   24182791.914
        43.0004         38.0004
  -9921458.10748  -7715266.03947  22181764.6914   22181768.9224   22181765.299
        49.0004         44.0004
  -9339236.44047  -7234542.45446  23552693.0594   23552703.8164   23552693.049
        46.0004         41.0004
 14  5 31  0  1  0.0000000  0  9G06G08G10G28G04G07G26G02G17
  -5953696.80448  -4619565.79648  21108798.8314   21108806.8054   21108798.207
        53.0004         49.0004
 -15664568.01148 -12197881.19748  20505351.3984   20505356.3834   20505351.064
        52.0004         48.0004
 -15631626.67147 -12175571.74747  22496663.9884   22496669.4114   22496664.504
        47.0004         43.0004
 -10158122.11548  -7917634.21247  22295075.4124   22295083.9934   22295076.997
        48.0004         44.0004
 -28610963.56748 -22247114.31648  20314295.3254   20314300.6674   20314294.890
        53.0004         49.0004
 -12664035.36648  -9838697.43847  22253766.0584   22253770.5264   22253765.455
        48.0004         44.0004
   -275643.19447   -200266.60146  24185534.0934   24185544.2164   24185534.751
        43.0004         38.0004
  -9978280.76348  -7759543.32547  22170952.2044   22170956.2404   22170952.597
        49.0004         44.0004
  -9306390.10547  -7208947.85046  23558944.0454   23558954.4244   23558943.330
        46.0004         41.0004
 14  5 31  0  1 30.0000000  0  9G06G08G10G28G04G07G26G02G17
  -5890901.32948  -4570634.23748  21120749.1684   21120756.6954   21120747.805
        53.0004         49.0004
 -15602033.13148 -12149152.68648  20517250.6544   20517256.1424   20517251.354
        52.0004         48.0004
 -15703539.76847 -12231607.83747  22482980.1894   22482986.1364   22482980.027
        47.0004         43.0004
 -10216141.46048  -7962843.88647  22284036.1504   22284041.8314   22284036.032
        48.0004         44.0004
 -28620536.77648 -22254573.91148  20312473.8844   20312478.8474   20312473.244
        53.0004         49.0004
 -12566892.11248  -9763001.37647  22272251.6584   22272256.4944   22272251.425
        48.0004         43.0004
   -261137.29047   -188963.22646  24188293.9024   24188303.1404   24188294.002
        42.0004         38.0004
 -10034693.94948  -7803501.55947  22160216.5774   22160220.9254   22160216.698
        49.0004         44.0004
  -9273724.36947  -7183493.95246  23565159.3464   23565169.9994   23565159.263
        46.0004         41.0004
 14  5 31  0  2  0.0000000  0  9G06G08G10G28G04G07G26G02G17
  -5827712.47348  -4521396.15048  21132773.1874   21132780.8664   21132772.142
        53.0004         49.0004
 -15538966.73448 -12100010.00548  20529252.1024   20529257.4404   20529252.143
        52.0004         48.0004
 -15775453.71147 -12287644.57647  22469294.2324   22469301.3624   22469295.271
        47.0004         43.0004
 -10274080.58048  -8007991.03447  22273009.9704   22273016.8154   22273009.736
        48.0004         44.0004
 -28629554.89348 -22261600.96548  20310757.0904   20310762.4414   20310757.086
        53.0004         49.0004
 -12469524.30848  -9687130.34547  22290780.4914   22290785.4904   22290779.499
        48.0004         44.0004
   -246540.22547   -177588.81946  24191072.9294   24191082.8864   24191072.271
        43.0004         38.0004
 -10090698.68648  -7847141.51747  22149559.2864   22149563.4714   22149559.252
        49.0004         44.0004
  -9241242.49147  -7158183.31746  23571340.9834   23571350.4244   23571340.856
        46.0004         41.0004
 14  5 31  0  2 30.0000000  0  9G06G08G10G28G04G07G26G02G17
  -5764133.65948  -4471854.20148  21144871.7804   21144879.5954   21144870.996
        53.0004         49.0004
 -15475372.53348 -12050456.04948  20541353.6124   20541359.1804   20541354.068
        52.0004         48.0004
 -15847366.98748 -12343680.79647  22455609.2444   22455617.4174   22455610.516
        48.0004         43.0004
 -10331937.74848  -8053074.33347  22262000.7064   22262007.2854   22262000.396
        48.0004         44.0004
 -28638018.90948 -22268196.24948  20309146.9164   20309152.1444   20309146.420
        53.0004         49.0004
 -12371935.61048  -9611087.18747  22309350.1264   22309355.6044   22309350.370
        48.0004         43.0004
   -231855.14647   -166145.80946  24193866.1374   24193877.3434   24193866.118
        42.0004         38.0004
 -10146294.25148  -7890462.64647  22138978.9764   22138984.3484   22138979.566
        49.0004         44.0004
  -9208946.66947  -7133017.65746  23577486.2004   23577497.2374   23577486.067
        46.0004         41.0004
 14  5 31  0  3  0.0000000  0  9G06G08G10G28G04G07G26G02G17
  -5700164.64548  -4422008.19748  21157044.4074   21157052.5154   21157043.726
        53.0004         49.0004
 -15411250.54248 -12000490.82048  20553555.4694   20553560.8724   20553555.921
        52.0004         48.0004
 -15919274.08148 -12399712.21247  22441925.4464   22441933.0684   22441926.456
        48.0004         43.0004
 -10389707.14148  -8098089.23747  22251006.0134   22251013.8274   22251007.124
        48.0004         44.0004
 -28645926.24448 -22274357.75648  20307642.0434   20307647.1874   20307641.527
        53.0004         49.0004
 -12274126.05648  -9534871.93347  22327962.7924   22327967.4174   22327962.744
        48.0004         43.0004
   -217081.55947   -154633.83046  24196678.5204   24196688.3104   24196678.667
        42.0004         38.0004
 -10201477.22348  -7933462.27847  22128478.4434   22128483.6514   22128478.701
        49.0004         44.0004
  -9176835.66147  -7107996.02546  23583596.1434   23583606.4994   23583596.282
        46.0004         41.0004
 14  5 31  0  3 30.0000000  0  9G06G08G10G28G04G07G26G02G17
  -5635811.15948  -4371862.60648  21169290.5584   21169298.4124   21169289.791
        53.0004         49.0004
 -15346606.58948 -11950118.87747  20565856.6764   20565862.1514   20565857.277
        52.0004         47.0004
 -15991176.05248 -12455739.63247  22428243.6414   22428250.4684   22428244.521
        48.0004         43.0004
 -10447389.09548  -8143035.99947  22240029.7384   22240037.3314   22240030.140
        48.0004         44.0004
 -28653280.34248 -22280088.17348  20306242.5094   20306247.9144   20306242.269
        53.0004         49.0004
 -12176101.97648  -9458489.51147  22346617.2734   22346621.5614   22346616.087
        48.0004         43.0004
   -202224.92647   -143057.16246  24199506.1114   24199515.5164   24199503.760
        42.0004         38.0004
 -10256249.25648  -7976141.68847  22118055.1014   22118060.5734   22118055.755
        49.0004         44.0004
  -9144913.50447  -7083121.53346  23589670.1814   23589680.4664   23589671.101
        46.0004         41.0004
 14  5 31  0  4  0.0000000  0  9G06G08G10G28G04G07G26G02G17
  -5571075.30048  -4321419.06048  21181609.2804   21181617.4524   21181608.482
        53.0004         49.0004
 -15281442.77248 -11899341.84447  20578257.0284   20578262.7694   20578257.355
        52.0004         47.0004
 -16063069.59148 -12511760.47547  22414562.1734   22414569.8914   22414563.206
        48.0004         43.0004
 -10504980.34648  -8187912.08147  22229071.4044   22229077.4684   22229070.422
        48.0004         44.0004
 -28660081.05148 -22285387.37948  20304947.9974   20304953.8464   20304947.788
        53.0004         49.0004
 -12077865.91448  -9381941.90747  22365311.8844   22365314.5054   22365309.819
        48.0004         43.0004
   -187287.10447   -131417.22446  24202347.1704   24202357.6514   24202347.630
        42.0004         38.0004
 -10310608.70648  -8018499.61747  22107711.1244   22107715.6524   22107711.579
        49.0004         45.0004
  -9113180.79947  -7058394.68446  23595710.7814   23595720.3194   23595709.625
        46.0004         41.0004
 14  5 31  0  4 30.0000000  0  9G06G08G10G28G04G07G26G02G17
  -5505958.17648  -4270678.43048  21194001.0344   21194008.7164   21194000.149
        53.0004         49.0004
 -15215760.58748 -11848160.89347  20590756.0264   20590761.7924   20590756.027
        52.0004         47.0004
 -16134950.77548 -12567771.69747  22400883.4184   22400891.0184   22400884.530
        48.0004         43.0004
 -10562476.48548  -8232714.05847  22218129.6414   22218135.9174   22218129.632
        49.0004         44.0004
 -28666327.14248 -22290254.41248  20303759.7224   20303764.9814   20303759.519
        53.0004         49.0004
 -11979419.49248  -9305230.37847  22384044.1964   22384049.3514   22384043.479
        48.0004         43.0004
   -172268.76147   -119714.53846  24205205.7364   24205215.1404   24205204.627
        42.0004         38.0004
 -10364552.83348  -8060533.91447  22097446.0964   22097450.5174   22097446.474
        49.0004         45.0004
  -9081637.31847  -7033815.27746  23601711.0304   23601722.7844   23601711.681
        46.0004         41.0004
 14  5 31  0  5  0.0000000  0  9G06G08G10G28G04G07G26G02G17
  -5440462.99348  -4219643.20148  21206464.0914   21206472.1714   21206463.214
        53.0004         49.0004
 -15149563.54448 -11796578.75047  20603352.5174   20603358.1504   20603353.400
        52.0004         47.0004
 -16206817.66848 -12623771.77947  22387208.7714   22387214.9474   22387208.551
        48.0004         43.0004
 -10619875.17948  -8277440.10547  22207207.0284   22207212.0854   22207206.760
        49.0004         44.0004
 -28672019.77048 -22294690.17948  20302676.3264   20302681.7394   20302675.913
        53.0004         49.0004
 -11880766.68048  -9228358.02947  22402817.1894   22402821.1164   22402816.452
        48.0004         43.0004
   -157172.75247   -107951.31546  24208075.6134   24208089.3844   24208077.617
        43.0004         38.0004
 -10418081.11548  -8102244.18647  22087259.8024   22087264.0254   22087260.111
        49.0004         45.0004
  -9050284.69647  -7009384.58946  23607679.1714   23607688.5734   23607678.313
        46.0004         41.0004
 14  5 31  0  5 30.0000000  0  9G06G08G10G28G04G07G26G02G17
  -5374592.31248  -4168315.37648  21218998.7944   21219006.8174   21218998.210
        53.0004         49.0004
 -15082854.01448 -11744597.26747  20616046.7264   20616052.9394   20616047.176
        52.0004         47.0004
 -16278667.71248 -12679758.72847  22373534.2304   22373542.4654   22373536.252
        48.0004         43.0004
 -10677173.60448  -8322088.02447  22196303.3534   22196310.5614   22196302.984
        49.0004         44.0004
 -28677158.96048 -22298694.69248  20301698.4394   20301703.3114   20301698.011
        53.0004         49.0004
 -11781910.54148  -9151327.25447  22421628.5394   22421633.6114   22421628.323
        48.0004         43.0004
   -142001.39547    -96129.40046  24210964.6474   24210974.2974   24210964.634
        42.0004         38.0004
 -10471192.46948  -8143629.57447  22077152.7214   22077157.2384   22077153.302
        49.0004         45.0004
  -9019123.93847  -6985103.39846  23613608.1224   23613617.8024   23613607.746
        46.0004         41.0004
 14  5 31  0  6  0.0000000  0  9G06G08G10G28G04G07G26G02G17
  -5308349.08248  -4116697.25648  21231604.3634   21231612.6024   21231603.859
        53.0004         49.0004
 -15015635.22148 -11692218.95847  20628838.2284   20628843.7934   20628839.137
        52.0004         47.0004
 -16350498.64048 -12735730.77947  22359866.1064   22359872.6024   22359867.441
        48.0004         43.0004
 -10734369.08348  -8366655.71947  22185418.0514   22185425.5764   22185418.919
        49.0004         44.0004
 -28681745.54948 -22302268.61548  20300825.6614   20300830.7914   20300825.405
        53.0004         49.0004
 -11682854.03548  -9074140.34747  22440478.2124   22440482.9454   22440478.164
        48.0004         43.0004
   -126757.20547    -84250.72946  24213866.0964   24213875.7654   24213865.324
        43.0004         38.0004
 -10523886.16448  -8184689.50747  22067125.3414   22067129.4404   22067125.607
        49.0004         45.0004
  -8988156.67947  -6960972.99446  23619500.9484   23619510.9564   23619501.156
        46.0004         41.0004
 14  5 31  0  6 30.0000000  0  9G06G08G10G28G04G07G26G02G17
  -5241737.71548  -4064792.28448  21244280.1764   21244288.1244   21244279.364
        53.0004         48.0004
 -14947911.80948 -11639447.43947  20641725.6724   20641731.4874   20641725.729
        52.0004         47.0004
 -16422309.85948 -12791687.48647  22346201.0304   22346208.0074   22346201.915
        48.0004         43.0004
 -10791460.54648  -8411142.37647  22174554.2454   22174560.4934   22174554.587
        49.0004         44.0004
 -28685781.90048 -22305413.77648  20300057.5524   20300062.7384   20300057.040
        53.0004         49.0004
 -11583602.04648  -8996801.10247  22459365.6944   22459371.5144   22459364.746
        48.0004         43.0004
   -111444.40947    -72318.60246  24216779.1114   24216790.5164   24216779.210
        42.0004         38.0004
 -10576162.77948  -8225424.44847  22057177.7994   22057182.6434   22057178.240
        49.0004         45.0004
  -8957385.71347  -6936995.52346  23625356.3754   23625367.4344   23625356.430
        46.0004         41.0004
 14  5 31  0  7  0.0000000  0  9G06G08G10G28G04G07G26G02G17
  -5174755.65148  -4012598.45248  21257026.3054   21257034.4674   21257025.471
        53.0004         48.0004
 -14879681.29748 -11586280.78247  20654709.8274   20654715.2504   20654710.135
        52.0004         47.0004
 -16494093.64548 -12847622.80747  22332540.8424   22332548.0974   22332542.060
        48.0004         44.0004
 -10848439.88048  -8455541.67047  22163711.4744   22163717.7864   22163711.479
        49.0004         44.0004
 -28689263.03248 -22308126.30048  20299395.1544   20299399.9724   20299394.917
        53.0004         49.0004
 -11484152.54548  -8919307.95747  22478289.2564   22478295.4534   22478289.338
        48.0004         43.0004
    -96059.92647    -60330.63046  24219707.2894   24219716.7104   24219706.510
        42.0004         38.0004
 -10628016.14148  -8265829.58547  22047310.4184   22047313.6184   22047310.772
        49.0004         45.0004
  -8926807.13647  -6913167.99246  23631175.4664   23631184.9284   23631175.075
        46.0004         41.0004
 14  5 31  0  7 30.0000000  0  9G06G08G10G28G04G07G26G02G17
  -5107411.53648  -3960122.49548  21269841.7114   21269849.6914   21269840.804
        53.0004         48.0004
 -14810952.68648 -11532725.99047  20667787.9784   20667793.9134   20667788.393
        52.0004         47.0004
 -16565853.24248 -12903539.29147  22318885.8704   22318891.9594   22318886.236
        48.0004         43.0004
 -10905310.47848  -8499856.22647  22152889.7814   22152894.5434   22152889.346
        49.0004         44.0004
 -28692195.66148 -22310411.42648  20298837.0614   20298842.1904   20298836.519
        53.0004         49.0004
 -11384514.79948  -8841668.13647  22497249.3834   22497255.6184   22497250.046
        48.0004         43.0004
    -80612.05347    -48293.24346  24222647.4774   24222656.8784   24222646.477
        42.0004         38.0004
 -10679451.03248  -8305908.62247  22037522.5184   22037526.3704   22037523.084
        49.0004         45.0004
  -8896427.80047  -6889495.70546  23636955.8894   23636966.4464   23636955.776
        46.0004         41.0004
 14  5 31  0  8  0.0000000  0  9G06G08G10G28G04G07G26G02G17
  -5039702.93748  -3907362.53548  21282725.7364   21282734.3124   21282725.142
        53.0004         48.0004
 -14741724.08848 -11478781.59547  20680961.9314   20680967.7154   20680962.390
        52.0004         47.0004
 -16637581.02548 -12959430.97847  22305235.3424   22305242.9234   22305237.303
        48.0004         44.0004
 -10962064.23248  -8544079.75147  22142088.7104   22142095.8504   22142089.127
        49.0004         44.0004
 -28694575.16348 -22312265.53948  20298383.6494   20298389.1924   20298383.694
        53.0004         49.0004
 -11284686.42448  -8763879.75847  22516247.2514   22516251.8984   22516246.741
        48.0004         43.0004
    -65097.95047    -36204.25646  24225598.5974   24225607.3854   24225598.359
        42.0004         38.0004
 -10730461.32348  -8345656.82447  22027815.0904   22027819.6724   22027815.540
        50.0004         45.0004
  -8866243.68247  -6865975.51646  23642699.8274   23642710.8344   23642699.584
        46.0004         41.0004
 14  5 31  0  8 30.0000000  0  9G06G08G10G28G04G07G26G02G17
  -4971634.85648  -3854322.46248  21295679.2284   21295687.2324   21295678.270
        53.0004         49.0004
 -14672000.62348 -11424451.59847  20694229.7624   20694235.4894   20694229.965
        52.0004         47.0004
 -16709276.96948 -13015297.85947  22291593.4584   22291599.0644   22291593.381
        48.0004         43.0004
 -11018700.40248  -8588211.65747  22131311.1314   22131317.7414   22131311.633
        49.0004         44.0004
 -28696404.32749 -22313690.82348  20298036.0214   20298041.4574   20298035.700
        54.0004         49.0004
 -11184673.05048  -8685947.23047  22535278.8754   22535283.2714   22535278.289
        48.0004         43.0004
    -49522.27347    -24067.30646  24228563.2644   24228571.7404   24228562.928
        42.0004         38.0004
 -10781048.31748  -8385075.16147  22018188.9474   22018192.4174   22018189.623
        50.0004         45.0004
  -8836258.40047  -6842610.27046  23648405.9684   23648415.1824   23648405.415
        46.0004         41.0004
 14  5 31  0  9  0.0000000  0  9G06G08G10G28G04G07G26G02G17
  -4903212.14848  -3801006.05148  21308699.7724   21308707.5824   21308698.436
        53.0004         48.0004
 -14601787.08848 -11369739.72747  20707591.0714   20707596.6594   20707591.586
        52.0004         47.0004
 -16780940.43848 -13071139.42347  22277955.9074   22277962.5654   22277956.564
        48.0004         44.0004
 -11075218.23048  -8632251.34747  22120556.7244   22120562.6484   22120556.672
        49.0004         44.0004
 -28697685.95849 -22314689.46148  20297792.2374   20297797.3164   20297791.676
        54.0004         49.0004
 -11084479.78947  -8607874.53047  22554346.5654   22554350.2714   22554344.743
        47.0004         43.0004
    -33889.43847    -11885.79746  24231536.4674   24231547.3484   24231537.095
        42.0004         38.0004
 -10831213.61448  -8424164.90147  22008642.9424   22008647.1884   22008642.842
        49.0004         45.0004
  -8806474.89047  -6819402.24746  23654073.4394   23654083.2464   23654072.806
        45.0004         41.0004
 14  5 31  0  9 30.0000000  0  9G06G08G10G28G04G07G26G02G17
  -4834434.66448  -3747413.19448  21321787.1404   21321795.2524   21321786.345
        53.0004         48.0004
 -14531083.59548 -11314646.07047  20721045.5154   20721050.4284   20721045.575
        52.0004         47.0004
 -16852565.89448 -13126951.37647  22264325.3644   22264332.9794   22264326.686
        48.0004         44.0004
 -11131612.02248  -8676194.39047  22109824.5474   22109831.4964   22109825.002
        49.0004         44.0004
 -28698417.70549 -22315259.61748  20297653.0284   20297658.2404   20297652.553
        54.0004         49.0004
 -10984106.86047  -8529661.83647  22573444.0004   22573449.7494   22573444.992
        47.0004         43.0004
    -18198.78347       340.78046  24234522.4494   24234532.3234   24234523.142
        42.0004         38.0004
 -10880953.06048  -8462922.82747  21999177.9824   21999181.4154   21999178.175
        49.0004         45.0004
  -8776891.29247  -6796350.01246  23659702.4954   23659712.7224   23659702.822
        45.0004         41.0004
 14  5 31  0 10  0.0000000  0  9G06G08G10G28G04G07G26G02G17
  -4765306.54648  -3693547.11548  21334941.6874   21334949.4184   21334941.438
        53.0004         48.0004
 -14459894.81048 -11259174.26047  20734592.2294   20734597.2804   20734592.516
        52.0004         47.0004
 -16924152.20648 -13182732.83147  22250703.0184   22250709.8914   22250704.112
        48.0004         44.0004
 -11187880.39548  -8720039.69347  22099117.3064   22099123.1814   22099117.405
        49.0004         44.0004
 -28698601.60249 -22315402.87948  20297617.7574   20297623.1564   20297617.543
        54.0004         49.0004
 -10883558.64347  -8451312.56047  22592578.8204   22592583.8474   22592578.465
        47.0004         43.0004
     -2454.12847     12609.41346  24237518.5174   24237528.4754   24237518.908
        42.0004         38.0004
 -10930267.16548  -8501349.30447  21989793.4414   21989797.1774   21989792.753
        49.0004         45.0004
  -8747510.04947  -6773455.45446  23665294.0514   23665303.4634   23665293.383
        45.0004         41.0004
 14  5 31  0 10 30.0000000  0  9G06G08G10G28G04G07G26G02G17
  -4695828.09248  -3639408.04248  21348163.4254   21348171.0874   21348162.398
        53.0004         48.0004
 -14388221.17248 -11203324.63847  20748231.1324   20748236.8474   20748231.453
        52.0004         47.0004
 -16995694.48448 -13238479.97047  22237089.1404   22237096.5084   22237089.757
        48.0004         44.0004
 -11244018.11048  -8763783.20047  22088435.1114   22088439.8844   22088434.776
        49.0004         44.0004
 -28698235.79549 -22315117.79848  20297687.2004   20297692.7104   20297686.980
        54.0004         49.0004
 -10782836.12847  -8372827.47047  22611746.3184   22611749.8464   22611745.790
        47.0004         42.0004
     13344.58347     24920.18446  24240526.9624   24240535.8194   24240526.013
        42.0004         38.0004
 -10979152.60348  -8539441.75647  21980490.5294   21980494.1564   21980491.452
        50.0004         45.0004
  -8718329.98547  -6750717.64546  23670846.8834   23670855.6674   23670845.937
        45.0004         40.0004
 14  5 31  0 11  0.0000000  0  9G06G08G10G28G04G07G26G02G17
  -4626004.39348  -3584999.95848  21361450.6744   21361458.2284   21361449.769
        53.0004         48.0004
 -14316067.95148 -11147101.32447  20761961.3104   20761966.7134   20761961.732
        52.0004         47.0004
 -17067192.69348 -13294192.76747  22223483.6224   22223488.9464   22223484.263
        48.0004         44.0004
 -11300024.44448  -8807424.32247  22077776.5544   22077782.2334   22077776.865
        49.0004         44.0004
 -28697323.57649 -22314406.94948  20297860.8944   20297866.0764   20297860.539
        54.0004         49.0004
 -10681944.70947  -8294210.74847  22630945.6434   22630949.9924   22630944.353
        47.0004         42.0004
     29192.84747     37269.53946  24243541.2504   24243551.6334   24243540.267
        42.0004         37.0004
 -11027610.86748  -8577201.33947  21971269.1004   21971273.1974   21971269.017
        50.0004         45.0004
  -8689354.51847  -6728139.26646  23676360.7074   23676370.3814   23676359.960
        45.0004         40.0004
 14  5 31  0 11 30.0000000  0  9G06G08G10G28G04G07G26G02G17
  -4555838.52048  -3530325.23648  21374802.3974   21374810.5104   21374801.630
        53.0004         48.0004
 -14243438.66448 -11090507.04247  20775782.6404   20775788.0334   20775782.719
        52.0004         47.0004
 -17138644.46148 -13349869.38047  22209886.9314   22209891.4364   22209887.489
        48.0004         44.0004
 -11355896.80848  -8850961.04747  22067144.0954   22067151.1164   22067144.881
        49.0004         44.0004
 -28695865.98949 -22313271.13148  20298138.3094   20298143.4954   20298137.855
        54.0004         49.0004
 -10580887.50347  -8215464.82247  22650175.2254   22650180.7714   22650174.735
        47.0004         42.0004
     45088.04547     49655.48346  24246566.8234   24246576.0034   24246566.711
        42.0004         38.0004
 -11075641.20848  -8614627.48547  21962128.8244   21962133.6984   21962129.988
        50.0004         45.0004
  -8660584.96047  -6705721.34346  23681834.1874   23681844.5784   23681834.665
        45.0004         40.0004
 14  5 31  0 12  0.0000000  0  9G06G08G10G28G04G07G26G02G17
  -4485329.44648  -3475383.08848  21388219.8444   21388227.7664   21388218.967
        53.0004         48.0004
 -14170332.57348 -11033541.22447  20789694.0254   20789699.2164   20789694.271
        51.0004         47.0004
 -17210043.09848 -13405504.58547  22196300.0564   22196305.5594   22196300.491
        48.0004         44.0004
 -11411628.55548  -8894388.21547  22056538.6244   22056543.8964   22056539.127
        49.0004         44.0004
 -28693859.84949 -22311707.87248  20298519.9694   20298525.2214   20298519.688
        54.0004         49.0004
 -10479663.92547  -8136589.27747  22669437.4044   22669441.8754   22669437.161
        47.0004         42.0004
     61031.68547     62079.17346  24249599.9904   24249608.9324   24249599.676
        42.0004         38.0004
 -11123239.17248  -8651716.70847  21953071.9014   21953075.5134   21953072.203
        50.0004         45.0004
  -8632018.41447  -6683461.61746  23687271.8074   23687280.7104   23687270.304
        45.0004         40.0004
 14  5 31  0 12 30.0000000  0  9G06G08G10G28G04G07G26G02G17
  -4414485.09448  -3420179.68348  21401700.8474   21401709.0984   21401700.106
        53.0004         48.0004
 -14096757.96448 -10976210.33547  20803695.0614   20803700.0584   20803695.140
        51.0004         47.0004
 -17281391.32948 -13461100.52147  22182722.1294   22182728.9334   22182723.204
        49.0004         44.0004
 -11467222.23848  -8937707.78247  22045959.6474   22045965.3364   22045959.729
        49.0004         44.0004
 -28691311.27149 -22309721.93548  20299005.2094   20299010.4254   20299004.680
        54.0004         49.0004
 -10378282.24147  -8057590.53247  22688729.7764   22688734.3444   22688729.630
        47.0004         42.0004
     77016.23847     74534.74246  24252641.6234   24252650.7914   24252641.749
        42.0004         38.0004
 -11170409.41848  -8688472.64847  21944095.3644   21944098.3634   21944095.889
        50.0004         45.0004
  -8603661.05547  -6661364.89346  23692667.6524   23692677.4804   23692666.431
        45.0004         40.0004
 14  5 31  0 13  0.0000000  0  9G06G08G10G28G04G07G26G02G17
  -4343305.66048  -3364715.17848  21415246.4054   21415253.9024   21415245.408
        53.0004         48.0004
 -14022715.41448 -10918514.81147  20817784.7174   20817790.3734   20817784.763
        51.0004         47.0004
 -17352683.76748 -13516652.97747  22169157.1124   22169162.5644   22169157.072
        49.0004         44.0004
 -11522671.94248  -8980915.17047  22035407.6894   22035413.4574   22035407.844
        49.0004         44.0004
 -28688218.37348 -22307311.84748  20299593.1964   20299598.4274   20299593.035
        53.0004         49.0004
 -10276742.63347  -7978468.73047  22708051.3934   22708056.6214   22708051.560
        47.0004         42.0004
     93042.04347     87022.43746  24255691.1444   24255702.0194   24255691.093
        42.0004         38.0004
 -11217148.03848  -8724892.25247  21935202.0734   21935204.7944   21935201.451
        50.0004         45.0004
  -8575511.31247  -6639429.94746  23698024.0714   23698033.5124   23698023.554
        45.0004         41.0004
 14  5 31  0 13 30.0000000  0 10G06G08G10G28G04G07G05G26G02G17
  -4271792.90048  -3308990.94248  21428854.7374   21428862.2634   21428853.668
        53.0004         48.0004
 -13948206.57548 -10860455.94747  20831963.4794   20831968.6494   20831963.533
        51.0004         47.0004
 -17423917.09848 -13572159.38647  22155601.5274   22155608.0114   22155601.433
        49.0004         44.0004
 -11577974.14048  -9024007.61947  22024883.9164   22024889.7344   22024884.226
        49.0004         44.0004
 -28684580.87648 -22304477.40048  20300285.7194   20300290.5674   20300285.535
        53.0004         49.0004
 -10175047.39047  -7899225.65047  22727404.4914   22727408.7704   22727403.367
        47.0004         42.0004
   -791640.63447   -570408.33946  25308696.0824   25308705.3084   25308695.407
        47.0004         37.0004
    109107.87747     99541.33846  24258747.8284   24258759.8254   24258747.566
        42.0004         38.0004
 -11263453.22648  -8760974.12347  21926389.6124   21926393.0844   21926390.375
        50.0004         45.0004
  -8547568.92947  -6617656.57846  23703340.8604   23703351.2994   23703340.538
        45.0004         41.0004
 14  5 31  0 14  0.0000000  0 10G06G08G10G28G04G07G05G26G02G17
  -4199950.97048  -3253010.20748  21442525.2674   21442533.3804   21442524.439
        53.0004         48.0004
 -13873236.08548 -10802037.35147  20846229.2284   20846235.0244   20846229.772
        51.0004         47.0004
 -17495089.92848 -13627618.63647  22142057.1244   22142062.7074   22142057.612
        49.0004         44.0004
 -11633126.97748  -9066983.67947  22014388.4004   22014393.5194   22014388.571
        49.0004         45.0004
 -28680401.12548 -22301220.42148  20301080.7874   20301086.1454   20301080.579
        53.0004         49.0004
 -10073201.18247  -7819864.93047  22746784.9684   22746789.8054   22746783.920
        47.0004         42.0004
   -873873.69647   -634485.85146  25293049.2194   25293055.7844   25293046.840
        43.0004         37.0004
    125210.00247    112088.51246  24261811.9824   24261821.8174   24261812.679
        42.0004         38.0004
 -11309325.66748  -8796718.79047  21917660.0524   21917664.0064   21917660.253
        50.0004         45.0004
  -8519836.05847  -6596046.47846  23708618.2974   23708626.6224   23708618.188
        45.0004         41.0004
 14  5 31  0 14 30.0000000  0 10G06G08G10G28G04G07G05G26G02G17
  -4127782.62648  -3196775.12048  21456258.1574   21456266.7664   21456257.787
        52.0004         48.0004
 -13797807.41648 -10743261.73847  20860582.8774   20860588.5644   20860583.549
        51.0004         47.0004
 -17566199.66348 -13683028.73047  22128526.1474   22128531.1164   22128525.881
        49.0004         44.0004
 -11688127.53248  -9109841.09147  22003922.7714   22003927.7594   22003922.451
        49.0004         45.0004
 -28675679.86448 -22297541.48448  20301979.3914   20301984.5394   20301979.103
        53.0004         49.0004
  -9971206.88647  -7740388.81947  22766194.0584   22766198.5604   22766193.712
        47.0004         42.0004
   -956312.82347   -698723.94146  25277359.7934   25277367.7014   25277359.405
        42.0004         37.0004
    141346.20147    124662.26646  24264883.6584   24264892.2074   24264881.579
        42.0004         38.0004
 -11354764.75148  -8832125.78247  21909013.9724   21909017.5264   21909013.824
        50.0004         45.0004
  -8492313.87147  -6574600.53246  23713856.8174   23713865.6454   23713855.301
        45.0004         41.0004
 14  5 31  0 15  0.0000000  0 10G06G08G10G28G04G07G05G26G02G17
  -4055290.25948  -3140287.55748  21470053.2384   21470061.9044   21470052.444
        52.0004         48.0004
 -13721923.03048 -10684131.02047  20875023.1354   20875028.5554   20875023.464
        51.0004         47.0004
 -17637243.23748 -13738387.27147  22115005.8054   22115012.5534   22115006.879
        49.0004         44.0004
 -11742972.69348  -9152577.41447  21993485.2724   21993490.9284   21993485.621
        49.0004         44.0004
 -28670417.55548 -22293440.94748  20302980.6484   20302986.0164   20302980.379
        53.0004         49.0004
  -9869066.93547  -7660799.21947  22785629.7034   22785634.3124   22785630.057
        47.0004         42.0004
  -1038956.28646   -763121.25946  25261632.8464   25261642.4094   25261632.901
        41.0004         36.0004
    157514.67347    137261.15746  24267959.5194   24267968.0114   24267959.874
        42.0004         38.0004
 -11399769.10148  -8867194.02247  21900449.3944   21900452.4934   21900449.806
        50.0004         45.0004
  -8465003.08047  -6553319.32946  23719053.6274   23719062.0874   23719052.435
        46.0004         41.0004
 14  5 31  0 15 30.0000000  0 10G06G08G10G28G04G07G05G26G02G17
  -3982475.02948  -3083548.40348  21483909.5784   21483917.3474   21483908.895
        52.0004         48.0004
 -13645584.60748 -10624646.50747  20889549.9694   20889555.2804   20889550.516
        51.0004         47.0004
 -17708216.10948 -13793690.71747  22101499.9844   22101505.7904   22101500.735
        49.0004         44.0004
 -11797657.67048  -9195188.92547  21983079.2544   21983084.3544   21983079.286
        49.0004         45.0004
 -28664613.46148 -22288918.23948  20304085.4034   20304090.7084   20304084.818
        53.0004         49.0004
  -9766782.76947  -7581097.23747  22805093.6844   22805099.1734   22805093.585
        46.0004         42.0004
  -1121800.97146   -827675.34146  25245868.2384   25245876.7834   25245868.272
        41.0004         36.0004
    173714.76047    149884.67446  24271041.3194   24271051.4534   24271041.700
        42.0004         38.0004
 -11444336.61248  -8901921.86347  21891968.5604   21891972.7654   21891968.867
        50.0004         45.0004
  -8437902.78647  -6532202.11746  23724209.6884   23724219.0014   23724209.516
        46.0004         41.0004
 14  5 31  0 16  0.0000000  0 10G06G08G10G28G04G07G05G26G02G17
  -3909343.39448  -3026562.70048  21497826.0054   21497834.2794   21497825.185
        52.0004         48.0004
 -13568798.70648 -10564813.30347  20904161.5844   20904166.7854   20904162.090
        51.0004         47.0004
 -17779119.14848 -13848939.73947  22088007.7774   22088013.5994   22088008.385
        49.0004         44.0004
 -11852183.15548  -9237676.15847  21972703.0714   21972708.4394   21972703.186
        49.0004         45.0004
 -28658272.52548 -22283977.21448  20305291.8314   20305296.5864   20305291.328
        53.0004         49.0004
  -9664361.00147  -7501288.03447  22824583.8904   22824589.2644   22824583.309
        46.0004         42.0004
  -1204849.28846   -892388.10846  25230064.9314   25230072.7874   25230064.622
        41.0004         36.0004
    189940.50947    162528.20246  24274131.3964   24274140.3684   24274130.455
        42.0004         38.0004
 -11488469.99548  -8936311.42747  21883569.9324   21883574.4224   21883570.037
        50.0004         45.0004
  -8411017.29147  -6511252.30246  23729324.9144   23729336.0624   23729325.443
        46.0004         41.0004
 14  5 31  0 16 30.0000000  0 10G06G08G10G28G04G07G05G26G02G17
  -3835895.29948  -2969330.41148  21511802.7144   21511811.1524   21511802.024
        52.0004         48.0004
 -13491565.69848 -10504631.71447  20918858.8524   20918864.4674   20918859.267
        51.0004         46.0004
 -17849946.80748 -13904130.03047  22074529.5754   22074535.1544   22074530.509
        49.0004         44.0004
 -11906543.34948  -9280034.59047  21962358.0644   21962364.0614   21962358.591
        49.0004         44.0004
 -28651392.43048 -22278616.06248  20306600.9624   20306606.1474   20306600.819
        53.0004         49.0004
  -9561801.94447  -7421371.85347  22844100.2784   22844105.5094   22844100.303
        46.0004         42.0004
  -1288097.24246   -957256.43146  25214223.7364   25214230.8274   25214223.291
        40.0004         36.0004
    206192.68047    175192.29946  24277222.2704   24277231.7424   24277222.763
        43.0004         38.0004
 -11532165.55648  -8970359.83847  21875254.8994   21875259.4504   21875255.467
        50.0004         45.0004
  -8384345.07347  -6490468.67546  23734401.3774   23734410.8414   23734401.146
        46.0004         41.0004
 14  5 31  0 17  0.0000000  0 10G06G08G10G28G04G07G05G26G02G17
  -3762134.80848  -2911854.70048  21525839.0364   21525847.6124   21525838.250
        52.0004         48.0004
 -13413890.07348 -10444105.22547  20933640.1464   20933645.2474   20933640.015
        51.0004         46.0004
 -17920698.07848 -13959260.80147  22061065.0924   22061071.5134   22061067.000
        49.0004         44.0004
 -11960736.40348  -9322262.80347  21952045.9364   21952051.7284   21952045.844
        49.0004         45.0004
 -28643975.52048 -22272836.62148  20308012.4174   20308017.2984   20308012.026
        53.0004         49.0004
  -9459109.67547  -7341351.87447  22863641.6014   22863647.1654   22863642.003
        46.0004         42.0004
  -1371545.13446  -1022280.54546  25198344.7434   25198350.4544   25198342.676
        40.0004         36.0004
    222467.56547    187874.11546  24280319.3574   24280328.7234   24280319.600
        43.0004         38.0004
 -11575424.15348  -9004067.75447  21867023.1384   21867026.5544   21867023.041
        50.0004         46.0004
  -8357887.50547  -6469852.30946  23739435.8024   23739445.3364   23739435.482
        46.0004         41.0004
 14  5 31  0 17 30.0000000  0 10G06G08G10G28G04G07G05G26G02G17
  -3688064.71448  -2854137.73748  21539934.2574   21539941.5884   21539933.362
        52.0004         48.0004
 -13335774.90848 -10383236.24047  20948504.4894   20948509.6554   20948505.197
        51.0004         46.0004
 -17991370.17148 -14014329.86647  22047617.2034   22047623.5874   22047618.167
        49.0004         44.0004
 -12014760.28148  -9364359.19447  21941766.0114   21941770.9364   21941765.292
        49.0004         45.0004
 -28636023.05148 -22266639.85548  20309525.6894   20309530.9684   20309525.248
        53.0004         49.0004
  -9356287.52247  -7261230.67347  22883209.3554   22883213.3084   22883207.821
        46.0004         42.0004
  -1455191.09246  -1087459.00046  25182425.7954   25182432.8174   25182425.334
        40.0004         36.0004
    238762.97647    200571.91546  24283420.6584   24283430.2694   24283419.921
        43.0004         38.0004
 -11618245.05848  -9037434.60647  21858874.5154   21858878.5044   21858874.842
        50.0004         46.0004
  -8331646.08147  -6449404.35046  23744429.3574   23744439.1014   23744429.339
        46.0004         41.0004
 14  5 31  0 18  0.0000000  0 10G06G08G10G28G04G07G05G26G02G17
  -3613685.02748  -2796179.52648  21554087.7104   21554096.3024   21554087.153
        52.0004         48.0004
 -13257220.63048 -10322025.08747  20963453.0504   20963458.7834   20963453.321
        51.0004         46.0004
 -18061957.39348 -14069332.80147  22034185.6144   22034192.1144   22034185.862
        49.0004         44.0004
 -12068608.51048  -9406318.71247  21931518.4544   21931524.1124   21931518.576
        49.0004         45.0004
 -28627532.94948 -22260024.15548  20311141.3124   20311146.3324   20311140.929
        53.0004         49.0004
  -9253335.60947  -7181008.37246  22902799.5494   22902804.0634   22902799.188
        46.0004         41.0004
  -1539031.44146  -1152788.90446  25166470.6034   25166481.3274   25166470.281
        40.0004         36.0004
    255079.51047    213286.18946  24286525.0544   24286534.0584   24286525.498
        43.0004         38.0004
 -11660624.79148  -9070457.69747  21850809.9084   21850814.0304   21850809.851
        50.0004         46.0004
  -8305618.62747  -6429123.13546  23749382.5904   23749391.1744   23749381.206
        46.0004         41.0004
 14  5 31  0 18 30.0000000  0 10G06G08G10G28G04G07G05G26G02G17
  -3539003.68648  -2737986.26847  21568299.3124   21568307.3664   21568298.881
        52.0004         47.0004
 -13178235.65848 -10260478.32747  20978484.0114   20978488.5364   20978483.781
        51.0004         46.0004
 -18132462.03548 -14124271.39047  22020769.2994   22020774.1834   22020768.980
        49.0004         44.0004
 -12122283.30748  -9448143.09847  21921304.1154   21921309.5614   21921304.550
        49.0004         45.0004
 -28618511.47348 -22252994.39948  20312857.6084   20312862.9994   20312857.387
        53.0004         49.0004
  -9150261.94447  -7100691.20246  22922414.4314   22922418.2984   22922413.590
        46.0004         41.0004
  -1623069.82246  -1218273.12546  25150479.7314   25150486.2094   25150478.350
        40.0004         36.0004
    271409.85947    226011.20246  24289631.7634   24289642.7324   24289631.970
        42.0004         38.0004
 -11702568.06048  -9103140.68347  21842828.3414   21842832.2424   21842828.514
        50.0004         46.0004
  -8279810.97347  -6409013.18746  23754294.0034   23754302.4674   23754292.605
        46.0004         41.0004
 14  5 31  0 19  0.0000000  0 10G06G08G10G28G04G07G05G26G02G17
  -3464018.58348  -2679556.30647  21582568.5084   21582576.5944   21582567.726
        52.0004         47.0004
 -13098817.96548 -10198594.39447  20993596.0684   20993601.3454   20993596.445
        51.0004         46.0004
 -18202876.48448 -14179139.69947  22007368.7654   22007375.5614   22007369.715
        49.0004         44.0004
 -12175776.91548  -9489826.28647  21911124.7224   21911130.1184   21911124.575
        49.0004         45.0004
 -28608954.72848 -22245547.54348  20314676.3844   20314681.3744   20314676.063
        53.0004         49.0004
  -9047064.57247  -7020277.63346  22942052.3724   22942057.3254   22942051.426
        46.0004         41.0004
  -1707299.60046  -1283906.47746  25134450.1274   25134459.5244   25134449.936
        41.0004         36.0004
    287756.66247    238749.04246  24292743.5044   24292752.8674   24292743.835
        43.0004         38.0004
 -11744069.13548  -9135479.09747  21834931.1074   21834934.3664   21834930.948
        50.0004         46.0004
  -8254219.26247  -6389071.49846  23759162.7504   23759173.1154   23759161.745
        45.0004         41.0004
 14  5 31  0 19 30.0000000  0 10G06G08G10G28G04G07G05G26G02G17
  -3388734.58848  -2620893.45147  21596894.7544   21596902.6414   21596894.096
        52.0004         47.0004
 -13018973.07848 -10136377.57747  21008789.8124   21008795.2124   21008790.601
        51.0004         46.0004
 -18273200.18448 -14233937.29147  21993986.8914   21993992.6694   21993987.453
        49.0004         44.0004
 -12229088.31448  -9531367.49847  21900979.7364   21900984.2344   21900979.987
        49.0004         45.0004
 -28598866.05848 -22237686.20148  20316596.5224   20316601.2514   20316596.031
        53.0004         49.0004
  -8943748.50147  -6939771.56547  22961712.3274   22961716.7444   22961711.790
        46.0004         42.0004
  -1791721.89146  -1349689.81346  25118383.8524   25118394.3934   25118384.129
        41.0004         36.0004
    304115.60447    251496.35146  24295856.4174   24295866.3014   24295856.186
        43.0004         38.0004
 -11785129.43548  -9167474.04947  21827117.7804   21827121.4174   21827117.650
        50.0004         46.0004
  -8228846.35647  -6369300.31246  23763991.5784   23764000.3434   23763990.885
        45.0004         41.0004
 14  5 31  0 20  0.0000000  0 10G06G08G10G28G04G07G05G26G02G17
  -3313156.39548  -2562001.34948  21611276.4974   21611284.6274   21611276.165
        52.0004         48.0004
 -12938705.93648 -10073831.73147  21024064.1554   21024069.7024   21024064.593
        51.0004         46.0004
 -18343432.24548 -14288663.47447  21980620.6844   21980628.6374   21980622.622
        49.0004         44.0004
 -12282216.28448  -9572765.78647  21890869.0874   21890874.4884   21890869.463
        49.0004         45.0004
 -28588248.26048 -22229412.55548  20318616.8524   20318621.6084   20318616.340
        53.0004         49.0004
  -8840318.63647  -6859176.83046  22981394.3394   22981399.3364   22981393.790
        46.0004         41.0004
  -1876337.41546  -1415623.75246  25102281.4394   25102291.1154   25102282.317
        41.0004         36.0004
    320482.67147    264249.99846  24298970.4824   24298980.3884   24298971.101
        43.0004         38.0004
 -11825750.10148  -9199126.43047  21819387.1144   21819390.5844   21819387.540
        50.0004         46.0004
  -8203694.61147  -6349701.45946  23768777.3194   23768787.2534   23768777.105
        45.0004         41.0004
 14  5 31  0 20 30.0000000  0 10G06G08G10G28G04G07G05G26G02G17
  -3237282.90548  -2502879.14047  21625714.6104   21625723.0094   21625714.149
        52.0004         47.0004
 -12858015.98548 -10010956.42747  21039419.1954   21039424.4294   21039419.512
        51.0004         46.0004
 -18413565.89348 -14343312.98247  21967276.9004   21967281.0004   21967276.262
        49.0004         45.0004
 -12335153.96648  -9614015.79847  21880796.1444   21880800.7664   21880796.026
        49.0004         45.0004
 -28577098.50748 -22220724.39248  20320738.4174   20320743.0334   20320738.157
        53.0004         49.0004
  -8736773.86147  -6778492.55046  23001098.4024   23001103.7694   23001097.588
        46.0004         41.0004
  -1961140.39646  -1481703.76846  25086145.3894   25086152.4404   25086144.638
        41.0004         36.0004
    336859.63947    277011.35646  24302087.0824   24302095.9154   24302087.432
        43.0004         38.0004
 -11865926.85948  -9230432.90147  21811741.8354   21811745.3454   21811742.350
        50.0004         46.0004
  -8178760.54147  -6330272.21346  23773521.7984   23773531.5084   23773521.320
        45.0004         41.0004
 14  5 31  0 21  0.0000000  0 10G06G08G10G28G04G07G05G26G02G17
  -3161121.07348  -2443532.25347  21640207.4094   21640215.6174   21640206.985
        52.0004         47.0004
 -12776910.80048  -9947757.55947  21054852.8704   21054859.1474   21054853.157
        51.0004         46.0004
 -18483602.52048 -14397886.88947  21953948.1314   21953954.4564   21953949.430
        49.0004         45.0004
 -12387902.79248  -9655118.65447  21870758.0924   21870763.0784   21870758.089
        49.0004         45.0004
 -28565422.31448 -22211626.01948  20322960.4414   20322964.9514   20322960.016
        53.0004         49.0004
  -8633121.57747  -6697724.49846  23020821.4774   23020826.1894   23020821.747
        46.0004         41.0004
  -2046133.73146  -1547932.12146  25069971.1904   25069981.2704   25069970.544
        41.0004         36.0004
    353240.12547    289775.46246  24305203.8414   24305213.8404   24305203.439
        43.0004         38.0004
 -11905663.18548  -9261396.18347  21804180.1634   21804183.4404   21804180.600
        50.0004         46.0004
  -8154049.03047  -6311016.39446  23778224.8044   23778233.5274   23778224.190
        45.0004         41.0004
 14  5 31  0 21 30.0000000  0 10G06G08G10G28G04G07G05G26G02G17
  -3084670.12548  -2383960.07347  21654755.6924   21654764.4024   21654755.654
        52.0004         47.0004
 -12695389.82348  -9884234.70747  21070366.0214   21070371.3874   21070366.068
        51.0004         46.0004
 -18553535.88048 -14452380.32947  21940640.3954   21940646.0224   21940641.370
        49.0004         45.0004
 -12440456.05148  -9696069.12847  21860756.8074   21860762.9704   21860757.530
        49.0004         45.0004
 -28553217.09348 -22202115.41748  20325282.7624   20325287.8784   20325282.536
        53.0004         49.0004
  -8529360.89147  -6616871.98146  23040566.3934   23040572.4634   23040566.778
        46.0004         41.0004
  -2131312.29546  -1614304.77346  25053760.8364   25053770.7794   25053761.474
        41.0004         37.0004
    369625.51347    302543.40246  24308322.5454   24308331.4004   24308323.062
        43.0004         38.0004
 -11944955.05748  -9292013.13547  21796703.0544   21796706.4844   21796703.473
        50.0004         46.0004
  -8129557.95647  -6291932.33746  23782885.1484   23782894.3794   23782884.606
        45.0004         41.0004
 14  5 31  0 22  0.0000000  0 10G06G08G10G28G04G07G05G26G02G17
  -3007934.08148  -2324165.74947  21669358.4394   21669366.7224   21669357.830
        52.0004         47.0004
 -12613457.38148  -9820391.22147  21085957.3244   21085962.8794   21085957.522
        51.0004         46.0004
 -18623364.11148 -14506791.85247  21927351.6814   21927358.7214   21927352.906
        49.0004         45.0004
 -12492811.84648  -9736865.73147  21850794.1854   21850798.8404   21850794.534
        50.0004         45.0004
 -28540485.21948 -22192194.43548  20327705.7154   20327710.7794   20327705.269
        53.0004         49.0004
  -8425495.34647  -6535937.74346  23060332.5544   23060337.8464   23060331.595
        46.0004         41.0004
  -2216675.60246  -1680821.39646  25037517.8444   25037526.5714   25037517.406
        41.0004         37.0004
    386012.33447    315312.44146  24311439.7664   24311450.0774   24311439.613
        42.0004         38.0004
 -11983803.18448  -9322284.31547  21789310.4024   21789313.8584   21789310.942
        50.0004         46.0004
  -8105289.04247  -6273021.38346  23787503.0224   23787512.2004   23787502.439
        45.0004         41.0004
 14  5 31  0 22 30.0000000  0 10G06G08G10G28G04G07G05G26G02G17
  -2930917.61248  -2264152.90847  21684014.4694   21684022.1444   21684013.450
        52.0004         47.0004
 -12531118.79548  -9756231.27147  21101625.3824   21101630.6484   21101625.928
        51.0004         46.0004
 -18693086.29048 -14561120.73247  21914085.0004   21914091.0854   21914085.425
        49.0004         45.0004
 -12544969.09548  -9777507.62947  21840869.3484   21840874.2624   21840869.376
        50.0004         45.0004
 -28527229.86948 -22181865.54648  20330227.6134   20330232.7004   20330227.647
        53.0004         49.0004
  -8321530.78747  -6454926.36346  23080115.5394   23080121.3914   23080115.349
        46.0004         41.0004
  -2302224.43147  -1747482.57046  25021238.9464   25021246.5204   25021238.506
        42.0004         37.0004
    402396.76247    328079.62746  24314558.6234   24314567.6674   24314558.918
        42.0004         38.0004
 -12022208.92648  -9352210.78547  21782001.8094   21782005.9584   21782002.523
        50.0004         46.0004
  -8081244.55847  -6254285.31846  23792078.2764   23792087.3654   23792078.303
        46.0004         41.0004
 14  5 31  0 23  0.0000000  0 10G06G08G10G28G04G07G05G26G02G17
  -2853621.53248  -2203922.19347  21698723.0074   21698731.1124   21698722.471
        52.0004         47.0004
 -12448375.15948  -9691755.69547  21117371.1254   21117376.3034   21117371.488
        51.0004         46.0004
 -18762697.54748 -14615363.18747  21900838.3324   21900843.8404   21900838.684
        49.0004         45.0004
 -12596922.69548  -9817990.83447  21830982.0784   21830988.3834   21830982.521
        50.0004         45.0004
 -28513450.41249 -22171128.26248  20332850.1914   20332854.9304   20332849.820
        54.0004         49.0004
  -8217467.79647  -6373838.29046  23099917.6834   23099923.5464   23099917.790
        45.0004         41.0004
  -2387955.46547  -1814285.73346  25004925.1354   25004931.4214   25004923.806
        42.0004         37.0004
    418778.51147    340844.71246  24317675.1244   24317684.8204   24317675.088
        42.0004         38.0004
 -12060169.82148  -9381790.61547  21774778.2384   21774781.5934   21774778.198
        50.0004         46.0004
  -8057423.26947  -6235723.15846  23796610.9614   23796619.6714   23796610.902
        45.0004         41.0004
 14  5 31  0 23 30.0000000  0 10G06G08G10G28G04G07G05G26G02G17
  -2776049.09848  -2143476.13347  21713484.8944   21713493.0984   21713483.959
        52.0004         47.0004
 -12365230.07048  -9626967.29847  21133192.8244   21133198.0324   21133193.160
        51.0004         46.0004
 -18832195.48548 -14669517.35447  21887612.9134   21887618.2544   21887613.478
        49.0004         45.0004
 -12648670.22048  -9858313.47647  21821135.0934   21821140.0254   21821135.489
        50.0004         45.0004
 -28499148.21749 -22159983.65648  20335571.4394   20335576.6214   20335571.375
        54.0004         49.0004
  -8113309.71547  -6292676.12446  23119738.7474   23119743.4464   23119738.342
        45.0004         41.0004
  -2473867.36646  -1881229.81646  24988574.6484   24988584.7874   24988574.664
        41.0004         37.0004
    435155.14847    353605.82846  24320792.0734   24320801.8924   24320791.699
        42.0004         38.0004
 -12097685.68948  -9411023.67047  21767638.8464   21767641.9734   21767639.407
        50.0004         46.0004
  -8033825.99247  -6217335.56846  23801101.2164   23801111.0994   23801101.203
        45.0004         41.0004
 14  5 31  0 24  0.0000000  0 10G06G08G10G28G04G07G05G26G02G17
  -2698203.40448  -2082817.14447  21728298.4674   21728306.4764   21728297.620
        51.0004         47.0004
 -12281687.41948  -9561869.11947  21149091.2114   21149095.9504   21149091.353
        51.0004         46.0004
 -18901577.58148 -14723581.24947  21874409.9964   21874415.5864   21874410.781
        49.0004         45.0004
 -12700208.50748  -9898473.06947  21811327.0184   21811332.4514   21811327.680
        50.0004         45.0004
 -28484325.07549 -22148433.11048  20338392.8214   20338397.4924   20338392.153
        54.0004         49.0004
  -8009059.46547  -6211442.12546  23139576.5494   23139582.1444   23139576.913
        46.0004         41.0004
  -2559959.08646  -1948314.03546  24972192.1844   24972201.5314   24972191.109
        41.0004         37.0004
    451524.01347    366360.87846  24323906.5244   24323915.9944   24323907.287
        42.0004         38.0004
 -12134756.15748  -9439909.66747  21760585.6184   21760587.8044   21760585.059
        50.0004         46.0004
  -8010453.87047  -6199123.40446  23805549.8874   23805557.5104   23805548.710
        45.0004         41.0004
 14  5 31  0 24 30.0000000  0 10G06G08G10G28G04G07G05G26G02G17
  -2620085.94848  -2021946.39447  21743163.7174   21743172.1294   21743163.224
        52.0004         47.0004
 -12197748.89048  -9496462.45947  21165063.1854   21165068.8404   21165063.971
        50.0004         46.0004
 -18970839.89948 -14777551.81447  21861229.5354   21861236.3394   21861230.381
        50.0004         45.0004
 -12751533.98848  -9938466.84947  21801560.4184   21801565.9834   21801561.106
        50.0004         45.0004
 -28468980.92149 -22136476.59048  20341312.1154   20341317.4374   20341311.951
        54.0004         49.0004
  -7904718.76847  -6130137.65546  23159432.9674   23159436.9114   23159432.202
        45.0004         41.0004
  -2646227.39046  -2015535.83246  24955774.9244   24955784.0234   24955774.859
        41.0004         36.0004
    467884.33947    379109.26946  24327019.5614   24327028.9794   24327019.279
        43.0004         38.0004
 -12171380.11048  -9468447.73747  21753615.0424   21753618.4584   21753616.025
        50.0004         46.0004
  -7987305.79547  -6181085.82646  23809954.4574   23809963.0304   23809953.894
        45.0004         41.0004
 14  5 31  0 25  0.0000000  0 10G06G08G10G28G04G07G05G26G02G17
  -2541702.58248  -1960868.43547  21758079.6164   21758087.3424   21758079.020
        52.0004         47.0004
 -12113420.82648  -9430752.26647  21181110.1014   21181116.0084   21181111.241
        50.0004         46.0004
 -19039982.30448 -14831428.94547  21848072.5904   21848078.7824   21848072.800
        50.0004         45.0004
 -12802646.36148  -9978294.56247  21791834.6304   21791839.6524   21791834.333
        50.0004         45.0004
 -28453119.87949 -22124117.29748  20344330.7214   20344335.4874   20344330.386
        54.0004         49.0004
  -7800293.31947  -6048767.12446  23179303.9614   23179309.0674   23179303.473
        45.0004         41.0004
  -2732673.93346  -2082896.53046  24939324.5764   24939333.9134   24939323.594
        41.0004         37.0004
    484231.04747    391847.05346  24330130.8764   24330139.0034   24330130.936
        43.0004         38.0004
 -12207559.76148  -9496639.59847  21746730.5584   21746733.9304   21746730.883
        50.0004         46.0004
  -7964386.05747  -6163226.16846  23814315.5354   23814324.4464   23814315.169
        45.0004         41.0004
 14  5 31  0 25 30.0000000  0 10G06G08G10G28G04G07G05G26G02G17
  -2463053.70848  -1899583.59847  21773045.9094   21773053.6614   21773045.161
        51.0004         47.0004
 -12028704.05348  -9364739.19147  21197231.4744   21197237.5574   21197231.921
        50.0004         46.0004
 -19108999.42748 -14885208.46047  21834938.5244   21834944.5564   21834939.297
        50.0004         45.0004
 -12853540.10148 -10017951.91547  21782148.8744   21782154.3784   21782150.089
        50.0004         45.0004
 -28436741.29949 -22111354.73048  20347447.1114   20347452.2704   20347446.880
        54.0004         49.0004
  -7695783.74647  -5967331.06146  23199191.4644   23199196.5634   23199190.807
        45.0004         41.0004
  -2819294.93946  -2150393.16046  24922840.3944   24922850.9004   24922841.276
        41.0004         37.0004
    500564.33247    404574.39146  24333239.1744   24333247.3174   24333238.181
        43.0004         38.0004
 -12243292.35148  -9524483.10147  21739931.1444   21739934.2284   21739931.402
        50.0004         46.0004
  -7941692.62147  -6145542.84246  23818634.4354   23818642.3964   23818633.226
        46.0004         41.0004
 14  5 31  0 26  0.0000000  0 10G06G08G10G28G04G07G05G26G02G17
