     2.11           OBSERVATION DATA    G (GPS)             RINEX VERSION / TYPE
teqc  2013Mar15     gpsops              20140531 00:23:11UTCPGM / RUN BY / DATE
Linux 2.4.21-27.ELsmp|Opteron|gcc -static|Linux x86_64|=+   COMMENT
BIT 2 OF LLI FLAGS DATA COLLECTED UNDER A/S CONDITION       COMMENT
GLPS                                                        MARKER NAME
42005M002                                                   MARKER NUMBER
GGN                 JPL                                     OBSERVER / AGENCY
ZR220013847         ASHTECH UZ-12       CQ00                REC # / TYPE / VERS
CR519992104         ASH701945B_M    SCIT                    ANT # / TYPE
   -33801.4662 -6377516.5323   -82154.3508                  APPROX POSITION XYZ
        0.0083        0.0000        0.0000                  ANTENNA: DELTA H/E/N
     1     1                                                WAVELENGTH FACT L1/2
     7    L1    L2    P1    P2    C1    S1    S2            # / TYPES OF OBSERV
    30.0000                                                 INTERVAL
                                                            COMMENT
This data is provided as a public service by NASA/JPL.      COMMENT
No warranty is expressed or implied regarding suitability   COMMENT
for use.  For further information, contact:                 COMMENT
Dave Stowers, NASA/JPL m/s 238-600                          COMMENT
4800 Oak Grove Drive, Pasadena CA 91109 USA                 COMMENT
                                                            COMMENT
Forced Modulo Decimation to 30 seconds                      COMMENT
 SNR is mapped to RINEX snr flag value [0-9]                COMMENT
  L1 & L2: min(max(int(snr_dBHz/6), 0), 9)                  COMMENT
pseudorange smoothing corrections not applied               COMMENT
  2014     5    30     0     0    0.0000000     GPS         TIME OF FIRST OBS
                                                            END OF HEADER
 14  5 30  0  0  0.0000000  0 10G08G07G20G26G17G04G10G28G30G02
 -17024096.21748 -13215713.58948  20383250.3254   20383256.0704   20383250.156
        52.0004         48.0004
 -14110584.87148 -10960761.50047  22066690.0754   22066695.0344   22066689.793
        49.0004         44.0004
 -11080433.53046  -8560431.17245  24174611.6664   24174619.1004   24174611.614
        38.0004         33.0004
   -947125.20447   -722854.86146  24157894.6924   24157905.2754   24157894.311
        43.0004         38.0004
  -9630845.42947  -7448965.19647  23493014.1544   23493022.6834   23493012.909
        47.0004         42.0004
 -26980249.91148 -20969187.95848  20338168.6544   20338175.0154   20338168.306
        53.0004         49.0004
 -15389712.77347 -11985776.37447  22635018.6404   22635024.8164   22635018.235
        47.0004         43.0004
  -8623849.43548  -6721312.09447  22408259.6464   22408267.2114   22408261.354
        48.0004         43.0004
  -9544093.98149  -7422716.26048  20578524.4694   20578532.2394   20578524.207
        54.0004         50.0004
 -10024871.60948  -7806809.87947  22287224.4314   22287228.9284   22287224.882
        49.0004         44.0004
 14  5 30  0  0 30.0000000  0 10G08G07G20G26G17G04G10G28G30G02
 -16967429.07148 -13171557.34348  20394033.2714   20394039.5574   20394033.427
        52.0004         48.0004
 -14015933.27048 -10887006.99147  22084701.8364   22084708.2034   22084701.570
        49.0004         44.0004
 -11035388.16146  -8525330.86645  24183184.0144   24183193.0644   24183182.214
        38.0004         33.0004
   -933665.53847   -712366.70446  24160455.7744   24160465.9504   24160455.277
        43.0004         38.0004
  -9596389.88047  -7422116.70447  23499569.7484   23499579.5094   23499569.683
        46.0004         42.0004
 -26995430.96548 -20981017.30148  20335280.0074   20335285.5424   20335279.502
        53.0004         49.0004
 -15461468.84347 -12041690.09647  22621363.1854   22621371.8724   22621363.525
        47.0004         43.0004
  -8682527.25548  -6767034.92147  22397096.2784   22397102.2504   22397095.003
        48.0004         43.0004
  -9496984.80849  -7386007.78548  20587489.0724   20587496.7274   20587488.667
        54.0004         50.0004
 -10085413.99548  -7853985.68247  22275703.4104   22275708.2984   22275703.043
        49.0004         44.0004
 14  5 30  0  1  0.0000000  0 10G08G07G20G26G17G04G10G28G30G02
 -16910204.15948 -13126966.47648  20404922.4104   20404928.5954   20404922.981
        52.0004         48.0004
 -13921026.46048 -10813053.60347  22102762.1644   22102767.7624   22102761.085
        49.0004         44.0004
 -10990000.08146  -8489963.52045  24191818.8614   24191829.4994   24191820.711
        38.0004         33.0004
   -920092.83447   -701790.47546  24163037.5224   24163048.5174   24163038.498
        43.0004         38.0004
  -9562106.51747  -7395402.38247  23506093.8004   23506104.0354   23506093.561
        46.0004         42.0004
 -27010057.20048 -20992414.32448  20332496.5324   20332502.4914   20332496.138
        53.0004         49.0004
 -15533251.43747 -12097624.48147  22607702.0184   22607711.0434   22607703.961
        47.0004         43.0004
  -8741154.36348  -6812718.23847  22385938.2144   22385946.1314   22385938.729
        48.0004         43.0004
  -9449391.42049  -7348922.00348  20596545.5424   20596553.3154   20596545.618
        54.0004         50.0004
 -10145562.64148  -7900854.66447  22264256.5414   22264261.5794   22264257.397
        49.0004         44.0004
 14  5 30  0  1 30.0000000  0 10G08G07G20G26G17G04G10G28G30G02
 -16852423.37448 -13081942.45648  20415917.8654   20415924.3874   20415918.260
        52.0004         48.0004
 -13825866.43748 -10738902.92047  22120870.2484   22120875.4624   22120869.773
        49.0004         44.0004
                  -8454328.61445                  24200533.4074   24200521.496
                        33.0004
   -906408.45947   -691127.21746  24165641.1794   24165654.0904   24165641.672
        43.0004         38.0004
  -9527995.85547  -7368822.62746  23512584.7444   23512594.8124   23512584.060
        46.0004         41.0004
 -27024127.85848 -21003378.42548  20329819.0024   20329824.7434   20329818.494
        53.0004         49.0004
 -15605057.31947 -12153577.00847  22594039.8784   22594046.7824   22594039.549
        47.0004         43.0004
  -8799727.67548  -6858359.63247  22374792.2524   22374799.7664   22374792.367
        48.0004         43.0004
  -9401314.94049  -7311459.79348  20605694.2694   20605701.6354   20605694.189
        54.0004         49.0004
 -10205315.39048  -7947415.16047  22252886.1484   22252891.9434   22252886.792
        49.0004         44.0004
 14  5 30  0  2  0.0000000  0 10G08G07G20G26G17G04G10G28G30G02
 -16794087.15448 -13036485.63148  20427019.1924   20427025.3274   20427019.211
        52.0004         48.0004
 -13730454.61948 -10664556.04147  22139026.2084   22139031.7464   22139026.397
        49.0004         44.0004
                  -8418424.57445                  24209297.0124   24209290.864
                        32.0004
   -892612.90147   -680377.35046  24168267.5064   24168278.1524   24168267.267
        43.0004         38.0004
  -9494057.30747  -7342376.98347  23519042.7784   23519052.2604   23519042.566
        46.0004         42.0004
 -27037640.99348 -21013908.09548  20327247.7954   20327253.3534   20327247.205
        53.0004         49.0004
 -15676882.07847 -12209544.24747  22580370.8044   22580378.0024   22580370.965
        47.0004         43.0004
  -8858241.81848  -6903954.93747  22363657.5294   22363664.6654   22363657.594
        48.0004         43.0004
  -9352755.45949  -7273621.21748  20614935.0894   20614942.5064   20614934.775
        54.0004         50.0004
 -10264668.93348  -7993664.58147  22241592.0304   22241597.5334   22241592.032
        49.0004         44.0004
 14  5 30  0  2 30.0000000  0 10G08G07G20G26G17G04G10G28G30G02
 -16735200.29948 -12990599.74848  20438224.4164   20438230.5934   20438225.066
        52.0004         48.0004
 -13634796.32848 -10590017.09547  22157229.7594   22157234.4074   22157229.418
        49.0004         44.0004
 -10851772.06646  -8382253.26945  24218122.5434   24218134.1124   24218123.193
        37.0004         33.0004
   -878710.78147   -669544.44446  24170912.0794   24170922.4984   24170912.039
        43.0004         38.0004
  -9460294.34247  -7316068.15246  23525468.0124   23525478.2194   23525467.522
        46.0004         41.0004
 -27050598.72448 -21024004.98848  20324781.7334   20324787.5234   20324781.261
        53.0004         49.0004
 -15748725.46547 -12265525.99147  22566699.8934   22566706.7704   22566700.677
        47.0004         43.0004
  -8916696.91148  -6949504.22147  22352532.9784   22352540.5164   22352533.660
        48.0004         43.0004
  -9303717.33649  -7235409.66648  20624266.6474   20624273.7834   20624266.632
        54.0004         50.0004
 -10323624.09948  -8039603.59147  22230373.1134   22230378.7344   22230373.351
        49.0004         44.0004
 14  5 30  0  3  0.0000000  0 10G08G07G20G26G17G04G10G28G30G02
 -16675764.51648 -12944286.12848  20449535.1084   20449541.3184   20449535.166
        52.0004         48.0004
 -13538893.66248 -10515287.72647  22175479.6164   22175484.3944   22175478.495
        48.0004         44.0004
 -10805008.29746  -8345813.93345  24227018.9934   24227030.8184   24227022.275
        38.0004         33.0004
   -864703.25847   -658629.41146  24173577.1224   24173588.6434   24173577.487
        43.0004         38.0004
  -9426707.43347  -7289896.51046  23531859.0954   23531868.2774   23531859.018
        46.0004         41.0004
 -27063000.53048 -21033668.69448  20322421.5244   20322427.7234   20322421.387
        53.0004         49.0004
 -15820584.47947 -12321519.94447  22553025.7604   22553032.6124   22553025.934
        47.0004         43.0004
  -8975088.99548  -6995004.41147  22341421.6744   22341429.0394   22341422.110
        48.0004         43.0004
  -9254201.70249  -7196826.03248  20633689.0174   20633696.7724   20633688.849
        54.0004         50.0004
 -10382178.84048  -8085230.57047  22219230.2254   22219234.7134   22219230.296
        49.0004         44.0004
 14  5 30  0  3 30.0000000  0 10G08G07G20G26G17G04G10G28G30G02
 -16615782.16548 -12897546.61248  20460949.2794   20460955.0434   20460949.431
        52.0004         48.0004
 -13442749.56748 -10440370.22747  22193774.8424   22193780.8494   22193774.731
        48.0004         44.0004
 -10757900.42746  -8309106.44545  24235983.4474   24235992.5774   24235986.712
        38.0004         33.0004
   -850592.58947   -647633.99146  24176263.7574   24176275.1304   24176263.092
        43.0004         38.0004
  -9393297.98147  -7263863.14246  23538217.0974   23538227.0664   23538216.242
        46.0004         41.0004
 -27074845.93648 -21042898.84448  20320167.5184   20320173.4604   20320166.958
        53.0004         49.0004
 -15892456.53148 -12377524.03947  22539349.3104   22539356.7384   22539348.755
        48.0004         43.0004
  -9033415.19848  -7040453.23847  22330322.6364   22330328.7744   22330322.843
        48.0004         43.0004
  -9204210.57549  -7157871.87748  20643202.3164   20643209.5364   20643201.994
        54.0004         49.0004
 -10440331.22748  -8130544.03847  22208164.3964   22208167.8444   22208164.586
        49.0004         44.0004
 14  5 30  0  4  0.0000000  0 10G08G07G20G26G17G04G10G28G30G02
 -16555257.02048 -12850384.13948  20472466.3684   20472472.7564   20472466.742
        52.0004         48.0004
 -13346368.48148 -10365268.06747  22212115.8094   22212120.5014   22212115.148
        48.0004         44.0004
 -10710449.75346  -8272131.83545  24245016.9324   24245022.0354   24245017.095
        38.0004         33.0004
   -836382.39647   -636561.02946  24178968.0664   24178978.2354   24178967.047
        43.0004         38.0004
  -9360068.21347  -7237969.77346  23544540.5984   23544550.0704   23544539.981
        46.0004         41.0004
 -27086136.45548 -21051696.61448  20318018.9164   20318024.5794   20318018.754
        53.0004         49.0004
 -15964340.42048 -12433537.36947  22525669.0444   22525676.4084   22525669.225
        48.0004         43.0004
  -9091673.97148  -7085849.55147  22319236.8894   22319244.5734   22319236.592
        48.0004         43.0004
  -9153747.33149  -7118549.85048  20652804.8024   20652812.0934   20652804.757
        54.0004         49.0004
 -10498081.49748  -8175544.16647  22197174.2264   22197179.1314   22197175.408
        49.0004         44.0004
 14  5 30  0  4 30.0000000  0 10G08G07G20G26G17G04G10G28G30G02
 -16494190.46548 -12802799.78848  20484087.0814   20484093.4584   20484087.785
        52.0004         48.0004
 -13249752.46448 -10289982.83847  22230500.8754   22230507.3904   22230500.530
        48.0004         44.0004
                  -8234889.26145                  24254119.0244   24254111.643
                        33.0004
   -822073.51747   -625411.15846  24181690.0504   24181700.5174   24181689.957
        43.0004         38.0004
  -9327017.99647  -7212216.31546  23550829.5614   23550840.1594   23550829.615
        46.0004         41.0004
 -27096871.05848 -21060061.21048  20315976.1804   20315981.9104   20315975.608
        53.0004         49.0004
 -16036232.25648 -12489556.88347  22511988.3904   22511995.7584   22511989.131
        48.0004         43.0004
  -9149861.36448  -7131190.25447  22308164.0034   22308170.3574   22308163.622
        48.0004         44.0004
  -9102812.76149  -7078860.55048  20662497.2154   20662504.7444   20662497.388
        54.0004         49.0004
 -10555426.99948  -8220228.88947  22186261.6034   22186266.7904   22186261.919
        49.0004         44.0004
 14  5 30  0  5  0.0000000  0 10G08G07G20G26G17G04G10G28G30G02
 -16432585.78948 -12754796.12548  20495810.7384   20495816.4754   20495810.662
        52.0004         48.0004
 -13152904.55148 -10214516.90647  22248931.8194   22248935.5814   22248930.073
        48.0004         43.0004
 -10614517.46546  -8197379.33645  24263270.1334   24263281.8084   24263270.256
        38.0004         33.0004
   -807668.86447   -614186.65946  24184430.4964   24184441.9204   24184431.364
        43.0004         38.0004
  -9294149.42047  -7186604.39447  23557084.7094   23557093.8354   23557084.265
        46.0004         42.0004
 -27107050.42148 -21067993.14648  20314039.0074   20314045.2174   20314038.652
        53.0004         49.0004
 -16108130.54347 -12545581.42447  22498306.2694   22498313.6544   22498307.350
        47.0004         43.0004
  -9207974.95448  -7176473.42947  22297105.3314   22297111.8094   22297104.846
        48.0004         44.0004
  -9051409.62549  -7038806.14248  20672279.1304   20672286.2954   20672278.873
        54.0004         49.0004
 -10612367.57748  -8264598.09247  22175426.5754   22175430.8574   22175427.123
        49.0004         44.0004
 14  5 30  0  5 30.0000000  0 10G08G07G20G26G17G04G10G28G30G02
 -16370444.62748 -12706374.42048  20507635.5284   20507641.3844   20507635.599
        52.0004         48.0004
 -13055827.40648 -10138872.34647  22267403.2924   22267408.2044   22267403.318
        48.0004         44.0004
 -10566036.04946  -8159601.54045  24272496.2794   24272506.4454   24272497.286
        38.0004         33.0004
   -793170.03247   -602888.77346  24187190.3864   24187200.5034   24187189.051
        43.0004         38.0004
  -9261462.78647  -7161134.23046  23563304.1774   23563314.8494   23563303.740
        46.0004         41.0004
 -27116673.84648 -21075491.89548  20312207.4484   20312213.4134   20312207.534
        53.0004         49.0004
 -16180031.88347 -12601608.33247  22484622.9614   22484631.9354   22484624.484
        47.0004         43.0004
  -9266011.18648  -7221696.33947  22286060.4824   22286068.2784   22286061.190
        48.0004         44.0004
  -8999539.25449  -6998387.64448  20682149.1444   20682157.0004   20682149.393
        54.0004         49.0004
 -10668900.78948  -8308649.86247  22164669.6434   22164673.4944   22164668.411
        49.0004         44.0004
 14  5 30  0  6  0.0000000  0 10G08G07G20G26G17G04G10G28G30G02
 -16307768.34848 -12657535.74648  20519561.9644   20519568.3554   20519562.361
        52.0004         48.0004
 -12958522.67348 -10063050.45647  22285919.6844   22285926.3224   22285919.697
        48.0004         44.0004
 -10517209.66646  -8121554.97245  24281789.7434   24281795.5834   24281788.196
        38.0004         33.0004
   -778577.84047   -591518.13646  24189966.1374   24189976.2464   24189966.426
        43.0004         38.0004
  -9228957.84947  -7135805.64947  23569489.4754   23569499.5634   23569489.530
        46.0004         42.0004
 -27125740.17048 -21082556.53948  20310482.2134   20310488.2544   20310482.050
        53.0004         49.0004
 -16251932.12948 -12657634.40247  22470942.4774   22470948.5494   22470942.489
        48.0004         43.0004
  -9323965.84648  -7266855.67047  22275030.8944   22275039.2134   22275031.916
        48.0004         44.0004
  -8947202.52149  -6957605.74148  20692108.6644   20692116.3084   20692108.553
        54.0004         49.0004
 -10725023.85048  -8352382.03447  22153987.8464   22153992.9944   22153989.090
        49.0004         44.0004
 14  5 30  0  6 30.0000000  0 10G08G07G20G26G17G04G10G28G30G02
 -16244565.02948 -12608286.38548  20531589.3034   20531595.9474   20531589.865
        52.0004         48.0004
 -12860998.76048  -9987057.76547  22304478.4754   22304483.6104   22304477.654
        48.0004         44.0004
 -10468043.86946  -8083243.94745  24291144.5364   24291154.1474   24291144.587
        38.0004         33.0004
   -763899.93447   -580080.71946  24192759.0664   24192770.1324   24192758.903
        43.0004         38.0004
  -9196641.18447  -7110623.78347  23575639.1624   23575648.2524   23575638.959
        46.0004         42.0004
 -27134254.87548 -21089191.34748  20308862.0204   20308868.0564   20308861.877
        53.0004         49.0004
 -16323834.74648 -12713662.32447  22457259.1134   22457266.7014   22457260.081
        48.0004         43.0004
  -9381841.50448  -7311953.44847  22264017.6884   22264026.0254   22264019.026
        48.0004         44.0004
  -8894406.86749  -6916466.23648  20702155.3874   20702162.8364   20702155.405
        54.0004         49.0004
 -10780740.97748  -8395797.89047  22143386.2044   22143390.6834   22143386.163
        49.0004         45.0004
 14  5 30  0  7  0.0000000  0 10G08G07G20G26G17G04G10G28G30G02
 -16180831.28148 -12558623.69748  20543717.2314   20543723.5694   20543717.707
        52.0004         48.0004
 -12763252.47548  -9910891.79647  22323078.0134   22323083.7584   22323078.379
        48.0004         43.0004
 -10418532.43146  -8044663.52545  24300564.9364   24300574.4484   24300565.922
        37.0004         33.0004
   -749132.25947   -568573.33946  24195570.0284   24195581.1764   24195570.004
        43.0004         38.0004
  -9164507.88747  -7085584.78247  23581752.7604   23581764.5914   23581753.401
        46.0004         42.0004
 -27142211.89448 -21095391.59748  20307347.7294   20307353.8684   20307347.501
        53.0004         49.0004
 -16395730.64948 -12769685.02147  22443578.6204   22443583.6274   22443578.200
        48.0004         43.0004
  -9439629.01548  -7356982.55147  22253021.8484   22253028.5854   22253022.512
        48.0004         44.0004
  -8841148.24249  -6874965.97948  20712290.1004   20712297.7974   20712289.935
        54.0004         49.0004
 -10836044.79748  -8438891.69847  22132861.5994   22132866.5254   22132862.241
        49.0004         45.0004
 14  5 30  0  7 30.0000000  0 10G08G07G20G26G17G04G10G28G30G02
 -16116575.12348 -12508553.94048  20555945.3224   20555951.3244   20555945.673
        52.0004         48.0004
 -12665292.11848  -9834559.02847  22341720.5214   22341726.1594   22341719.575
        48.0004         43.0004
                  -8005818.04545                  24310056.0794   24310052.795
                        32.0004
   -734282.24247   -557001.81546  24198396.2474   24198406.5714   24198395.116
        42.0004         38.0004
  -9132563.95947  -7060693.34846  23587833.2504   23587842.2654   23587832.063
        46.0004         41.0004
 -27149616.81648 -21101161.63548  20305939.1524   20305944.8644   20305938.588
        53.0004         49.0004
 -16467622.64248 -12825704.67747  22429896.7364   22429902.9884   22429897.645
        48.0004         43.0004
  -9497330.71948  -7401944.78947  22242040.5474   22242048.0334   22242041.705
        48.0004         44.0004
  -8787434.05049  -6833110.74748  20722511.5774   20722519.2074   20722511.531
        54.0004         49.0004
 -10890939.21248  -8481666.48247  22122415.9404   22122420.2904   22122415.758
        49.0004         45.0004
 14  5 30  0  8  0.0000000  0 10G08G07G20G26G17G04G10G28G30G02
 -16051795.20448 -12458076.06548  20568271.9414   20568278.5364   20568272.327
        52.0004         48.0004
 -12567116.67148  -9758058.65147  22360401.8314   22360407.7594   22360401.703
        48.0004         44.0004
                  -7966704.43945                  24319611.2384   24319606.000
                        33.0004
   -719348.33547   -545364.93346  24201236.9144   24201247.7504   24201237.373
        42.0004         38.0004
  -9100807.11647  -7035947.70246  23593875.0714   23593885.8364   23593875.462
        46.0004         41.0004
 -27156465.92048 -21106498.57648  20304635.4514   20304641.5654   20304635.044
        53.0004         49.0004
 -16539504.26448 -12881716.24647  22416217.9934   22416225.8624   22416219.033
        48.0004         43.0004
  -9554939.75348  -7446834.82147  22231079.1254   22231085.8714   22231078.804
        48.0004         44.0004
  -8733262.59849  -6790899.21148  20732820.5964   20732827.8754   20732820.136
        54.0004         49.0004
 -10945418.91848  -8524118.12147  22112048.4494   22112053.2934   22112048.815
        49.0004         45.0004
 14  5 30  0  8 30.0000000  0 10G08G07G20G26G17G04G10G28G30G02
 -15986495.84848 -12407193.43247  20580698.4934   20580704.3124   20580698.658
        52.0004         47.0004
 -12468731.10448  -9681394.53847  22379124.6784   22379129.2024   22379123.705
        48.0004         43.0004
                  -7927324.23145                  24329228.7074   24329221.377
                        32.0004
   -704334.44647   -533665.70346  24204094.7254   24204104.9064   24204094.052
        43.0004         38.0004
  -9069240.16147  -7011350.00446  23599882.4424   23599892.6254   23599882.243
        46.0004         41.0004
 -27162761.29049 -21111404.02948  20303437.5024   20303443.7264   20303437.247
        54.0004         49.0004
 -16611374.61748 -12937719.02747  22402541.6584   22402549.3034   22402542.281
        48.0004         43.0004
  -9612454.88348  -7491651.68047  22220134.0654   22220141.6214   22220134.766
        49.0004         44.0004
  -8678637.80549  -6748334.41848  20743214.9304   20743222.1714   20743214.811
        54.0004         49.0004
 -10999484.28548  -8566246.89847  22101760.2324   22101764.3554   22101760.257
        49.0004         45.0004
 14  5 30  0  9  0.0000000  0 10G08G07G20G26G17G04G10G28G30G02
 -15920681.42448 -12355909.44847  20593222.4314   20593228.4634   20593222.422
        52.0004         47.0004
 -12370139.95148  -9604570.23447  22397884.8154   22397890.6744   22397885.030
        48.0004         43.0004
                  -7887678.92145                  24338909.2274   24338902.978
                        32.0004
   -689244.66147   -521907.34246  24206966.0894   24206976.7074   24206965.401
        43.0004         38.0004
  -9037865.64147  -6986902.25847  23605853.2384   23605862.9234   23605852.759
        46.0004         42.0004
 -27168504.87748 -21115879.52548  20302344.2874   20302350.3844   20302344.092
        53.0004         49.0004
 -16683233.25848 -12993712.68147  22388867.5724   22388874.3664   22388867.809
        48.0004         43.0004
  -9669875.08048  -7536394.56147  22209207.5314   22209213.7674   22209207.512
        49.0004         44.0004
  -8623563.73549  -6705419.53848  20753694.9604   20753702.9434   20753694.967
        54.0004         49.0004
 -11053136.63348  -8608053.84647  22091550.5144   22091554.4644   22091550.639
        49.0004         45.0004
 14  5 30  0  9 30.0000000  0 10G08G07G20G26G17G04G10G28G30G02
 -15854349.41448 -12304222.16647  20605845.0354   20605851.2364   20605845.287
        52.0004         47.0004
 -12271341.36048  -9527584.28947  22416686.7194   22416691.8994   22416685.893
        48.0004         43.0004
                  -7847764.80345                  24348661.4984   24348651.402
                        33.0004
   -674075.91647   -510087.45846  24209852.9184   24209862.7794   24209852.427
        43.0004         38.0004
  -9006679.54047  -6962601.31946  23611786.8704   23611796.8954   23611786.807
        46.0004         41.0004
 -27173692.00448 -21119921.41648  20301357.3224   20301363.3034   20301357.104
        53.0004         49.0004
 -16755072.01848 -13049690.83347  22375196.5204   22375205.0464   22375197.801
        48.0004         43.0004
  -9727192.37648  -7581057.27547  22198299.4224   22198307.0044   22198300.425
        49.0004         44.0004
  -8568037.39149  -6662152.23948  20764261.6924   20764268.9454   20764261.431
        54.0004         49.0004
 -11106369.17148  -8649533.66747  22081420.3614   22081424.3164   22081420.906
        49.0004         45.0004
 14  5 30  0 10  0.0000000  0 10G08G07G20G26G17G04G10G28G30G02
 -15787509.30348 -12252138.94347  20618564.0044   20618570.6274   20618564.301
        52.0004         47.0004
 -12172344.67448  -9450443.97747  22435524.9454   22435529.8694   22435524.273
        48.0004         43.0004
                  -7807587.05345                  24358469.8964   24358462.061
                        32.0004
   -658836.92847   -498212.83846  24212751.0014   24212763.5124   24212751.474
        42.0004         38.0004
  -8975689.52647  -6938453.17646  23617685.2234   23617694.4124   23617684.538
        46.0004         41.0004
 -27178329.34148 -21123534.90448  20300475.1604   20300480.7674   20300474.672
        53.0004         49.0004
 -16826894.97448 -13105656.69347  22361530.0394   22361537.3514   22361530.205
        48.0004         43.0004
  -9784410.11048  -7625642.39247  22187412.7964   22187417.4864   22187412.002
        49.0004         44.0004
  -8512067.49249  -6618539.30948  20774912.2014   20774919.5164   20774911.986
        54.0004         49.0004
 -11159187.17548  -8690690.46847  22071369.0324   22071374.0024   22071369.532
        49.0004         45.0004
 14  5 30  0 10 30.0000000  0 10G08G07G20G26G17G04G10G28G30G02
 -15720160.51248 -12199659.36147  20631379.7764   20631386.4794   20631380.558
        52.0004         47.0004
 -12073149.63748  -9373149.11047  22454401.3424   22454405.9524   22454400.250
        48.0004         43.0004
                  -7767143.50345                  24368342.6134   24368338.567
                        33.0004
   -643526.65047   -486282.64746  24215664.7704   24215677.0034   24215665.126
        42.0004         38.0004
  -8944893.44247  -6914456.15546  23623544.7244   23623555.0534   23623544.227
        46.0004         41.0004
 -27182413.89748 -21126717.65348  20299697.6044   20299703.5314   20299697.222
        53.0004         49.0004
 -16898696.14548 -13161605.58447  22347866.2064   22347873.5174   22347866.744
        48.0004         43.0004
  -9841522.06048  -7670145.09247  22176544.2864   22176550.6414   22176543.761
        49.0004         44.0004
  -8455653.02049  -6574579.95448  20785647.2294   20785655.1184   20785647.432
        54.0004         49.0004
 -11211586.20948  -8731520.80547  22061398.3494   22061402.4454   22061398.606
        49.0004         45.0004
 14  5 30  0 11  0.0000000  0 10G08G07G20G26G17G04G10G28G30G02
 -15652303.97648 -12146784.11947  20644292.6784   20644299.1814   20644292.966
        52.0004         47.0004
 -11973757.31648  -9295700.51347  22473314.0274   22473320.1154   22473313.900
        48.0004         43.0004
 -10010136.24746  -7726432.38545  24378284.6224   24378291.2374   24378280.841
        37.0004         33.0004
   -628145.35147   -474297.12146  24218592.1604   24218603.0164   24218591.779
        42.0004         38.0004
  -8914290.08247  -6890609.32946  23629368.3374   23629378.3164   23629368.055
        46.0004         41.0004
 -27185944.27049 -21129468.57048  20299026.2604   20299031.7634   20299025.768
        54.0004         49.0004
 -16970470.87348 -13217533.84647  22334208.6824   22334214.6134   22334208.641
        48.0004         43.0004
  -9898523.35948  -7714561.56947  22165696.5774   22165703.3424   22165696.679
        49.0004         44.0004
  -8398794.31349  -6530274.44548  20796467.4684   20796474.8164   20796467.056
        54.0004         49.0004
 -11263563.24248  -8772022.30947  22051507.5654   22051511.8494   22051507.844
        50.0004         45.0004
 14  5 30  0 11 30.0000000  0 10G08G07G20G26G17G04G10G28G30G02
 -15583948.52448 -12093520.11847  20657299.7944   20657307.0854   20657300.620
        52.0004         47.0004
 -11874176.61848  -9218105.13047  22492263.1224   22492269.2934   22492263.541
        48.0004         43.0004
                  -7685458.47345                  24388295.6434   24388286.946
                        32.0004
   -612701.05047   -462262.52846  24221529.8414   24221541.1244   24221530.798
        42.0004         38.0004
  -8883886.57747  -6866918.21946  23635153.7514   23635163.5314   23635153.216
        46.0004         41.0004
 -27188926.65649 -21131792.49148  20298458.2074   20298464.1114   20298457.830
        54.0004         49.0004
 -17042222.41148 -13273444.06147  22320554.7034   22320560.5674   22320554.094
        48.0004         43.0004
  -9955416.78948  -7758893.99347  22154870.9454   22154876.3774   22154870.087
        49.0004         44.0004
  -8341499.36049  -6485629.01948  20807370.2484   20807377.9284   20807369.964
        54.0004         49.0004
 -11315123.28348  -8812198.88347  22041695.8254   22041700.1184   22041696.643
        50.0004         45.0004
 14  5 30  0 12  0.0000000  0 11G08G07G20G26G05G17G04G10G28G30G02
 -15515091.67548 -12039865.41347  20670403.4034   20670409.4174   20670403.636
        52.0004         47.0004
 -11774405.37948  -9140361.28147  22511250.3504   22511254.9404   22511249.782
        48.0004         43.0004
                  -7644218.25945                  24398367.0724   24398358.195
                        32.0004
   -597190.97347   -450176.65046  24224482.2164   24224492.9794   24224482.115
        42.0004         38.0004
  -1666299.11446  -1262194.13346  25484349.2024   25484359.1494   25484348.190
        41.0004         36.0004
  -8853678.71747  -6843379.54846  23640902.1234   23640911.2754   23640902.015
        46.0004         41.0004
 -27191356.62949 -21133685.95348  20297995.8314   20298001.7004   20297995.515
        54.0004         49.0004
 -17113943.23348 -13329330.33447  22306905.6024   22306912.3004   22306906.800
        48.0004         43.0004
 -10012194.50448  -7803136.25047  22144065.3594   22144071.7164   22144065.534
        49.0004         44.0004
  -8283765.71749  -6440641.75148  20818356.3254   20818364.0614   20818356.197
        54.0004         49.0004
 -11366259.91248  -8852045.53347  22031965.0404   22031968.4354   22031964.830
        50.0004         45.0004
 14  5 30  0 12 30.0000000  0 11G08G07G20G26G05G17G04G10G28G30G02
 -15445737.58548 -11985823.24547  20683601.4634   20683607.3084   20683601.214
        52.0004         47.0004
 -11674447.93148  -9062472.31947  22530271.7314   22530276.8464   22530270.415
        48.0004         43.0004
  -9851363.40246  -7602713.11345  24408494.5634   24408506.9104   24408494.124
        38.0004         33.0004
   -581618.55647   -438042.21046  24227445.9464   24227455.3944   24227446.093
        42.0004         38.0004
  -1746136.09446  -1324404.51546  25469157.2094   25469165.9054   25469155.577
        41.0004         36.0004
  -8823668.60547  -6819994.96046  23646612.3574   23646623.1384   23646611.954
        46.0004         41.0004
 -27193235.78749 -21135150.21048  20297638.5844   20297644.4604   20297638.021
        54.0004         49.0004
 -17185632.05948 -13385191.65047  22293264.3544   22293271.0144   22293264.160
        48.0004         43.0004
 -10068854.96748  -7847287.15547  22133283.5734   22133290.0284   22133283.428
        49.0004         44.0004
  -8225596.80848  -6395315.30648  20829425.5364   20829432.8894   20829425.541
        53.0004         49.0004
 -11416973.32248  -8891562.39147  22022313.3644   22022318.2524   22022314.483
        50.0004         45.0004
 14  5 30  0 13  0.0000000  0 11G08G07G20G26G05G17G04G10G28G30G02
 -15375890.52048 -11931396.94247  20696892.1704   20696898.1284   20696892.583
        52.0004         47.0004
 -11574308.55447  -8984441.58947  22549326.3174   22549332.2484   22549326.792
        47.0004         43.0004
  -9797760.35346  -7560944.46345  24418695.5544   24418702.0954   24418694.847
        38.0004         33.0004
   -565987.51547   -425862.07146  24230421.1104   24230430.7284   24230420.001
        42.0004         38.0004
  -1826193.14247  -1386786.38746  25453920.5024   25453931.0634   25453920.750
        42.0004         37.0004
  -8793858.83447  -6796766.50346  23652284.2784   23652294.7734   23652284.867
        46.0004         41.0004
 -27194566.10449 -21136186.79648  20297385.1104   20297390.7274   20297384.709
        54.0004         49.0004
 -17257287.73948 -13441027.15747  22279627.9584   22279635.5584   22279628.977
        48.0004         44.0004
 -10125396.63248  -7891345.47447  22122524.2804   22122530.2914   22122523.969
        49.0004         44.0004
  -8166996.41548  -6349652.64448  20840577.0504   20840584.3904   20840576.678
        53.0004         49.0004
 -11467263.96948  -8930749.82147  22012743.9914   22012748.5944   22012744.183
        50.0004         45.0004
 14  5 30  0 13 30.0000000  0 11G08G07G20G26G05G17G04G10G28G30G02
 -15305551.47948 -11876587.28847  20710277.3354   20710282.8854   20710277.888
        52.0004         47.0004
 -11473988.64847  -8906270.19547  22568417.2914   22568423.0334   22568416.927
        47.0004         43.0004
  -9743817.13346  -7518910.77745  24428957.2884   24428969.7724   24428959.596
        37.0004         32.0004
   -550298.13147   -413636.46746  24233406.9754   24233416.8134   24233405.715
        42.0004         38.0004
  -1906467.27747  -1449337.41546  25438645.3494   25438655.7774   25438644.739
        42.0004         37.0004
  -8764248.50547  -6773693.46246  23657920.6534   23657929.2964   23657919.712
        46.0004         41.0004
 -27195346.16149 -21136794.61148  20297236.6514   20297242.4084   20297236.479
        54.0004         49.0004
 -17328905.87348 -13496833.41447  22265999.1184   22266006.6574   22266000.430
        48.0004         44.0004
 -10181814.43248  -7935307.29847  22111787.7424   22111794.0384   22111787.773
        49.0004         44.0004
  -8107965.05448  -6303654.16548  20851810.2464   20851817.7664   20851810.316
        53.0004         49.0004
 -11517128.57548  -8969605.28147  22003254.0834   22003259.4454   22003255.404
        50.0004         45.0004
 14  5 30  0 14  0.0000000  0 11G08G07G20G26G05G17G04G10G28G30G02
 -15234725.27048 -11821398.02347  20723755.0544   20723761.4014   20723755.512
        52.0004         47.0004
 -11373492.97647  -8827961.84347  22587541.0264   22587547.5324   22587540.472
        47.0004         43.0004
                  -7476613.78645                  24439299.0864   24439289.535
                        32.0004
   -534554.49647   -401368.59946  24236400.9624   24236412.8844   24236400.573
        42.0004         38.0004
  -1986958.60246  -1512057.66646  25423328.9054   25423338.9604   25423327.479
        41.0004         37.0004
  -8734840.86447  -6750778.33846  23663515.9724   23663525.6294   23663515.338
        45.0004         41.0004
 -27195578.33649 -21136975.50448  20297192.5604   20297198.5124   20297192.349
        54.0004         49.0004
 -17400485.13548 -13552609.37947  22252378.2974   22252385.2434   22252379.361
        48.0004         44.0004
 -10238107.43348  -7979171.85547  22101074.9194   22101081.7514   22101075.803
        49.0004         44.0004
  -8048506.87248  -6257323.10048  20863124.6504   20863131.9564   20863124.663
        53.0004         49.0004
 -11566568.39648  -9008129.74347  21993847.1314   21993851.3424   21993846.818
        50.0004         45.0004
 14  5 30  0 14 30.0000000  0 11G08G07G20G26G05G17G04G10G28G30G02
 -15163413.50348 -11765830.39347  20737325.4694   20737331.7494   20737325.749
        52.0004         47.0004
 -11272823.15547  -8749517.79647  22606698.1794   22606702.6154   22606697.407
        47.0004         43.0004
  -9634916.27046  -7434052.86245  24449683.1434   24449692.8404   24449683.190
        37.0004         33.0004
   -518757.47647   -389059.11346  24239408.1074   24239417.0424   24239407.252
        42.0004         38.0004
  -2067665.07946  -1574945.57346  25407970.5124   25407981.4374   25407969.778
        41.0004         36.0004
  -8705634.97947  -6728020.42746  23669073.9184   23669083.9884   23669073.341
        45.0004         41.0004
 -27195262.17249 -21136729.11948  20297252.7324   20297258.4364   20297252.328
        54.0004         49.0004
 -17472021.86948 -13608352.20347  22238765.1344   22238772.6564   22238766.061
        49.0004         44.0004
 -10294271.31248  -8022935.80547  22090388.3454   22090393.2274   22090387.779
        49.0004         44.0004
  -7988622.96548  -6210660.29548  20874520.1074   20874527.4814   20874520.167
        53.0004         49.0004
 -11615581.05748  -9046321.34447  21984520.0364   21984523.3494   21984520.644
        50.0004         45.0004
 14  5 30  0 15  0.0000000  0 11G08G07G20G26G05G17G04G10G28G30G02
 -15091619.18748 -11709886.75547  20750987.1894   20750993.5074   20750987.790
        52.0004         47.0004
 -11171982.34347  -8670940.50047  22625887.0044   22625891.3054   22625886.721
        47.0004         43.0004
  -9579958.32946  -7391228.46845  24460138.6974   24460141.8204   24460139.969
        37.0004         33.0004
   -502909.38547   -376709.84946  24242422.2544   24242432.5404   24242422.201
        42.0004         38.0004
  -2148585.48546  -1638000.18346  25392570.8234   25392581.8784   25392570.575
        41.0004         36.0004
  -8676632.08747  -6705420.69646  23674592.3004   23674601.9724   23674591.959
        45.0004         41.0004
 -27194398.20349 -21136055.87348  20297416.9384   20297422.5604   20297416.549
        54.0004         49.0004
 -17543513.45448 -13664059.84547  22225161.3344   22225167.2564   22225161.712
        49.0004         44.0004
 -10350303.02048  -8066596.76047  22079725.2824   22079731.5244   22079725.355
        49.0004         44.0004
  -7928315.80148  -6163667.67748  20885996.0354   20886003.5174   20885996.189
        53.0004         49.0004
 -11664165.70748  -9084179.43447  21975274.5294   21975279.0444   21975274.593
        50.0004         45.0004
 14  5 30  0 15 30.0000000  0 11G08G07G20G26G05G17G04G10G28G30G02
 -15019347.35648 -11653571.02647  20764740.0724   20764746.6624   20764740.514
        52.0004         47.0004
 -11070975.65247  -8592233.93247  22645108.0164   22645112.2914   22645107.586
        47.0004         42.0004
  -9524664.68846  -7348142.48445  24470658.7824   24470669.8274   24470662.505
        37.0004         33.0004
   -487014.73247   -364324.29046  24245447.5764   24245457.2854   24245447.965
        42.0004         38.0004
  -2229720.83146  -1701222.29846  25377131.5964   25377141.3894   25377130.690
        41.0004         36.0004
  -8647835.19347  -6682981.49446  23680071.8804   23680082.4594   23680072.066
        45.0004         40.0004
 -27192989.19349 -21134957.92248  20297685.2364   20297690.9644   20297684.616
        54.0004         49.0004
 -17614959.45348 -13719731.96947  22211565.0454   22211571.2224   22211565.813
        49.0004         44.0004
 -10406202.06648  -8110154.34247  22069087.6174   22069093.4564   22069088.313
        49.0004         44.0004
  -7867589.96348  -6116348.81048  20897551.7594   20897559.4664   20897551.748
        53.0004         49.0004
 -11712323.62248  -9121705.00647  21966110.5874   21966115.3204   21966110.646
        50.0004         45.0004
 14  5 30  0 16  0.0000000  0 11G08G07G20G26G05G17G04G10G28G30G02
 -14946598.12148 -11596883.28747  20778584.0104   20778589.7244   20778584.170
        52.0004         47.0004
 -10969803.29047  -8513398.28247  22664361.0954   22664365.8014   22664359.712
        47.0004         42.0004
                  -7304793.27745                  24481252.6734   24481248.848
                        32.0004
   -471072.74347   -351901.84246  24248481.6784   24248492.5004   24248480.716
        42.0004         38.0004
  -2311067.12546  -1764608.77146  25361651.3294   25361661.9404   25361650.895
        41.0004         36.0004
  -8619242.46647  -6660701.39846  23685513.7374   23685522.6654   23685512.782
        45.0004         40.0004
 -27191033.06849 -21133433.64648  20298057.5074   20298063.4334   20298057.100
        54.0004         49.0004
 -17686354.15148 -13775364.11647  22197978.9644   22197985.8214   22197979.865
        49.0004         44.0004
 -10461962.50348  -8153603.92647  22058476.9464   22058483.0484   22058477.290
        49.0004         45.0004
  -7806445.11648  -6068703.45048  20909187.6524   20909194.8514   20909187.362
        53.0004         49.0004
 -11760050.85648  -9158894.98147  21957027.9544   21957032.2594   21957029.017
        50.0004         45.0004
 14  5 30  0 16 30.0000000  0 11G08G07G20G26G05G17G04G10G28G30G02
 -14873374.33048 -11539825.76447  20792517.7734   20792524.1814   20792518.276
        52.0004         47.0004
 -10868468.18147  -8434435.82647  22683642.9634   22683650.0324   22683643.361
        47.0004         42.0004
                  -7261180.83855                  24491907.3335   24491898.774
                        32.0004
   -455085.62447   -339444.22846  24251523.2404   24251533.5464   24251523.285
        42.0004         38.0004
  -2392622.56146  -1828158.20646  25346132.8274   25346143.0784   25346131.649
        41.0004         36.0004
  -8590854.73547  -6638581.02046  23690916.5364   23690925.9324   23690914.575
        45.0004         40.0004
 -27188530.29449 -21131483.40848  20298533.5284   20298538.9734   20298533.211
        54.0004         49.0004
 -17757694.76648 -13830954.13147  22184402.9504   22184410.3224   22184403.757
        49.0004         44.0004
 -10517581.23748  -8196943.09247  22047892.7084   22047900.0084   22047892.916
        49.0004         44.0004
  -7744883.58448  -6020733.40148  20920902.2704   20920909.5374   20920902.051
        53.0004         49.0004
 -11807346.25248  -9195748.46347  21948028.5974   21948032.7434   21948028.283
        50.0004         45.0004
 14  5 30  0 17  0.0000000  0 10G08G07G26G05G17G04G10G28G30G02
 -14799679.91248 -11482401.52247  20806541.3464   20806547.9094   20806541.731
        51.0004         47.0004
 -10766973.85447  -8355349.29247  22702957.3304   22702962.6914   22702957.181
        47.0004         42.0004
   -439056.16147   -326953.63246  24254573.5134   24254583.6054   24254573.336
        42.0004         38.0004
  -2474387.01146  -1891870.51846  25330572.7884   25330583.5154   25330571.888
        41.0004         37.0004
  -8562673.50547  -6616621.56846  23696277.9974   23696287.4594   23696277.892
        45.0004         40.0004
 -27185482.31549 -21129108.33548  20299113.1044   20299119.2534   20299113.136
        54.0004         49.0004
 -17828979.19348 -13886500.34547  22170838.5854   22170845.4654   22170839.220
        49.0004         44.0004
 -10573055.71148  -8240169.84047  22037336.5364   22037342.9124   22037336.577
        49.0004         44.0004
  -7682908.43748  -5972441.05848  20932695.7554   20932703.1004   20932695.514
        53.0004         49.0004
 -11854209.82848  -9232265.46347  21939109.9184   21939114.2284   21939110.347
        50.0004         45.0004
 14  5 30  0 17 30.0000000  0 10G08G07G26G05G17G04G10G28G30G02
 -14725521.09148 -11424615.40447  20820653.2984   20820659.7394   20820653.908
        51.0004         47.0004
 -10665326.39147  -8276143.43447  22722300.2544   22722306.2834   22722299.643
        47.0004         42.0004
   -422989.84347   -314434.30746  24257631.1714   24257641.9064   24257630.217
        42.0004         38.0004
  -2556362.54947  -1955747.30446  25314973.0544   25314982.1744   25314972.202
        42.0004         37.0004
  -8534702.82647  -6594826.14646  23701601.0494   23701609.6564   23701600.407
        45.0004         41.0004
 -27181893.23148 -21126311.62148  20299796.7994   20299802.0934   20299796.316
        53.0004         49.0004
 -17900208.25148 -13942003.42747  22157284.1164   22157289.7544   22157284.526
        49.0004         44.0004
 -10628386.40148  -8283284.55647  22026807.2344   22026813.1074   22026807.424
        49.0004         44.0004
  -7620525.42148  -5923830.89648  20944566.5754   20944573.9024   20944566.649
        53.0004         49.0004
 -11900643.93648  -9268447.81747  21930274.7254   21930278.3494   21930274.781
        50.0004         45.0004
 14  5 30  0 18  0.0000000  0 10G08G07G26G05G17G04G10G28G30G02
 -14650898.82848 -11366468.16647  20834853.7374   20834860.0854   20834853.934
        51.0004         47.0004
 -10563527.50147  -8196819.56947  22741672.2234   22741677.8554   22741671.128
        47.0004         42.0004
   -406887.05047   -301886.55746  24260695.3454   24260704.9704   24260696.054
        42.0004         38.0004
  -2638545.64747  -2019785.82946  25299335.3644   25299344.1734   25299333.291
        42.0004         37.0004
  -8506941.78047  -6573194.09746  23706883.4864   23706892.8604   23706882.920
        45.0004         41.0004
 -27177761.87049 -21123092.35648  20300582.6814   20300588.2794   20300582.221
        54.0004         49.0004
 -17971377.70548 -13997460.07247  22143741.6904   22143746.7294   22143741.250
        49.0004         44.0004
 -10683568.63048  -8326283.58647  22016306.7124   22016312.0954   22016306.380
        49.0004         45.0004
  -7557735.19748  -5874903.41848  20956515.1684   20956522.6124   20956515.297
        53.0004         49.0004
 -11946645.78048  -9304293.33647  21921519.7274   21921524.9314   21921520.250
        50.0004         45.0004
 14  5 30  0 18 30.0000000  0 10G08G07G26G05G17G04G10G28G30G02
 -14575816.01648 -11307962.05747  20849141.1604   20849147.5364   20849141.598
        51.0004         47.0004
 -10461579.31947  -8117379.38647  22761071.9194   22761077.6644   22761071.549
        47.0004         42.0004
   -390749.54647   -289311.77646  24263765.1874   24263776.3064   24263764.942
        42.0004         38.0004
  -2720934.81046  -2083984.92546  25283655.7884   25283664.5934   25283654.899
        41.0004         37.0004
  -8479391.10347  -6551725.98446  23712125.1954   23712134.5134   23712125.504
        46.0004         41.0004
 -27173088.76249 -21119450.95248  20301471.8524   20301477.7084   20301471.490
        54.0004         49.0004
 -18042483.99548 -14052867.49447  22130209.9544   22130216.1694   22130210.256
        49.0004         44.0004
 -10738598.93248  -8369164.23147  22005834.8494   22005840.4704   22005834.448
        49.0004         45.0004
  -7494539.76348  -5825660.19548  20968540.9204   20968548.4484   20968541.059
        53.0004         49.0004
 -11992214.20748  -9339801.13147  21912848.9764   21912852.9714   21912848.954
        50.0004         45.0004
 14  5 30  0 19  0.0000000  0 10G08G07G26G05G17G04G10G28G30G02
 -14500273.48548 -11249097.72347  20863516.9294   20863522.9274   20863517.103
        51.0004         47.0004
 -10359482.51147  -8037823.38447  22780500.4784   22780505.7394   22780500.006
        47.0004         42.0004
   -374577.44947   -276710.00546  24266844.0524   24266854.7664   24266843.543
        42.0004         38.0004
  -2803526.99346  -2148342.19246  25267938.5324   25267947.3504   25267938.997
        41.0004         36.0004
  -8452049.35547  -6530420.66346  23717329.8814   23717338.2114   23717329.038
        46.0004         41.0004
 -27167872.47449 -21115386.29248  20302464.4144   20302470.4224   20302464.065
        54.0004         49.0004
 -18113522.35848 -14108221.98147  22116691.0924   22116697.4464   22116692.171
        49.0004         44.0004
 -10793471.85948  -8411922.26247  21995391.4654   21995398.3854   21995392.399
        49.0004         44.0004
  -7430939.55548  -5776101.56948  20980643.9764   20980651.2894   20980643.754
        53.0004         49.0004
 -12037346.33148  -9374968.95047  21904260.0254   21904264.7194   21904260.806
        50.0004         45.0004
 14  5 30  0 19 30.0000000  0 10G08G07G26G05G17G04G10G28G30G02
 -14424276.86048 -11189879.55447  20877977.9594   20877983.9924   20877978.752
        51.0004         47.0004
 -10257242.87147  -7958156.09347  22799955.9934   22799961.2584   22799955.038
        47.0004         42.0004
   -358375.73747   -264085.18346  24269926.7374   24269935.9264   24269925.507
        42.0004         38.0004
  -2886323.23246  -2212858.48646  25252184.1224   25252191.7564   25252183.579
        41.0004         36.0004
  -8424920.02247  -6509280.85746  23722490.9744   23722501.0204   23722490.856
        46.0004         41.0004
 -27162116.52849 -21110901.12848  20303559.8124   20303565.5014   20303559.423
        54.0004         49.0004
 -18184492.57348 -14163523.36947  22103185.7754   22103194.2104   22103186.483
        49.0004         44.0004
 -10848187.46048  -8454557.70547  21984980.2394   21984986.6634   21984980.254
        49.0004         45.0004
  -7366939.78948  -5726231.60048  20992822.2894   20992830.1734   20992822.233
        53.0004         49.0004
 -12082043.82548  -9409798.10047  21895754.8994   21895758.4114   21895755.067
        50.0004         45.0004
 14  5 30  0 20  0.0000000  0 10G08G07G26G05G17G04G10G28G30G02
 -14347832.34648 -11130312.38247  20892525.9784   20892531.3054   20892525.716
        51.0004         46.0004
 -10154866.75947  -7878382.45847  22819437.2024   22819442.4874   22819436.300
        47.0004         42.0004
   -342149.39547   -251441.17246  24273013.6454   24273025.5004   24273013.702
        42.0004         38.0004
  -2969324.83946  -2277534.80646  25236387.1114   25236398.1054   25236388.185
        41.0004         36.0004
  -8398006.82147  -6488309.46546  23727613.4394   23727622.2064   23727612.829
        46.0004         41.0004
 -27155824.87548 -21105998.52548  20304756.7534   20304762.5064   20304756.566
        53.0004         49.0004
 -18255394.89948 -14218771.86947  22089694.8174   22089700.8054   22089694.561
        49.0004         44.0004
 -10902745.60548  -8497070.44547  21974597.5784   21974604.2174   21974597.891
        49.0004         44.0004
  -7302545.90348  -5676054.52248  21005075.8094   21005083.4584   21005075.793
        53.0004         48.0004
 -12126308.87648  -9444290.27747  21887331.3574   21887335.5004   21887331.587
        50.0004         46.0004
 14  5 30  0 20 30.0000000  0 10G08G07G26G05G17G04G10G28G30G02
 -14270935.88448 -11070393.04047  20907157.8714   20907164.3214   20907158.376
        51.0004         46.0004
 -10052349.78947  -7798499.06847  22838944.7434   22838950.8054   22838944.875
        46.0004         42.0004
   -325893.48347   -238774.11346  24276106.7224   24276118.5474   24276107.146
        43.0004         38.0004
  -3052523.52246  -2342364.69646  25220554.7804   25220565.0564   25220555.890
        41.0004         36.0004
  -8371303.57447  -6467501.67546  23732694.4454   23732703.5914   23732693.865
        46.0004         41.0004
 -27148991.29848 -21100673.63648  20306057.0804   20306063.1544   20306057.216
        53.0004         49.0004
 -18326219.44548 -14273959.74847  22076217.1234   22076223.1344   22076217.110
        49.0004         44.0004
 -10957136.35748  -8539452.74747  21964247.8364   21964254.3554   21964247.631
        49.0004         45.0004
  -7237753.38448  -5625566.82048  21017405.5014   21017413.0964   21017405.339
        53.0004         48.0004
 -12170133.64348  -9478439.38447  21878992.0434   21878995.9424   21878992.038
        50.0004         45.0004
 14  5 30  0 21  0.0000000  0 11G08G07G26G05G06G17G04G10G28G30G02
 -14193596.51948 -11010128.57647  20921875.3694   20921881.4324   20921875.571
        51.0004         46.0004
  -9949700.42447  -7718512.50947  22858479.2024   22858484.2674   22858478.517
        46.0004         42.0004
   -309616.07247   -226090.29846  24279204.3914   24279214.1464   24279204.850
        43.0004         38.0004
  -3135924.15246  -2407351.93746  25204685.1984   25204692.8644   25204685.535
        40.0004         36.0004
   -938155.92848   -737386.24947  22391566.4734   22391574.6714   22391565.290
        51.0004         45.0004
  -8344816.80647  -6446862.58546  23737734.2464   23737744.0104   23737734.224
        46.0004         41.0004
 -27141622.19748 -21094931.46648  20307459.8314   20307465.3674   20307459.255
        53.0004         49.0004
 -18396969.27448 -14329089.41147  22062752.9744   22062759.6624   22062753.862
        49.0004         44.0004
 -11011362.21548  -8581706.57547  21953928.8004   21953934.1614   21953928.934
        49.0004         45.0004
  -7172570.41648  -5574774.87048  21029809.4444   21029816.8314   21029809.376
        53.0004         48.0004
 -12213523.20648  -9512249.36947  21870734.4204   21870739.5664   21870734.679
        50.0004         46.0004
 14  5 30  0 21 30.0000000  0 11G08G07G26G05G06G17G04G10G28G30G02
 -14115814.62248 -10949519.29047  20936676.4684   20936683.0324   20936676.920
        51.0004         46.0004
  -9846919.02847  -7638423.05447  22878037.5314   22878044.1794   22878036.962
        46.0004         42.0004
   -293316.54447   -213389.25046  24282307.0344   24282317.0964   24282305.720
        43.0004         38.0004
  -3219522.39746  -2472493.16446  25188776.0304   25188785.7134   25188775.932
        40.0004         36.0004
   -852472.85548   -670620.26047  22407870.5104   22407880.3064   22407869.994
        50.0004         45.0004
  -8318544.21047  -6426390.36946  23742733.5494   23742743.1264   23742733.596
        46.0004         41.0004
 -27133716.06248 -21088770.82348  20308964.1914   20308969.9134   20308963.853
        53.0004         49.0004
 -18467638.66648 -14384156.40147  22049304.3664   22049310.8884   22049305.465
        49.0004         44.0004
 -11065417.52448  -8623827.50247  21943642.4324   21943649.1864   21943642.357
        49.0004         45.0004
  -7106996.92348  -5523678.61648  21042287.9814   21042295.4864   21042287.605
        53.0004         48.0004
 -12256474.11748  -9545717.54247  21862561.7244   21862565.5974   21862561.757
        50.0004         46.0004
 14  5 30  0 22  0.0000000  0 11G08G07G26G05G06G17G04G10G28G30G02
 -14037593.88948 -10888568.04747  20951562.0754   20951567.8544   20951562.080
        51.0004         46.0004
  -9744009.44747  -7558233.71847  22897620.9674   22897626.3744   22897620.134
        46.0004         42.0004
   -276998.08847   -200673.44746  24285411.7324   24285422.0954   24285411.520
        42.0004         38.0004
  -3303317.82146  -2537788.02346  25172832.5874   25172840.7504   25172829.736
        40.0004         36.0004
   -766589.10848   -603697.90747  22424213.7654   22424224.9314   22424213.151
        50.0004         45.0004
  -8292487.95247  -6406086.72746  23747692.0384   23747701.1584   23747692.001
        46.0004         41.0004
 -27125274.53748 -21082192.99648  20310570.6824   20310576.1824   20310570.189
        53.0004         49.0004
 -18538226.14648 -14439159.55447  22035872.8154   22035878.5854   22035873.084
        49.0004         45.0004
 -11119300.28448  -8665813.96647  21933388.8764   21933395.0904   21933389.045
        49.0004         45.0004
  -7041036.45348  -5472280.82348  21054839.4334   21054846.7214   21054839.311
        53.0004         48.0004
 -12298986.87648  -9578844.30847  21854471.7244   21854476.2074   21854471.928
        50.0004         46.0004
 14  5 30  0 22 30.0000000  0 11G08G07G26G05G06G17G04G10G28G30G02
 -13958937.01048 -10827276.94747  20966528.7704   20966535.4924   20966529.565
        51.0004         46.0004
  -9640974.24947  -7477946.51047  22917227.7904   22917232.8904   22917227.321
        46.0004         42.0004
   -260662.41747   -187944.22546  24288519.8984   24288530.7584   24288518.990
        42.0004         38.0004
  -3387308.24146  -2603234.84246  25156848.5874   25156857.0984   25156847.280
        41.0004         36.0004
   -680506.95348   -536620.94347  22440595.0684   22440604.8984   22440594.410
        49.0004         45.0004
  -8266648.25947  -6385951.83246  23752610.2834   23752618.6994   23752609.073
        46.0004         41.0004
 -27116298.58648 -21075198.73548  20312278.4514   20312284.6494   20312278.158
        53.0004         49.0004
 -18608728.40248 -14494096.30647  22022456.6914   22022462.0314   22022457.061
        49.0004         44.0004
 -11173006.76848  -8707663.08947  21923169.0974   21923174.3674   21923168.969
        49.0004         45.0004
  -6974691.10848  -5420583.12648  21067464.6834   21067472.3274   21067464.655
        53.0004         48.0004
 -12341059.94948  -9611628.46047  21846465.2814   21846469.2794   21846465.379
        50.0004         46.0004
 14  5 30  0 23  0.0000000  0 11G08G07G26G05G06G17G04G10G28G30G02
 -13879847.79248 -10765648.96447  20981579.3944   20981585.7664   20981580.175
        51.0004         46.0004
  -9537816.97847  -7397564.17847  22936858.2174   22936862.5544   22936857.643
        46.0004         42.0004
   -244312.16547   -175203.66346  24291631.3554   24291641.3864   24291631.295
        42.0004         38.0004
  -3471493.12246  -2668833.17146  25140826.8554   25140837.2484   25140827.375
        41.0004         36.0004
   -594229.62148   -469391.88647  22457013.5594   22457022.8094   22457012.184
        49.0004         45.0004
  -8241026.25647  -6365986.57246  23757484.7024   23757494.7814   23757484.017
        46.0004         41.0004
 -27106789.63048 -21067789.14248  20314088.1104   20314093.6754   20314087.615
        53.0004         49.0004
 -18679142.90548 -14548964.67847  22009056.4824   22009062.7644   22009057.567
        49.0004         45.0004
 -11226534.84248  -8749373.18747  21912982.0024   21912988.7034   21912982.581
        49.0004         45.0004
  -6907963.99348  -5368587.94548  21080162.1614   21080170.0804   21080162.167
        53.0004         48.0004
 -12382693.35948  -9644070.01547  21838541.8014   21838547.2284   21838542.762
        50.0004         46.0004
 14  5 30  0 23 30.0000000  0 11G08G07G26G05G06G17G04G10G28G30G02
 -13800329.52948 -10703686.66247  20996711.6594   20996717.4644   20996711.660
        51.0004         46.0004
  -9434540.45447  -7317088.91547  22956510.6424   22956515.4364   22956510.209
        46.0004         42.0004
   -227949.53147   -162453.45046  24294745.5984   24294754.4204   24294744.467
        42.0004         38.0004
  -3555870.87746  -2734581.82146  25124771.3664   25124780.0174   25124770.315
        41.0004         36.0004
   -507759.77348   -402012.82047  22473467.4024   22473477.2614   22473467.230
        49.0004         45.0004
  -8215622.91847  -6346191.69746  23762318.6314   23762328.5824   23762318.748
        46.0004         41.0004
 -27096748.47548 -21059964.84848  20315998.9674   20316004.6324   20315998.528
        53.0004         49.0004
 -18749467.00248 -14603762.60047  21995675.2494   21995680.0444   21995675.185
        49.0004         45.0004
 -11279881.30348  -8790941.76247  21902830.6684   21902836.8034   21902831.396
        49.0004         45.0004
  -6840857.68048  -5316297.29348  21092932.1164   21092939.4584   21092932.285
        53.0004         48.0004
