     2.11           OBSERVATION DATA    G (GPS)             RINEX VERSION / TYPE
teqc  2008Oct2      gpsops              20090201 00:09:32UTCPGM / RUN BY / DATE
    30.0000                                                 INTERVAL
     1     1                                                WAVELENGTH FACT L1/2
     7    L1    L2    P1    P2    C1    S1    S2            # / TYPES OF OBSERV
Linux 2.4.20-8|Pentium IV|gcc -static|Linux|486/DX+         COMMENT
     2.10           OBSERVATION DATA    GPS                 COMMENT
soc2rnx ver 1.20    gpsops               1-Feb-2009 00:09:24COMMENT
S1, if present, is the SNR for the C/A data stream on L1.   COMMENT
 SNR is mapped to RINEX snr flag value [1,4-9]              COMMENT
    SNR:   >316  >100  >31.6  >10  >3.2    >0 bad=0         COMMENT
L1 & L2:      9     8     7     6     5     4     1         COMMENT
                                                            COMMENT
This data is provided as a public service by NASA/JPL.      COMMENT
No warranty is expressed or implied regarding suitability   COMMENT
for use.  For further information, contact:                 COMMENT
Dave Stowers, NASA/JPL m/s 238-600                          COMMENT
4800 Oak Grove Drive, Pasadena CA 91109 USA                 COMMENT
                                                            COMMENT
Forced Modulo Decimation to 30 seconds                      COMMENT
  2009     1    31     0     0    0.0000000     GPS         TIME OF FIRST OBS
GGN                 JPL                                     OBSERVER / AGENCY
CR519992104         ASH701945B_M    SCIT                    ANT # / TYPE
   -33801.4662 -6377516.5323   -82154.3508                  APPROX POSITION XYZ
        0.0083        0.0000        0.0000                  ANTENNA: DELTA H/E/N
ZR220013847         ASHTECH UZ-12       CQ00                REC # / TYPE / VERS
GLPS                                                        MARKER NAME
42005M002                                                   MARKER NUMBER
                                                            END OF HEADER
 09  1 31  0  0  0.0000000  0 12G14G22G18G 9G 5G29G31G 6G24G30G12G21
 118265342.62347  92154795.20547  22505162.5284   22505164.2024   22505161.5744
        49.000          43.000
 123125176.30147  95941691.13347  23429944.4174   23429946.2964   23429945.3024
        47.000          41.000
 119996320.32947  93503616.10647  22834547.7704   22834550.6254   22834548.8184
        48.000          41.000
 127265628.92847  99168017.16547  24217846.9724   24217850.9734   24217847.9254
        42.000          36.000
 123646498.48347  96347916.50347  23529145.5394   23529150.9174   23529146.3224
        45.000          40.000
 125950562.00347  98143280.10247  23967607.7084   23967610.0194   23967606.2524
        44.000          39.000
 112787257.92247  87886174.48647  21462701.9414   21462703.6104   21462701.3084
        53.000          47.000
 125835049.33447  98053274.15447  23945620.0134   23945625.0264   23945620.1504
        44.000          38.000
 120323432.61047  93758511.15647  22896793.2084   22896796.4504   22896792.3944
        47.000          41.000
 119651125.33547  93234629.87647  22768862.7734   22768865.0404   22768861.9344
        49.000          43.000
 128622471.42947 100225288.05347  24476052.6674   24476057.0754   24476053.2604
        45.000          38.000
 105187739.19347  81964475.67447  20016558.0744   20016560.0544   20016558.5864
        54.000          49.000
 09  1 31  0  0 30.0000000  0 12G14G22G18G 9G 5G29G31G 6G24G30G12G21
 118304833.88447  92185567.64047  22512676.2244   22512678.7654   22512676.4484
        49.000          43.000
 123078966.43947  95905683.50547  23421152.1134   23421153.0924   23421152.1014
        47.000          41.000
 119958456.73547  93474112.04247  22827343.0694   22827345.0884   22827343.4824
        49.000          41.000
 127371135.65147  99250230.25847  24237925.2104   24237927.9174   24237925.4894
        41.000          36.000
 123646911.98047  96348238.77547  23529225.4464   23529230.0414   23529225.8334
        45.000          40.000
 126016504.63147  98194663.99147  23980155.0754   23980159.5394   23980154.8734
        44.000          39.000
 112712737.42947  87828106.61047  21448520.7694   21448522.6804   21448520.4054
        53.000          47.000
 125816230.52047  98038610.18447  23942038.7714   23942042.2904   23942038.4294
        43.000          38.000
 120405077.97847  93822130.93747  22912329.3064   22912333.9714   22912329.3714
        48.000          41.000
 119625963.92747  93215023.62847  22764073.7534   22764077.0074   22764073.2784
        49.000          43.000
 128635804.73247 100235677.71447  24478590.7554   24478594.2244   24478590.4864
        45.000          38.000
 105209108.91047  81981127.42147  20020624.6764   20020626.7144   20020625.0404
        54.000          49.000
 09  1 31  0  1  0.0000000  0 12G14G22G18G 9G 5G29G31G 6G24G30G12G21
 118344432.20647  92216423.50347  22520211.4304   22520213.8414   22520211.6194
        48.000          43.000
 123032580.90247  95869538.97147  23412325.3904   23412326.0694   23412325.3674
        47.000          41.000
 119920565.17447  93444586.18447  22820132.4744   22820134.8164   22820132.8604
        48.000          41.000
 127476821.61547  99332583.02447  24258036.2934   24258039.6134   24258037.0254
        42.000          36.000
 123647569.75447  96348751.40547  23529350.7634   23529355.3454   23529351.0294
        45.000          39.000
 126082270.96047  98245910.48547  23992669.6744   23992674.5064   23992668.7934
        44.000          39.000
 112638626.38147  87770357.77647  21434417.6484   21434419.8114   21434417.3774
        53.000          47.000
 125797644.23447  98024127.40947  23938500.9134   23938505.5354   23938501.2774
        43.000          37.000
 120487030.75147  93885990.26147  22927924.3114   22927929.3174   22927924.2734
        46.000          41.000
 119600903.61947  93195496.17347  22759305.2064   22759308.1484   22759304.8444
        49.000          43.000
 128649353.08447 100246234.97147  24481169.0994   24481171.7804   24481168.7884
        43.000          38.000
 105231090.29047  81998255.78247  20024807.3904   20024809.6194   20024807.7824
        54.000          49.000
 09  1 31  0  1 30.0000000  0 12G14G22G18G 9G 5G29G31G 6G24G30G12G21
 118384136.76747  92247362.14847  22527766.8694   22527769.4544   22527767.2984
        49.000          43.000
 122986022.00547  95833259.37647  23403465.2154   23403466.5714   23403465.3474
        47.000          41.000
 119882649.14247  93415041.27247  22812917.3264   22812919.5924   22812917.3924
        49.000          41.000
 127582685.25847  99415074.22647  24278181.3404   24278184.5944   24278182.0664
        40.000          36.000
 123648475.35447  96349457.11647  23529523.0904   23529526.9204   23529523.4294
        45.000          39.000
 126147861.33647  98297019.87747  24005151.0624   24005155.8944   24005150.8494
        44.000          39.000
 112564928.80847  87712931.13647  21420393.3444   21420395.6284   21420392.9024
        53.000          47.000
 125779290.68547  98009825.97447  23935008.6374   23935012.9784   23935008.4924
        42.000          37.000
 120569290.40647  93950088.69947  22943577.2844   22943582.9804   22943577.3544
        47.000          40.000
 119575948.61047  93176050.75947  22754556.2794   22754559.3934   22754555.8794
        49.000          42.000
 128663119.76047 100256962.32347  24483788.0754   24483791.6524   24483787.4794
        43.000          38.000
 105253684.40547  82015861.60547  20029106.9524   20029109.0414   20029107.3304
        54.000          49.000
 09  1 31  0  2  0.0000000  0 12G14G22G18G 9G 5G29G31G 6G24G30G12G21
 118423942.87247  92278379.91747  22535341.9714   22535344.4264   22535341.9494
        48.000          43.000
 122939288.97047  95796844.08147  23394572.1734   23394573.2654   23394572.1284
        47.000          41.000
 119844708.62547  93385477.24447  22805697.3474   22805699.7994   22805697.8954
        49.000          41.000
 127688722.12347  99497700.41147  24298359.9674   24298362.9024   24298359.6294
        39.000          35.000
 123649628.55047  96350355.78047  23529742.1374   23529746.6164   23529742.4424
        45.000          39.000
 126213272.39147  98347989.54647  24017598.3534   24017602.8444   24017597.8924
        44.000          39.000
 112491645.14247  87655827.02047  21406447.8484   21406450.3974   21406447.4974
        53.000          47.000
 125761166.63647  97995703.39047  23931559.3914   23931564.2244   23931559.5314
        43.000          37.000
 120651852.79847  94014423.04947  22959288.6184   22959293.8854   22959288.8914
        47.000          41.000
 119551099.34047  93156687.75047  22749827.1414   22749830.8044   22749826.9854
        49.000          42.000
 128677104.07147 100267859.26447  24486449.4334   24486452.4574   24486448.9514
        44.000          38.000
 105276888.40847  82033942.66647  20033522.3484   20033524.5854   20033522.7214
        54.000          49.000
 09  1 31  0  2 30.0000000  0 12G14G22G18G 9G 5G29G31G 6G24G30G12G21
 118463848.70247  92309475.38747  22542935.4464   22542938.4084   22542935.7004
        48.000          43.000
 122892383.95147  95760294.76247  23385646.6114   23385647.4974   23385646.6814
        47.000          41.000
 119806746.82547  93355896.65147  22798473.3754   22798475.3514   22798473.7034
        49.000          41.000
 127794929.93447  99580459.77447  24318569.9014   24318572.9674   24318569.9474
        40.000          35.000
 123651032.14847  96351449.55547  23530009.4304   23530013.7174   23530009.2674
        45.000          39.000
 126278503.89847  98398819.32947  24030011.9114   24030015.5554   24030011.3104
        44.000          39.000
 112418779.00347  87599048.25347  21392581.8434   21392584.2974   21392581.5204
        53.000          47.000
 125743271.46647  97981759.14447  23928153.7284   23928158.7794   23928154.5514
        43.000          37.000
 120734716.61047  94078992.26947  22975057.1024   22975062.4434   22975057.1654
        47.000          40.000
 119526359.03847  93137409.64647  22745119.0034   22745122.7044   22745118.9104
        49.000          42.000
 128691308.72147 100278927.90547  24489151.8684   24489155.6254   24489151.6314
        43.000          38.000
 105300702.41847  82052499.04747  20038054.0854   20038056.1994   20038054.6124
        54.000          49.000
 09  1 31  0  3  0.0000000  0 12G14G22G18G 9G 5G29G31G 6G24G30G12G21
 118503852.08247  92340646.88047  22550547.8894   22550550.5544   22550548.1704
        48.000          43.000
 122845308.44347  95723612.60147  23376688.2544   23376689.2904   23376688.4324
        48.000          41.000
 119768766.61447  93326301.70747  22791245.8884   22791247.9554   22791246.2814
        49.000          42.000
 127901306.31547  99663350.50347  24338812.8344   24338816.6554   24338812.8524
        40.000          35.000
 123652688.39247  96352740.20347  23530324.3334   23530328.7864   23530324.7804
        45.000          39.000
 126343555.00747  98449508.51747  24042390.3864   24042394.1794   24042390.4704
        44.000          38.000
 112346333.27947  87542597.07247  21378796.0684   21378798.0334   21378795.4854
        53.000          47.000
 125725604.32747  97967992.59847  23924792.1914   23924795.9384   23924792.5474
        43.000          37.000
 120817879.92647  94143794.86847  22990882.7284   22990888.1344   22990882.6554
        47.000          40.000
 119501730.26647  93118218.43647  22740432.5184   22740436.2524   22740432.2344
        49.000          43.000
 128705735.38847 100290169.52147  24491897.5724   24491901.4444   24491897.2104
        44.000          38.000
 105325126.14747  82071530.53847  20042701.6704   20042703.8984   20042702.1104
        54.000          49.000
 09  1 31  0  3 30.0000000  0 12G14G22G18G 9G 5G29G31G 6G24G30G12G21
 118543948.95347  92371891.22047  22558178.0434   22558180.8494   22558178.3834
        48.000          43.000
 122798062.47947  95686797.62247  23367697.6814   23367698.5804   23367697.7074
        48.000          42.000
 119730768.50047  93296692.81047  22784015.0274   22784017.3644   22784015.4914
        48.000          42.000
 128007847.27647  99746369.48747  24359086.9464   24359090.7494   24359087.8154
        40.000          35.000
 123654598.05747  96354228.30447  23530688.3044   23530691.9374   23530688.8104
        45.000          39.000
 126408423.37447  98500055.31747  24054734.5854   24054738.3924   24054734.2164
        43.000          39.000
 112274309.38047  87486474.58647  21365090.4924   21365092.2374   21365090.1664
        53.000          47.000
 125708162.72947  97954401.76947  23921473.2554   23921477.8554   23921473.4014
        43.000          38.000
 120901339.30147  94208828.15847  23006764.3444   23006769.8094   23006764.2764
        47.000          40.000
 119477214.41147  93099115.22947  22735767.6344   22735771.1464   22735767.4554
        49.000          43.000
 128720384.66847 100301584.62147  24494685.2184   24494688.2484   24494685.4164
        44.000          38.000
 105350157.84747  82091035.77447  20047465.1134   20047467.3074   20047465.5684
        54.000          49.000
 09  1 31  0  4  0.0000000  0 12G14G22G18G 9G 5G29G31G 6G24G30G12G21
 118584138.74847  92403207.96547  22565825.7134   22565828.6024   22565826.0384
        48.000          42.000
 122750648.58047  95649851.77347  23358675.2464   23358676.1244   23358675.2654
        48.000          42.000
 119692756.10647  93267072.79447  22776781.5084   22776784.0474   22776782.2294
        48.000          42.000
 128114551.26447  99829515.48347  24379392.5114   24379395.0324   24379392.8334
        40.000          36.000
 123656764.13047  96355916.21547  23531100.1384   23531104.1924   23531100.7294
        45.000          39.000
 126473109.31847  98550459.96847  24067043.7584   24067047.8614   24067043.6814
        44.000          39.000
 112202710.94047  87430683.64047  21351465.6124   21351467.5714   21351465.6914
        53.000          47.000
 125690946.43747  97940986.51747  23918196.8844   23918201.3734   23918197.1834
        42.000          38.000
 120985093.65747  94274091.31047  23022702.2904   23022707.5034   23022702.1474
        46.000          40.000
 119452814.86847  93080102.65947  22731124.2484   22731127.9994   22731123.9324
        49.000          43.000
 128735259.10947 100313175.15047  24497515.6154   24497519.1914   24497515.4504
        43.000          38.000
 105375797.72547  82111014.91047  20052344.2894   20052346.2794   20052344.7174
        54.000          49.000
 09  1 31  0  4 30.0000000  0 12G14G22G18G 9G 5G29G31G 6G24G30G12G21
 118624418.45647  92434594.77447  22573490.6814   22573493.5664   22573490.8914
        48.000          42.000
 122703067.87147  95612775.94647  23349620.7974   23349621.3164   23349620.8304
        47.000          41.000
 119654731.49147  93237443.27247  22769545.6944   22769548.3854   22769546.1684
        48.000          42.000
 128221415.00647  99912785.97147  24399727.4234   24399731.4144   24399727.5044
        40.000          35.000
 123659188.27147  96357805.20747  23531561.3294   23531565.4544   23531561.7334
        46.000          39.000
 126537611.39147  98600721.34647  24079317.9084   24079321.8114   24079317.5474
        44.000          39.000
 112131540.44247  87375226.14347  21337922.4794   21337924.0614   21337921.7634
        53.000          47.000
 125673953.69847  97927745.46047  23914963.5864   23914968.0254   23914963.8654
        43.000          38.000
 121069140.63347  94339582.47547  23038696.0214   23038700.9634   23038695.8154
        47.000          40.000
 119428533.70247  93061182.31347  22726503.9594   22726507.3444   22726503.6964
        50.000          43.000
 128750360.08347 100324942.21247  24500389.4974   24500393.0994   24500389.4114
        43.000          38.000
 105402044.90247  82131467.26847  20057338.9634   20057340.9424   20057339.3594
        54.000          49.000
 09  1 31  0  5  0.0000000  0 12G14G22G18G 9G 5G29G31G 6G24G30G12G21
 118664785.19947  92466049.40947  22581171.9934   22581175.0254   22581172.3934
        48.000          42.000
 122655321.16447  95575570.76347  23340535.0234   23340535.4994   23340534.9034
        48.000          42.000
 119616696.08447  93207805.32747  22762307.4714   22762310.6034   22762307.9874
        48.000          42.000
 128328435.27747  99996178.42547  24420092.6174   24420096.1184   24420092.3714
        40.000          35.000
 123661871.86747  96359896.38647  23532071.9914   23532076.4084   23532072.3894
        44.000          39.000
 126601927.74447  98650838.01447  24091556.7434   24091560.8034   24091556.7024
        44.000          39.000
 112060799.76147  87320103.57947  21324460.9724   21324462.5764   21324460.7734
        53.000          47.000
 125657182.90047  97914677.35347  23911772.2644   23911776.2104   23911772.3144
        43.000          38.000
 121153477.42547  94405299.46447  23054744.9834   23054749.7474   23054745.2994
        47.000          40.000
 119404372.91947  93042355.77147  22721906.1944   22721909.3854   22721905.6644
        50.000          43.000
 128765688.91547 100336886.84847  24503306.4294   24503309.7034   24503306.1894
        43.000          38.000
 105428898.35247  82152392.04647  20062448.9804   20062451.0034   20062449.3224
        54.000          49.000
 09  1 31  0  5 30.0000000  0 12G14G22G18G 9G 5G29G31G 6G24G30G12G21
 118705235.86247  92497569.43747  22588869.8134   22588872.6364   22588870.1474
        48.000          43.000
 122607409.03247  95538236.69047  23331417.2454   23331418.2874   23331417.4894
        48.000          42.000
 119578652.00747  93178160.62847  22755067.8614   22755070.8374   22755068.3104
        48.000          41.000
 128435608.98347 100079690.44747  24440487.4574   24440490.3824   24440487.1844
        41.000          35.000
 123664816.32047  96362190.81647  23532632.1454   23532636.2404   23532632.5954
        45.000          39.000
 126666057.34847  98700809.16247  24103760.6214   24103764.3374   24103760.5374
        43.000          38.000
 111990490.80647  87265317.42247  21311081.4154   21311083.2664   21311080.9304
        53.000          47.000
 125640632.37147  97901780.87247  23908622.6514   23908627.1964   23908623.0644
        43.000          38.000
 121238101.54347  94471240.35147  23070848.2874   23070853.0204   23070848.4814
        47.000          40.000
 119380334.85647  93023624.86847  22717332.0454   22717335.4054   22717331.6944
        50.000          43.000
 128781246.87247 100349009.99047  24506267.5054   24506270.5194   24506267.0464
        44.000          38.000
 105456356.38947  82173787.93047  20067674.0114   20067675.9664   20067674.4064
        54.000          49.000
 09  1 31  0  6  0.0000000  0 12G14G22G18G 9G 5G29G31G 6G24G30G12G21
 118745768.39547  92529153.24747  22596583.3154   22596585.7044   22596583.7994
        48.000          43.000
 122559333.38147  95500775.18247  23322268.7984   23322269.7704   23322268.8784
        48.000          41.000
 119540601.85647  93148511.18947  22747827.4354   22747829.9364   22747827.6774
        48.000          42.000
 128542933.89747 100163320.30247  24460909.7734   24460914.3984   24460911.0904
        40.000          34.000
 123668024.12447  96364690.45447  23533242.3134   23533246.6294   23533243.2974
        44.000          39.000
 126729999.37547  98750634.13147  24115928.0904   24115932.2394   24115927.7294
        43.000          38.000
 111920616.87947  87210870.24447  21297784.8294   21297786.9374   21297784.2384
        53.000          48.000
 125624301.04547  97889055.18847  23905514.8544   23905519.4554   23905515.1484
        43.000          38.000
 121323011.23647  94537403.76947  23087006.6334   23087010.9724   23087007.0214
        48.000          41.000
 119356422.25347  93004991.70947  22712781.3294   22712784.6344   22712780.9974
        50.000          43.000
 128797035.65447 100361313.02747  24509271.6214   24509274.8164   24509271.6194
        43.000          38.000
 105484419.09547  82195654.98347  20073014.1524   20073016.1814   20073014.5404
        54.000          49.000
 09  1 31  0  6 30.0000000  0 12G14G22G18G 9G 5G29G31G 6G24G30G12G21
 118786381.13547  92560799.57047  22604311.3334   22604313.8824   22604311.6244
        48.000          42.000
 122511096.32647  95463187.89847  23313089.4054   23313090.4074   23313089.5764
        48.000          41.000
 119502548.58047  93118859.33347  22740586.0444   22740588.8124   22740586.5664
        49.000          42.000
 128650407.86447 100247066.29247  24481361.5094   24481365.3064   24481362.1104
        39.000          34.000
 123671497.84747  96367397.30547  23533903.3314   23533907.7804   23533903.8514
        44.000          39.000
 126793753.78947  98800312.91847  24128060.1664   24128064.2654   24128059.6514
        43.000          38.000
 111851181.15247  87156764.53647  21284571.5684   21284573.6224   21284571.5924
        53.000          48.000
 125608188.32847  97876499.87647  23902448.4714   23902452.9054   23902448.3334
        43.000          38.000
 121408204.95547  94603788.49647  23103218.3154   23103223.0114   23103218.4754
        47.000          40.000
 119332637.92847  92986458.50647  22708255.4384   22708258.5264   22708255.1684
        50.000          43.000
 128813057.58047 100373797.72747  24512320.6174   24512323.0144   24512320.2404
        43.000          38.000
 105513086.06047  82217992.88547  20078469.2224   20078471.2664   20078469.6104
        54.000          49.000
 09  1 31  0  7  0.0000000  0 12G14G22G18G 9G 5G29G31G 6G24G30G12G21
 118827069.52947  92592504.83347  22612053.9874   22612056.7674   22612054.2834
        48.000          43.000
 122462696.98947  95425474.17847  23303879.3494   23303880.1444   23303879.3694
        48.000          41.000
 119464492.34847  93089205.14547  22733344.3114   22733346.8814   22733344.7714
        49.000          42.000
 128758025.96847 100330924.61347  24501839.6144   24501845.0424   24501840.2764
        39.000          33.000
 123675237.08547  96370311.05147  23534614.8324   23534619.0644   23534614.9924
        45.000          39.000
 126857317.24847  98849842.90747  24140155.5214   24140159.9284   24140155.2304
        43.000          38.000
 111782184.00947  87103000.57147  21271441.9484   21271443.8864   21271441.1934
        53.000          48.000
 125592290.69547  97864112.13847  23899423.4814   23899427.6244   23899423.7244
        42.000          38.000
 121493678.45847  94670391.24747  23119483.1624   23119487.9944   23119483.3804
        47.000          40.000
 119308982.38747  92968025.67347  22703753.5994   22703757.2504   22703753.2964
        49.000          43.000
 128829312.26547 100386463.82047  24515413.2584   24515416.2534   24515413.4174
        44.000          38.000
 105542354.22347  82240799.26347  20084038.9474   20084040.6244   20084039.3164
        54.000          49.000
 09  1 31  0  7 30.0000000  0 11G14G22G18G 5G29G31G 6G24G30G12G21
 118867832.25447  92624268.02547  22619810.9964   22619813.7334   22619811.1584
        48.000          42.000
 122414138.32447  95387636.29247  23294639.1634   23294639.8464   23294639.1354
        47.000          41.000
 119426436.95247  93059551.60747  22726103.2304   22726104.9794   22726103.5034
        49.000          42.000
 123679245.17947  96373434.29847  23535377.3804   23535382.2054   23535377.7834
        44.000          39.000
 126920689.89747  98899224.21547  24152215.1734   24152219.2474   24152214.7484
        43.000          39.000
 111713629.29447  87049581.36247  21258396.2594   21258398.3434   21258396.2614
        53.000          48.000
 125576608.07847  97851891.96847  23896438.7044   23896443.4484   23896438.4904
        43.000          38.000
 121579430.62247  94737211.12247  23135801.4224   23135806.0844   23135801.4964
        47.000          40.000
 119285459.77447  92949696.41847  22699277.3504   22699280.4314   22699276.9834
        49.000          43.000
 128845802.51847 100399313.46147  24518551.3384   24518553.9754   24518550.9964
        43.000          38.000
 105572224.01347  82264074.43747  20089722.8654   20089724.6854   20089723.2414
        54.000          49.000
 09  1 31  0  8  0.0000000  0 12G14G22G18G 9G 5G29G31G 6G24G30G12G21
 118908667.15947  92656087.45247  22627581.6334   22627584.1794   22627581.8164
        48.000          42.000
 122365421.52147  95349675.18747  23285368.5594   23285369.0544   23285368.7084
        48.000          41.000
 119388384.60947  93029900.44247  22718861.6834   22718863.6354   22718861.9554
        49.000          42.000
 138973633.53257  90498918.68457  24542879.0205   24542883.0835   24542879.4395
        39.000          33.000
 123683523.90047  96376768.41047  23536191.8284   23536196.3794   23536192.3164
        44.000          39.000
 126983871.28647  98948456.48347  24164238.1124   24164242.3904   24164237.5294
        43.000          39.000
 111645519.55147  86996508.87247  21245435.2954   21245437.3594   21245434.6124
        53.000          48.000
 125561139.25647  97839838.37247  23893495.6564   23893499.7914   23893495.6484
        43.000          38.000
 121665459.39547  94804246.55047  23152171.9734   23152176.5484   23152172.1914
        47.000          40.000
 119262072.20347  92931472.38947  22694826.8164   22694829.8624   22694826.6834
        49.000          43.000
 128862529.78947 100412347.78847  24521733.9654   24521736.6414   24521733.5874
        43.000          37.000
 105602694.59647  82287817.75947  20095521.2634   20095523.1604   20095521.7364
        54.000          49.000
 09  1 31  0  8 30.0000000  0 11G14G22G18G 5G29G31G 6G24G30G12G21
 118949572.18647  92687961.51547  22635365.4694   22635368.2984   22635365.9904
        48.000          42.000
 122316548.86547  95311592.62847  23276068.3434   23276068.7914   23276068.3304
        47.000          41.000
 119350338.22147  93000253.92947  22711621.8104   22711623.9254   22711621.9884
        49.000          42.000
 123688075.70547  96380315.32447  23537058.0504   23537061.7864   23537058.5634
        45.000          39.000
 127046860.78247  98997539.23047  24176224.3714   24176229.0804   24176224.2804
        43.000          39.000
 111577857.76747  86943785.44947  21232559.9664   21232561.7174   21232559.7304
        54.000          48.000
 125545883.26447  97827950.63647  23890592.2704   23890596.7314   23890592.4054
        42.000          38.000
 121751763.20347  94871496.26847  23168594.9124   23168599.7634   23168594.9294
        46.000          40.000
 119238822.74347  92913355.96547  22690402.5744   22690405.9874   22690402.3204
        50.000          43.000
 128879496.18447 100425568.44547  24524962.4334   24524965.6674   24524962.7524
        44.000          38.000
 105633765.68247  82312029.00847  20101433.8214   20101435.7934   20101434.2254
        54.000          49.000
 09  1 31  0  9  0.0000000  0 11G14G22G18G 5G29G31G 6G24G30G12G21
 118990543.57447  92719887.30147  22643162.0214   22643165.0154   22643162.5054
        49.000          43.000
 122267520.31347  95273388.61847  23266738.1624   23266739.2324   23266738.3394
        47.000          41.000
 119312298.65947  92970612.72247  22704383.1314   22704385.1854   22704383.4664
        49.000          42.000
 123692900.91247  96384075.26747  23537976.2954   23537980.1894   23537976.7284
        45.000          39.000
 127109655.94047  99046470.54047  24188174.0774   24188178.2604   24188173.6344
        43.000          39.000
 111510644.88047  86891411.81847  21219769.6804   21219771.4944   21219769.3374
        53.000          48.000
 125530837.46247  97816226.68247  23887728.8084   23887733.4224   23887728.5964
        42.000          38.000
 121838338.06047  94938957.21347  23185069.5514   23185074.0124   23185069.3284
        47.000          40.000
 119215712.06447  92895347.69247  22686005.0974   22686008.0834   22686004.8604
        49.000          43.000
 128896701.73747 100438975.44147  24528236.8034   24528240.2434   24528236.6934
        43.000          38.000
 105665435.24847  82336706.60247  20107460.2244   20107462.3614   20107460.6084
        54.000          49.000
 09  1 31  0  9 30.0000000  0 11G14G22G18G 5G29G31G 6G24G30G12G21
 119031578.85747  92751862.86447  22650970.8784   22650973.5224   22650970.9774
        49.000          43.000
 122218336.93747  95235063.93647  23257378.8624   23257379.8934   23257378.8874
        48.000          41.000
 119274268.21847  92940978.61947  22697145.7884   22697147.8724   22697146.3564
        49.000          42.000
 123698001.40347  96388049.72347  23538947.0564   23538951.1484   23538947.4754
        45.000          39.000
 127172255.72447  99095249.61147  24200086.9804   24200090.9534   24200085.9884
        43.000          39.000
 111443883.50847  86839390.01347  21207065.1844   21207067.3244   21207064.6414
        53.000          48.000
 125516000.22547  97804665.22647  23884905.2004   23884909.6124   23884905.8004
        43.000          38.000
 121925181.73747  95006627.63147  23201595.4224   23201600.0414   23201595.6294
        46.000          40.000
 119192742.70947  92877449.54247  22681633.9134   22681637.0614   22681633.4774
        49.000          43.000
 128914148.17447 100452570.17847  24531556.7564   24531559.8044   24531556.2804
        43.000          37.000
 105697701.34647  82361849.02547  20113600.3424   20113602.3254   20113600.7754
        54.000          49.000
 09  1 31  0 10  0.0000000  0 11G14G22G18G 5G29G31G 6G24G30G12G21
 119072675.23947  92783886.04647  22658791.2484   22658793.7234   22658791.3274
        48.000          43.000
 122168999.99647  95196619.59447  23247990.1774   23247991.3734   23247990.3774
        47.000          41.000
 119236248.60147  92911352.97347  22689910.7654   22689913.0864   22689911.0154
        49.000          42.000
 123703378.48947  96392239.70647  23539969.9544   23539974.4554   23539970.2904
        45.000          39.000
 127234658.83547  99143875.42847  24211961.9754   24211965.6244   24211961.9974
        45.000          39.000
 111377575.31347  86787721.33647  21194447.1274   21194449.2494   21194446.6984
        53.000          48.000
 125501369.77047  97793264.90947  23882121.3984   23882125.8194   23882121.3834
        44.000          38.000
 122012291.48347  95074505.36547  23218172.0904   23218176.7394   23218172.1674
        47.000          40.000
 119169916.64547  92859663.03747  22677289.7894   22677293.6224   22677289.8054
        49.000          43.000
 128931836.32447 100466353.23147  24534922.4594   24534925.6334   24534922.3564
        44.000          37.000
 105730562.88947  82387455.43447  20119853.5954   20119855.6044   20119854.0154
        54.000          49.000
 09  1 31  0 10 30.0000000  0 11G14G22G18G 5G29G31G 6G24G30G12G21
 119113832.60947  92815956.73647  22666622.9824   22666625.7104   22666623.1634
        48.000          42.000
 122119513.33347  95158058.59847  23238573.3644   23238574.1694   23238573.4814
        48.000          41.000
 119198244.85247  92881739.66947  22682678.8934   22682681.2284   22682679.2934
        49.000          42.000
 123709036.49847  96396648.59647  23541046.7834   23541051.0334   23541046.9704
        45.000          40.000
 127296866.92347  99192349.27747  24223799.8774   24223803.8424   24223799.4794
        44.000          39.000
 111311725.24047  86736409.63547  21181916.2624   21181918.2814   21181915.9954
        53.000          48.000
 125486947.25947  97782026.62547  23879376.6834   23879380.7874   23879377.0614
        43.000          38.000
 122099667.71247  95142590.75747  23234799.5824   23234803.9554   23234799.8464
        47.000          40.000
 119147239.28247  92841992.41747  22672974.8214   22672978.1234   22672974.8034
        49.000          43.000
 128949770.24847 100480327.81447  24538334.9034   24538338.1714   24538334.6514
        43.000          37.000
 105764021.52047  82413527.10747  20126220.6124   20126222.6854   20126221.0314
        54.000          49.000
 09  1 31  0 11  0.0000000  0 11G14G22G18G 5G29G31G 6G24G30G12G21
 119155045.72647  92848070.89147  22674465.5064   22674468.3484   22674465.5864
        48.000          42.000
 122069875.41647  95119379.74747  23229127.9704   23229128.3844   23229127.9654
        48.000          41.000
 119160256.44147  92852138.33647  22675449.8114   22675452.2494   22675450.3504
        48.000          42.000
 123714974.18747  96401275.41047  23542176.4634   23542180.9194   23542176.8774
        45.000          40.000
 127358876.00047  99240668.06947  24235599.7454   24235603.9524   24235599.5354
        44.000          39.000
 111246332.78247  86685454.51647  21169472.3914   21169474.4764   21169471.8504
        53.000          48.000
 125472728.10947  97770946.80047  23876670.9184   23876675.7164   23876670.8954
        43.000          38.000
 122187305.11447  95210879.64747  23251476.2004   23251481.0444   23251475.9714
        46.000          40.000
 119124709.45047  92824436.75247  22668687.4104   22668690.6404   22668687.0794
        49.000          43.000
 128967948.40547 100494492.68047  24541795.0204   24541797.4394   24541794.0904
        43.000          38.000
 105798072.80647  82440060.58747  20132700.2404   20132702.3744   20132700.5664
        54.000          49.000
 09  1 31  0 11 30.0000000  0 11G14G22G18G 5G29G31G 6G24G30G12G21
 119196312.73647  92880227.01547  22682318.5434   22682320.9104   22682318.6674
        48.000          42.000
 122020088.38247  95080584.69747  23219654.0094   23219653.9904   23219653.9354
        48.000          41.000
 119122286.25247  92822551.18847  22668224.5724   22668227.1264   22668224.7814
        49.000          42.000
 123721193.99047  96406122.05347  23543359.9954   23543364.5434   23543360.6734
        45.000          39.000
 127420686.01647  99288831.72647  24247362.1634   24247365.4454   24247361.6414
        44.000          39.000
 111181400.86647  86634858.26747  21157116.4014   21157118.2424   21157116.1014
        54.000          48.000
 125458711.68847  97760024.95547  23874004.4414   23874008.1994   23874004.0964
        43.000          38.000
 122275202.19347  95279370.89047  23268201.9814   23268207.1634   23268201.8364
        46.000          40.000
 119102330.73447  92806998.83247  22664428.7164   22664431.8044   22664428.5594
        49.000          43.000
 128986372.81747 100508849.44547  24545299.7934   24545303.9064   24545299.7384
        43.000          37.000
 105832716.32547  82467055.54147  20139292.7884   20139294.8574   20139293.2344
        54.000          49.000
 09  1 31  0 12  0.0000000  0 11G14G22G18G 5G29G31G 6G24G30G12G21
 119237632.22047  92912424.05047  22690181.1424   22690183.6944   22690181.3984
        48.000          42.000
 121970155.01347  95041675.62047  23210151.7954   23210151.9964   23210151.9044
        48.000          41.000
 119084337.61847  92792980.84247  22661003.2604   22661005.5604   22661003.5544
        49.000          42.000
 123727698.78747  96411190.78147  23544597.6014   23544601.8134   23544598.4444
        46.000          39.000
 127482297.20247  99336840.47147  24259086.4514   24259089.4814   24259086.5524
        44.000          39.000
 111116933.02047  86584623.61947  21144848.4764   21144850.2864   21144847.9184
        54.000          48.000
 125444897.58147  97749260.77347  23871375.2544   23871379.5854   23871375.1534
        44.000          38.000
 122363357.38847  95348063.26847  23284977.1854   23284982.2474   23284977.3294
        46.000          40.000
 119080106.32947  92789681.16447  22660199.5694   22660202.4884   22660199.1514
        49.000          43.000
 129005045.96547 100523400.00547  24548854.3954   24548857.0954   24548853.9894
        43.000          37.000
 105867951.91047  82494511.84847  20145997.9184   20145999.9534   20145998.3274
        54.000          49.000
 09  1 31  0 12 30.0000000  0 11G14G22G18G 5G29G31G 6G24G30G12G21
 119279000.82247  92944659.34147  22698053.6704   22698056.1824   22698053.7554
        48.000          42.000
 121920075.34747  95002652.53447  23200621.4684   23200622.2644   23200621.8194
        47.000          41.000
 119046411.97447  92763428.43047  22653786.4134   22653788.5714   22653786.7704
        50.000          42.000
 123734489.02247  96416481.91647  23545890.3534   23545894.0294   23545890.9684
        46.000          39.000
 127543706.97247  99384692.25447  24270771.4774   24270775.0824   24270771.5824
        44.000          38.000
 111052930.33147  86534751.43947  21132669.3254   21132670.7704   21132669.0594
        54.000          48.000
 125431283.22447  97738652.22547  23868784.7604   23868788.1544   23868784.9934
        44.000          38.000
 122451767.32047  95416954.12747  23301801.0884   23301805.9434   23301801.3914
        45.000          40.000
 119058037.32147  92772484.58147  22655999.9484   22656003.0224   22655999.5234
        49.000          43.000
 129023968.34547 100538144.79347  24552454.6254   24552456.9054   24552454.2294
        43.000          37.000
 105903777.30747  82522427.75147  20152815.2204   20152817.2564   20152815.6204
        54.000          49.000
 09  1 31  0 13  0.0000000  0 11G14G22G18G 5G29G31G 6G24G30G12G21
 119320417.60647  92976932.18347  22705934.9804   22705937.3174   22705934.9664
        48.000          42.000
 121869852.57347  94963517.93947  23191064.5964   23191064.8574   23191064.5264
        47.000          41.000
 119008513.20847  92733896.92547  22646574.2904   22646576.7954   22646574.8594
        49.000          42.000
 123741568.28147  96421998.26947  23547236.8074   23547241.1684   23547237.5054
        45.000          39.000
 127604916.73647  99432388.20247  24282419.3794   24282423.2124   24282419.2674
        43.000          38.000
 110989396.84747  86485244.86847  21120579.2954   21120580.7164   21120578.7824
        54.000          48.000
 125417868.74747  97728199.43247  23866231.7034   23866235.7024   23866231.8564
        44.000          38.000
 122540431.41447  95486043.04847  23318673.3844   23318677.8964   23318673.5024
        46.000          40.000
 119036128.20047  92755412.58447  22651830.6494   22651833.9424   22651830.5604
        49.000          43.000
 129043143.05847 100553086.19947  24556102.3784   24556105.8294   24556101.9524
        42.000          37.000
 105940193.17247  82550803.76247  20159744.7154   20159747.0374   20159745.0584
        54.000          49.000
 09  1 31  0 13 30.0000000  0 11G14G22G18G 5G29G31G 6G24G30G12G21
 119361876.44347  93009237.79247  22713824.2054   22713826.6334   22713824.2924
        48.000          42.000
 121819484.50847  94924270.12947  23181479.8764   23181480.1264   23181480.0004
        47.000          41.000
 118970639.95347  92704385.31447  22639367.2214   22639369.7334   22639367.6614
        49.000          42.000
 123748934.44847  96427738.19547  23548639.0954   23548642.4054   23548639.6354
        45.000          39.000
 127665921.84447  99479924.67247  24294028.4214   24294032.0354   24294027.6874
        44.000          38.000
 110926331.02447  86436102.70647  21108578.2044   21108579.6414   21108577.8804
        54.000          48.000
 125404649.01247  97717898.35247  23863716.5984   23863719.7324   23863716.4384
        44.000          38.000
 122629343.71147  95555325.37347  23335592.6534   23335597.3574   23335592.6894
        45.000          39.000
 119014377.67147  92738464.15247  22647691.8514   22647694.7744   22647691.5504
        50.000          43.000
 129062567.68647 100568222.33947  24559799.3014   24559801.9514   24559798.9124
        43.000          37.000
 105977194.11647  82579635.67647  20166785.8004   20166788.0204   20166786.2344
        54.000          49.000
 09  1 31  0 14  0.0000000  0 11G14G22G18G 5G29G31G 6G24G30G12G21
 119403380.53147  93041578.65447  22721722.1164   22721724.5704   22721722.3174
        47.000          42.000
 121768978.01347  94884914.47447  23171868.4794   23171869.3744   23171868.6174
        47.000          40.000
 118932800.14547  92674899.76247  22632166.2804   22632168.8994   22632166.7544
        49.000          42.000
 123756594.62647  96433707.21047  23550096.3314   23550100.1354   23550097.0954
        45.000          39.000
 127726726.81447  99527305.18747  24305599.5064   24305602.7724   24305599.0984
        43.000          38.000
 110863740.71547  86387331.07247  21096667.5314   21096669.1294   21096667.0974
        53.000          48.000
 125391627.78547  97707751.99247  23861237.9514   23861241.7974   23861237.9634
        43.000          38.000
 122718507.30947  95624803.50847  23352560.0454   23352564.9504   23352560.2654
        46.000          39.000
 118992793.25047  92721645.16947  22643584.6514   22643587.6574   22643584.3124
        49.000          43.000
 129082248.94547 100583558.44147  24563544.2884   24563547.5224   24563544.3754
        42.000          37.000
 106014784.47347  82608926.87747  20173939.1624   20173941.2014   20173939.5624
        55.000          49.000
 09  1 31  0 14 30.0000000  0 11G14G22G18G 5G29G31G 6G24G30G12G21
 119444920.73947  93073947.69347  22729626.9374   22729629.1384   22729627.2054
        48.000          42.000
 121718328.16147  94845447.08647  23162229.8454   23162231.1854   23162230.0244
        47.000          40.000
 118894989.19147  92645436.70547  22624970.9994   22624973.5604   22624971.4804
        49.000          42.000
 123764543.87747  96439901.49747  23551608.9914   23551612.7714   23551609.4614
        45.000          39.000
 127787324.04747  99574523.82447  24317130.2684   24317134.4034   24317129.9794
        44.000          38.000
 110801621.31147  86338926.37747  21084846.4054   21084848.3704   21084846.0654
        53.000          48.000
 125378797.08547  97697754.08647  23858797.0344   23858800.3754   23858797.1794
        44.000          38.000
 122807913.15147  95694470.41047  23369572.9804   23369577.7114   23369573.1544
        45.000          39.000
 118971370.59247  92704952.24747  22639507.7834   22639510.8344   22639507.6014
        50.000          43.000
 129102181.79047 100599090.61947  24567338.1174   24567340.4174   24567337.5334
        42.000          37.000
 106052955.96547  82638670.90847  20181202.9814   20181205.0204   20181203.4104
        54.000          49.000
 09  1 31  0 15  0.0000000  0 11G14G22G18G 5G29G31G 6G24G30G12G21
 119486498.60047  93106346.04547  22737538.6764   22737541.5224   22737538.9494
        48.000          42.000
 121667540.06047  94805871.97747  23152565.7674   23152566.1434   23152565.4924
        47.000          40.000
 118857213.39447  92616001.04747  22617782.7024   22617784.8364   22617783.1254
        49.000          42.000
 123772787.58647  96446325.20847  23553177.7684   23553181.6064   23553177.9124
        46.000          39.000
 127847716.55647  99621582.93947  24328622.8224   24328626.4954   24328622.4994
        43.000          38.000
 110739978.80147  86290893.29047  21073116.0444   21073118.1764   21073115.6844
        54.000          48.000
 125366158.95247  97687906.22447  23856391.6884   23856395.7604   23856391.5454
        44.000          38.000
 122897562.30847  95764326.92347  23386632.5024   23386637.6134   23386632.4054
        46.000          39.000
 118950116.09547  92688390.34647  22635463.5414   22635466.1124   22635462.9354
        50.000          43.000
 129122371.23247 100614822.72447  24571179.2864   24571182.2484   24571179.2284
        42.000          37.000
 106091711.48447  82668870.02447  20188577.9064   20188580.1454   20188578.3244
        54.000          49.000
 09  1 31  0 15 30.0000000  0 11G14G22G18G 5G29G31G 6G24G30G12G21
 119528113.08147  93138772.92647  22745458.0654   22745460.5854   22745458.6074
        48.000          42.000
 121616616.91147  94766191.63447  23142875.4444   23142875.4104   23142875.5034
        47.000          41.000
 118819476.85947  92586595.95547  22610601.7574   22610604.0364   22610602.2914
        50.000          42.000
 123781329.11147  96452980.99147  23554802.9844   23554807.4154   23554803.5654
        45.000          39.000
 127907905.14047  99668483.15747  24340076.2074   24340080.1524   24340075.4624
        43.000          38.000
 110678817.34247  86243235.04147  21061477.4814   21061479.2744   21061477.0024
        54.000          48.000
 125353713.82647  97678208.74147  23854023.4964   23854027.3514   23854023.9304
        44.000          38.000
 122987454.43047  95834372.73547  23403738.9164   23403743.3364   23403739.1274
        45.000          39.000
 118929033.79947  92671962.62247  22631451.4674   22631454.6074   22631451.3634
        50.000          43.000
 129142820.09547 100630756.97547  24575070.7844   24575073.5564   24575070.8454
        43.000          37.000
 106131051.10647  82699524.28847  20196064.1374   20196066.1214   20196064.5274
        54.000          49.000
 09  1 31  0 16  0.0000000  0 11G14G22G18G 5G29G31G 6G24G30G12G21
 119569758.22047  93171223.70747  22753382.8704   22753385.3354   22753383.1834
        48.000          42.000
 121565556.80247  94726404.56547  23133158.8924   23133159.2364   23133158.9684
        47.000          41.000
 118781778.57247  92557220.66447  22603428.3054   22603430.0154   22603428.8664
        50.000          42.000
 123790166.65047  96459867.42147  23556484.8684   23556488.8664   23556484.8654
        45.000          39.000
 127967885.60347  99715221.20947  24351489.9114   24351493.5664   24351489.3904
        44.000          38.000
 110618135.11647  86195950.22147  21049930.1384   21049931.8724   21049929.7584
        54.000          48.000
 125341456.32747  97668657.48647  23851690.9314   23851694.8254   23851690.5704
        44.000          38.000
 123077583.76547  95904603.38947  23420890.1004   23420894.5144   23420890.1414
        45.000          39.000
 118908122.40847  92655668.08047  22627472.0914   22627474.7964   22627471.5824
        49.000          43.000
 129163526.12047 100646891.62847  24579011.3384   24579013.2824   24579010.8234
        41.000          37.000
 106170969.89547  82730629.84847  20203660.3784   20203662.2724   20203660.8704
        54.000          49.000
 09  1 31  0 16 30.0000000  0 11G14G22G18G 5G29G31G 6G24G30G12G21
 119611433.61647  93203698.06347  22761312.7724   22761315.7344   22761313.0294
        47.000          42.000
 121514362.93947  94686513.27547  23123417.4034   23123417.4624   23123417.5584
        48.000          41.000
 118744122.66147  92527878.41847  22596262.4214   22596264.1594   22596262.7864
        49.000          42.000
 123799303.48047  96466987.07147  23558223.7724   23558227.9234   23558224.0974
        46.000          39.000
 128027659.01847  99761797.92647  24362863.8564   24362867.9814   24362864.3004
        43.000          37.000
 110557936.21847  86149042.01947  21038474.6874   21038476.3494   21038474.3544
        54.000          48.000
 125329386.97647  97659252.82047  23849394.3454   23849398.1324   23849394.4034
        44.000          38.000
 123167949.88447  95975018.56747  23438085.8754   23438090.7074   23438085.8144
        46.000          39.000
 118887386.28647  92639510.10547  22623526.0224   22623529.2144   22623525.6994
        50.000          43.000
 129184492.69947 100663229.30147  24583001.0474   24583004.0664   24583000.6324
        42.000          37.000
 106211468.13647  82762186.93547  20211366.8834   20211368.8604   20211367.1934
        55.000          49.000
 09  1 31  0 17  0.0000000  0 11G14G22G18G 5G29G31G 6G24G30G12G21
 119653136.55147  93236193.88047  22769248.9334   22769251.8294   22769249.1804
        48.000          42.000
 121463036.96647  94646519.04947  23113650.1464   23113650.2024   23113650.4524
        48.000          41.000
 118706511.23647  92498570.83147  22589105.3344   22589107.0214   22589105.7774
        49.000          42.000
 123808741.00047  96474341.03747  23560019.2504   23560023.5134   23560019.9744
        45.000          39.000
 128087224.10847  99808212.31747  24374199.1014   24374203.1554   24374198.5704
        42.000          37.000
 110498222.81047  86102512.12047  21027111.6424   21027113.4364   21027111.3684
        54.000          48.000
 125317503.86947  97649993.29847  23847132.6314   23847136.7064   23847132.6574
        44.000          38.000
 123258549.88247  96045615.97447  23455326.7394   23455331.5274   23455326.7064
        46.000          39.000
 118866827.70547  92623490.47847  22619613.6674   22619616.8694   22619613.4294
        50.000          43.000
 129205720.79347 100679770.75047  24587040.3834   24587042.6384   24587040.5624
        42.000          37.000
 106252544.11147  82794194.19747  20219183.3364   20219185.1854   20219183.7374
        54.000          49.000
 09  1 31  0 17 30.0000000  0 11G14G22G18G 5G29G31G 6G24G30G12G21
 119694864.48247  93268709.17147  22777189.9114   22777192.2364   22777190.3194
        48.000          42.000
 121411580.02847  94606422.76047  23103857.9304   23103858.2284   23103857.9234
        48.000          41.000
 118668946.37847  92469299.52747  22581956.7414   22581958.7244   22581957.0574
        49.000          43.000
 123818480.71847  96481930.47847  23561872.5414   23561876.6174   23561872.8864
        45.000          39.000
 128146580.02247  99854463.70947  24385493.8224   24385498.4394   24385493.9984
        42.000          37.000
 110438996.54347  86056361.81747  21015841.0594   21015842.9214   21015840.8044
        54.000          48.000
 125305805.14747  97640877.45847  23844905.8414   23844910.4084   23844906.1554
        43.000          38.000
 123349381.13947  96116393.59447  23472611.5484   23472616.1064   23472611.7774
        46.000          39.000
 118846448.67847  92607610.76147  22615735.8664   22615739.4634   22615735.4754
        49.000          43.000
 129227211.44147 100696516.77847  24591129.6834   24591132.0464   24591129.5814
        42.000          36.000
 106294196.17847  82826650.36747  20227109.3484   20227111.4474   20227109.6764
        54.000          49.000
 09  1 31  0 18  0.0000000  0 11G14G22G18G 5G29G31G 6G24G30G12G21
 119736614.88847  93301241.98647  22785134.6344   22785137.0494   22785134.6274
        48.000          42.000
 121359993.75347  94566225.68747  23094041.3954   23094042.2604   23094041.3274
        47.000          41.000
 118631430.28647  92440066.22447  22574817.8974   22574820.0024   22574818.4244
        49.000          42.000
 123828523.93047  96489756.41547  23563783.3984   23563788.0624   23563783.6174
        44.000          39.000
 128205725.83647  99900551.36847  24396749.1414   24396753.2074   24396749.0154
        42.000          37.000
 110380259.57747  86010592.78047  21004663.6564   21004665.6444   21004663.2414
        53.000          48.000
 125294289.43447  97631904.21247  23842715.1134   23842719.1444   23842715.3674
        43.000          38.000
 123440441.21447  96187349.50847  23489940.0604   23489943.9104   23489940.0584
        46.000          39.000
 118826251.75447  92591872.94147  22611892.2134   22611895.0964   22611892.1774
        49.000          43.000
 129248965.99947 100713468.45947  24595269.2914   24595271.9654   24595269.4314
        42.000          36.000
 106336422.60847  82859554.09047  20235144.8964   20235146.8854   20235145.3404
        54.000          49.000
 09  1 31  0 18 30.0000000  0 11G14G22G18G 5G29G31G 6G24G30G12G21
 119778384.71247  93333789.92347  22793082.9494   22793085.5614   22793083.2274
        48.000          42.000
 121308278.87047  94525928.40447  23084200.4724   23084201.2584   23084200.5654
        48.000          41.000
 118593964.81847  92410872.37747  22567688.3394   22567690.7294   22567688.6774
        50.000          43.000
 123838871.47047  96497819.45347  23565752.4904   23565756.6454   23565753.0584
        45.000          39.000
 128264660.05547  99946474.17747  24407963.8204   24407968.1184   24407963.8264
        42.000          38.000
 110322012.96747  85965205.84547  20993579.8324   20993581.6434   20993579.3494
        54.000          48.000
 125282954.05147  97623071.48247  23840557.9274   23840562.1024   23840557.9324
        43.000          38.000
 123531726.87747  96258481.21447  23507310.6374   23507315.4524   23507310.7434
        46.000          39.000
 118806238.13447  92576277.97147  22608083.6744   22608086.6904   22608083.3104
        49.000          43.000
 129270984.81947 100730626.04147  24599459.6434   24599461.1714   24599459.3754
        43.000          36.000
 106379221.15247  82892903.61547  20243288.9954   20243291.2054   20243289.3384
        54.000          49.000
 09  1 31  0 19  0.0000000  0 11G14G22G18G 5G29G31G 6G24G30G12G21
 119820172.78447  93366352.07647  22801035.0144   22801037.5104   22801035.2034
        48.000          42.000
 121256438.17347  94485533.07247  23074335.4474   23074336.3254   23074335.6114
        48.000          41.000
 118556553.64647  92381720.82047  22560568.9204   22560571.1104   22560569.4804
        50.000          43.000
 123849526.17647  96506121.85547  23567780.0754   23567784.3684   23567780.7574
        45.000          39.000
 128323383.06147  99992232.39447  24419139.2604   24419142.6344   24419139.0134
        43.000          38.000
 110264260.08147  85920203.62447  20982590.0624   20982591.4894   20982589.7584
        54.000          48.000
 125271798.74247  97614379.07147  23838435.0484   23838439.3324   23838434.7754
        43.000          38.000
 123623236.84847  96329787.69847  23524724.3814   23524729.3684   23524724.9634
        46.000          39.000
 118786411.43547  92560828.64147  22604311.1474   22604313.5154   22604310.7664
        50.000          43.000
 129293270.36047 100747991.46647  24603699.9054   24603702.4964   24603699.4774
        41.000          36.000
 106422591.53247  82926698.72947  20251542.0724   20251544.2124   20251542.4154
        54.000          49.000
 09  1 31  0 19 30.0000000  0 11G14G22G18G 5G29G31G 6G24G30G12G21
 119861975.41347  93398925.57847  22808989.7394   22808992.2204   22808989.9764
        49.000          42.000
 121204471.87447  94445039.88747  23064446.3994   23064446.9844   23064446.3304
        47.000          41.000
 118519197.69747  92352612.29547  22553460.7094   22553462.7694   22553460.9884
        50.000          43.000
 123860488.13647  96514663.67047  23569866.3724   23569869.8834   23569866.8264
        46.000          39.000
 128381892.94547 100037824.55947  24430273.3424   24430276.3584   24430273.1554
        43.000          38.000
 110207001.67547  85875586.71347  20971693.8914   20971695.6624   20971693.3204
        54.000          48.000
 125260820.50247  97605824.61747  23836345.8484   23836350.3304   23836345.8054
        43.000          38.000
 123714967.38547  96401266.02547  23542180.4484   23542184.8154   23542180.9484
        45.000          39.000
 118766772.80747  92545525.84847  22600573.9254   22600576.6914   22600573.4724
        50.000          43.000
 129315822.27147 100765564.46747  24607991.2694   24607994.0184   24607990.7344
        41.000          36.000
 106466530.64047  82960937.00747  20259903.4844   20259905.5334   20259903.9744
        54.000          49.000
 09  1 31  0 20  0.0000000  0 11G14G22G18G 5G29G31G 6G24G30G12G21
 119903792.78047  93431510.57247  22816947.7554   22816949.8864   22816947.9574
        49.000          42.000
 121152384.35847  94404452.25147  23054534.4574   23054535.2844   23054534.4844
        48.000          41.000
 118481901.89547  92323550.64547  22546363.3504   22546365.4374   22546363.8604
        50.000          43.000
 123871761.55147  96523448.19747  23572012.0054   23572015.5294   23572012.8214
        46.000          39.000
 128440191.66147 100083252.14947  24441367.1494   24441369.7874   24441367.4274
        43.000          38.000
 110150242.30247  85831358.66147  20960892.9094   20960894.5734   20960892.7004
        54.000          48.000
 125250020.48847  97597409.05047  23834291.5044   23834294.7524   23834291.2794
        44.000          38.000
 123806918.82447  96472916.50747  23559678.0724   23559682.3804   23559677.9774
        45.000          39.000
 118747327.29947  92530373.55247  22596873.4594   22596876.3434   22596873.0134
        50.000          43.000
 129338644.47047 100783348.03247  24612333.8424   24612336.7434   24612333.4214
        42.000          36.000
 106511039.28547  82995619.08047  20268373.2974   20268375.3274   20268373.7574
        55.000          49.000
 09  1 31  0 20 30.0000000  0 11G14G22G18G 5G29G31G 6G24G30G12G21
 119945620.68347  93464103.76847  22824907.2164   22824909.3914   22824907.3764
        48.000          42.000
 121100175.46047  94363770.02147  23044599.3524   23044599.9184   23044599.3794
        48.000          42.000
 118444667.06747  92294536.50847  22539277.5874   22539279.9874   22539278.0144
        49.000          43.000
 123883346.11647  96532475.16947  23574216.2724   23574220.2884   23574216.9084
        46.000          40.000
 128498276.40247 100128512.99747  24452420.2094   24452423.3394   24452420.5374
        44.000          38.000
 110093982.18047  85787519.63047  20950186.7574   20950188.5404   20950186.2914
        54.000          48.000
 125239395.08947  97589129.57147  23832268.8504   23832273.0524   23832269.2874
        44.000          38.000
 123899086.74047  96544735.67747  23577216.8974   23577221.7004   23577217.1444
        46.000          39.000
 118728075.33147  92515372.05847  22593209.7264   22593212.6814   22593209.5594
        50.000          43.000
 129361736.43547 100801341.82947  24616728.2004   24616730.8704   24616728.1594
        42.000          36.000
 106556114.33747  83030742.50947  20276950.7264   20276952.7864   20276951.1794
        54.000          49.000
 09  1 31  0 21  0.0000000  0 11G14G22G18G 5G29G31G 6G24G30G12G21
 119987455.13947  93496702.07147  22832867.8784   22832870.2534   22832867.9774
        48.000          42.000
 121047845.17447  94322993.19847  23034640.8984   23034641.8784   23034640.9134
        47.000          42.000
 118407493.80547  92265570.35347  22532203.5784   22532206.2184   22532203.6734
        49.000          42.000
 123895241.82047  96541744.58947  23576479.9014   23576483.2884   23576480.5824
        46.000          39.000
 128556145.20947 100173605.62147  24463432.1234   24463434.9024   24463431.7504
        43.000          38.000
 110038221.74447  85744069.96447  20939575.9384   20939577.8294   20939575.6364
        54.000          48.000
 125228941.45847  97580983.91347  23830279.5404   23830283.9244   23830279.8344
        44.000          38.000
 123991467.62047  96616720.79147  23594796.3354   23594800.5124   23594796.9374
        45.000          39.000
 118709017.58147  92500521.89947  22589583.3254   22589586.1694   22589582.8504
        50.000          43.000
 129385097.95447 100819545.66947  24621173.2544   24621177.2434   24621173.3364
        41.000          36.000
 106601752.54947  83066304.76147  20285635.4264   20285637.3794   20285635.9204
        54.000          49.000
 09  1 31  0 21 30.0000000  0 11G14G22G18G 5G29G31G 6G24G30G12G21
 120029296.07547  93529305.42347  22840829.9614   22840832.3854   22840830.2824
        48.000          42.000
 120995397.07347  94282124.56147  23024660.4654   23024661.2814   23024660.4244
        48.000          42.000
 118370386.83947  92236655.84847  22525142.4404   22525145.0574   22525142.7304
        49.000          43.000
 123907452.13647  96551259.17247  23578803.1274   23578807.6144   23578803.4214
        45.000          39.000
 128613799.26247 100218530.88147  24474403.1974   24474406.3624   24474402.8124
        43.000          38.000
 109982964.86247  85701012.68047  20929060.8034   20929062.6914   20929060.2214
        53.000          48.000
