     2.11           OBSERVATION DATA    G (GPS)             RINEX VERSION / TYPE
teqc  2013Mar15     gpsops              20140503 00:38:10UTCPGM / RUN BY / DATE
Linux 2.4.21-27.ELsmp|Opteron|gcc -static|Linux x86_64|=+   COMMENT
BIT 2 OF LLI FLAGS DATA COLLECTED UNDER A/S CONDITION       COMMENT
GLPS                                                        MARKER NAME
42005M002                                                   MARKER NUMBER
GGN                 JPL                                     OBSERVER / AGENCY
ZR220013847         ASHTECH UZ-12       CQ00                REC # / TYPE / VERS
CR519992104         ASH701945B_M    SCIT                    ANT # / TYPE
   -33801.4662 -6377516.5323   -82154.3508                  APPROX POSITION XYZ
        0.0083        0.0000        0.0000                  ANTENNA: DELTA H/E/N
     1     1                                                WAVELENGTH FACT L1/2
     7    L1    L2    P1    P2    C1    S1    S2            # / TYPES OF OBSERV
    30.0000                                                 INTERVAL
                                                            COMMENT
This data is provided as a public service by NASA/JPL.      COMMENT
No warranty is expressed or implied regarding suitability   COMMENT
for use.  For further information, contact:                 COMMENT
Dave Stowers, NASA/JPL m/s 238-600                          COMMENT
4800 Oak Grove Drive, Pasadena CA 91109 USA                 COMMENT
                                                            COMMENT
Forced Modulo Decimation to 30 seconds                      COMMENT
 SNR is mapped to RINEX snr flag value [0-9]                COMMENT
  L1 & L2: min(max(int(snr_dBHz/6), 0), 9)                  COMMENT
pseudorange smoothing corrections not applied               COMMENT
  2014     5     2     0     0    0.0000000     GPS         TIME OF FIRST OBS
                                                            END OF HEADER
 14  5  2  0  0  0.0000000  0 12G23G04G17G01G10G13G20G11G08G07G28G09
   3911466.73546   3065888.22546  24593592.7614   24593599.5414   24593593.332
        41.0004         36.0004
 -12338453.54747  -9566389.97946  23219899.2424   23219907.7784   23219899.134
        45.0004         40.0004
 -17471609.42248 -13563557.03147  21889554.8144   21889563.7024   21889555.131
        51.0004         47.0004
 -13755449.24648 -10692503.57647  22002521.3234   22002532.8584   22002520.913
        49.0004         44.0004
  -2695711.93346  -2095533.38046  24962323.9674   24962337.8074   24962323.753
        41.0004         36.0004
   5058648.36047   3932629.66647  22368418.6734   22368425.7934   22368418.234
        47.0004         42.0004
  -3101986.67647  -2372999.83246  23674625.5844   23674633.4794   23674625.695
        43.0004         39.0004
  -9545880.57947  -7414878.55646  23397612.4494   23397621.4404   23397612.540
        44.0004         39.0004
 -18802616.84048 -14607735.47047  21176522.5814   21176531.8654   21176523.104
        51.0004         47.0004
 -26069528.24849 -20287372.74548  20199225.1684   20199231.2844   20199224.639
        54.0004         49.0004
     40711.87346     66837.48446  24385735.3134   24385747.4774   24385735.952
        41.0004         37.0004
 -15337288.42748 -11905438.09947  21182191.4574   21182199.9554   21182191.812
        51.0004         46.0004
 14  5  2  0  0 30.0000000  0 12G23G04G17G01G10G13G20G11G08G07G28G09
   3999412.72146   3134417.72146  24610329.6514   24610335.8534   24610329.088
        41.0004         36.0004
 -12438194.46847  -9644110.00846  23200919.1684   23200928.5094   23200918.279
        45.0004         41.0004
 -17453078.85448 -13549117.58447  21893081.9994   21893089.3884   21893081.336
        51.0004         46.0004
 -13692959.74448 -10643810.47047  22014412.8044   22014424.3664   22014412.009
        49.0004         44.0004
  -2724484.82146  -2117953.64946  24956845.6604   24956858.2094   24956847.632
        41.0004         36.0004
   5140257.52447   3996221.24047  22383949.3104   22383955.5624   22383947.489
        47.0004         42.0004
  -3107327.00447  -2377161.02046  23673608.5494   23673616.7954   23673609.285
        43.0004         39.0004
  -9449225.38847  -7339562.79046  23416006.1904   23416014.9364   23416005.626
        44.0004         39.0004
 -18883483.68248 -14670748.47447  21161134.2334   21161142.4594   21161134.475
        51.0004         47.0004
 -26091148.15849 -20304219.35148  20195110.8524   20195116.7754   20195110.528
        54.0004         49.0004
     21390.55446     51782.06146  24382059.6104   24382071.4634   24382059.149
        41.0004         37.0004
 -15415108.92648 -11966077.31547  21167383.3524   21167391.8624   21167383.106
        51.0004         46.0004
 14  5  2  0  1  0.0000000  0 12G23G04G17G01G10G13G20G11G08G07G28G09
   4087182.09746   3202809.56546  24627030.8474   24627037.5784   24627030.775
        41.0004         36.0004
 -12537843.21347  -9721758.21046  23181956.6584   23181965.5414   23181956.010
        45.0004         41.0004
 -17434212.13348 -13534416.19747  21896671.7054   21896679.9134   21896671.347
        51.0004         46.0004
 -13630024.13848 -10594769.75047  22026389.3194   22026400.3744   22026388.579
        49.0004         44.0004
  -2753497.82746  -2140561.02046  24951325.0594   24951339.0524   24951327.818
        41.0004         37.0004
   5221923.87147   4059857.38547  22399488.3894   22399496.1324   22399488.385
        47.0004         42.0004
  -3112632.85147  -2381295.33846  23672598.1134   23672607.7114   23672599.189
        43.0004         39.0004
  -9352356.27047  -7264080.31746  23434438.4204   23434448.1984   23434438.950
        44.0004         39.0004
 -18964029.39848 -14733511.24747  21145806.7804   21145815.5114   21145806.941
        52.0004         47.0004
 -26112213.74349 -20320634.01648  20191102.3524   20191108.6614   20191101.727
        54.0004         49.0004
      1783.40047     36503.91946  24378327.2154   24378339.4294   24378327.490
        42.0004         37.0004
 -15492573.24848 -12026438.97747  21152641.7524   21152650.3364   21152641.983
        51.0004         46.0004
 14  5  2  0  1 30.0000000  0 12G23G04G17G01G10G13G20G11G08G07G28G09
   4174774.38546   3271063.43546  24643697.6274   24643708.6514   24643699.488
        41.0004         36.0004
 -12637396.49747  -9799332.03046  23163011.7434   23163021.7454   23163011.575
        45.0004         41.0004
 -17415010.19348 -13519453.60447  21900326.1484   21900333.7044   21900325.716
        51.0004         46.0004
 -13566642.89748 -10545381.78847  22038450.2104   22038460.6924   22038449.511
        49.0004         44.0004
  -2782750.42046  -2163355.07946  24945761.1064   24945774.0984   24945761.141
        41.0004         37.0004
   5303645.58747   4123536.66447  22415039.3944   22415046.4944   22415039.407
        47.0004         42.0004
  -3117901.51847  -2385400.68846  23671596.4984   23671605.4464   23671596.569
        43.0004         39.0004
  -9255274.98247  -7188432.52246  23452912.2574   23452921.3224   23452912.846
        44.0004         39.0004
 -19044249.61748 -14796020.38747  21130541.1174   21130550.0274   21130541.811
        52.0004         47.0004
 -26132722.41249 -20336614.71648  20187199.5824   20187205.5254   20187198.949
        54.0004         49.0004
    -18108.28547     21004.07746  24374542.2944   24374556.1854   24374541.781
        42.0004         37.0004
 -15569677.22048 -12086519.85347  21137969.4724   21137977.8554   21137969.216
        51.0004         46.0004
 14  5  2  0  2  0.0000000  0 12G23G04G17G01G10G13G20G11G08G07G28G09
   4262186.67546   3339177.01646  24660333.9124   24660338.3544   24660333.215
        40.0004         36.0004
 -12736853.12347  -9876830.54346  23144086.8674   23144095.6754   23144085.056
        46.0004         41.0004
 -17395477.00048 -13504232.89747  21904042.4014   21904051.3454   21904042.266
        51.0004         47.0004
 -13502819.23348 -10495649.06447  22050594.8314   22050607.4954   22050594.472
        49.0004         44.0004
  -2812244.66046  -2186337.43846  24940147.5384   24940161.6884   24940148.663
        41.0004         37.0004
   5385418.27747   4187255.65647  22430601.4574   22430606.8754   22430600.289
        47.0004         42.0004
  -3123132.79447  -2389476.91546  23670600.1644   23670609.7254   23670601.864
        43.0004         39.0004
  -9157985.87147  -7112622.78846  23471425.9964   23471434.9744   23471426.035
        43.0004         39.0004
 -19124142.72248 -14858274.63247  21115338.0004   21115346.8654   21115338.252
        52.0004         47.0004
 -26152674.30749 -20352161.57148  20183402.7774   20183408.9424   20183402.244
        54.0004         49.0004
    -38286.18846      5281.20846  24370701.4624   24370714.8304   24370702.200
        41.0004         37.0004
 -15646419.62848 -12146318.97647  21123366.3794   21123374.5914   21123365.729
        51.0004         46.0004
 14  5  2  0  2 30.0000000  0 12G23G04G17G01G10G13G20G11G08G07G28G09
   4349415.13646   3407147.33946  24676933.1884   24676938.4474   24676931.247
        40.0004         36.0004
 -12836212.17547  -9954253.01646  23125178.2984   23125188.1804   23125178.110
        46.0004         41.0004
 -17375616.35648 -13488757.02947  21907822.2154   21907830.1534   21907821.986
        51.0004         47.0004
 -13438556.50548 -10445574.22847  22062823.6994   22062835.1344   22062823.848
        49.0004         44.0004
  -2841982.64946  -2209509.74746  24934487.5884   24934500.5074   24934489.177
        41.0004         37.0004
   5467237.56647   4251010.97447  22446171.6034   22446176.2044   22446169.467
        47.0004         42.0004
  -3128326.42447  -2393523.80346  23669612.3434   23669621.6834   23669612.393
        43.0004         39.0004
  -9060492.83047  -7036654.13746  23489978.8304   23489988.3894   23489978.191
        43.0004         38.0004
 -19203706.73048 -14920272.44247  21100197.6864   21100205.7184   21100197.928
        52.0004         47.0004
 -26172069.40349 -20367274.55548  20179712.0154   20179717.8934   20179711.548
        54.0004         49.0004
    -58752.21546    -10666.18246  24366807.4894   24366819.8404   24366807.243
        41.0004         36.0004
 -15722799.13448 -12205835.33847  21108831.5924   21108838.8534   21108831.073
        51.0004         46.0004
 14  5  2  0  3  0.0000000  0 12G23G04G17G01G10G13G20G11G08G07G28G09
   4436463.69046   3474977.46246  24693495.6444   24693502.4714   24693496.415
        41.0004         36.0004
 -12935465.50547 -10031593.10946  23106290.2514   23106300.2264   23106290.443
        46.0004         41.0004
 -17355425.27648 -13473023.68147  21911664.4824   21911672.4104   21911663.719
        51.0004         47.0004
 -13373850.95148 -10395154.33147  22075137.4104   22075148.0964   22075136.466
        49.0004         44.0004
  -2871959.64846  -2232868.27946  24928782.9094   24928795.9084   24928784.615
        41.0004         37.0004
   5549105.85647   4314804.47447  22461750.4774   22461757.0774   22461748.744
        47.0004         42.0004
  -3133475.26947  -2397535.78846  23668632.7294   23668640.7064   23668633.582
        43.0004         39.0004
  -8962793.21747  -6960524.51646  23508570.3584   23508580.5084   23508569.777
        43.0004         38.0004
 -19282932.92448 -14982007.02047  21085120.8594   21085129.4084   21085121.662
        52.0004         47.0004
 -26190901.18749 -20381948.59748  20176128.2904   20176134.2914   20176127.803
        54.0004         49.0004
    -79500.73446    -26833.66146  24362861.1054   24362869.6874   24362859.558
        41.0004         37.0004
 -15798807.53848 -12265062.52947  21094367.0024   21094374.9724   21094366.863
        51.0004         46.0004
 14  5  2  0  3 30.0000000  0 12G23G04G17G01G10G13G20G11G08G07G28G09
   4523326.72446   3542663.04046  24710024.6854   24710031.7984   24710026.197
        41.0004         36.0004
 -13034614.86347 -10108852.18846  23087423.3834   23087432.3424   23087422.448
        46.0004         41.0004
 -17334910.09548 -13457037.78947  21915568.0404   21915576.3104   21915567.905
        51.0004         46.0004
 -13308708.44648 -10344393.95547  22087533.4194   22087545.1594   22087532.746
        49.0004         44.0004
  -2902180.33446  -2256416.70446  24923030.7284   24923045.4974   24923032.694
        41.0004         36.0004
   5631016.03247   4378630.59847  22477336.1634   22477342.3924   22477336.099
        47.0004         42.0004
  -3138581.76447  -2401514.77946  23667660.0084   23667669.7074   23667661.298
        43.0004         39.0004
  -8864894.12547  -6884239.45646  23527199.6254   23527209.1084   23527199.202
        43.0004         39.0004
 -19361822.16248 -15043479.04147  21070109.3864   21070117.6414   21070109.533
        52.0004         47.0004
 -26209172.38249 -20396185.81848  20172651.4924   20172657.2374   20172650.919
        54.0004         49.0004
   -100536.26046    -43224.78446  24358856.7304   24358867.6914   24358855.889
        41.0004         37.0004
 -15874446.10448 -12324001.53947  21079973.1644   21079981.2664   21079973.182
        51.0004         46.0004
 14  5  2  0  4  0.0000000  0 12G23G04G17G01G10G13G20G11G08G07G28G09
   4610002.25946   3610202.49546  24726519.6884   24726525.5424   24726520.257
        41.0004         36.0004
 -13133657.99147 -10186028.47746  23068575.1144   23068585.5264   23068575.367
        46.0004         41.0004
 -17314073.40548 -13440801.36647  21919533.0104   21919541.6344   21919532.922
        51.0004         46.0004
 -13243130.85148 -10293294.52847  22100012.3784   22100023.0884   22100011.900
        49.0004         44.0004
  -2932645.57746  -2280155.68746  24917235.4964   24917247.5864   24917235.335
        41.0004         36.0004
   5712965.37647   4442487.27847  22492930.3874   22492938.0314   22492930.629
        46.0004         42.0004
  -3143644.06247  -2405459.33946  23666696.9994   23666706.2314   23666698.543
        44.0004         39.0004
  -8766798.28547  -6807801.06746  23545865.5584   23545874.9104   23545865.960
        43.0004         39.0004
 -19440371.41848 -15104686.14247  21055162.1144   21055169.5414   21055161.823
        52.0004         47.0004
 -26226881.65849 -20409985.18048  20169281.3254   20169286.9534   20169280.872
        54.0004         49.0004
   -121858.86446    -59839.61046  24354797.7374   24354809.9884   24354798.360
        41.0004         36.0004
 -15949712.09548 -12382650.23847  21065650.3154   21065659.2184   21065650.637
        51.0004         46.0004
 14  5  2  0  4 30.0000000  0 12G23G04G17G01G10G13G20G11G08G07G28G09
   4696491.34246   3677596.61646  24742979.7994   24742984.3334   24742978.494
        41.0004         36.0004
 -13232589.53047 -10263117.82946  23049749.6994   23049758.2944   23049748.920
        46.0004         41.0004
 -17292914.91948 -13424314.19647  21923560.2414   21923567.4894   21923559.438
        51.0004         46.0004
 -13177117.46348 -10241855.53447  22112573.7384   22112585.7894   22112573.300
        49.0004         44.0004
  -2963353.17646  -2304083.51246  24911391.8234   24911405.1224   24911391.417
        41.0004         37.0004
   5794953.34647   4506374.03147  22508532.3654   22508538.6144   22508532.084
        46.0004         42.0004
  -3148657.89847  -2409366.12146  23665743.0644   23665752.4794   23665743.345
        44.0004         39.0004
  -8668505.93847  -6731209.55546  23564570.2704   23564580.7724   23564570.502
        43.0004         39.0004
 -19518575.20748 -15165624.04847  21040279.8324   21040287.9854   21040279.915
        52.0004         47.0004
 -26244025.31749 -20423343.80348  20166018.9834   20166024.6784   20166018.606
        54.0004         49.0004
   -143466.12446    -76676.24246  24350686.3034   24350696.7434   24350686.102
        41.0004         36.0004
 -16024600.17548 -12441004.44447  21051399.5904   21051408.0104   21051399.487
        51.0004         46.0004
 14  5  2  0  5  0.0000000  0 12G23G04G17G01G10G13G20G11G08G07G28G09
   4782791.97246   3744843.83546  24759402.4024   24759406.6044   24759400.652
        41.0004         36.0004
 -13331407.50647 -10340118.68146  23030945.2604   23030954.2634   23030944.849
        46.0004         41.0004
 -17271437.68348 -13407578.64947  21927646.2134   21927655.3264   21927646.149
        51.0004         46.0004
 -13110670.37448 -10190078.59547  22125219.8564   22125230.6194   22125218.528
        49.0004         44.0004
  -2994304.00446  -2328200.89746  24905501.9804   24905514.7624   24905501.726
        41.0004         36.0004
   5876976.76547   4570288.42047  22524142.0704   22524146.6294   22524140.495
        46.0004         42.0004
  -3153622.00747  -2413234.16846  23664797.8324   23664807.6644   23664799.408
        43.0004         39.0004
  -8570019.97447  -6654467.18146  23583310.9244   23583321.6394   23583311.787
        43.0004         39.0004
 -19596430.44948 -15226290.36447  21025463.8444   21025472.7704   21025464.389
        52.0004         47.0004
 -26260602.50849 -20436261.02048  20162864.5674   20162870.4374   20162863.825
        54.0004         49.0004
   -165358.46446    -93735.00746  24346519.4074   24346531.6014   24346520.819
        41.0004         37.0004
 -16099107.97848 -12499062.33047  21037221.1014   21037229.6854   21037221.232
        51.0004         46.0004
 14  5  2  0  5 30.0000000  0 12G23G04G17G01G10G13G20G11G08G07G28G09
   4868899.68146   3811940.73946  24775786.8364   24775792.6694   24775786.171
        41.0004         36.0004
 -13430111.79047 -10417030.94646  23012161.3114   23012171.6964   23012161.412
        46.0004         41.0004
 -17249646.23448 -13390598.25447  21931793.2934   21931801.8544   21931792.804
        51.0004         46.0004
 -13043794.03848 -10137967.17147  22137945.6684   22137955.9514   22137944.713
        49.0004         44.0004
  -3025501.22546  -2352510.24146  24899565.6044   24899576.3314   24899565.496
        41.0004         36.0004
   5959030.36047   4634226.30546  22539754.7844   22539763.2764   22539754.795
        46.0004         41.0004
  -3158537.18947  -2417064.08146  23663863.5464   23663872.0444   23663863.319
        43.0004         38.0004
  -8471345.81247  -6577578.16046  23602088.1264   23602098.3734   23602088.703
        43.0004         38.0004
 -19673936.25348 -15286684.38447  21010715.1734   21010723.2864   21010715.410
        52.0004         47.0004
 -26276614.35649 -20448737.71648  20159817.2514   20159823.0324   20159817.053
        54.0004         49.0004
   -187538.38046   -111017.87046  24342300.6174   24342310.6264   24342299.251
        41.0004         37.0004
 -16173235.14148 -12556823.62847  21023115.3024   21023123.1244   21023115.303
        51.0004         46.0004
 14  5  2  0  6  0.0000000  0 12G23G04G17G01G10G13G20G11G08G07G28G09
   4954817.54046   3878889.69546  24792138.3404   24792142.9564   24792136.540
        41.0004         36.0004
 -13528695.15347 -10493848.97646  22993401.9864   22993411.0714   22993401.934
        46.0004         41.0004
 -17227538.46948 -13373371.37747  21936000.1244   21936008.6154   21935999.868
        51.0004         46.0004
 -12976485.50648 -10085518.97347  22150753.3614   22150764.2784   22150752.807
        49.0004         44.0004
  -3056940.51246  -2377008.22746  24893582.4114   24893593.3904   24893583.070
        41.0004         37.0004
   6041116.35747   4698189.46247  22555376.8524   22555382.0664   22555375.639
        46.0004         42.0004
  -3163396.95047  -2420850.81146  23662938.3424   23662946.6474   23662939.189
        43.0004         39.0004
  -8372481.48147  -6500540.95046  23620901.5144   23620910.4854   23620901.958
        43.0004         38.0004
 -19751084.78348 -15346800.01047  20996034.2404   20996042.6674   20996034.549
        52.0004         47.0004
 -26292054.83949 -20460769.19148  20156879.2754   20156885.0794   20156878.535
        54.0004         49.0004
   -210001.11746   -128521.09146  24338025.3004   24338034.1764   24338024.313
        41.0004         36.0004
 -16246974.28048 -12614282.55447  21009082.8764   21009091.0914   21009082.751
        51.0004         46.0004
 14  5  2  0  6 30.0000000  0 12G23G04G17G01G10G13G20G11G08G07G28G09
   5040540.89346   3945687.07045  24808445.5104   24808455.7314   24808448.361
        40.0004         35.0004
 -13627158.81047 -10570573.74346  22974663.7014   22974675.0534   22974664.605
        46.0004         41.0004
 -17205120.19048 -13355902.54547  21940266.3154   21940274.6704   21940265.626
        51.0004         46.0004
 -12908750.21248 -10032738.22847  22163642.4004   22163654.0954   22163642.402
        49.0004         44.0004
  -3088626.27946  -2401698.27246  24887552.0934   24887566.1954   24887553.602
        41.0004         37.0004
   6123227.41747   4762172.13746  22571001.0384   22571007.8614   22571000.496
        46.0004         41.0004
  -3168203.13647  -2424595.81246  23662023.2374   23662032.8594   23662023.744
        43.0004         39.0004
  -8273433.27147  -6423360.45046  23639750.5894   23639759.9254   23639749.925
        43.0004         38.0004
 -19827876.21848 -15406637.37247  20981421.4914   20981429.3374   20981421.645
        52.0004         47.0004
 -26306926.58249 -20472357.49148  20154048.8224   20154054.7764   20154048.454
        54.0004         49.0004
   -232750.62146   -146247.74746  24333694.7674   24333707.4964   24333695.545
        41.0004         37.0004
 -16320326.00548 -12671439.59547  20995124.6174   20995133.0484   20995124.596
        51.0004         47.0004
 14  5  2  0  7  0.0000000  0 12G23G04G17G01G10G13G20G11G08G07G28G09
   5126070.65246   4012333.59746  24824724.1054   24824730.9184   24824724.571
        40.0004         36.0004
 -13725496.79847 -10647200.58446  22955951.4714   22955960.5884   22955951.339
        46.0004         41.0004
 -17182390.67948 -13338191.19647  21944592.3414   21944600.0644   21944591.376
        51.0004         46.0004
 -12840586.99948  -9979624.04547  22176615.0264   22176626.5714   22176613.458
        49.0004         44.0004
  -3120555.70646  -2426578.17546  24881475.4534   24881490.3314   24881476.440
        41.0004         37.0004
   6205364.18447   4826174.85846  22586630.1204   22586638.1524   22586629.825
        46.0004         41.0004
  -3172950.62147  -2428295.05946  23661119.0544   23661128.7564   23661120.916
        43.0004         39.0004
  -8174200.95047  -6346036.47646  23658633.5004   23658643.0704   23658633.083
        42.0004         38.0004
 -19904304.47648 -15466191.74147  20966877.2654   20966885.3604   20966877.470
        52.0004         47.0004
 -26321225.12749 -20483499.14948  20151328.0804   20151334.0024   20151327.604
        54.0004         49.0004
   -255783.55646   -164195.28046  24329311.1094   24329324.4674   24329312.330
        41.0004         37.0004
 -16393284.62248 -12728290.32847  20981240.8654   20981249.3904   20981241.151
        51.0004         47.0004
 14  5  2  0  7 30.0000000  0 12G23G04G17G01G10G13G20G11G08G07G28G09
   5211404.75546   4078827.66646  24840963.1244   24840967.4984   24840962.594
        40.0004         36.0004
 -13823707.68647 -10723728.37846  22937262.9324   22937272.1044   22937262.368
        46.0004         41.0004
 -17159353.93848 -13320240.44547  21948974.9074   21948983.4204   21948974.425
        51.0004         46.0004
 -12771998.59648  -9926178.53947  22189665.6344   22189677.2294   22189665.609
        49.0004         44.0004
  -3152729.84546  -2451648.78146  24875353.0654   24875366.4304   24875354.599
        41.0004         37.0004
   6287523.00547   4890194.74646  22602264.4074   22602272.8354   22602264.357
        46.0004         41.0004
  -3177638.73347  -2431948.04146  23660228.7264   23660236.4144   23660228.375
        43.0004         39.0004
  -8074787.96847  -6268571.73346  23677550.4954   23677559.4524   23677550.886
        42.0004         38.0004
 -19980367.21048 -15525461.28547  20952402.8104   20952411.2214   20952403.207
        52.0004         47.0004
 -26334950.17749 -20494193.92248  20148716.1334   20148721.9614   20148715.729
        54.0004         49.0004
   -279100.73646   -182364.27046  24324873.7414   24324886.7664   24324874.553
        41.0004         37.0004
 -16465848.15848 -12784833.20647  20967432.4844   20967440.6144   20967432.510
        51.0004         47.0004
 14  5  2  0  8  0.0000000  0 12G23G04G17G01G10G13G20G11G08G07G28G09
   5296540.47246   4145167.14145  24857161.3044   24857170.0624   24857162.791
        40.0004         35.0004
 -13921789.89047 -10800155.91846  22918598.0524   22918608.0544   22918597.665
        46.0004         41.0004
 -17136013.13848 -13302052.76747  21953416.6534   21953424.7014   21953416.467
        51.0004         46.0004
 -12702988.08548  -9872404.12047  22202799.2884   22202809.9764   22202797.983
        49.0004         44.0004
  -3185150.53546  -2476911.47046  24869182.1994   24869195.0454   24869183.608
        41.0004         37.0004
   6369700.01047   4954228.83046  22617901.9124   22617910.3564   22617902.692
        46.0004         41.0004
  -3182267.02947  -2435554.40946  23659347.0304   23659355.9694   23659347.667
        43.0004         39.0004
  -7975198.29447  -6190969.31046  23696503.1954   23696512.3224   23696502.177
        42.0004         38.0004
 -20056062.37948 -15584444.41747  20937998.7414   20938007.3524   20937999.061
        52.0004         47.0004
 -26348102.21749 -20504442.19648  20146213.4004   20146219.1934   20146213.050
        54.0004         49.0004
   -302703.61847   -200755.91246  24320383.3674   24320394.5364   24320383.129
        42.0004         37.0004
 -16538014.96148 -12841066.93547  20953699.5074   20953707.9574   20953699.579
        51.0004         47.0004
 14  5  2  0  8 30.0000000  0 12G23G04G17G01G10G13G20G11G08G07G28G09
   5381477.60746   4211351.90745  24873325.3534   24873333.6044   24873325.516
        40.0004         35.0004
 -14019739.65247 -10876480.24246  22899958.3924   22899967.1684   22899958.607
        46.0004         41.0004
 -17112369.31048 -13283628.96647  21957916.2174   21957924.5364   21957915.609
        51.0004         46.0004
 -12633556.07748  -9818301.25847  22216011.4314   22216021.9394   22216010.503
        49.0004         44.0004
  -3217816.99746  -2502365.68846  24862966.1844   24862980.8744   24862967.552
        41.0004         37.0004
   6451893.81347   5018275.98846  22633543.0084   22633551.7644   22633543.744
        46.0004         41.0004
  -3186832.24547  -2439111.63446  23658478.0634   23658487.3774   23658478.784
        43.0004         39.0004
  -7875433.37447  -6113230.32746  23715486.8794   23715496.7664   23715487.137
        42.0004         38.0004
 -20131385.25348 -15643137.44647  20923665.2794   20923672.7714   20923665.138
        52.0004         47.0004
 -26360678.65749 -20514241.95048  20143819.9564   20143825.8724   20143819.695
        54.0004         49.0004
   -326590.81847   -219369.09546  24315838.9754   24315849.6354   24315837.798
        42.0004         37.0004
 -16609781.18448 -12896988.52747  20940043.1424   20940050.6154   20940042.835
        51.0004         47.0004
 14  5  2  0  9  0.0000000  0 12G23G04G17G01G10G13G20G11G08G07G28G09
   5466212.51546   4277379.12645  24889450.9854   24889455.5744   24889450.433
        40.0004         35.0004
 -14117556.51747 -10952701.00746  22881345.6724   22881352.8164   22881344.413
        46.0004         41.0004
 -17088426.81948 -13264972.43747  21962472.6434   21962480.5444   21962471.985
        51.0004         46.0004
 -12563706.43748  -9763872.98647  22229302.3714   22229312.8044   22229302.201
        48.0004         44.0004
  -3250731.52046  -2528013.19246  24856703.4674   24856717.5534   24856704.389
        41.0004         37.0004
   6534099.51647   5082332.43646  22649187.8804   22649194.5074   22649186.693
        46.0004         41.0004
  -3191334.39347  -2442619.70946  23657621.3664   23657629.0384   23657621.798
        43.0004         39.0004
  -7775497.93847  -6035358.45946  23734503.9114   23734513.5844   23734503.835
        42.0004         38.0004
 -20206334.82648 -15701539.59548  20909402.3464   20909410.5534   20909402.947
        52.0004         48.0004
 -26372680.31349 -20523593.82448  20141536.2044   20141541.7374   20141535.660
        54.0004         49.0004
   -350764.08647   -238205.16646  24311236.6894   24311249.3244   24311237.507
        42.0004         37.0004
 -16681145.97648 -12952597.32447  20926462.7214   20926470.8494   20926462.220
        51.0004         47.0004
 14  5  2  0  9 30.0000000  0 12G23G04G17G01G10G13G20G11G08G07G28G09
   5550747.99446   4343250.96545  24905537.9554   24905543.5134   24905537.168
        39.0004         34.0004
 -14215233.33447 -11028812.64446  22862758.1774   22862765.9094   22862757.508
        46.0004         41.0004
 -17064184.15748 -13246082.00847  21967085.6404   21967093.2374   21967084.746
        51.0004         46.0004
 -12493436.84248  -9709117.45147  22242674.8134   22242686.2724   22242673.975
        48.0004         44.0004
  -3283890.55446  -2553851.20846  24850392.8124   24850407.0584   24850393.924
        41.0004         37.0004
   6616318.54747   5146399.25746  22664832.5384   22664839.5194   22664832.862
        46.0004         41.0004
  -3195767.62547  -2446074.08346  23656777.1784   23656786.7934   23656777.725
        43.0004         39.0004
  -7675390.58547  -5957352.63646  23753552.9354   23753561.6974   23753553.421
        42.0004         38.0004
 -20280903.53248 -15759644.95948  20895213.0454   20895220.5924   20895212.919
        52.0004         48.0004
 -26384101.90349 -20532493.69148  20139362.6814   20139368.1904   20139362.097
        54.0004         49.0004
   -375219.05247   -257260.74446  24306584.7304   24306594.4924   24306583.657
        42.0004         37.0004
 -16752102.28748 -13007887.82147  20912959.3634   20912967.0604   20912959.660
        51.0004         47.0004
 14  5  2  0 10  0.0000000  0 12G23G04G17G01G10G13G20G11G08G07G28G09
   5635080.75646   4408964.86045  24921586.4304   24921592.0134   24921586.537
        39.0004         35.0004
 -14312769.38047 -11104814.59646  22844197.7294   22844204.9214   22844197.107
        46.0004         41.0004
 -17039645.55448 -13226960.97247  21971754.7284   21971762.9054   21971754.221
        51.0004         46.0004
 -12422751.06048  -9654037.62847  22256125.5804   22256136.4954   22256125.247
        48.0004         44.0004
  -3317296.17046  -2579881.36346  24844035.8284   24844046.2464   24844036.918
        41.0004         37.0004
   6698546.23747   5210472.84446  22680480.1044   22680485.6894   22680479.492
        46.0004         41.0004
  -3200131.94147  -2449474.77646  23655947.6534   23655955.2564   23655947.910
        43.0004         39.0004
  -7575115.45647  -5879216.07646  23772636.5684   23772644.8544   23772635.641
        42.0004         38.0004
 -20355089.97348 -15817452.45648  20881095.2854   20881103.6764   20881095.626
        52.0004         48.0004
 -26394944.04949 -20540942.05148  20137299.2504   20137305.2174   20137298.846
        54.0004         49.0004
   -399957.90246   -276537.53246  24301875.0824   24301887.3794   24301875.972
        41.0004         37.0004
 -16822649.18348 -13062859.28447  20899534.7634   20899542.6244   20899534.917
        51.0004         47.0004
 14  5  2  0 10 30.0000000  0 12G23G04G17G01G10G13G20G11G08G07G28G09
   5719208.41446   4474518.97945  24937594.0204   24937599.4304   24937594.409
        39.0004         35.0004
 -14410162.98747 -11180705.56947  22825663.2394   22825671.6754   22825662.711
        46.0004         42.0004
 -17014814.08248 -13207611.72847  21976480.6704   21976488.1584   21976479.754
        51.0004         46.0004
 -12351652.10048  -9598635.84547  22269655.4474   22269667.3744   22269654.964
        48.0004         44.0004
  -3350949.45546  -2606104.53446  24837631.9604   24837646.2954   24837632.766
        41.0004         37.0004
   6780779.12147   5274550.48146  22696128.5404   22696134.9274   22696128.079
        46.0004         41.0004
  -3204426.35147  -2452820.98946  23655130.4804   23655138.1114   23655130.697
        43.0004         39.0004
  -7474676.44047  -5800951.81146  23791748.3354   23791757.5204   23791748.576
        42.0004         38.0004
 -20428891.80048 -15874960.25148  20867051.1734   20867058.9864   20867051.428
        52.0004         48.0004
 -26405206.86849 -20548938.98548  20135346.6084   20135352.0934   20135346.075
        54.0004         49.0004
   -424980.94247   -296035.76546  24297113.8794   24297125.9264   24297114.658
        42.0004         37.0004
 -16892784.82848 -13117510.29447  20886188.1614   20886195.8634   20886188.468
        52.0004         47.0004
 14  5  2  0 11  0.0000000  0 12G23G04G17G01G10G13G20G11G08G07G28G09
   5803129.90146   4539912.42745  24953564.1894   24953569.0944   24953564.225
        39.0004         34.0004
 -14507411.42847 -11256483.42047  22807157.8324   22807165.9884   22807157.284
        46.0004         42.0004
 -16989692.05448 -13188036.07947  21981260.4334   21981268.4804   21981260.062
        51.0004         46.0004
 -12280141.38148  -9542913.21247  22283263.4714   22283273.9124   22283263.118
        48.0004         44.0004
  -3384850.75746  -2632520.96746  24831181.0854   24831192.7244   24831181.940
        41.0004         37.0004
   6863014.82847   5338630.30346  22711777.7674   22711785.1184   22711777.127
        46.0004         41.0004
  -3208648.40447  -2456110.82046  23654325.3734   23654334.7074   23654326.948
        43.0004         39.0004
  -7374075.80647  -5722561.60846  23810891.7264   23810901.6904   23810892.469
        42.0004         38.0004
 -20502305.36648 -15932165.50448  20853080.6144   20853089.5134   20853081.257
        52.0004         48.0004
 -26414888.96849 -20556483.41348  20133503.8604   20133509.7404   20133503.630
        54.0004         50.0004
   -450287.60447   -315754.98946  24292298.1264   24292309.3784   24292298.146
        42.0004         37.0004
 -16962506.08048 -13171838.40547  20872921.0154   20872929.1274   20872921.000
        52.0004         47.0004
 14  5  2  0 11 30.0000000  0 12G23G04G17G01G10G13G20G11G08G07G28G09
   5886844.24946   4605144.52545  24969493.1544   24969500.9274   24969493.512
        39.0004         34.0004
 -14604511.18647 -11332145.41147  22788680.0534   22788688.4084   22788679.381
        46.0004         42.0004
 -16964281.44348 -13168235.56147  21986095.4174   21986103.9514   21986095.422
        51.0004         46.0004
 -12208220.41548  -9486870.92047  22296950.4784   22296960.6604   22296949.046
        48.0004         44.0004
  -3418999.65846  -2659130.31746  24824683.4094   24824695.2804   24824683.414
        41.0004         37.0004
   6945251.43247   5402710.84046  22727427.3154   22727432.0784   22727426.357
        46.0004         41.0004
  -3212796.50147  -2459343.02946  23653536.8344   23653544.7194   23653537.881
        44.0004         39.0004
  -7273315.64647  -5644047.10346  23830064.6704   23830074.9134   23830066.070
        42.0004         38.0004
 -20575326.99648 -15989065.36048  20839185.4664   20839192.8684   20839185.777
        52.0004         48.0004
 -26423988.75249 -20563574.08648  20131772.3394   20131778.1034   20131771.766
        54.0004         49.0004
   -475877.93647   -335695.26746  24287428.4704   24287439.3804   24287428.736
        42.0004         37.0004
 -17031809.79748 -13225841.16347  20859732.4474   20859740.1794   20859732.739
        52.0004         47.0004
 14  5  2  0 12  0.0000000  0 12G23G04G17G01G10G13G20G11G08G07G28G09
   5970353.28346   4670216.65645  24985389.9294   24985392.0114   24985385.010
        39.0004         34.0004
 -14701456.47747 -11407687.04047  22770231.5304   22770239.9654   22770231.091
        47.0004         42.0004
 -16938581.39948 -13148209.50747  21990986.5954   21990994.7064   21990985.908
        51.0004         46.0004
 -12135888.00048  -9430507.99647  22310714.4764   22310725.6504   22310713.327
        48.0004         43.0004
  -3453393.23046  -2685930.33346  24818137.5004   24818149.2464   24818137.768
        41.0004         36.0004
   7027489.55547   5466792.56846  22743075.5704   22743081.3814   22743075.263
        46.0004         41.0004
  -3216865.29547  -2462513.44246  23652762.1814   23652770.9424   23652763.469
        43.0004         39.0004
  -7172395.79047  -5565408.15346  23849270.1774   23849279.5554   23849270.368
        42.0004         38.0004
 -20647950.30048 -16045654.82648  20825365.2924   20825373.6764   20825365.693
        53.0004         48.0004
 -26432502.13049 -20570207.82048  20130152.4564   20130158.0084   20130151.894
        54.0004         50.0004
   -501747.89247   -355853.41546  24282505.4184   24282516.3694   24282505.045
        42.0004         37.0004
 -17100689.98448 -13279513.89847  20846625.1094   20846632.4964   20846625.006
        52.0004         47.0004
 14  5  2  0 12 30.0000000  0 12G23G04G17G01G10G13G20G11G08G07G28G09
   6053651.54846   4735124.59545  25001236.7464   25001242.4204   25001236.159
        39.0004         34.0004
 -14798248.94147 -11483109.58647  22751812.2074   22751820.9094   22751812.157
        47.0004         42.0004
 -16912598.35348 -13127962.93147  21995930.4714   21995938.9594   21995930.434
        51.0004         46.0004
 -12063150.41548  -9373829.37347  22324555.9534   22324567.3074   22324554.763
        48.0004         43.0004
  -3488036.12546  -2712924.59846  24811546.4104   24811557.4624   24811545.666
        41.0004         36.0004
   7109721.54447   5530869.49046  22758723.1854   22758730.5294   22758723.197
        45.0004         41.0004
  -3220857.20847  -2465623.95446  23652003.9884   23652011.5944   23652004.247
        44.0004         39.0004
  -7071322.78247  -5486649.86846  23868503.6734   23868511.3354   23868503.708
        42.0004         38.0004
 -20720176.61648 -16101934.95448  20811621.4534   20811628.9644   20811621.571
        53.0004         48.0004
 -26440432.57349 -20576387.31848  20128642.9254   20128648.9614   20128642.678
        54.0004         50.0004
   -527901.68547   -376232.75346  24277527.3934   24277537.4594   24277528.158
        42.0004         37.0004
 -17169148.20848 -13332857.83847  20833597.8564   20833605.4744   20833597.766
        52.0004         47.0004
 14  5  2  0 13  0.0000000  0 12G23G04G17G01G10G13G20G11G08G07G28G09
   6136737.86946   4799867.42045  25017045.9844   25017052.0074   25017047.317
        39.0004         34.0004
 -14894885.67647 -11558410.77847  22733422.2224   22733431.7154   22733422.229
        47.0004         42.0004
 -16886334.85748 -13107497.81847  22000929.2324   22000936.7644   22000928.427
        51.0004         46.0004
 -11990009.26748  -9316836.27347  22338475.4764   22338484.6984   22338473.622
        48.0004         44.0004
  -3522928.18846  -2740113.02846  24804905.1244   24804917.8864   24804905.688
        41.0004         36.0004
   7191945.47447   5594940.15246  22774369.8444   22774375.9824   22774370.121
        45.0004         40.0004
  -3224769.84747  -2468672.70046  23651259.5184   23651267.6574   23651258.997
        44.0004         39.0004
  -6970099.19247  -5407774.23746  23887765.1284   23887775.7664   23887765.535
        42.0004         38.0004
 -20792002.20248 -16157902.82348  20797953.2804   20797960.9844   20797953.580
        53.0004         48.0004
 -26447778.91049 -20582111.67548  20127245.0264   20127250.5504   20127244.694
        54.0004         50.0004
   -554338.88847   -396832.92246  24272497.2154   24272508.4864   24272496.936
        42.0004         38.0004
 -17237181.50448 -13385870.66247  20820651.4324   20820659.7544   20820651.424
        52.0004         47.0004
 14  5  2  0 13 30.0000000  0 12G23G04G17G01G10G13G20G11G08G07G28G09
   6219612.54746   4864445.32545  25032817.0964   25032823.5424   25032817.850
        39.0004         34.0004
 -14991362.08747 -11633587.04347  22715064.2804   22715072.2014   22715063.384
        47.0004         42.0004
 -16859791.74048 -13086814.82547  22005979.9524   22005987.3384   22005979.059
        51.0004         46.0004
 -11916464.74448  -9259528.86047  22352468.7714   22352479.9164   22352468.698
        48.0004         43.0004
  -3558068.13546  -2767494.60746  24798217.4304   24798230.4864   24798218.113
        41.0004         36.0004
   7274160.74247   5659004.07446  22790016.4474   22790022.4074   22790015.427
        45.0004         40.0004
  -3228599.19447  -2471656.53646  23650530.3124   23650537.5734   23650530.424
        44.0004         39.0004
  -6868725.78447  -5328781.87546  23907056.0294   23907065.9784   23907056.419
        42.0004         38.0004
 -20863421.81448 -16213554.34748  20784362.3534   20784370.1054   20784362.808
        53.0004         48.0004
 -26454538.42749 -20587378.76548  20125958.7694   20125964.0214   20125958.153
        54.0004         50.0004
   -581057.37647   -417652.28646  24267413.3784   24267423.5844   24267412.449
        42.0004         37.0004
 -17304785.22248 -13438548.74947  20807786.9424   20807794.3334   20807786.885
        52.0004         47.0004
 14  5  2  0 14  0.0000000  0 12G23G04G17G01G10G13G20G11G08G07G28G09
   6302273.47746   4928856.73145  25048546.9914   25048554.2274   25048546.588
        38.0004         34.0004
 -15087676.36747 -11708636.97347  22696734.4894   22696744.1794   22696735.415
        47.0004         42.0004
 -16832971.89948 -13065916.20347  22011083.1844   22011091.1124   22011083.291
        51.0004         46.0004
 -11842519.61948  -9201909.30147  22366540.1234   22366551.4284   22366539.664
        48.0004         43.0004
  -3593457.02246  -2795070.17846  24791483.5804   24791496.9894   24791484.299
        41.0004         36.0004
   7356363.96147   5723058.60846  22805659.9304   22805665.8824   22805657.578
        45.0004         41.0004
  -3232344.94347  -2474575.24146  23649816.6334   23649825.4874   23649817.003
        43.0004         39.0004
  -6767205.83447  -5249675.31946  23926374.9954   23926384.8404   23926374.861
        42.0004         38.0004
 -20934433.09648 -16268887.69148  20770849.1334   20770857.0024   20770849.399
        53.0004         48.0004
 -26460710.74149 -20592188.29948  20124784.0304   20124789.2994   20124783.642
        54.0004         50.0004
   -608057.68347   -438691.25646  24262273.4544   24262284.2394   24262274.311
        42.0004         38.0004
 -17371957.57648 -13490890.72047  20795004.3924   20795011.9194   20795004.452
        52.0004         47.0004
 14  5  2  0 14 30.0000000  0 12G23G04G17G01G10G13G20G11G08G07G28G09
   6384720.71346   4993101.63445  25064233.5764   25064240.8604   25064236.150
        39.0004         34.0004
 -15183824.48047 -11783557.42947  22678439.5194   22678448.0004   22678438.450
        47.0004         42.0004
 -16805876.66248 -13044802.99347  22016238.7794   22016247.6234   22016238.509
        51.0004         46.0004
 -11768174.69948  -9143978.18647  22380687.2934   22380699.0834   22380686.945
        48.0004         43.0004
  -3629093.56346  -2822838.72946  24784700.9174   24784714.7844   24784702.110
        41.0004         36.0004
   7438553.78647   5787102.69846  22821298.1254   22821305.7944   22821298.063
        45.0004         40.0004
  -3236003.49947  -2477426.01546  23649121.4124   23649129.3504   23649121.668
        44.0004         39.0004
  -6665540.75547  -5170455.68846  23945720.2444   23945729.5294   23945721.139
        42.0004         38.0004
 -21005031.62748 -16323899.41148  20757414.5254   20757422.5964   20757414.913
        53.0004         48.0004
 -26466294.11849 -20596538.92548  20123721.6284   20123727.2114   20123721.100
        54.0004         50.0004
   -635338.19947   -459948.54346  24257082.2944   24257093.6324   24257082.954
        42.0004         37.0004
 -17438694.52848 -13542893.41147  20782304.5254   20782312.0664   20782304.365
        52.0004         47.0004
 14  5  2  0 15  0.0000000  0 12G23G04G17G01G10G13G20G11G08G07G28G09
   6466953.40846   5057179.45045  25079886.2864   25079888.6094   25079884.964
        39.0004         34.0004
 -15279803.51347 -11858346.13247  22660175.2394   22660184.1084   22660174.961
        47.0004         42.0004
 -16778507.95648 -13023476.67847  22021447.2534   22021455.5954   22021447.073
        51.0004         46.0004
 -11693431.66448  -9085736.87747  22394909.5824   22394921.9384   22394910.041
        48.0004         43.0004
  -3664977.54646  -2850800.06546  24777873.2064   24777884.8194   24777874.275
        41.0004         36.0004
   7520727.51447   5851134.24546  22836936.0754   22836942.2044   22836934.905
        45.0004         41.0004
  -3239572.23847  -2480206.79646  23648440.9524   23648450.2744   23648441.537
        43.0004         39.0004
  -6563733.02747  -5091124.89046  23965094.1804   23965104.3254   23965095.086
        42.0004         38.0004
 -21075214.17548 -16378586.98848  20744058.9414   20744066.7944   20744059.503
        53.0004         48.0004
 -26471287.26749 -20600429.63148  20122771.3104   20122776.6614   20122770.989
        54.0004         50.0004
   -662898.59647   -481423.92346  24251836.3664   24251848.2214   24251838.417
        42.0004         37.0004
 -17504993.10448 -13594554.50847  20769688.4504   20769695.8274   20769688.241
        52.0004         47.0004
 14  5  2  0 15 30.0000000  0 12G23G04G17G01G10G13G20G11G08G07G28G09
   6548967.16446   5121086.65645  25095489.0564   25095497.9664   25095490.766
        39.0004         34.0004
 -15375613.15447 -11933002.85147  22641942.6314   22641950.8404   22641942.660
        47.0004         42.0004
 -16750870.74148 -13001941.14447  22026706.2414   22026714.7694   22026706.307
        51.0004         46.0004
 -11618295.22348  -9027189.01647  22409208.0214   22409220.2114   22409208.031
        48.0004         43.0004
  -3701112.26346  -2878956.79446  24770997.9714   24771008.3494   24770998.138
        41.0004         36.0004
   7602880.31147   5915149.49846  22852569.0744   22852575.3234   22852568.452
        45.0004         41.0004
  -3243053.24247  -2482919.21646  23647779.7724   23647787.9494   23647780.056
        43.0004         39.0004
  -6461788.06047  -5011687.14946  23984492.7594   23984503.2194   23984494.194
        42.0004         38.0004
 -21144980.03548 -16432949.87048  20730783.2684   20730790.8244   20730783.396
        53.0004         48.0004
 -26475691.92349 -20603861.77348  20121932.8774   20121938.6004   20121932.421
        54.0004         50.0004
   -690741.03947   -503119.10046  24246537.9884   24246550.4964   24246539.896
        42.0004         37.0004
 -17570853.19648 -13645873.93147  20757155.2884   20757162.6924   20757155.389
        52.0004         47.0004
 14  5  2  0 16  0.0000000  0 12G23G04G17G01G10G13G20G11G08G07G28G09
   6630764.08246   5184824.97445  25111053.7374   25111062.1364   25111055.580
        39.0004         34.0004
 -15471248.39247 -12007523.66747  22623744.8944   22623751.6684   22623744.066
        47.0004         42.0004
 -16722965.17148 -12980196.51047  22032016.1134   22032024.6704   22032016.091
        51.0004         46.0004
 -11542764.78748  -8968334.13347  22423581.5604   22423591.5504   22423581.427
        48.0004         43.0004
  -3737494.77346  -2907306.61346  24764073.9884   24764086.5224   24764074.163
        41.0004         36.0004
   7685012.26347   5979148.50446  22868197.5664   22868203.0294   22868197.634
        45.0004         41.0004
  -3246441.29847  -2485559.21446  23647133.9704   23647143.0524   23647134.619
        44.0004         39.0004
  -6359705.49047  -4932142.18246  24003919.7374   24003928.7324   24003920.090
        42.0004         38.0004
 -21214323.32048 -16486983.47748  20717587.4734   20717594.8514   20717587.698
        53.0004         48.0004
 -26479504.81149 -20606832.79548  20121207.7524   20121212.9654   20121207.089
        54.0004         49.0004
   -718862.43847   -525031.65146  24241187.7174   24241197.8734   24241188.546
        42.0004         37.0004
 -17636269.51148 -13696847.56047  20744706.6174   20744714.0934   20744706.949
        52.0004         47.0004
 14  5  2  0 16 30.0000000  0 12G23G04G17G01G10G13G20G11G08G07G28G09
   6712341.86146   5248392.59145  25126578.8104   25126583.9424   25126578.413
        39.0004         35.0004
 -15566707.00147 -12081906.85347  22605578.8814   22605585.8674   22605578.090
        47.0004         42.0004
 -16694794.41448 -12958245.23647  22037377.5774   22037385.9444   22037376.770
        51.0004         46.0004
 -11466843.11448  -8909174.39547  22438029.4904   22438040.6314   22438028.338
        48.0004         43.0004
  -3774126.01946  -2935850.23546  24757103.7344   24757114.5104   24757103.566
        41.0004         36.0004
   7767119.97647   6043128.63546  22883821.9194   22883830.4074   22883821.928
        45.0004         40.0004
  -3249734.87047  -2488125.58346  23646507.4464   23646517.2244   23646508.547
        43.0004         39.0004
  -6257488.76947  -4852492.68746  24023370.1444   24023379.2384   24023370.968
        42.0004         38.0004
 -21283241.43148 -16540685.77648  20704472.3844   20704480.4684   20704472.749
        53.0004         48.0004
 -26482725.76549 -20609342.57248  20120594.5954   20120599.9674   20120594.179
        54.0004         50.0004
   -747263.30447   -547161.96446  24235784.5714   24235793.9624   24235783.433
        42.0004         37.0004
 -17701240.19648 -13747473.93847  20732343.4264   20732351.0494   20732343.358
        52.0004         47.0004
 14  5  2  0 17  0.0000000  0 12G23G04G17G01G10G13G20G11G08G07G28G09
   6793699.10946   5311788.51045  25142058.2724   25142065.6584   25142059.799
        39.0004         34.0004
 -15661986.77147 -12156150.67047  22587447.7934   22587455.6834   22587447.435
        47.0004         42.0004
 -16666361.39448 -12936089.60047  22042787.8514   22042796.2594   22042787.570
        51.0004         46.0004
 -11390532.78048  -8849711.81247  22452550.4814   22452562.3614   22452549.818
        48.0004         43.0004
  -3811006.85646  -2964588.36146  24750085.1714   24750098.1094   24750084.875
        41.0004         37.0004
   7849200.65347   6107087.70246  22899441.4804   22899447.5524   22899441.424
        45.0004         40.0004
  -3252932.91847  -2490617.51046  23645900.0564   23645907.7794   23645899.718
        44.0004         39.0004
  -6155140.99147  -4772741.07046  24042847.3614   24042854.7754   24042847.005
        42.0004         37.0004
 -21351731.87048 -16594054.83248  20691439.2134   20691446.5834   20691439.473
        53.0004         48.0004
 -26485354.80349 -20611391.12148  20120094.2434   20120099.4674   20120093.739
        54.0004         49.0004
   -775943.80347   -569510.17046  24230326.1474   24230335.5774   24230325.202
        42.0004         37.0004
 -17765763.09848 -13797751.39748  20720065.0084   20720072.6354   20720065.226
        52.0004         48.0004
 14  5  2  0 17 30.0000000  0 12G23G04G17G01G10G13G20G11G08G07G28G09
   6874835.80246   5375012.57245  25157497.7314   25157506.5364   25157499.084
        39.0004         34.0004
 -15757083.40147 -12230251.79947  22569351.8134   22569358.3594   22569350.876
        47.0004         42.0004
 -16637667.13948 -12913730.40147  22048248.5444   22048256.3664   22048247.961
        51.0004         46.0004
 -11313834.29448  -8789946.76547  22467145.9614   22467157.1304   22467145.657
        48.0004         43.0004
  -3848135.85446  -2993519.84446  24743017.5444   24743029.5574   24743018.704
        41.0004         37.0004
   7931253.24747   6171024.86946  22915055.5924   22915061.2204   22915055.412
        45.0004         40.0004
  -3256032.01947  -2493032.35346  23645310.0764   23645317.6264   23645310.212
        44.0004         39.0004
  -6052663.25347  -4692888.19746  24062347.8304   24062356.1354   24062347.708
        42.0004         37.0004
 -21419789.66048 -16647086.75848  20678488.0364   20678496.0104   20678488.434
        53.0004         48.0004
 -26487389.59349 -20612976.62548  20119706.8124   20119712.3054   20119706.434
        54.0004         49.0004
   -804901.97547   -592074.72046  24224815.8324   24224825.3604   24224815.204
        42.0004         37.0004
 -17829833.98848 -13847676.63447  20707872.7654   20707880.1094   20707872.504
        52.0004         47.0004
 14  5  2  0 18  0.0000000  0 12G23G04G17G01G10G13G20G11G08G07G28G09
   6955750.37846   5438063.59945  25172897.5094   25172901.6774   25172896.350
        39.0004         35.0004
 -15851994.87847 -12304208.63947  22551291.0954   22551298.1084   22551289.958
        47.0004         43.0004
 -16608714.58448 -12891169.93247  22053757.7364   22053765.4814   22053757.424
        51.0004         46.0004
 -11236750.25447  -8729881.28447  22481814.3374   22481825.5444   22481813.693
        47.0004         43.0004
  -3885513.49546  -3022645.07346  24735905.7734   24735919.1634   24735906.496
        41.0004         36.0004
   8013274.79147   6234937.84946  22930663.5604   22930669.0834   22930663.540
        45.0004         40.0004
  -3259030.28947  -2495368.61146  23644737.9984   23644747.9124   23644738.653
        43.0004         39.0004
  -5950058.77147  -4612936.55146  24081872.9684   24081881.3814   24081872.753
        42.0004         37.0004
 -21487412.33148 -16699779.63048  20665620.1014   20665627.7274   20665620.217
        53.0004         48.0004
 -26488829.95249 -20614098.93248  20119432.8644   20119438.2064   20119432.270
        54.0004         49.0004
   -834138.17147   -614855.94546  24219250.6494   24219260.0514   24219250.821
        42.0004         37.0004
 -17893450.75848 -13897248.00948  20695766.5404   20695773.9934   20695766.651
        52.0004         48.0004
 14  5  2  0 18 30.0000000  0 12G23G04G17G01G10G13G20G11G08G07G28G09
   7036438.54846   5500938.29245  25188251.8464   25188256.5694   25188250.940
        39.0004         35.0004
 -15946721.03147 -12378021.08347  22533265.1764   22533272.0344   22533263.558
        47.0004         43.0004
 -16579508.76748 -12868412.11847  22059315.9274   22059323.5884   22059315.155
        51.0004         46.0004
 -11159285.67247  -8669519.28547  22496554.6614   22496566.6604   22496554.491
        47.0004         43.0004
  -3923142.73746  -3051966.33346  24728743.6064   24728757.0204   24728745.743
        41.0004         36.0004
   8095259.76147   6298822.32946  22946266.0564   22946270.7484   22946264.367
        45.0004         40.0004
  -3261929.41847  -2497627.62046  23644187.6964   23644195.0934   23644187.509
        43.0004         39.0004
  -5847332.99746  -4532890.40046  24101420.0954   24101427.8984   24101420.576
        41.0004         37.0004
 -21554599.62248 -16752133.25448  20652834.3964   20652842.1874   20652834.872
        53.0004         48.0004
 -26489678.31349 -20614759.94448  20119271.2594   20119276.6374   20119270.818
        54.0004         49.0004
   -863654.24547   -637855.26346  24213634.6384   24213645.4264   24213634.644
        42.0004         37.0004
 -17956613.80948 -13946465.84348  20683747.0964   20683754.2284   20683747.021
        52.0004         48.0004
 14  5  2  0 19  0.0000000  0 12G23G04G17G01G10G13G20G11G08G07G28G09
   7116903.94146   5563639.33745  25203560.8104   25203566.6154   25203561.800
        39.0004         35.0004
 -16041254.73847 -12451683.56447  22515273.7094   22515283.3804   22515274.369
        47.0004         43.0004
 -16550047.87348 -12845455.54547  22064922.0144   22064929.0894   22064921.277
        51.0004         46.0004
 -11081437.91847  -8608858.71647  22511368.7894   22511380.3544   22511368.441
        47.0004         42.0004
  -3961019.21446  -3081480.28046  24721536.5334   24721549.6984   24721539.129
        41.0004         36.0004
   8177210.69847   6362680.30746  22961859.3144   22961865.9134   22961858.657
        45.0004         40.0004
  -3264722.36147  -2499803.91946  23643655.3604   23643664.3964   23643655.730
        43.0004         39.0004
  -5744483.59946  -4452747.92146  24120991.5294   24120999.4454   24120991.857
        41.0004         36.0004
 -21621343.49048 -16804141.36048  20640133.6384   20640140.7704   20640133.722
        53.0004         48.0004
 -26489929.01249 -20614955.25148  20119223.5434   20119228.9894   20119223.106
        54.0004         49.0004
   -893445.57747   -661069.05446  24207964.8574   24207974.1594   24207965.120
        42.0004         38.0004
 -18019315.63648 -13995324.28248  20671814.6244   20671822.8324   20671814.887
        52.0004         48.0004
 14  5  2  0 19 30.0000000  0 12G23G04G17G01G10G13G20G11G08G07G28G09
   7197143.05846   5626163.84345  25218830.9034   25218836.0294   25218831.148
        39.0004         35.0004
 -16135594.75447 -12525195.12447  22497323.5264   22497329.1904   22497322.575
        47.0004         43.0004
 -16520335.92148 -12822303.33647  22070575.5894   22070583.6024   22070575.066
        51.0004         46.0004
 -11003210.90247  -8547902.61047  22526254.9224   22526265.8014   22526254.281
        47.0004         42.0004
  -3999144.30846  -3111187.91746  24714281.9524   24714294.5064   24714283.486
        41.0004         36.0004
   8259123.26247   6426508.36246  22977447.7674   22977454.0704   22977446.000
        45.0004         40.0004
  -3267409.14747  -2501897.47046  23643143.8444   23643152.2344   23643144.349
        43.0004         39.0004
  -5641514.90446  -4372512.47446  24140587.0204   24140594.9814   24140586.497
        41.0004         36.0004
 -21687642.82748 -16855803.07248  20627517.2454   20627524.3484   20627517.452
        53.0004         48.0004
 -26489583.35649 -20614685.86048  20119288.8654   20119294.8614   20119288.667
        54.0004         49.0004
   -923513.44647   -684498.33646  24202241.9714   24202253.0994   24202242.741
        42.0004         37.0004
 -18081555.53948 -14043822.77748  20659971.3394   20659978.6084   20659971.083
        52.0004         48.0004
 14  5  2  0 20  0.0000000  0 12G23G04G17G01G10G13G20G11G08G07G28G09
   7277151.73746   5688508.80546  25234056.4304   25234061.0204   25234056.148
        40.0004         36.0004
 -16229742.22447 -12598556.64747  22479406.7524   22479415.3474   22479405.896
        47.0004         43.0004
 -16490379.28048 -12798960.45047  22076275.5494   22076284.0134   22076275.701
        51.0004         46.0004
 -10924610.54547  -8486655.59847  22541211.5484   22541223.9494   22541211.872
        47.0004         42.0004
  -4037521.98046  -3141092.39546  24706980.9734   24706992.2344   24706979.500
        41.0004         36.0004
   8340990.99747   6490301.51746  22993026.5354   22993031.7024   22993025.811
        45.0004         40.0004
  -3269991.67947  -2503909.79246  23642654.3094   23642661.2854   23642653.460
        43.0004         39.0004
  -5538433.51646  -4292189.21446  24160202.1104   24160210.8144   24160202.208
        41.0004         36.0004
 -21753498.22648 -16907118.85948  20614985.0794   20614992.7114   20614985.551
        53.0004         48.0004
 -26488644.72149 -20613954.41348  20119468.2414   20119473.4834   20119467.453
        54.0004         50.0004
   -953861.14047   -708145.65546  24196467.8484   24196478.4134   24196468.091
        42.0004         37.0004
 -18143334.69648 -14091962.25148  20648215.0424   20648221.9134   20648215.097
        52.0004         48.0004
 14  5  2  0 20 30.0000000  0 12G23G04G17G01G10G13G20G11G08G07G28G09
   7356936.18246   5750678.91845  25249239.6544   25249240.7204   25249237.803
        40.0004         35.0004
 -16323686.53447 -12671759.86147  22461529.6254   22461536.6534   22461528.928
        47.0004         43.0004
 -16460172.72648 -12775422.83347  22082024.3754   22082032.0744   22082023.670
        51.0004         46.0004
 -10845631.27247  -8425113.32947  22556241.8034   22556253.3634   22556241.093
        47.0004         42.0004
  -4076144.74646  -3171187.85846  24699629.3674   24699641.8854   24699629.766
