     2.11           OBSERVATION DATA    G (GPS)             RINEX VERSION / TYPE
teqc  2008Oct2      gpsops              20090206 17:16:56UTCPGM / RUN BY / DATE
    30.0000                                                 INTERVAL
     1     1                                                WAVELENGTH FACT L1/2
     7    L1    L2    P1    P2    C1    S1    S2            # / TYPES OF OBSERV
Linux 2.4.20-8|Pentium IV|gcc -static|Linux|486/DX+         COMMENT
     2.10           OBSERVATION DATA    GPS                 COMMENT
soc2rnx ver 1.20    gpsops               6-Feb-2009 17:16:55COMMENT
S1, if present, is the SNR for the C/A data stream on L1.   COMMENT
 SNR is mapped to RINEX snr flag value [1,4-9]              COMMENT
    SNR:   >316  >100  >31.6  >10  >3.2    >0 bad=0         COMMENT
L1 & L2:      9     8     7     6     5     4     1         COMMENT
                                                            COMMENT
This data is provided as a public service by NASA/JPL.      COMMENT
No warranty is expressed or implied regarding suitability   COMMENT
for use.  For further information, contact:                 COMMENT
Dave Stowers, NASA/JPL m/s 238-600                          COMMENT
4800 Oak Grove Drive, Pasadena CA 91109 USA                 COMMENT
                                                            COMMENT
Forced Modulo Decimation to 30 seconds                      COMMENT
  2009     1    28     0     0    0.0000000     GPS         TIME OF FIRST OBS
GGN                 JPL                                     OBSERVER / AGENCY
CR519992104         ASH701945B_M    SCIT                    ANT # / TYPE
   -33801.4662 -6377516.5323   -82154.3508                  APPROX POSITION XYZ
        0.0083        0.0000        0.0000                  ANTENNA: DELTA H/E/N
ZR220013847         ASHTECH UZ-12       CQ00                REC # / TYPE / VERS
GLPS                                                        MARKER NAME
42005M002                                                   MARKER NUMBER
                                                            END OF HEADER
 09  1 28  0  0  0.0000000  0 12G 5G30G 9G14G 6G18G24G22G29G31G12G21
 123677689.20447  96372207.19647  23535096.2984   23535098.9864   23535096.6474
        45.000          40.000
 120296847.01047  93737794.91447  22891735.2444   22891737.5234   22891735.1094
        49.000          42.000
 124724422.81847  97187850.84847  23734275.7984   23734279.2054   23734275.7824
        44.000          38.000
 117345781.20947  91438258.83847  22330169.2854   22330170.4244   22330168.5884
        49.000          43.000
 126346772.84647  98452006.58847  24043010.4604   24043014.4014   24043011.4944
        43.000          37.000
 120914362.38047  94218971.36647  23009248.7204   23009249.0414   23009247.8694
        47.000          41.000
 118414947.22747  92271371.83347  22533627.0354   22533630.7974   22533626.4704
        48.000          42.000
 124210809.82847  96787647.21447  23636527.9884   23636528.3684   23636528.7924
        46.000          39.000
 124317253.46047  96870571.55647  23656799.0054   23656801.6614   23656798.3364
        45.000          40.000
 114761460.67147  89424504.85247  21838386.8244   21838388.3024   21838386.4464
        52.000          46.000
 128385636.36147 100040743.13447  24430983.4614   24430985.6654   24430982.5374
        45.000          39.000
 104853467.85447  81704010.80647  19952941.8804   19952943.7404   19952942.5924
        54.000          49.000
 09  1 28  0  0 30.0000000  0 12G 5G30G 9G14G 6G18G24G22G29G31G12G21
 123672632.89247  96368267.22147  23534133.9164   23534137.3504   23534134.2434
        46.000          40.000
 120269877.28547  93716779.55947  22886602.6754   22886605.7734   22886602.4334
        49.000          42.000
 124824597.72847  97265909.22447  23753338.2434   23753341.8284   23753338.3024
        44.000          37.000
 117381678.01047  91466230.39147  22336999.4644   22337001.7904   22337000.0124
        49.000          44.000
 126321889.60547  98432617.04347  24038276.3134   24038278.7904   24038276.0134
        44.000          38.000
 120877863.91347  94190531.01347  23002302.0164   23002304.0304   23002302.5154
        48.000          41.000
 118488325.20947  92328549.46147  22547590.0164   22547594.6104   22547590.0884
        48.000          42.000
 124169247.00947  96755260.65047  23628619.6204   23628620.0984   23628619.4294
        46.000          39.000
 124387112.71647  96925007.30447  23670092.4444   23670095.9234   23670092.1924
        45.000          40.000
 114677668.50647  89359212.27647  21822442.0364   21822443.8194   21822441.5134
        52.000          46.000
 128394237.82647 100047445.61347  24432619.8334   24432621.9454   24432619.5294
        45.000          39.000
 104859578.57647  81708772.41047  19954104.9144   19954106.3244   19954105.2924
        54.000          49.000
 09  1 28  0  1  0.0000000  0 12G 5G30G 9G14G 6G18G24G22G29G31G12G21
 123667773.57647  96364480.77647  23533209.4684   23533212.9244   23533209.9354
        46.000          40.000
 120242953.57247  93695800.04947  22881479.2504   22881482.2824   22881478.8004
        49.000          42.000
 124925023.17447  97344162.83447  23772448.9064   23772451.8194   23772448.7634
        44.000          37.000
 117417747.92947  91494336.83947  22343863.1264   22343865.7854   22343863.4554
        49.000          44.000
 126297270.07847  98413433.02147  24033590.6224   24033595.0334   24033590.7874
        44.000          38.000
 120841290.04947  94162031.91147  22995342.6984   22995344.1954   22995342.9674
        48.000          41.000
 118562063.63047  92386007.95747  22561622.0074   22561626.4504   22561622.1124
        48.000          42.000
 124127485.16247  96722718.97247  23620672.5164   23620672.8984   23620671.9384
        45.000          40.000
 124456830.40347  96979332.72247  23683359.5034   23683362.4964   23683358.8624
        44.000          39.000
 114594219.97747  89294187.45947  21806562.2044   21806564.0334   21806561.7604
        52.000          46.000
 128403014.67547 100054284.75547  24434290.1824   24434292.4094   24434289.7554
        44.000          39.000
 104866308.12947  81714016.22347  19955385.5164   19955386.9424   19955386.0484
        54.000          50.000
 09  1 28  0  1 30.0000000  0 12G 5G30G 9G14G 6G18G24G22G29G31G12G21
 123663111.51347  96360848.01647  23532321.8504   23532325.5614   23532322.2604
        45.000          40.000
 120216076.58447  93674856.95347  22876365.0194   22876367.6854   22876364.8594
        49.000          42.000
 125025694.84847  97422608.33347  23791606.1354   23791609.3404   23791606.0284
        45.000          37.000
 117453986.51247  91522574.70747  22350759.0974   22350761.6194   22350759.3274
        49.000          44.000
 126272911.49347  98394452.31547  24028955.9414   24028959.2034   24028956.2794
        44.000          38.000
 120804641.28847  94133474.42747  22988368.5514   22988370.1554   22988368.8614
        48.000          41.000
 118636158.93247  92443744.55047  22575722.1504   22575725.9544   22575722.1474
        48.000          42.000
 124085523.42747  96690021.53247  23612687.1874   23612688.0494   23612687.0464
        47.000          40.000
 124526403.52347  97033545.51247  23696598.8884   23696602.2884   23696598.1584
        44.000          40.000
 114511116.28147  89229431.34247  21790748.2554   21790749.7814   21790747.9074
        52.000          46.000
 128411967.08447 100061260.70747  24435993.2294   24435995.7984   24435992.5724
        44.000          39.000
 104873655.17747  81719741.19947  19956783.5704   19956785.0674   19956783.9584
        54.000          49.000
 09  1 28  0  2  0.0000000  0 12G 5G30G 9G14G 6G18G24G22G29G31G12G21
 123658648.73947  96357370.56047  23531472.8224   23531476.2434   23531473.3544
        45.000          40.000
 120189248.42747  93653951.90647  22871259.2854   22871262.5424   22871259.2384
        49.000          42.000
 125126609.87747  97501243.44747  23810809.7744   23810813.1684   23810809.8584
        44.000          37.000
 117490391.13647  91550941.97347  22357686.6634   22357689.2564   22357686.9374
        49.000          44.000
 126248812.58947  98375673.96147  24024369.9714   24024373.6134   24024369.6894
        43.000          38.000
 120767918.94947  94104859.62247  22981380.6464   22981382.1334   22981381.0544
        48.000          41.000
 118710609.10347  92501757.65547  22589889.4914   22589893.0854   22589889.9084
        48.000          42.000
 124043362.22147  96657168.67147  23604664.6994   23604664.9494   23604664.8474
        48.000          40.000
 124595830.37747  97087644.33047  23709810.1094   23709813.5544   23709809.8924
        45.000          39.000
 114428360.27447  89164946.15447  21775000.2644   21775001.6014   21774999.8614
        52.000          46.000
 128421096.78647 100068374.80747  24437730.7654   24437733.1224   24437730.3414
        44.000          39.000
 104881619.49447  81725947.16147  19958298.9414   19958300.6034   19958299.3184
        54.000          49.000
 09  1 28  0  2 30.0000000  0 12G 5G30G 9G14G 6G18G24G22G29G31G12G21
 123654388.06747  96354050.56947  23530661.6744   23530665.6964   23530661.7944
        44.000          40.000
 120162472.27847  93633087.37647  22866164.1534   22866167.3564   22866164.0744
        48.000          42.000
 125227766.35547  97580066.71347  23830059.2974   23830062.1134   23830059.2994
        44.000          37.000
 117526960.08347  91579437.27447  22364645.6954   22364647.9824   22364645.8454
        49.000          44.000
 126224973.11047  98357097.74047  24019833.7644   24019836.9204   24019833.8444
        44.000          38.000
 120731126.29147  94076190.02847  22974379.2964   22974380.8504   22974379.8854
        48.000          41.000
 118785412.79047  92560046.23847  22604124.3794   22604128.0364   22604124.4754
        48.000          42.000
 124001003.69147  96624162.04447  23596603.9704   23596604.0094   23596604.1464
        47.000          40.000
 124665109.97447  97141628.40447  23722993.5174   23722996.9324   23722993.4864
        44.000          40.000
 114345955.55947  89100734.70347  21759318.8314   21759320.5214   21759318.4704
        52.000          46.000
 128430406.18847 100075628.91847  24439502.2634   24439504.5094   24439501.7414
        44.000          39.000
 104890202.25147  81732635.02047  19959932.2394   19959933.8584   19959932.6094
        54.000          49.000
 09  1 28  0  3  0.0000000  0 12G 5G30G 9G14G 6G18G24G22G29G31G12G21
 123650330.80847  96350889.08947  23529889.8404   23529893.4174   23529890.3914
        45.000          39.000
 120135749.84447  93612264.70247  22861078.9884   22861081.9564   22861078.5784
        48.000          42.000
 125329160.53947  97659075.21247  23849353.3494   23849357.2274   23849353.7244
        44.000          37.000
 117563689.46247  91608057.58447  22371635.0274   22371637.4144   22371635.2294
        49.000          43.000
 126201391.12347  98338722.17847  24015345.7574   24015349.5674   24015345.8334
        43.000          38.000
 120694264.44947  94047466.52347  22967364.4854   22967366.0244   22967364.9124
        49.000          42.000
 118860567.46547  92618608.30347  22618425.6744   22618429.8934   22618425.9094
        48.000          42.000
 123958448.11547  96591001.87347  23588505.7924   23588506.0504   23588505.9644
        47.000          40.000
 124734240.41847  97195496.24147  23736148.9104   23736152.1634   23736148.3054
        44.000          39.000
 114263904.11047  89036798.51647  21743705.1364   21743706.5384   21743704.4224
        52.000          46.000
 128439896.31747 100083023.85747  24441308.0124   24441310.7304   24441307.9084
        45.000          39.000
 104899402.59947  81739804.12247  19961683.0384   19961684.6084   19961683.3294
        54.000          49.000
 09  1 28  0  3 30.0000000  0 12G 5G30G 9G14G 6G18G24G22G29G31G12G21
 123646479.88047  96347888.38547  23529156.7654   23529160.3734   23529157.2054
        45.000          40.000
 120109084.01147  93591486.15247  22856004.7244   22856007.6284   22856004.2514
        48.000          42.000
 125430790.81647  97738267.66347  23868693.6604   23868696.4524   23868693.5384
        44.000          37.000
 117600578.21047  91636802.08047  22378654.6294   22378657.3214   22378654.7934
        49.000          43.000
 126178066.42747  98320547.07947  24010907.4974   24010910.9944   24010907.6334
        43.000          38.000
 120657335.93247  94018691.06647  22960337.3464   22960339.1294   22960337.7784
        48.000          42.000
 118936071.86547  92677442.89147  22632793.7644   22632797.6934   22632793.7814
        48.000          42.000
 123915696.98347  96557689.32547  23580370.4594   23580371.3284   23580370.6584
        47.000          41.000
 124803221.20647  97249247.47147  23749275.5044   23749279.2054   23749274.8554
        44.000          40.000
 114182209.36147  88973140.28947  21728159.2574   21728160.5114   21728158.9874
        52.000          46.000
 128449569.71347 100090561.60747  24443149.0924   24443151.4154   24443148.5774
        44.000          39.000
 104909221.24347  81747455.01547  19963551.5064   19963552.9614   19963551.9354
        54.000          49.000
 09  1 28  0  4  0.0000000  0 12G 5G30G 9G14G 6G18G24G22G29G31G12G21
 123642835.34947  96345048.51847  23528463.3114   23528467.4264   23528463.9004
        45.000          40.000
 120082475.04547  93570751.90247  22850940.9884   22850943.8714   22850940.5074
        49.000          42.000
 125532652.14347  97817640.17547  23888076.9574   23888079.7094   23888077.1134
        43.000          37.000
 117637621.50047  91665667.00547  22385703.7784   22385706.1014   22385704.1884
        49.000          44.000
 126154996.06347  98302570.17947  24006517.3794   24006520.7884   24006517.1824
        44.000          38.000
 120620340.96747  93989863.82947  22953297.4254   22953299.0004   22953297.6884
        48.000          42.000
 119011922.20547  92736547.03347  22647227.6524   22647231.6374   22647227.8364
        48.000          42.000
 123872749.63347  96524223.88147  23572197.6594   23572198.6544   23572197.8294
        46.000          40.000
 124872048.69947  97302879.24947  23762372.8884   23762376.5144   23762372.4884
        44.000          40.000
 114100872.29847  88909760.76947  21712681.2134   21712682.4464   21712680.7854
        52.000          46.000
 128459426.10647 100098241.94347  24445024.0704   24445026.6564   24445023.9164
        43.000          39.000
 104919656.54847  81755586.42347  19965537.0804   19965538.6924   19965537.4754
        54.000          49.000
 09  1 28  0  4 30.0000000  0 12G 5G30G 9G14G 6G18G24G22G29G31G12G21
 123639403.23247  96342374.15647  23527810.2224   23527813.9824   23527810.5664
        45.000          40.000
 120055929.36047  93550066.97247  22845889.6664   22845892.4284   22845889.3674
        48.000          42.000
 125634745.76947  97897193.67447  23907504.8774   23907507.3874   23907505.0304
        43.000          37.000
 117674820.68447  91694653.39947  22392782.2934   22392784.8664   22392782.7274
        49.000          43.000
 126132182.64847  98284793.50547  24002176.4494   24002179.3244   24002176.3574
        42.000          38.000
 120583285.31047  93960989.30847  22946246.0834   22946247.6274   22946246.5974
        48.000          42.000
 119088120.17147  92795922.06447  22661727.6984   22661731.6734   22661727.6354
        48.000          42.000
 123829610.49647  96490608.98147  23563988.4614   23563989.2144   23563988.4024
        47.000          40.000
 124940725.45747  97356393.58147  23775441.6954   23775445.0414   23775441.2134
        44.000          40.000
 114019899.76647  88846665.30047  21697272.6724   21697274.0604   21697272.2804
        52.000          46.000
 128469471.31747 100106069.42347  24446936.1154   24446938.3144   24446935.8504
        44.000          39.000
 104930712.03547  81764201.09047  19967641.0794   19967642.4164   19967641.3864
        54.000          49.000
 09  1 28  0  5  0.0000000  0 12G 5G30G 9G14G 6G18G24G22G29G31G12G21
 123636183.03047  96339864.93747  23527197.5164   23527201.3524   23527198.2254
        45.000          40.000
 120029446.96647  93529431.34847  22840849.9664   22840853.0924   22840849.5024
        49.000          42.000
 125737066.27147  97976923.96447  23926976.2434   23926978.2984   23926976.1564
        42.000          36.000
 117712170.79447  91723757.39847  22399890.1034   22399892.0744   22399890.1534
        49.000          43.000
 126109622.70847  98267214.34847  23997882.7844   23997886.3094   23997882.5444
        42.000          37.000
 120546168.80247  93932067.36147  22939183.1124   22939184.3594   22939183.3454
        48.000          42.000
 119164661.43847  92855564.59147  22676293.1184   22676297.0384   22676293.2704
        48.000          42.000
 123786278.39147  96456843.73147  23555742.7734   23555743.2494   23555742.7914
        46.000          40.000
 125009247.45047  97409787.31247  23788481.0204   23788483.9474   23788481.0434
        45.000          40.000
 113939291.87747  88783853.97047  21681933.5174   21681935.0004   21681933.1534
        52.000          47.000
 128479704.49947 100114043.35347  24448883.3024   24448885.5754   24448882.8974
        44.000          39.000
 104942385.53747  81773297.32847  19969862.5484   19969863.7854   19969862.9064
        54.000          49.000
 09  1 28  0  5 30.0000000  0 12G 5G30G 9G14G 6G18G24G22G29G31G12G21
 123633175.16147  96337521.16147  23526625.2084   23526628.7874   23526625.4324
        45.000          40.000
 120003028.08747  93508845.23147  22835823.1254   22835825.5704   22835822.8054
        49.000          42.000
 125839608.97547  98056827.38547  23946488.7124   23946491.8774   23946489.0514
        41.000          37.000
 117749667.60447  91752975.70847  22407025.2854   22407027.5284   22407025.4384
        49.000          43.000
 126087313.47447  98249830.53247  23993637.5604   23993640.6324   23993637.7684
        43.000          37.000
 120508991.37747  93903097.94947  22932108.5594   22932109.9284   22932108.7584
        48.000          41.000
 119241542.52347  92915471.91647  22690923.0704   22690927.1654   22690923.2414
        48.000          42.000
 123742752.40847  96422927.39947  23547459.9854   23547460.4814   23547459.8824
        47.000          40.000
 125077612.06947  97463058.41147  23801490.9694   23801493.5424   23801490.6484
        46.000          40.000
 113859049.88947  88721327.75647  21666663.8554   21666665.3534   21666663.4114
        52.000          46.000
 128490125.93847 100122163.99947  24450866.6084   24450868.8584   24450866.6114
        44.000          39.000
 104954675.13947  81782873.64547  19972201.1404   19972202.5364   19972201.5064
        54.000          49.000
 09  1 28  0  6  0.0000000  0 12G 5G30G 9G14G 6G18G24G22G29G31G12G21
 123630384.28647  96335346.46647  23526094.0044   23526097.7624   23526094.5904
        46.000          40.000
 119976678.05147  93488312.74147  22830808.5774   22830811.2154   22830808.4364
        49.000          42.000
 125942373.95547  98136904.02247  23966044.1204   23966047.2574   23966044.2424
        41.000          37.000
 117787310.98447  91782308.22147  22414188.3234   22414190.8944   22414188.6574
        49.000          43.000
 126065256.37547  98232643.20247  23989440.0614   23989443.7054   23989440.7064
        43.000          37.000
 120471757.68147  93874084.70047  22925022.7474   22925024.3104   22925023.1344
        48.000          41.000
 119318763.76747  92975644.30047  22705617.8184   22705621.7874   22705617.6934
        48.000          42.000
 123699036.02747  96388862.69847  23539141.5254   23539141.7054   23539141.3754
        47.000          40.000
 125145820.20847  97516207.56247  23814470.5234   23814473.4454   23814470.5104
        45.000          40.000
 113779179.35947  88659090.99947  21651464.7364   21651466.5954   21651464.4714
        52.000          46.000
 128500740.01947 100130434.74947  24452886.2674   24452888.7294   24452886.1214
        44.000          39.000
 104967583.26447  81792931.92547  19974657.3554   19974658.8874   19974657.7274
        54.000          49.000
 09  1 28  0  6 30.0000000  0 12G 5G30G 9G14G 6G18G24G22G29G31G12G21
 123627810.68647  96333341.07947  23525604.7494   23525608.1854   23525605.2184
        46.000          40.000
 119950397.37847  93467834.31247  22825807.6654   22825810.2884   22825807.3974
        48.000          42.000
 126045356.86147  98217150.44547  23985641.4414   23985644.4134   23985641.0374
        41.000          37.000
 117825096.86447  91811751.77947  22421379.1484   22421381.2714   22421379.3534
        49.000          44.000
 126043448.52947  98215650.06647  23985290.1664   23985294.2874   23985290.3414
        42.000          37.000
 120434468.15747  93845027.93747  22917926.7974   22917928.3004   22917926.9864
        48.000          41.000
 119396321.32047  93036078.73947  22720376.2674   22720380.3074   22720376.7144
        48.000          42.000
 123655128.76247  96354649.26547  23530786.1534   23530786.3024   23530786.0424
        46.000          40.000
 125213868.76147  97569232.38547  23827419.5434   23827422.8164   23827419.2234
        45.000          40.000
 113699680.98047  88597144.22047  21636336.5794   21636338.5394   21636335.8744
        52.000          46.000
 128511546.54747 100138855.43047  24454942.6864   24454944.8474   24454942.1664
        44.000          39.000
 104981108.23947  81803470.86547  19977231.1354   19977232.4114   19977231.5594
        54.000          49.000
 09  1 28  0  7  0.0000000  0 12G 5G30G 9G14G 6G18G24G22G29G31G12G21
 123625458.60247  96331508.30947  23525156.9134   23525160.4904   23525157.2634
        45.000          40.000
 119924190.73147  93447413.56447  22820820.6224   22820823.3654   22820820.1514
        49.000          42.000
 126148556.94847  98297566.10147  24005279.3894   24005282.5974   24005279.4324
        40.000          37.000
 117863024.76447  91841306.00747  22428596.5574   22428598.4894   22428596.8394
        49.000          43.000
 126021890.96647  98198851.97247  23981188.3774   23981191.5174   23981188.7174
        43.000          38.000
 120397127.09547  93815931.02047  22910821.0714   22910822.8194   22910821.4544
        48.000          41.000
 119474215.50547  93096775.50447  22735199.2114   22735203.1954   22735199.1924
        48.000          42.000
 123611033.76647  96320289.55047  23522394.9364   23522395.2114   23522394.9844
        46.000          40.000
 125281758.60947  97622133.52447  23840338.8784   23840341.0844   23840338.7694
        45.000          40.000
 113620559.90747  88535491.45047  21621280.3554   21621282.1144   21621280.1804
        52.000          46.000
 128522549.52147 100147429.19547  24457036.3824   24457038.5144   24457036.2654
        44.000          39.000
 104995251.83047  81814491.84547  19979922.4814   19979923.9374   19979922.9384
        54.000          49.000
 09  1 28  0  7 30.0000000  0 12G 5G30G 9G14G 6G18G24G22G29G31G12G21
 123623327.30547  96329847.57247  23524751.3874   23524755.0504   23524752.1164
        45.000          40.000
 119898057.27947  93427049.84947  22815847.7454   22815850.2704   22815847.3144
        49.000          42.000
 126251968.70147  98378146.72147  24024958.1994   24024960.9104   24024958.3204
        42.000          37.000
 117901089.17547  91870966.60447  22435839.9734   22435842.4294   22435840.1134
        49.000          43.000
 126000579.60947  98182245.72647  23977133.1964   23977136.2284   23977132.4234
        43.000          38.000
 120359733.58947  93786793.22847  22903705.2524   22903707.0654   22903705.5164
        48.000          41.000
 119552441.47447  93157730.79647  22750084.8564   22750089.0414   22750084.8324
        48.000          42.000
 123566749.12447  96285782.05247  23513967.9714   23513968.0894   23513968.1474
        46.000          40.000
 125349485.55947  97674907.74347  23853227.0994   23853228.8544   23853226.8764
        45.000          39.000
 113541816.03547  88474132.60447  21606295.9884   21606297.4654   21606295.4794
        52.000          47.000
 128533748.03947 100156155.32547  24459167.7834   24459169.8304   24459166.8124
        44.000          38.000
 105010011.17447  81825992.63247  19982731.0484   19982732.6024   19982731.4694
        54.000          49.000
 09  1 28  0  8  0.0000000  0 12G 5G30G 9G14G 6G18G24G22G29G31G12G21
 123621419.31647  96328360.86447  23524387.9424   23524391.2854   23524388.5194
        44.000          39.000
 119872000.25847  93406745.68947  22810889.1524   22810892.0634   22810888.8394
        49.000          42.000
 126355589.72947  98458890.37447  24044676.6994   24044679.5794   24044677.2634
        42.000          37.000
 117939288.47847  91900732.31747  22443109.0774   22443111.6154   22443109.3654
        49.000          43.000
 125979514.06347  98165831.02247  23973123.3624   23973127.4514   23973123.9084
        42.000          37.000
 120322290.39347  93757616.72547  22896579.6364   22896582.1224   22896580.3824
        48.000          41.000
 119630997.71347  93218943.43647  22765033.6004   22765037.8394   22765034.2114
        48.000          42.000
 123522276.64447  96251128.18947  23505505.1114   23505505.1134   23505505.1104
        46.000          40.000
 125417049.05447  97727554.59447  23866083.8454   23866085.8454   23866083.4514
        45.000          39.000
 113463452.75447  88413070.32147  21591384.2334   21591385.6214   21591383.8694
        53.000          47.000
 128545144.26247 100165035.54347  24461335.6014   24461337.7104   24461335.4244
        44.000          38.000
 105025386.75047  81837973.60147  19985657.0564   19985658.4774   19985657.3954
        54.000          49.000
 09  1 28  0  8 30.0000000  0 12G 5G30G 9G14G 6G18G24G22G29G31G12G21
 123619738.55447  96327051.19647  23524067.9394   23524071.7554   23524068.5214
        45.000          39.000
 119846023.48747  93386504.06147  22805946.0884   22805948.8184   22805945.6114
        49.000          43.000
 126459418.98747  98539796.31447  24064435.0514   24064437.5104   24064435.3974
        43.000          38.000
 117977621.79547  91930602.45947  22450403.5314   22450405.6414   22450403.6274
        49.000          43.000
 125958694.88447  98149608.29747  23969162.0054   23969165.5504   23969162.0444
        43.000          38.000
 120284801.46447  93728404.57147  22889446.1024   22889447.4314   22889446.6484
        48.000          41.000
 119709884.03147  93280413.27847  22780045.1174   22780049.4404   22780045.1774
        48.000          41.000
 123477619.25447  96216330.25947  23497007.0024   23497007.0944   23497006.8304
        47.000          40.000
 125484449.77447  97780074.61647  23878909.9854   23878912.0544   23878909.8254
        45.000          39.000
 113385474.71247  88352308.22247  21576545.5524   21576546.8754   21576545.2774
        53.000          47.000
 128556741.53847 100174072.39247  24463543.3654   24463545.1474   24463542.6104
        44.000          38.000
 105041380.00747  81850435.87647  19988700.4804   19988701.8024   19988700.9064
        54.000          49.000
 09  1 28  0  9  0.0000000  0 12G 5G30G 9G14G 6G18G24G22G29G31G12G21
 123618284.59547  96325918.25847  23523790.9034   23523794.7444   23523791.6064
        44.000          39.000
 119820127.01447  93366325.01347  22801017.9244   22801020.9844   22801017.6734
        49.000          43.000
 126563451.33047  98620860.50447  24084232.0734   24084234.6604   24084232.2824
        43.000          38.000
 118016084.18147  91960573.16947  22457722.6394   22457725.1664   22457722.9264
        49.000          43.000
 125938118.54447  98133574.80047  23965246.7654   23965250.5434   23965246.6864
        42.000          37.000
 120247266.39647  93699156.46347  22882303.6344   22882305.0264   22882304.0374
        48.000          41.000
 119789095.83947  93342136.74847  22795119.0544   22795123.3334   22795119.1674
        48.000          42.000
 123432775.60247  96181387.17047  23488473.2294   23488473.8914   23488473.2394
        47.000          40.000
 125551683.78447  97832464.72247  23891704.3434   23891706.4014   23891703.8274
        44.000          39.000
 113307881.97047  88291846.35747  21561780.1654   21561781.4454   21561779.7654
        53.000          47.000
 128568539.35447 100183265.53247  24465787.9304   24465789.9324   24465787.3894
        43.000          38.000
 105057988.32247  81863377.41747  19991860.9994   19991862.2954   19991861.4774
        54.000          49.000
 09  1 28  0  9 30.0000000  0 12G 5G30G 9G14G 6G18G24G22G29G31G12G21
 123617062.11747  96324965.72047  23523558.1954   23523562.3644   23523558.6674
        45.000          39.000
 119794316.25647  93346212.74447  22796106.1274   22796108.6794   22796105.8194
        49.000          43.000
 126667686.52747  98702082.74147  24104066.8754   24104069.3804   24104067.3574
        44.000          38.000
 118054675.72247  91990644.51447  22465066.4344   22465068.8524   22465066.6324
        49.000          43.000
 125917786.43347  98117731.61447  23961377.3184   23961381.3864   23961377.5854
        42.000          37.000
 120209689.84447  93669876.03547  22875152.5314   22875154.5774   22875153.1694
        48.000          41.000
 119868633.96547  93404114.48947  22810254.8374   22810258.9314   22810255.1334
        48.000          42.000
 123387749.50647  96146301.92247  23479905.1684   23479905.4214   23479905.2134
        46.000          40.000
 125618752.43747  97884725.97847  23904466.8964   23904469.4434   23904466.3354
        44.000          39.000
 113230680.21647  88231689.16747  21547089.1204   21547090.6014   21547088.6934
        53.000          47.000
 128580542.04247 100192618.28847  24468071.5844   24468073.9014   24468070.9124
        44.000          38.000
 105075213.95847  81876799.99147  19995138.9564   19995140.2454   19995139.3474
        54.000          49.000
 09  1 28  0 10  0.0000000  0 12G 5G30G 9G14G 6G18G24G22G29G31G12G21
 123616070.50947  96324193.06647  23523369.8624   23523373.3484   23523370.3164
        45.000          39.000
 119768590.73447  93326166.91647  22791211.0824   22791213.5834   22791210.7714
        48.000          43.000
 126772119.19447  98783458.86647  24123939.7614   24123942.5564   24123940.0004
        43.000          38.000
 118093391.22647  92020812.45647  22472433.5504   22472435.8914   22472433.8694
        49.000          43.000
 125897694.77047  98102075.79347  23957553.8944   23957558.0814   23957554.4464
        43.000          37.000
 120172071.29347  93640562.88047  22867994.3204   22867996.1974   22867994.8474
        48.000          41.000
 119948493.51847  93466342.71747  22825451.6104   22825455.6224   22825451.8634
        48.000          41.000
 123342539.59847  96111073.43447  23471302.0594   23471302.1264   23471302.0594
        46.000          40.000
 125685652.06447  97936855.51847  23917196.9464   23917199.8534   23917196.3724
        44.000          39.000
 113153869.46647  88171836.64247  21532472.3834   21532473.9494   21532471.8324
        53.000          47.000
 128592748.87347 100202130.15747  24470394.7184   24470396.6934   24470394.3664
        44.000          38.000
 105093054.04047  81890701.35547  19998533.7944   19998535.1124   19998534.1784
        54.000          49.000
 09  1 28  0 10 30.0000000  0 12G 5G30G 9G14G 6G18G24G22G29G31G12G21
 123615313.29647  96323603.05547  23523225.7044   23523229.5284   23523226.4424
        45.000          39.000
 119742954.39847  93306190.56647  22786332.1634   22786335.4224   22786331.8844
        49.000          42.000
 126876748.28147  98864988.04747  24143849.9034   24143853.0274   24143850.0284
        44.000          38.000
 118132229.73147  92051076.23847  22479823.9824   22479826.5554   22479824.4704
        49.000          43.000
 125877843.86847  98086607.56147  23953776.4104   23953780.3894   23953776.6764
        43.000          37.000
 120134414.36247  93611219.82147  22860828.3794   22860830.2794   22860828.9084
        48.000          41.000
 120028673.68047  93528820.75447  22840709.4324   22840713.2584   22840709.3474
        48.000          41.000
 123297148.04247  96075703.42047  23462664.2394   23462664.5634   23462664.2124
        46.000          40.000
 125752382.79347  97988853.45647  23929895.7294   23929898.1214   23929895.4364
        44.000          39.000
 113077453.81247  88112291.99747  21517931.0064   21517932.5624   21517930.8724
        53.000          47.000
 128605162.86647 100211803.40247  24472757.0254   24472759.4094   24472756.2724
        44.000          38.000
 105111509.57947  81905082.29647  20002045.7554   20002047.2164   20002046.1834
        54.000          49.000
 09  1 28  0 11  0.0000000  0 12G 5G30G 9G14G 6G18G24G22G29G31G12G21
 123614790.94447  96323196.03847  23523126.5564   23523130.2154   23523127.0464
        45.000          40.000
 119717407.89947  93286284.21747  22781471.1824   22781473.7024   22781470.8714
        49.000          42.000
 126981569.37247  98946666.84647  24163796.3144   24163799.9504   24163796.8064
        43.000          37.000
 118171187.16947  92081432.69147  22487237.6054   22487239.9374   22487237.9354
        49.000          43.000
 125858230.86647  98071324.71047  23950043.7304   23950048.0724   23950044.3344
        43.000          37.000
 120096719.54147  93581847.23647  22853655.4204   22853657.1814   22853655.8314
        49.000          41.000
 120109171.04147  93591545.95847  22856027.7794   22856031.2844   22856028.0174
        48.000          42.000
 123251574.78247  96040191.82347  23453991.7714   23453992.5194   23453991.5874
        46.000          40.000
 125818941.92847  98040717.68847  23942561.2234   23942564.1194   23942561.2434
        45.000          39.000
 113001434.65447  88053056.29147  21503464.8974   21503466.5684   21503464.2924
        52.000          47.000
 128617784.26747 100221638.30347  24475158.5354   24475160.9064   24475158.2744
        43.000          38.000
 105130578.59247  81919941.26947  20005674.3004   20005675.7954   20005674.6434
        54.000          49.000
 09  1 28  0 11 30.0000000  0 12G 5G30G 9G14G 6G18G24G22G29G31G12G21
 123614509.86947  96322977.03747  23523073.0044   23523076.6234   23523073.4124
        44.000          40.000
 119691958.49747  93266453.52247  22776627.9444   22776630.8854   22776627.7824
        49.000          42.000
 127086584.24347  99028496.65247  24183780.0284   24183782.9164   24183780.2984
        42.000          37.000
 118210265.67647  92111883.50047  22494674.1604   22494676.3234   22494674.2664
        49.000          43.000
 125838859.13147  98056229.85147  23946358.4884   23946361.6214   23946358.4294
        42.000          38.000
 120058993.90947  93552450.63947  22846476.6054   22846478.0884   22846476.7104
        49.000          42.000
 120189987.96147  93654520.17147  22871406.4024   22871410.2384   22871406.6994
        48.000          41.000
 123205825.44547  96004543.00847  23445286.2454   23445286.5724   23445286.2094
        47.000          41.000
 125885332.50547  98092450.58647  23955194.9514   23955198.0244   23955194.7934
        45.000          39.000
 112925819.05047  87994135.05647  21489075.8204   21489077.3724   21489075.5734
        53.000          47.000
 128630619.01847 100231639.41547  24477600.6164   24477603.0684   24477599.9804
        43.000          38.000
 105150265.29647  81935281.56147  20009420.5634   20009422.0614   20009420.9554
        54.000          49.000
 09  1 28  0 12  0.0000000  0 12G 5G30G 9G14G 6G18G24G22G29G31G12G21
 123614465.36447  96322942.37947  23523064.3304   23523068.3754   23523064.5264
        46.000          40.000
 119666601.40847  93246694.76347  22771802.8574   22771805.7004   22771802.1394
        49.000          43.000
 127191783.20347  99110469.87847  24203798.9494   24203801.9414   24203799.1274
        41.000          37.000
 118249455.67547  92142421.18547  22502131.6684   22502134.3034   22502131.8724
        49.000          43.000
 125819720.52347  98041316.68447  23942715.5774   23942720.0134   23942715.8364
        43.000          38.000
 120021232.59547  93523026.23947  22839290.3534   22839292.4084   22839290.4364
        48.000          41.000
 120271115.44347  93717736.37747  22886844.5154   22886848.4944   22886844.4674
        47.000          41.000
 123159894.43247  95968752.63347  23436545.5994   23436546.3854   23436545.5964
        47.000          41.000
 125951546.72347  98144046.06647  23967795.4834   23967798.2224   23967795.1164
        44.000          39.000
 112850602.75447  87935524.96847  21474762.4494   21474764.0844   21474762.2224
        53.000          47.000
 128643662.10847 100241802.89247  24480083.3754   24480085.1444   24480082.9924
        45.000          38.000
 105170562.53747  81951097.59347  20013282.9304   20013284.5374   20013283.3034
        54.000          49.000
 09  1 28  0 12 30.0000000  0 12G 5G30G 9G14G 6G18G24G22G29G31G12G21
 123614661.26347  96323095.04847  23523101.8464   23523105.4524   23523102.0194
        45.000          40.000
 119641341.10647  93227011.42547  22766996.3124   22766998.9754   22766995.8564
        49.000          43.000
 127297165.38647  99192585.89847  24223852.2434   24223855.0484   24223852.5274
        41.000          36.000
 118288756.52547  92173045.23247  22509610.1864   22509612.7284   22509610.6774
        49.000          43.000
 125800815.83647  98026585.75947  23939119.0014   23939122.5284   23939119.2184
        43.000          37.000
 119983439.64347  93493577.19347  22832098.8434   22832100.8494   22832099.1024
        48.000          41.000
 120352553.50647  93781194.59547  22902341.3644   22902345.4484   22902341.3994
        47.000          41.000
 123113784.45647  95932822.81447  23427771.2304   23427771.8094   23427771.3484
        47.000          41.000
 126017585.51447  98195504.84247  23980362.2424   23980365.6634   23980361.8244
        44.000          39.000
 112775790.55247  87877229.75847  21460526.3214   21460527.8204   21460525.8484
        53.000          47.000
 128656917.48147 100252131.76547  24482605.6934   24482607.8644   24482605.1774
        45.000          38.000
 105191471.56347  81967390.34347  20017262.0684   20017263.4994   20017262.4854
        54.000          49.000
 09  1 28  0 13  0.0000000  0 12G 5G30G 9G14G 6G18G24G22G29G31G12G21
 123615101.77047  96323438.32247  23523185.3324   23523189.3064   23523186.0144
        46.000          40.000
 119616182.38047  93207407.23847  22762208.7134   22762211.0134   22762208.0104
        50.000          43.000
 127402730.11947  99274844.14447  24243940.8464   24243943.3384   24243941.2734
        42.000          36.000
 118328168.25147  92203755.67847  22517110.2164   22517112.4214   22517110.1864
        49.000          43.000
 125782145.92547  98012037.78247  23935565.7264   23935569.6354   23935565.7224
        43.000          37.000
 119945619.65347  93464107.07547  22824901.8864   22824903.9114   22824902.0994
        49.000          42.000
 120434302.08547  93844894.77347  22917897.6784   22917901.6654   22917897.8274
        48.000          41.000
 123067499.46047  95896756.60747  23418963.7254   23418964.1244   23418963.7224
        47.000          41.000
 126083449.94047  98246827.75147  23992895.4574   23992899.0054   23992894.5194
        43.000          39.000
 112701387.38247  87819253.27647  21446367.8824   21446369.2844   21446367.6144
        53.000          47.000
 128670388.69347 100262628.84547  24485168.9794   24485170.7024   24485168.9824
        44.000          38.000
 105212994.08247  81984161.13547  20021357.5774   20021359.1654   20021357.9434
        54.000          49.000
 09  1 28  0 13 30.0000000  0 12G 5G30G 9G14G 6G18G24G22G29G31G12G21
 123615787.31047  96323972.53247  23523316.1004   23523319.7354   23523316.5644
        46.000          39.000
 119591126.04947  93187882.84647  22757440.7834   22757443.1514   22757440.4694
        50.000          43.000
 127508473.33747  99357241.47447  24264063.3554   24264065.3454   24264063.5474
        41.000          36.000
 118367686.62047  92234549.24147  22524630.1324   22524632.4274   22524630.2834
        49.000          43.000
 125763708.19747  97997670.72647  23932058.0264   23932061.1024   23932057.7154
        43.000          37.000
 119907773.12647  93434616.27347  22817699.7124   22817701.9494   22817700.2724
        49.000          42.000
 120516357.57247  93908834.10047  22933511.8914   22933516.3054   22933511.8494
        46.000          40.000
 123021038.75247  95860553.49247  23410122.7644   23410122.7334   23410122.7144
        47.000          41.000
 126149136.87847  98298012.33247  24005395.1014   24005398.9104   24005394.5824
        43.000          39.000
 112627394.05147  87761596.14647  21432287.3564   21432288.8084   21432287.0204
        53.000          47.000
 128684076.05247 100273294.33847  24487772.9134   24487775.7214   24487772.6544
        43.000          38.000
 105235128.29047  82001408.57147  20025569.4374   20025571.0964   20025569.7814
        54.000          49.000
 09  1 28  0 14  0.0000000  0 12G 5G30G 9G14G 6G18G24G22G29G31G12G21
 123616720.03347  96324699.34247  23523493.8324   23523496.9714   23523494.1934
        45.000          39.000
 119566174.71947  93168440.25847  22752692.5414   22752695.1614   22752692.1624
        49.000          43.000
 127614392.20247  99439775.65347  24284218.9364   24284221.4744   24284218.8834
        40.000          36.000
 118407309.38347  92265424.14647  22532169.9844   22532172.2474   22532170.4084
        48.000          43.000
 125745501.46047  97983483.66547  23928592.3674   23928596.1914   23928592.4034
        43.000          37.000
 119869902.26047  93405106.50447  22810493.6224   22810495.3334   22810494.1394
        49.000          42.000
 120598717.86547  93973010.93247  22949184.6754   22949188.8874   22949184.8504
        47.000          41.000
 122974404.33247  95824215.01347  23401248.1194   23401248.6404   23401247.9814
        47.000          41.000
 126214645.66947  98349058.10947  24017861.2864   24017864.6044   24017860.8334
        45.000          39.000
 112553813.60447  87704260.74747  21418285.2564   21418287.1094   21418284.8974
        53.000          47.000
 128697981.18847 100284129.52447  24490419.0994   24490422.0394   24490418.5314
        43.000          38.000
 105257873.56647  82019132.16247  20029897.7474   20029899.3804   20029898.1974
        54.000          49.000
 09  1 28  0 14 30.0000000  0 12G 5G30G 9G14G 6G18G24G22G29G31G12G21
 123617901.27047  96325619.81747  23523717.6874   23523722.0314   23523718.1614
        44.000          39.000
 119541330.15747  93149080.87547  22747964.4734   22747967.4614   22747964.3094
        49.000          43.000
 127720483.27947  99522444.03047  24304407.1054   24304409.8914   24304406.7804
        39.000          35.000
 118447033.57447  92296378.07347  22539729.4094   22539731.8264   22539729.5324
        48.000          43.000
 125727523.66747  97969474.99647  23925171.6904   23925175.1974   23925172.0814
        43.000          38.000
 119832008.88947  93375579.19947  22803282.6544   22803283.9754   22803283.0064
        49.000          42.000
 120681380.20547  94037423.12647  22964915.0964   22964919.3464   22964915.1044
        47.000          41.000
 122927596.07647  95787741.06747  23392340.7614   23392341.2414   23392340.6734
        47.000          41.000
 126279974.42747  98399963.63947  24030293.2234   24030295.8344   24030292.6994
        44.000          39.000
 112480647.97947  87647248.58947  21404362.3494   21404364.1804   21404362.0324
        53.000          47.000
 128712105.30547 100295135.35747  24493107.2904   24493109.0954   24493106.7834
        43.000          38.000
 105281228.64047  82037330.92447  20034342.0134   20034343.6494   20034342.4474
        54.000          49.000
 09  1 28  0 15  0.0000000  0 12G 5G30G 9G14G 6G18G24G22G29G31G12G21
 123619333.94947  96326736.21147  23523990.5214   23523994.7394   23523990.8424
        45.000          39.000
 119516595.52447  93129807.15147  22743257.7904   22743260.5024   22743257.5964
        49.000          43.000
 127826744.91147  99605245.31147  24324627.8874   24324630.7834   24324627.5954
        40.000          35.000
 118486857.38647  92327409.62347  22547307.6454   22547309.8804   22547307.8714
        49.000          43.000
 125709774.63247  97955644.59247  23921794.2314   23921797.5784   23921794.3944
        43.000          38.000
 119794096.21747  93346036.85847  22796068.0074   22796069.5624   22796068.3764
        49.000          42.000
 120764343.50147  94102069.83747  22980702.2464   22980706.8294   22980702.5014
        47.000          41.000
 122880615.95247  95751133.19847  23383400.9844   23383401.2734   23383401.0234
        48.000          42.000
 126345123.30447  98450728.94747  24042690.1394   24042693.2854   24042690.4464
        43.000          38.000
 112407900.87747  87590562.54747  21390519.0074   21390520.6644   21390518.5164
        53.000          47.000
 128726450.71847 100306313.61447  24495836.6494   24495839.8684   24495836.0704
        44.000          38.000
 105305193.83747  82056005.10747  20038902.4894   20038904.0574   20038902.8744
        54.000          49.000
 09  1 28  0 15 30.0000000  0 12G 5G30G 9G14G 6G18G24G22G29G31G12G21
 123621020.17347  96328050.16747  23524311.2534   23524314.9454   23524311.9954
        45.000          39.000
 119491973.70847  93110621.31647  22738572.1904   22738575.4444   22738572.0634
        49.000          43.000
 127933174.49647  99688177.46547  24344880.7874   24344883.6244   24344880.5904
        40.000          35.000
 118526778.58847  92358517.07447  22554904.3774   22554906.5324   22554904.5524
        48.000          43.000
 125692253.28947  97941991.60047  23918459.9134   23918463.9524   23918459.8074
        43.000          38.000
 119756166.49947  93316481.21447  22788850.1604   22788851.9184   22788850.6414
        49.000          42.000
 120847606.04647  94166949.72947  22996546.4434   22996551.2974   22996546.4374
        47.000          40.000
 122833466.56747  95714393.44947  23374428.5414   23374429.1344   23374428.7324
        48.000          42.000
 126410091.13147  98501353.23547  24055053.3514   24055056.2264   24055053.5214
        44.000          39.000
 112335575.17947  87534204.87047  21376756.1034   21376757.4004   21376755.6134
        53.000          47.000
 128741019.45347 100317665.90147  24498609.6304   24498611.6714   24498609.6244
        44.000          38.000
 105329769.04847  82075154.61947  20043578.9684   20043580.6234   20043579.4194
        54.000          49.000
 09  1 28  0 16  0.0000000  0 12G 5G30G 9G14G 6G18G24G22G29G31G12G21
 123622960.62647  96329562.23347  23524681.1694   23524684.4884   23524682.2564
        46.000          39.000
 119467465.57747  93091524.09447  22733908.9034   22733911.7804   22733908.9184
        49.000          43.000
 128039767.79147  99771237.20347  24365164.4184   24365167.3404   24365165.5724
        41.000          35.000
 118566793.45247  92389697.50447  22562519.0604   22562521.0544   22562519.0074
        48.000          43.000
 125674956.99147  97928513.98347  23915168.4694   23915172.0634   23915168.8564
        43.000          38.000
 119718220.52247  93286912.93547  22781629.1904   22781631.4114   22781629.7284
        48.000          42.000
 120931164.06547  94232059.86047  23012447.2094   23012451.9184   23012446.9084
        47.000          40.000
 122786147.26047  95677521.29247  23365424.0374   23365424.4964   23365424.0914
        48.000          42.000
 126474875.67647  98551834.64547  24067381.5304   24067384.4534   24067381.6274
        44.000          39.000
 112263672.00747  87478176.43947  21363073.3824   21363074.7314   21363073.1644
        53.000          47.000
 128755811.65847 100329192.30747  24501424.1414   24501426.1394   24501423.8874
        43.000          38.000
 105354951.85347  82094777.58347  20048371.2154   20048372.7304   20048371.6194
        54.000          49.000
 09  1 28  0 16 30.0000000  0 12G 5G30G 9G14G 6G18G24G22G29G31G12G21
 123625157.62647  96331274.20147  23525099.3144   23525102.3684   23525099.5994
        45.000          39.000
 119443074.06547  93072517.73047  22729267.1234   22729270.0824   22729266.6304
        49.000          43.000
 128146522.72447  99854422.87747  24385480.0764   24385482.7774   24385480.0554
        40.000          35.000
 118606900.07247  92420949.43447  22570150.9484   22570153.2984   22570151.1914
        48.000          43.000
 125657884.82047  97915210.98347  23911920.0944   23911923.5344   23911919.9684
        43.000          38.000
 119680261.18147  93257334.23147  22774405.8234   22774408.0154   22774406.2204
        48.000          42.000
 121015015.79147  94297398.86547  23028403.6584   23028407.9954   23028403.4934
        47.000          40.000
 122738659.65947  95640517.98947  23356387.6194   23356387.6814   23356387.8004
        48.000          42.000
 126539476.32647  98602172.80347  24079674.6044   24079677.5174   24079674.1544
        44.000          39.000
 112192194.17847  87422479.44447  21349471.7014   21349473.0344   21349471.4624
        53.000          47.000
 128770829.53047 100340894.55747  24504282.1174   24504284.5404   24504281.9994
        44.000          38.000
 105380742.33347  82114874.06047  20053278.9664   20053280.4634   20053279.3494
        54.000          49.000
 09  1 28  0 17  0.0000000  0 12G 5G30G 9G14G 6G18G24G22G29G31G12G21
 123627612.16747  96333186.84347  23525565.8794   23525570.0054   23525566.4134
        44.000          39.000
 119418800.63447  93053603.39047  22724647.9164   22724650.6054   22724647.7244
        50.000          43.000
 128253435.64947  99937731.67347  24405824.6044   24405827.5294   24405824.2214
        40.000          35.000
 118647094.90247  92452270.09447  22577799.5094   22577802.0054   22577799.8054
        48.000          43.000
 125641034.64347  97902080.98847  23908713.9344   23908716.9844   23908713.7304
        43.000          38.000
 119642289.70347  93227746.08947  22767179.4554   22767182.3304   22767179.8904
        48.000          42.000
 121099158.19547  94362964.35647  23044415.5464   23044420.0114   23044415.8314
        47.000          40.000
 122691004.44047  95603384.08747  23347318.9384   23347318.9424   23347319.0934
        48.000          42.000
 126603891.01347  98652366.07347  24091932.2744   24091935.1654   24091932.1464
        44.000          39.000
 112121143.72947  87367115.47247  21335951.2404   21335952.4894   21335950.6604
        53.000          48.000
 128786074.01747 100352773.39147  24507183.0854   24507185.3554   24507183.1144
        44.000          38.000
 105407138.71047  82135442.66847  20058301.9464   20058303.4954   20058302.3584
        54.000          49.000
 09  1 28  0 17 30.0000000  0 12G 5G30G 9G14G 6G18G24G22G29G31G12G21
 123630326.65647  96335302.05747  23526082.5784   23526086.1804   23526082.6014
        44.000          39.000
 119394648.39947  93034783.48247  22720052.0334   22720054.7954   22720051.4304
        50.000          43.000
 128360503.87147 100021161.46447  24426198.9424   24426201.4864   24426198.5144
        40.000          35.000
 118687375.91147  92483657.91247  22585464.6564   22585466.9134   22585464.8594
        48.000          42.000
 125624405.55847  97889123.26847  23905549.0344   23905552.4474   23905549.2554
        44.000          38.000
 119604308.89447  93198150.64847  22759952.2214   22759954.3994   22759952.6984
        48.000          42.000
 121183589.59647  94428755.05647  23060482.4384   23060486.6894   23060482.4074
        47.000          41.000
 122643183.60647  95566121.13847  23338218.9374   23338219.1174   23338218.9774
        48.000          42.000
 126668119.45747  98702414.18147  24104154.8924   24104157.4154   24104154.8304
        43.000          39.000
 112050523.32747  87312086.60847  21322512.5224   21322513.8554   21322512.4954
        53.000          48.000
 128801547.08447 100364830.32747  24510127.5794   24510130.0674   24510127.5614
        43.000          38.000
 105434140.56447  82156483.07647  20063440.2374   20063441.7814   20063440.5974
        54.000          49.000
 09  1 28  0 18  0.0000000  0 12G 5G30G 9G14G 6G18G24G22G29G31G12G21
 123633303.07647  96337621.35747  23526648.8324   23526652.5484   23526649.2034
        45.000          39.000
 119370619.92747  93016060.01347  22715479.2834   22715482.2014   22715479.1914
        49.000          43.000
 128467724.80247 100104710.24947  24446601.8914   24446605.1984   24446602.4694
        40.000          34.000
 118727740.73647  92515111.03847  22593145.8944   22593148.3424   22593146.0754
        48.000          43.000
 125607996.40147  97876336.90747  23902426.5724   23902430.4434   23902427.0054
        44.000          39.000
 119566321.21447  93168549.87447  22752723.3174   22752725.8484   22752723.8934
        48.000          42.000
 121268307.82447  94494769.24147  23076604.0974   23076608.0284   23076604.1914
        47.000          41.000
 122595198.28547  95528730.00647  23329087.5044   23329087.8574   23329087.6424
        48.000          42.000
 126732160.65547  98752316.34747  24116340.8504   24116344.2374   24116341.1144
        43.000          38.000
 111980336.35047  87257395.46447  21309156.2294   21309157.7904   21309155.6244
        53.000          48.000
 128817249.99947 100377066.39447  24513116.3034   24513117.8684   24513116.2264
        44.000          38.000
 105461747.33147  82177994.84447  20068693.6204   20068695.0874   20068693.9904
        54.000          49.000
 09  1 28  0 18 30.0000000  0 12G 5G30G 9G14G 6G18G24G22G29G31G12G21
 123636544.80947  96340147.39847  23527265.7844   23527269.3914   23527266.3954
        45.000          39.000
 119346718.73247  92997435.72647  22710930.8504   22710933.7224   22710930.7074
        50.000          43.000
 128575097.55747 100188377.35647  24467034.8604   24467037.2224   24467035.1464
        40.000          34.000
 118768188.41547  92546628.72747  22600843.0694   22600845.4724   22600843.7324
        49.000          43.000
 125591807.13847  97863721.91347  23899345.6744   23899349.0484   23899345.5374
        44.000          38.000
 119528330.18047  93138946.49147  22745494.1484   22745496.5534   22745494.5664
        49.000          42.000
 121353312.08647  94561006.31747  23092780.0534   23092783.9614   23092780.2724
        47.000          41.000
 122547051.25747  95491212.85747  23319925.5694   23319925.9124   23319925.5934
        48.000          42.000
 126796014.49247  98802072.56747  24128492.2104   24128495.3944   24128491.6734
        43.000          38.000
 111910586.26047  87203044.75947  21295883.3214   21295884.9214   21295882.8994
        53.000          48.000
 128833186.10547 100389484.12947  24516148.2084   24516150.2774   24516148.2764
        43.000          38.000
 105489959.63147  82199978.45447  20074062.2894   20074063.7454   20074062.6874
        54.000          49.000
 09  1 28  0 19  0.0000000  0 12G 5G30G 9G14G 6G18G24G22G29G31G12G21
 123640051.65947  96342880.02547  23527932.8134   23527936.8014   23527933.5474
        45.000          39.000
 119322945.54047  92978911.17647  22706407.2364   22706409.9114   22706407.0124
        49.000          43.000
 128682617.08947 100272158.84847  24487495.0174   24487498.1664   24487494.5844
        38.000          34.000
 118808714.65247  92578207.63147  22608554.9614   22608556.9824   22608555.1404
        48.000          43.000
 125575834.54647  97851275.72247  23896306.3494   23896310.0244   23896306.6094
        44.000          38.000
 119490336.42347  93109340.97047  22738264.4684   22738266.6394   22738264.7994
        49.000          42.000
 121438598.32247  94627463.12047  23109009.1104   23109013.6024   23109009.3804
        47.000          41.000
 122498741.97947  95453569.28047  23310732.4404   23310732.7144   23310732.5894
        48.000          42.000
 126859678.23347  98851680.66747  24140607.2334   24140610.1424   24140606.7834
        42.000          39.000
 111841273.39947  87149034.75847  21282693.3864   21282694.9904   21282693.2214
        53.000          48.000
 128849354.85547 100402083.16647  24519225.3294   24519227.0774   24519225.2114
        43.000          37.000
 105518774.95647  82222431.95247  20079545.6474   20079547.0434   20079546.0524
        54.000          49.000
 09  1 28  0 19 30.0000000  0 12G 5G30G 9G14G 6G18G24G22G29G31G12G21
 123643825.67147  96345820.83047  23528651.1264   23528654.8864   23528651.3244
        45.000          39.000
 119299302.94047  92960488.38947  22701908.0354   22701910.6364   22701907.7554
        49.000          43.000
 138790262.50257  90356037.43057  24507980.6345   24507983.3955   24507981.4915
        38.000          33.000
 118849317.25147  92609846.04147  22616281.0954   22616283.5014   22616281.5454
        48.000          43.000
 125560077.27947  97838997.34647  23893307.3104   23893311.5994   23893307.3544
        43.000          38.000
 119452342.61347  93079735.40547  22731034.5634   22731036.2984   22731035.0694
        49.000          42.000
 121524164.24247  94694137.84247  23125291.9384   23125296.2624   23125292.0014
        47.000          40.000
 122450271.61447  95415800.18247  23301508.8074   23301509.1924   23301509.0374
        48.000          41.000
 126923151.20247  98901140.13347  24152685.6084   24152688.9004   24152685.2154
        43.000          39.000
 111772400.44947  87095367.53347  21269587.4584   21269588.9594   21269586.7804
        53.000          48.000
 128865757.89647 100414864.76747  24522345.8924   24522348.7954   24522345.9864
        42.000          38.000
 105548191.76147  82245354.13847  20085143.5394   20085144.8194   20085143.8594
        54.000          49.000
 09  1 28  0 20  0.0000000  0 12G 5G30G 9G14G 6G18G24G22G29G31G12G21
 123647868.52847  96348971.14547  23529420.4604   23529424.4834   23529420.7834
        45.000          39.000
 119275793.23847  92942169.15547  22697434.3104   22697436.7964   22697434.0744
        50.000          43.000
 118898048.34457 110440019.14557  24528496.3875   24528498.2815   24528497.0785
        38.000          33.000
 118889993.24547  92641541.62947  22624021.8024   22624023.8744   22624021.9974
        48.000          43.000
 125544533.84147  97826885.58147  23890349.7144   23890353.3344   23890350.0964
        43.000          38.000
 119414350.28547  93050131.00147  22723804.7824   22723806.5954   22723805.1934
        49.000          42.000
 121610007.64147  94761028.77547  23141627.1634   23141631.5824   23141627.5744
        47.000          40.000
 122401641.89947  95377906.91847  23292255.1214   23292255.3514   23292255.1434
        48.000          42.000
 126986432.18247  98950449.90347  24164727.5734   24164730.9414   24164727.1414
        43.000          39.000
 111703969.87447  87042045.02147  21256565.4244   21256567.0434   21256565.3104
        53.000          48.000
 128882396.67747 100427830.06047  24525512.0224   24525515.0554   24525512.1204
        43.000          37.000
 105578209.56447  82268744.63047  20090855.6504   20090857.1104   20090856.0484
        54.000          49.000
 09  1 28  0 20 30.0000000  0 11G 5G30G14G 6G18G24G22G29G31G12G21
 123652183.85747  96352333.74947  23530241.7774   23530245.8244   23530242.2594
        45.000          39.000
 119252420.47647  92923956.63447  22692986.7024   22692989.3294   22692986.6454
        50.000          43.000
 118930742.11147  92673294.01547  22631775.9324   22631778.2414   22631776.4044
        48.000          43.000
