     2.11           OBSERVATION DATA    G (GPS)             RINEX VERSION / TYPE
teqc  2013Mar15     gpsops              20140526 00:23:16UTCPGM / RUN BY / DATE
Linux 2.4.21-27.ELsmp|Opteron|gcc -static|Linux x86_64|=+   COMMENT
BIT 2 OF LLI FLAGS DATA COLLECTED UNDER A/S CONDITION       COMMENT
GLPS                                                        MARKER NAME
42005M002                                                   MARKER NUMBER
GGN                 JPL                                     OBSERVER / AGENCY
ZR220013847         ASHTECH UZ-12       CQ00                REC # / TYPE / VERS
CR519992104         ASH701945B_M    SCIT                    ANT # / TYPE
   -33801.4662 -6377516.5323   -82154.3508                  APPROX POSITION XYZ
        0.0083        0.0000        0.0000                  ANTENNA: DELTA H/E/N
     1     1                                                WAVELENGTH FACT L1/2
     7    L1    L2    P1    P2    C1    S1    S2            # / TYPES OF OBSERV
    30.0000                                                 INTERVAL
                                                            COMMENT
This data is provided as a public service by NASA/JPL.      COMMENT
No warranty is expressed or implied regarding suitability   COMMENT
for use.  For further information, contact:                 COMMENT
Dave Stowers, NASA/JPL m/s 238-600                          COMMENT
4800 Oak Grove Drive, Pasadena CA 91109 USA                 COMMENT
                                                            COMMENT
Forced Modulo Decimation to 30 seconds                      COMMENT
 SNR is mapped to RINEX snr flag value [0-9]                COMMENT
  L1 & L2: min(max(int(snr_dBHz/6), 0), 9)                  COMMENT
pseudorange smoothing corrections not applied               COMMENT
  2014     5    25     0     0    0.0000000     GPS         TIME OF FIRST OBS
                                                            END OF HEADER
 14  5 25  0  0  0.0000000  0 11G07G28G08G17G02G20G26G09G10G13G04
 -18006296.00848 -14018163.00947  21372464.7824   21372470.9344   21372464.596
        51.0004         46.0004
  -6593566.73547  -5140170.88146  22866206.2084   22866211.6854   22866205.613
        46.0004         41.0004
 -19706147.10848 -15345040.69048  20017461.0944   20017467.5794   20017461.568
        53.0004         49.0004
 -11003631.52047  -8526316.26747  23196985.4694   23196992.3124   23196984.272
        47.0004         42.0004
  -7485684.41547  -5822300.35847  22835546.6884   22835550.6144   22835546.674
        46.0004         42.0004
 -10779943.40446  -8348140.33245  23897634.2924   23897643.9724   23897634.913
        39.0004         35.0004
  -1771251.85247  -1368620.72846  24073372.3284   24073381.6754   24073370.645
        42.0004         38.0004
   -286480.87949   -221949.30048  20062665.4894   20062671.1814   20062665.462
        54.0004         50.0004
 -11476003.28647  -8929847.31246  23177830.2694   23177838.4034   23177830.459
        45.0004         40.0004
   2877660.57046   2297954.96545  25065581.3094   25065590.1534   25065580.658
        38.0004         34.0004
 -27458946.10448 -21343017.53448  20541639.5064   20541645.2474   20541639.255
        53.0004         48.0004
 14  5 25  0  0 30.0000000  0 11G07G28G08G17G02G20G26G09G10G13G04
 -17924909.92548 -13954745.29147  21387952.3874   21387958.3324   21387951.971
        51.0004         46.0004
  -6652094.46447  -5185776.82046  22855067.7154   22855074.3794   22855068.293
        46.0004         41.0004
 -19675884.25048 -15321459.21548  20023219.9934   20023226.1774   20023220.294
        53.0004         49.0004
 -10963565.72547  -8495096.15847  23204608.4364   23204617.1014   23204608.618
        47.0004         42.0004
  -7561205.34947  -5881147.74447  22821175.7584   22821181.2664   22821175.424
        46.0004         42.0004
 -10748529.83846  -8323662.19645  23903612.5754   23903623.0054   23903612.965
        39.0004         35.0004
  -1764337.54347  -1363232.89246  24074687.6164   24074697.7834   24074686.897
        43.0004         38.0004
   -262912.43749   -203584.25348  20067150.4694   20067156.0834   20067150.720
        54.0004         50.0004
 -11544821.05947  -8983471.42446  23164734.3564   23164741.8364   23164734.983
        45.0004         41.0004
   2933440.38146   2341419.85245  25076199.2844   25076202.4924   25076194.901
        38.0004         33.0004
 -27496312.12048 -21372133.86648  20534528.6094   20534534.9414   20534528.595
        53.0004         48.0004
 14  5 25  0  1  0.0000000  0 11G07G28G08G17G02G20G26G09G10G13G04
 -17843139.84148 -13891028.34147  21403512.6164   21403517.9244   21403512.344
        51.0004         46.0004
  -6710672.96147  -5231422.31647  22843921.0274   22843928.1604   22843921.553
        46.0004         42.0004
 -19644977.14248 -15297375.72648  20029101.2934   20029107.7114   20029101.507
        53.0004         49.0004
 -10923602.52447  -8463955.98947  23212212.8204   23212221.2284   23212212.954
        47.0004         42.0004
  -7636398.67147  -5939739.84947  22806866.6124   22806871.0974   22806865.975
        46.0004         42.0004
 -10716783.15546  -8298924.50945  23909652.0324   23909662.5174   23909652.523
        39.0004         35.0004
  -1757215.53947  -1357683.23746  24076041.9134   24076053.9014   24076041.987
        43.0004         38.0004
   -238759.57549   -184763.81048  20071746.5714   20071752.1004   20071746.437
        54.0004         50.0004
 -11613746.90247  -9037179.75446  23151617.5824   23151624.9614   23151618.300
        45.0004         41.0004
   2988962.96946   2384684.31445  25086761.2764   25086767.6614   25086760.935
        38.0004         33.0004
 -27533142.73048 -21400832.99948  20527520.1214   20527526.0764   20527519.815
        53.0004         48.0004
 14  5 25  0  1 30.0000000  0 11G07G28G08G17G02G20G26G09G10G13G04
 -17760994.21848 -13827018.77047  21419144.7184   21419149.6304   21419144.146
        51.0004         46.0004
  -6769304.88847  -5277109.44347  22832763.9324   22832771.1004   22832763.938
        46.0004         42.0004
 -19613431.92248 -15272795.00948  20035104.2764   20035110.5664   20035104.610
        53.0004         49.0004
 -10883748.66247  -8432901.01747  23219798.1334   23219805.1164   23219797.522
        47.0004         42.0004
  -7711267.49347  -5998079.08847  22792619.0774   22792625.3334   22792619.381
        47.0004         42.0004
 -10684707.93846  -8273930.80345  23915756.8514   23915765.6184   23915757.156
        39.0004         35.0004
  -1749892.93247  -1351977.26546  24077435.1724   24077445.2164   24077435.150
        43.0004         38.0004
   -214028.70449   -165492.97348  20076452.7264   20076457.8434   20076452.796
        54.0004         50.0004
 -11682783.93247  -9090974.72746  23138480.2504   23138488.5764   23138481.383
        45.0004         41.0004
   3044222.92746   2427744.16445  25097276.7234   25097282.0294   25097275.938
        38.0004         33.0004
 -27569441.95848 -21429118.06948  20520612.8824   20520618.9014   20520612.480
        53.0004         48.0004
 14  5 25  0  2  0.0000000  0 11G07G28G08G17G02G20G26G09G10G13G04
 -17678474.13948 -13762717.40847  21434847.9934   21434852.9484   21434847.158
        51.0004         46.0004
  -6827986.34547  -5322835.16547  22821597.2384   22821603.5644   22821597.364
        46.0004         42.0004
 -19581248.48748 -15247716.98148  20041228.6724   20041234.7064   20041229.058
        53.0004         49.0004
 -10844004.67747  -8401931.66147  23227361.1054   23227368.6754   23227360.339
        47.0004         43.0004
  -7785808.21947  -6056162.66047  22778433.8874   22778439.9434   22778435.403
        47.0004         42.0004
 -10652302.03546  -8248679.45745  23921928.1254   23921935.2554   23921924.201
        40.0004         35.0004
  -1742370.23347  -1346115.37446  24078866.8174   24078877.9134   24078867.027
        43.0004         38.0004
   -188719.60249   -145771.56748  20081268.8734   20081274.4374   20081268.775
        54.0004         50.0004
 -11751928.61947  -9144853.58846  23125321.8754   23125330.8184   23125323.142
        45.0004         41.0004
   3099221.60446   2470600.36545  25107745.2314   25107749.3244   25107742.391
        37.0004         33.0004
 -27605207.01148 -21456986.90248  20513806.7804   20513812.6124   20513806.407
        53.0004         48.0004
 14  5 25  0  2 30.0000000  0 11G07G28G08G17G02G20G26G09G10G13G04
 -17595582.39448 -13698126.43547  21450621.1264   21450627.6014   21450620.777
        51.0004         46.0004
  -6886714.89647  -5368597.58647  22810421.4884   22810428.2174   22810421.330
        46.0004         42.0004
 -19548427.79648 -15222142.38648  20047474.1654   20047480.1774   20047474.258
        53.0004         49.0004
 -10804372.09147  -8371049.10647  23234901.3614   23234909.9964   23234902.128
        47.0004         43.0004
  -7860018.75647  -6113988.95447  22764312.8654   22764318.0884   22764312.307
        47.0004         42.0004
 -10619564.77846  -8223169.91045  23928153.5404   23928162.3204   23928154.542
        40.0004         35.0004
  -1734649.28647  -1340098.98746  24080336.7754   24080346.7394   24080335.775
        43.0004         38.0004
   -162833.34749   -125600.43148  20086194.8584   20086200.6674   20086194.681
        54.0004         50.0004
 -11821178.61747  -9198814.50246  23112144.1234   23112151.9914   23112145.522
        46.0004         41.0004
                   2513252.81645                  25118162.9584   25118158.283
                        33.0004
 -27640436.45348 -21484438.37048  20507102.9114   20507108.9344   20507102.438
        53.0004         48.0004
 14  5 25  0  3  0.0000000  0 11G07G28G08G17G02G20G26G09G10G13G04
 -17512321.54348 -13633247.85747  21466465.1694   21466471.0404   21466464.741
        50.0004         46.0004
  -6945487.66847  -5414394.46247  22799236.8074   22799245.5364   22799237.185
        46.0004         42.0004
 -19514971.34448 -15196072.39848  20053840.7194   20053846.5204   20053841.000
        53.0004         49.0004
 -10764852.29447  -8340254.45147  23242423.4904   23242430.1954   23242422.335
        47.0004         42.0004
  -7933897.01847  -6171556.33147  22750253.3934   22750258.6664   22750254.827
        47.0004         42.0004
 -10586494.94546  -8197401.16945  23934447.4714   23934459.7104   23934447.402
        40.0004         35.0004
  -1726732.20647  -1333929.78146  24081842.2574   24081852.3304   24081842.514
        43.0004         38.0004
   -136371.41949   -104980.72148  20091230.2344   20091235.7994   20091230.403
        54.0004         50.0004
 -11890532.23347  -9252856.17746  23098946.0314   23098955.1964   23098948.212
        46.0004         41.0004
   3208434.16246   2555701.26445  25128521.1204   25128532.4394   25128524.728
        38.0004         33.0004
 -27675129.39148 -21511471.79048  20500501.0954   20500507.2284   20500500.874
        53.0004         48.0004
 14  5 25  0  3 30.0000000  0 11G07G28G08G17G02G20G26G09G10G13G04
 -17428694.86948 -13568084.21547  21482378.6154   21482384.7504   21482378.272
        50.0004         46.0004
  -7004302.31547  -5460223.97647  22788045.1044   22788051.6764   22788045.262
        46.0004         42.0004
 -19480880.77348 -15169508.29048  20060328.0084   20060333.8074   20060328.028
        53.0004         49.0004
 -10725447.33647  -8309549.26847  23249922.0264   23249928.6814   23249920.764
        47.0004         43.0004
  -8007441.30547  -6228863.45847  22736258.4864   22736263.5234   22736259.108
        47.0004         42.0004
 -10553092.49746  -8171373.28545  23940802.0334   23940810.5924   23940803.731
        40.0004         35.0004
  -1718621.35847  -1327609.57546  24083385.9094   24083397.5814   24083385.841
        43.0004         38.0004
   -109335.58749    -83913.81448  20096375.0464   20096380.9104   20096375.211
        54.0004         50.0004
 -11959987.47947  -9306977.04046  23085730.2694   23085738.1574   23085730.299
        46.0004         41.0004
                   2597945.24345                  25138846.5624   25138840.339
                        33.0004
 -27709285.07148 -21538086.56848  20494001.3974   20494007.6174   20494000.783
        53.0004         48.0004
 14  5 25  0  4  0.0000000  0 11G07G28G08G17G02G20G26G09G10G13G04
 -17344704.75748 -13502637.37447  21498361.5564   21498366.8554   21498361.095
        50.0004         46.0004
  -7063156.03047  -5506083.92347  22776845.2174   22776851.4044   22776845.717
        46.0004         42.0004
 -19446156.98648 -15142450.76548  20066935.8584   20066941.9694   20066935.900
        53.0004         49.0004
 -10686158.47647  -8278934.56247  23257398.0854   23257405.2284   23257397.253
        47.0004         43.0004
  -8080649.01947  -6285908.32447  22722328.1044   22722333.1164   22722328.121
        47.0004         42.0004
 -10519356.10046  -8145085.14845  23947223.7594   23947230.7344   23947223.199
        40.0004         35.0004
  -1710318.33847  -1321139.63546  24084966.6404   24084976.6664   24084965.519
        43.0004         38.0004
    -81726.77149    -62400.42448  20101628.8984   20101634.7924   20101629.015
        54.0004         50.0004
 -12029541.99347  -9361175.24646  23072494.3834   23072503.8284   23072494.623
        46.0004         41.0004
                   2639984.85545                  25149121.1004   25149107.522
                        32.0004
 -27742901.76748 -21564281.35848  20487604.2864   20487610.6844   20487604.168
        53.0004         48.0004
 14  5 25  0  4 30.0000000  0 11G07G28G08G17G02G20G26G09G10G13G04
 -17260354.25248 -13436909.70647  21514413.4914   21514419.2554   21514412.635
        50.0004         46.0004
  -7122046.48847  -5551972.51347  22765637.9944   22765643.6674   22765639.349
        46.0004         42.0004
 -19410801.29148 -15114900.84348  20073663.4794   20073669.7864   20073664.016
        53.0004         49.0004
 -10646987.69347  -8248411.85747  23264852.1894   23264859.1334   23264851.304
        47.0004         43.0004
  -8153518.66447  -6342689.76647  22708461.7364   22708466.5394   22708461.656
        47.0004         42.0004
 -10485285.20246  -8118536.35245  23953706.6564   23953714.1474   23953706.449
        39.0004         35.0004
  -1701825.38947  -1314521.67846  24086583.2624   24086593.4194   24086582.229
        43.0004         38.0004
    -53546.43449    -40441.69548  20106991.3674   20106997.1194   20106991.245
        54.0004         49.0004
 -12099193.79747  -9415449.25946  23059239.9764   23059247.8424   23059239.973
        46.0004         41.0004
                                                                  25159323.300

 -27775978.81448 -21590055.64148  20481309.9954   20481315.9304   20481309.596
        53.0004         48.0004
 14  5 25  0  5  0.0000000  0 11G07G28G08G17G02G20G26G09G10G13G04
 -17175647.33548 -13370904.31347  21530531.9004   21530538.1534   21530531.922
        50.0004         45.0004
  -7180972.19347  -5597888.55447  22754426.2394   22754433.2044   22754426.117
        46.0004         42.0004
 -19374816.34348 -15086860.59648  20080510.9614   20080517.2644   20080511.251
        53.0004         49.0004
 -10607937.66547  -8217983.24747  23272283.2914   23272289.6544   23272282.417
        47.0004         43.0004
  -8226049.34047  -6399207.06747  22694658.9154   22694664.7114   22694659.244
        47.0004         42.0004
 -10450880.85146  -8091727.76545  23960251.9924   23960260.5604   23960253.006
        39.0004         35.0004
  -1693145.71347  -1307758.24446  24088232.9834   24088244.9644   24088232.763
        43.0004         38.0004
    -24797.15949    -18039.63648  20112462.2164   20112468.1254   20112461.981
        54.0004         49.0004
 -12168942.14347  -9469798.50746  23045968.3474   23045975.0674   23045967.828
        46.0004         41.0004
  -1302550.19656   -959351.07955  25169487.0575   25169500.5315   25169489.191
        37.0004         32.0004
 -27808516.25248 -21615409.45048  20475118.1654   20475124.2954   20475117.932
        53.0004         48.0004
 14  5 25  0  5 30.0000000  0 11G07G28G08G17G02G20G26G09G10G13G04
 -17090585.37048 -13304622.26347  21546718.6024   21546724.5534   21546718.569
        50.0004         46.0004
  -7239929.15047  -5643828.95947  22743208.0954   22743213.9584   22743206.991
        46.0004         42.0004
 -19338202.48348 -15058330.28948  20087478.3494   20087484.8404   20087478.886
        53.0004         48.0004
 -10569008.77547  -8187649.02247  23279689.4064   23279699.3234   23279689.934
        47.0004         42.0004
  -8298237.67847  -6455457.61147  22680921.7004   22680927.5084   22680922.261
        47.0004         42.0004
 -10416140.67046  -8064657.46445  23966864.4464   23966873.7624   23966864.730
        40.0004         35.0004
  -1684280.06547  -1300849.89346  24089920.7414   24089930.5844   24089920.585
        43.0004         38.0004
      4520.85449      4805.59448  20118041.1774   20118046.7964   20118041.104
        54.0004         49.0004
 -12238783.30547  -9524220.07846  23032675.7264   23032685.3904   23032676.886
        46.0004         41.0004
                                                                  25179605.565

 -27840511.81448 -21640341.02048  20469029.8754   20469035.6814   20469029.457
        53.0004         48.0004
 14  5 25  0  6  0.0000000  0 11G07G28G08G17G02G20G26G09G10G13G04
 -17005172.29348 -13238066.61847  21562972.4294   21562977.9864   21562972.277
        50.0004         45.0004
  -7298915.91147  -5689792.57647  22731982.4754   22731987.4944   22731981.991
        46.0004         42.0004
 -19300961.76048 -15029311.51348  20094565.3384   20094571.6214   20094565.372
        53.0004         48.0004
 -10530203.31647  -8157410.99147  23287075.1364   23287082.5504   23287074.839
        47.0004         43.0004
  -8370082.75947  -6511440.68747  22667250.6374   22667255.1524   22667250.365
        47.0004         42.0004
 -10381064.87046  -8037325.65445  23973537.0794   23973549.1564   23973538.201
        40.0004         35.0004
  -1675231.45147  -1293798.96546  24091642.5904   24091653.9264   24091642.351
        43.0004         38.0004
     34405.12249     28092.06248  20123727.7174   20123733.5794   20123727.799
        54.0004         49.0004
 -12308716.39447  -9578713.28846  23019367.4504   23019377.2154   23019368.885
        46.0004         41.0004
  -1196492.52946   -876708.54045  25189674.3704   25189677.2694   25189671.586
        37.0004         32.0004
 -27871965.38348 -21664850.25348  20463044.1914   20463050.2774   20463043.706
        53.0004         48.0004
 14  5 25  0  6 30.0000000  0 11G07G28G08G17G02G20G26G09G10G13G04
 -16919409.09048 -13171238.15247  21579292.4144   21579298.9014   21579292.316
        50.0004         45.0004
  -7357927.67447  -5735775.68347  22720752.8864   22720758.4464   22720752.462
        47.0004         42.0004
 -19263093.92948 -14999804.08248  20101771.3634   20101777.3734   20101771.525
        53.0004         48.0004
 -10491520.96147  -8127268.87747  23294435.9854   23294443.8684   23294435.662
        47.0004         43.0004
  -8441580.73547  -6567153.28747  22653644.6324   22653649.6074   22653644.744
        47.0004         42.0004
 -10345651.18346  -8009730.52645  23980276.1464   23980288.4084   23980277.532
        39.0004         35.0004
  -1666000.16647  -1286605.70846  24093398.8084   24093410.7564   24093398.716
        43.0004         38.0004
     64855.82149     51819.90348  20129522.2034   20129527.9674   20129522.484
        54.0004         49.0004
 -12378737.46547  -9633275.05346  23006044.0944   23006052.9134   23006044.597
        46.0004         41.0004
  -1143858.36546   -835694.80845  25199683.9144   25199696.4134   25199687.315
        37.0004         32.0004
 -27902874.27948 -21688935.06948  20457162.6684   20457168.3004   20457162.408
        53.0004         48.0004
 14  5 25  0  7  0.0000000  0 10G07G28G08G17G02G20G26G09G10G04
 -16833302.47048 -13104142.08547  21595678.3714   21595683.9094   21595678.055
        50.0004         46.0004
  -7416965.99247  -5781779.47547  22709516.4464   22709524.2224   22709517.778
        47.0004         42.0004
 -19224604.48848 -14969812.28648  20109095.5344   20109101.4414   20109095.797
        53.0004         49.0004
 -10452967.28247  -8097227.04047  23301772.3174   23301779.9224   23301772.107
        47.0004         43.0004
  -8512733.76747  -6622597.09147  22640105.0604   22640109.4164   22640105.024
        47.0004         43.0004
 -10309902.86746  -7981874.68145  23987083.4394   23987090.0234   23987080.449
        39.0004         35.0004
  -1656592.21447  -1279274.77146  24095189.7754   24095199.5484   24095189.610
        43.0004         38.0004
     95867.64049     75984.98148  20135423.8874   20135429.8254   20135423.860
        54.0004         50.0004
 -12448848.33147  -9687906.79346  22992702.3574   22992710.4964   22992702.820
        46.0004         41.0004
 -27933241.42348 -21712597.74148  20451383.6674   20451389.7724   20451383.105
        53.0004         48.0004
 14  5 25  0  7 30.0000000  0 10G07G28G08G17G02G20G26G09G10G04
 -16746854.37848 -13036779.93847  21612128.6294   21612135.1144   21612128.231
        50.0004         45.0004
  -7476027.28647  -5827801.18347  22698278.2694   22698285.8684   22698278.334
        47.0004         42.0004
 -19185494.01448 -14939336.56548  20116537.8724   20116544.3294   20116538.182
        53.0004         48.0004
 -10414542.62147  -8067285.71647  23309084.5604   23309092.5434   23309083.605
        47.0004         42.0004
  -8583538.75447  -6677769.70247  22626629.6844   22626636.3524   22626630.599
        47.0004         43.0004
 -10273818.48946  -7953756.97345  23993947.2574   23993954.7454   23993946.666
        39.0004         35.0004
  -1647008.64147  -1271806.99046  24097012.4944   24097023.7344   24097013.120
        43.0004         38.0004
    127440.04749    100586.87848  20141432.0674   20141437.7454   20141431.698
        54.0004         50.0004
 -12519045.67247  -9742605.90346  22979344.1114   22979351.8614   22979344.438
        46.0004         41.0004
 -27963064.83848 -21735836.72748  20445708.6204   20445714.1874   20445708.465
        53.0004         49.0004
 14  5 25  0  8  0.0000000  0 10G07G28G08G17G02G20G26G09G10G04
 -16660064.36648 -12969151.35547  21628644.0884   21628649.9454   21628643.782
        50.0004         45.0004
  -7535105.62547  -5873836.15847  22687036.1014   22687041.7784   22687036.251
        47.0004         42.0004
 -19145760.83048 -14908375.61948  20124099.0414   20124105.1744   20124099.196
        53.0004         48.0004
 -10376245.81347  -8037444.03047  23316371.7954   23316380.4294   23316371.796
        47.0004         43.0004
  -8653990.59847  -6732667.14347  22613223.1184   22613229.1564   22613223.799
        47.0004         42.0004
 -10237394.15146  -7925374.33945  24000879.8114   24000886.0164   24000878.618
        39.0004         35.0004
  -1637248.35947  -1264201.52946  24098870.8714   24098881.1064   24098870.502
        43.0004         38.0004
    159574.32649    125626.60148  20147546.7724   20147552.2844   20147546.926
        54.0004         50.0004
 -12589324.21847  -9797368.29646  22965970.2034   22965977.7394   22965970.761
        46.0004         41.0004
 -27992340.58848 -21758648.96148  20440137.6874   20440143.4264   20440137.032
        53.0004         48.0004
 14  5 25  0  8 30.0000000  0 10G07G28G08G17G02G20G26G09G10G04
 -16572940.60948 -12901262.70547  21645223.6584   21645229.2754   21645223.306
        50.0004         45.0004
  -7594203.44447  -5919886.33147  22675790.0894   22675797.3894   22675790.455
        47.0004         42.0004
 -19105411.79548 -14876934.79048  20131777.0194   20131783.0114   20131777.251
        53.0004         48.0004
 -10338083.55547  -8007707.20247  23323634.6804   23323641.7954   23323633.848
        47.0004         42.0004
  -8724092.60847  -6787291.97447  22599884.0234   22599889.7404   22599883.322
        47.0004         42.0004
 -10200634.55746  -7896730.48345  24007874.8674   24007882.3614   24007874.707
        39.0004         35.0004
  -1627318.66847  -1256464.04546  24100761.7464   24100771.2674   24100760.020
        43.0004         38.0004
    192263.78549    151098.93448  20153767.4464   20153773.2794   20153767.475
        54.0004         50.0004
 -12659686.91147  -9852196.25146  22952579.8674   22952588.4454   22952581.227
        46.0004         41.0004
 -28021073.18848 -21781037.95948  20434669.4294   20434675.5764   20434669.511
        53.0004         48.0004
 14  5 25  0  9  0.0000000  0 10G07G28G08G17G02G20G26G09G10G04
 -16485480.76348 -12833112.17747  21661866.8444   21661872.1714   21661866.313
        50.0004         45.0004
  -7653313.11147  -5965945.71547  22664541.5104   22664548.3544   22664541.390
        47.0004         42.0004
 -19064443.47548 -14845011.40548  20139572.7774   20139578.9764   20139573.295
        53.0004         48.0004
 -10300051.91447  -7978072.14947  23330871.2204   23330878.8704   23330870.829
        47.0004         42.0004
  -8793837.92647  -6841638.87347  22586610.7144   22586616.8414   22586611.945
        47.0004         42.0004
 -10163534.14246  -7867821.04445  24014932.9924   24014940.8014   24014934.353
        39.0004         35.0004
  -1617216.57647  -1248592.20646  24102680.8334   24102692.2874   24102682.003
        43.0004         38.0004
    225512.05049    177006.70048  20160094.2164   20160099.9374   20160094.024
        54.0004         50.0004
 -12730126.49847  -9907084.12547  22939177.1874   22939184.8724   22939177.377
        46.0004         42.0004
 -28049256.46048 -21802998.90948  20429306.4874   20429312.5264   20429306.319
        53.0004         48.0004
 14  5 25  0  9 30.0000000  0 10G07G28G08G17G02G20G26G09G10G04
 -16397691.73248 -12764705.13647  21678572.0474   21678577.6944   21678571.639
        50.0004         45.0004
  -7712435.60047  -6012015.11847  22653291.1374   22653297.7824   22653290.775
        47.0004         42.0004
 -19022860.98848 -14812609.44548  20147485.7174   20147492.1424   20147486.049
        53.0004         48.0004
 -10262156.14347  -7948542.95847  23338082.6724   23338090.3444   23338082.119
        47.0004         42.0004
  -8863228.24147  -6895709.13947  22573407.1154   22573412.2144   22573407.312
        47.0004         43.0004
 -10126096.03446  -7838648.47345  24022058.6204   24022066.2134   24022057.936
        39.0004         35.0004
  -1606947.66347  -1240590.38846  24104635.3404   24104646.8114   24104636.437
        42.0004         38.0004
    259313.78849    203345.73648  20166526.6474   20166531.8634   20166526.867
        54.0004         50.0004
 -12800644.35947  -9962032.99246  22925757.0164   22925765.4464   22925757.716
        46.0004         41.0004
 -28076893.20248 -21824533.98548  20424047.2974   20424053.2454   20424046.994
        53.0004         49.0004
 14  5 25  0 10  0.0000000  0 10G07G28G08G17G02G20G26G09G10G04
 -16309574.82048 -12696042.62647  21695340.4124   21695346.4164   21695340.113
        50.0004         45.0004
  -7771567.27547  -6058091.65847  22642039.2804   22642045.9254   22642038.628
        47.0004         42.0004
 -18980665.25048 -14779729.63148  20155515.3004   20155521.4864   20155515.779
        53.0004         48.0004
 -10224397.29547  -7919120.46447  23345268.2234   23345275.0284   23345267.508
        47.0004         42.0004
  -8932260.87947  -6949500.68947  22560270.6774   22560275.5874   22560271.454
        47.0004         43.0004
 -10088318.83546  -7809211.65045  24029244.6614   24029256.8914   24029245.803
        39.0004         34.0004
  -1596513.36247  -1232459.70946  24106621.7404   24106633.5974   24106621.585
        42.0004         38.0004
    293667.97349    230115.26048  20173063.7004   20173069.3754   20173063.722
        54.0004         50.0004
 -12871237.67747 -10017040.65246  22912323.5814   22912330.9534   22912324.215
        46.0004         41.0004
 -28103981.87948 -21845642.00348  20418892.8424   20418898.7274   20418892.620
        53.0004         49.0004
 14  5 25  0 10 30.0000000  0 10G07G28G08G17G02G20G26G09G10G04
 -16221133.65648 -12627127.42547  21712169.4324   21712175.1414   21712169.836
        50.0004         45.0004
  -7830705.46147  -6104173.28847  22630784.2174   22630791.4194   22630785.125
        47.0004         42.0004
 -18937857.99748 -14746373.30848  20163661.5434   20163667.2674   20163661.946
        53.0004         48.0004
 -10186775.99747  -7889805.15447  23352426.7824   23352434.2014   23352426.585
        47.0004         42.0004
  -9000933.92148  -7003012.04547  22547202.6654   22547207.1154   22547201.921
        48.0004         43.0004
 -10050201.98446  -7779510.18145  24036499.2544   24036510.6784   24036500.412
        39.0004         34.0004
  -1585915.67347  -1224201.70046  24108638.4124   24108648.5834   24108638.706
        42.0004         38.0004
    328572.95949    257313.97848  20179706.0364   20179711.8324   20179706.026
        54.0004         50.0004
 -12941904.16547 -10072105.34446  22898876.2664   22898883.1874   22898876.651
        46.0004         41.0004
 -28130521.57048 -21866322.24248  20413842.1754   20413848.1004   20413841.795
        53.0004         49.0004
 14  5 25  0 11  0.0000000  0 10G07G28G08G17G02G20G26G09G10G04
 -16132371.61448 -12557962.19547  21729061.1514   21729066.4514   21729060.384
        50.0004         45.0004
  -7889847.99447  -6150258.31047  22619529.7304   22619536.6304   22619530.453
        47.0004         42.0004
 -18894441.92448 -14712542.58348  20171923.2224   20171929.3444   20171923.454
        53.0004         48.0004
 -10149294.59747  -7860598.86747  23359560.0494   23359566.2464   23359558.998
        47.0004         42.0004
  -9069246.61148  -7056242.59547  22534202.9794   22534208.2024   22534203.508
        48.0004         43.0004
 -10011745.78346  -7749544.27945  24043817.8314   24043825.9684   24043817.945
        39.0004         34.0004
  -1575157.57347  -1215818.69646  24110685.7574   24110697.7454   24110685.133
        42.0004         38.0004
    364026.19449    284939.90348  20186452.5264   20186458.1374   20186452.501
        54.0004         50.0004
 -13012642.07547 -10127225.67846  22885415.1014   22885422.1424   22885416.012
        46.0004         41.0004
 -28156512.64748 -21886574.98248  20408896.1474   20408901.9184   20408896.221
        53.0004         49.0004
 14  5 25  0 11 30.0000000  0 10G07G28G08G17G02G20G26G09G10G04
 -16043290.28548 -12488548.18047  21746012.7054   21746018.0764   21746012.087
        50.0004         45.0004
  -7948991.01147  -6196343.71447  22608274.7254   22608282.8934   22608275.950
        47.0004         42.0004
 -18850417.30848 -14678237.66948  20180300.7154   20180306.9434   20180301.243
        53.0004         48.0004
 -10111954.09647  -7831502.37747  23366664.5594   23366673.0094   23366664.531
        47.0004         42.0004
  -9137195.81348  -7109189.91147  22521273.1924   22521278.3574   22521273.084
        48.0004         43.0004
  -9972948.63446  -7719312.70645  24051201.1084   24051209.5654   24051200.930
        39.0004         34.0004
  -1564239.85847  -1207311.32346  24112763.6524   24112774.6414   24112763.393
        42.0004         38.0004
    400027.09549    312992.57748  20193303.1114   20193308.9594   20193303.090
        54.0004         50.0004
 -13083447.99647 -10182399.00347  22871940.9524   22871948.2974   22871942.043
        46.0004         42.0004
 -28181952.93648 -21906398.54248  20404055.5624   20404060.7264   20404055.000
        53.0004         49.0004
 14  5 25  0 12  0.0000000  0 10G07G28G08G17G02G20G26G09G10G04
 -15953893.67948 -12418888.48647  21763024.5404   21763030.4434   21763023.633
        50.0004         45.0004
  -8008132.89147  -6242428.23347  22597021.3804   22597028.7104   22597021.591
        47.0004         43.0004
 -18805786.75348 -14643460.59748  20188793.5424   20188799.7334   20188793.914
        53.0004         48.0004
 -10074756.49847  -7802517.22947  23373743.5454   23373751.3714   23373743.086
        47.0004         43.0004
  -9204780.10448  -7161852.89647  22508411.6084   22508417.0474   22508411.415
        48.0004         43.0004
  -9933810.90446  -7688815.73945  24058647.1034   24058659.5454   24058646.117
        39.0004         34.0004
  -1553165.43647  -1198681.82246  24114870.5374   24114880.6644   24114870.503
        42.0004         38.0004
    436573.42749    341470.26348  20200257.5864   20200263.4314   20200257.860
        54.0004         50.0004
 -13154320.48547 -10237624.19847  22858455.2634   22858462.5644   22858455.428
        46.0004         42.0004
 -28206842.60648 -21925793.04348  20399318.8634   20399324.4734   20399318.550
        53.0004         49.0004
 14  5 25  0 12 30.0000000  0 10G07G28G08G17G02G20G26G09G10G04
 -15864185.80648 -12348986.24747  21780094.8894   21780101.1384   21780094.690
        50.0004         45.0004
  -8067272.17247  -6288510.73347  22585767.7044   22585773.9584   22585767.838
        47.0004         43.0004
 -18760553.72948 -14608214.06248  20197401.0294   20197407.3064   20197401.711
        53.0004         48.0004
 -10037704.59647  -7773645.62247  23380794.7264   23380801.8054   23380794.160
        47.0004         43.0004
  -9271999.23048  -7214231.32847  22495619.6404   22495625.7254   22495620.552
        48.0004         43.0004
  -9894333.77646  -7658054.32245  24066161.0054   24066169.9864   24066160.041
        39.0004         34.0004
  -1541937.95947  -1189933.05646  24117006.3914   24117017.4384   24117007.223
        42.0004         38.0004
    473661.70749    370370.23948  20207315.0704   20207321.0444   20207315.350
        54.0004         50.0004
 -13225258.69847 -10292900.60847  22844955.1864   22844963.0424   22844955.682
        46.0004         42.0004
 -28231182.45548 -21944759.11948  20394687.2744   20394693.1194   20394686.805
        53.0004         49.0004
 14  5 25  0 13  0.0000000  0 10G07G28G08G17G02G20G26G09G10G04
 -15774167.72348 -12278842.28747  21797225.4514   21797230.0004   21797224.924
        50.0004         45.0004
  -8126404.28047  -6334587.64147  22574514.7424   22574521.6264   22574515.662
        47.0004         43.0004
 -18714717.90848 -14572497.82348  20206123.5084   20206129.4254   20206123.743
        53.0004         48.0004
 -10000797.75747  -7744887.03847  23387817.9544   23387825.6514   23387817.317
        47.0004         43.0004
  -9338849.67148  -7266322.47347  22482899.3204   22482903.2704   22482898.629
        48.0004         43.0004
  -9854514.64146  -7627026.38145  24073736.0494   24073748.9314   24073736.973
        39.0004         34.0004
  -1530557.43847  -1181065.02746  24119172.0764   24119184.1214   24119171.414
        42.0004         38.0004
    511292.21649    399692.74048  20214476.4654   20214481.7774   20214476.247
        54.0004         50.0004
 -13296258.73847 -10348225.20347  22831444.8104   22831451.2164   22831444.767
        46.0004         42.0004
 -28254969.90648 -21963294.74948  20390160.4804   20390166.3584   20390160.084
        53.0004         49.0004
 14  5 25  0 13 30.0000000  0 10G07G28G08G17G02G20G26G09G10G04
 -15683843.62048 -12208459.87647  21814413.9064   21814418.2004   21814412.699
        50.0004         45.0004
  -8185528.18147  -6380658.14547  22563264.4624   22563269.5784   22563264.224
        47.0004         43.0004
 -18668282.34248 -14536314.24348  20214959.9664   20214965.9484   20214960.274
        53.0004         48.0004
  -9964038.76447  -7716243.66147  23394811.9374   23394819.5974   23394811.969
        47.0004         42.0004
  -9405330.94248  -7318125.95747  22470248.1974   22470252.2824   22470247.994
        48.0004         43.0004
  -9814354.45946  -7595732.68245  24081379.3934   24081388.5514   24081380.329
        39.0004         34.0004
  -1519027.38047  -1172080.47646  24121366.0704   24121375.8304   24121366.747
        42.0004         38.0004
    549461.58349    429435.12648  20221739.6244   20221745.2684   20221739.473
        54.0004         50.0004
 -13367319.60147 -10403597.18447  22817921.4854   22817930.3044   22817922.747
        46.0004         42.0004
 -28278205.41748 -21981400.30248  20385738.8094   20385744.6264   20385738.447
        53.0004         49.0004
 14  5 25  0 14  0.0000000  0 11G07G28G08G17G02G20G26G09G10G30G04
 -15593214.84348 -12137840.04947  21831658.4814   21831664.2324   21831658.715
        50.0004         45.0004
  -8244638.70647  -6426718.22747  22552016.4174   22552022.3384   22552016.075
        47.0004         43.0004
 -18621247.62348 -14499663.79748  20223910.2324   20223916.2724   20223910.576
        53.0004         48.0004
  -9927427.11747  -7687715.10447  23401779.6284   23401785.9524   23401778.882
        47.0004         42.0004
  -9471439.69848  -7369639.16247  22457667.4374   22457672.5204   22457668.438
        48.0004         43.0004
  -9773851.17846                  24089086.9344                   24089087.066
        39.0004
  -1507348.42447  -1162979.90546  24123589.1494   24123599.5254   24123588.437
        42.0004         37.0004
    588169.47549    459597.14148  20229105.5074   20229110.9904   20229105.537
        54.0004         50.0004
 -13438437.16847 -10459013.34447  22804388.6044   22804395.7604   22804388.985
        46.0004         42.0004
    -76802.57349    -61919.91148  20472787.7724   20472795.1694   20472787.771
        54.0004         50.0004
 -28300887.19748 -21999074.37148  20381422.9024   20381428.3304   20381422.235
        53.0004         49.0004
 14  5 25  0 14 30.0000000  0 11G07G28G08G17G02G20G26G09G10G30G04
 -15502288.14648 -12066988.08247  21848962.3924   21848967.0714   21848961.475
        50.0004         45.0004
  -8303736.65847  -6472768.51947  22540769.9784   22540776.6364   22540769.530
        47.0004         43.0004
 -18573619.16648 -14462550.69448  20232973.4194   20232979.7784   20232973.946
        53.0004         48.0004
  -9890968.14547  -7659305.51247  23408716.6274   23408724.6814   23408716.604
        47.0004         42.0004
  -9537178.07648  -7420863.76247  22445157.9504   22445163.2104   22445158.548
        48.0004         43.0004
                                                                  24096859.854

  -1495526.37147  -1153767.82246  24125838.4584   24125849.9984   24125838.668
        42.0004         38.0004
    627410.17149    490174.33148  20236572.6724   20236578.5194   20236572.503
        54.0004         49.0004
 -13509612.88547 -10514474.81847  22790844.6154   22790852.8274   22790845.275
        46.0004         42.0004
    -36058.22049    -30171.04348  20480541.1364   20480548.5244   20480541.061
        54.0004         50.0004
 -28323018.56248 -22016319.54648  20377211.1744   20377217.1294   20377211.013
        53.0004         49.0004
 14  5 25  0 15  0.0000000  0 11G07G28G08G17G02G20G26G09G10G30G04
 -15411063.12448 -11995903.65147  21866320.7984   21866327.3724   21866320.988
        49.0004         45.0004
  -8362816.31147  -6518804.55847  22529527.8374   22529533.1154   22529527.260
        47.0004         43.0004
 -18525395.73448 -14424973.97248  20242150.3354   20242156.2244   20242150.581
        53.0004         48.0004
  -9854660.02147  -7631013.45147  23415626.3084   23415633.3584   23415626.088
        47.0004         42.0004
  -9602540.72748  -7471795.58447  22432719.2014   22432725.3714   22432719.969
        48.0004         44.0004
  -9691821.97246  -7500252.72045  24104694.7294   24104707.7714   24104697.036
        39.0004         34.0004
  -1483559.90647  -1144443.21946  24128115.5354   24128127.8814   24128115.378
        43.0004         38.0004
    667185.34949    521167.99848  20244141.7994   20244147.1784   20244141.774
        54.0004         50.0004
 -13580840.99247 -10569977.12747  22777289.5274   22777296.3634   22777290.188
        47.0004         42.0004
      5196.93849      1975.85448  20488391.6874   20488399.0444   20488391.706
        54.0004         50.0004
 -28344595.22748 -22033132.49148  20373104.9254   20373110.8244   20373104.621
        53.0004         49.0004
 14  5 25  0 15 30.0000000  0 11G07G28G08G17G02G20G26G09G10G30G04
 -15319544.68748 -11924590.59047  21883736.4814   21883742.9804   21883736.537
        49.0004         45.0004
  -8421877.06847  -6564825.87447  22518288.9964   22518294.4494   22518288.121
        47.0004         43.0004
 -18476581.53748 -14386936.91948  20251439.5814   20251445.2644   20251439.718
        53.0004         48.0004
  -9818506.27947  -7602841.72447  23422504.5874   23422514.4564   23422505.731
        46.0004         42.0004
  -9667528.15548  -7522435.03547  22420353.9534   22420358.2824   22420353.033
        48.0004         44.0004
  -9650294.13646  -7467893.32945  24112597.5544   24112608.0944   24112600.214
        39.0004         34.0004
  -1471453.37347  -1135009.47446  24130419.9664   24130430.1524   24130419.137
        43.0004         38.0004
    707490.80749    552574.86748  20251811.4444   20251817.3404   20251811.510
        54.0004         49.0004
 -13652121.43647 -10625520.20147  22763724.7154   22763733.5384   22763725.730
        46.0004         42.0004
     46959.12049     34517.83348  20496338.8004   20496346.0304   20496338.597
        54.0004         50.0004
 -28365618.80048 -22049514.44948  20369104.4854   20369110.2354   20369104.294
        53.0004         49.0004
 14  5 25  0 16  0.0000000  0 11G07G28G08G17G02G20G26G09G10G30G04
 -15227733.74848 -11853049.59947  21901207.7564   21901214.0584   21901207.621
        49.0004         45.0004
  -8480914.42747  -6610828.95847  22507053.0494   22507059.9004   22507053.907
        47.0004         43.0004
 -18427176.71248 -14348439.62948  20260840.5164   20260846.6354   20260841.009
        53.0004         48.0004
  -9782506.12147  -7574789.64647  23429356.1074   23429364.6044   23429356.502
        46.0004         42.0004
  -9732136.65848  -7572779.21547  22408058.7224   22408063.4774   22408058.796
        48.0004         44.0004
  -9608422.79646  -7435266.24645  24120566.7014   24120578.3224   24120566.677
        39.0004         34.0004
  -1459206.94947  -1125466.69946  24132748.9084   24132761.0614   24132749.154
        42.0004         38.0004
    748326.58749    584394.97548  20259582.3164   20259588.2084   20259582.229
        54.0004         50.0004
 -13723449.63047 -10681100.50147  22750151.3304   22750159.7034   22750152.564
        46.0004         42.0004
     89228.55749     67455.07648  20504382.4534   20504389.9374   20504382.558
        54.0004         50.0004
 -28386087.13548 -22065463.76448  20365209.2144   20365215.0034   20365209.042
        53.0004         49.0004
 14  5 25  0 16 30.0000000  0 11G07G28G08G17G02G20G26G09G10G30G04
 -15135636.22448 -11781285.28547  21918733.6714   21918739.1524   21918732.972
        49.0004         45.0004
  -8539928.01648  -6656813.52847  22495824.2334   22495829.5614   22495823.914
        48.0004         43.0004
 -18377185.76448 -14309485.62248  20270353.6624   20270359.7704   20270353.830
        53.0004         48.0004
  -9746663.64247  -7546860.43147  23436177.1924   23436184.9314   23436177.003
        46.0004         42.0004
  -9796367.16748  -7622828.84647  22395836.1084   22395840.1894   22395836.174
        48.0004         44.0004
  -9566210.07946  -7402373.19645  24128600.2014   24128608.4524   24128600.799
        39.0004         34.0004
  -1446825.50947  -1115818.72646  24135106.2654   24135116.5284   24135104.836
        43.0004         38.0004
    789688.22649    616624.84848  20267453.1184   20267458.8004   20267453.195
        54.0004         50.0004
 -13794825.93747 -10736718.28347  22736568.6824   22736577.7514   22736569.865
        47.0004         42.0004
    132000.95449    100784.23748  20512521.6604   20512529.2964   20512521.516
        54.0004         50.0004
 -28406002.29648 -22080982.02848  20361419.4624   20361425.4994   20361419.368
        53.0004         49.0004
 14  5 25  0 17  0.0000000  0 11G07G28G08G17G02G20G26G09G10G30G04
 -15043252.42148 -11709297.92047  21936314.8174   21936318.9514   21936313.383
        49.0004         45.0004
  -8598912.25348  -6702775.21147  22484598.6704   22484606.2634   22484599.489
        48.0004         43.0004
 -18326608.27048 -14270074.56748  20279978.3024   20279984.1944   20279978.680
        53.0004         48.0004
  -9710977.44947  -7519052.99547  23442968.4324   23442976.2594   23442967.933
        46.0004         42.0004
  -9860215.88548  -7672580.98247  22383685.4804   22383689.8684   22383685.462
        48.0004         44.0004
  -9523653.17946  -7369211.92745  24136697.5324   24136705.6564   24136698.958
        39.0004         34.0004
  -1434308.60347  -1106065.20046  24137488.3244   24137498.0284   24137488.151
        43.0004         38.0004
    831576.14549    649264.81148  20275424.0664   20275429.5854   20275424.122
        54.0004         49.0004
 -13866245.74547 -10792369.95547  22722978.6314   22722985.9884   22722979.687
        47.0004         42.0004
    175277.03449    134505.87948  20520757.0414   20520764.2814   20520756.963
        54.0004         50.0004
 -28425361.43548 -22096067.03248  20357735.7104   20357741.4754   20357735.316
        53.0004         49.0004
 14  5 25  0 17 30.0000000  0 11G07G28G08G17G02G20G26G09G10G30G04
 -14950589.66048 -11637093.17447  21953945.9524   21953952.4814   21953946.101
        49.0004         45.0004
  -8657868.98848  -6748715.46647  22473380.4964   22473387.8254   22473380.439
        48.0004         43.0004
 -18275450.65548 -14230211.46548  20289713.2104   20289719.0414   20289713.710
        53.0004         48.0004
  -9675453.53347  -7491372.02647  23449727.7514   23449736.2624   23449727.932
        46.0004         42.0004
  -9923685.20048  -7722037.48947  22371607.1904   22371612.0254   22371607.504
        48.0004         44.0004
  -9480756.15646  -7335785.64245  24144863.7434   24144872.3704   24144861.419
        39.0004         34.0004
  -1421662.76947  -1096211.19746  24139893.9844   24139904.3094   24139893.207
        43.0004         38.0004
    873983.82249    682309.77848  20283494.0954   20283499.5654   20283494.066
        54.0004         50.0004
 -13937710.87747 -10848056.96847  22709378.7554   22709387.5094   22709379.496
        47.0004         42.0004
    219050.72949    168615.27448  20529086.5204   20529094.0174   20529086.584
        54.0004         50.0004
 -28444168.56048 -22110721.89848  20354156.9854   20354162.5844   20354156.662
        53.0004         49.0004
 14  5 25  0 18  0.0000000  0 11G07G28G08G17G02G20G26G09G10G30G04
 -14857645.10348 -11564668.82747  21971633.2854   21971638.8314   21971633.296
        49.0004         45.0004
  -8716789.62848  -6794627.59447  22462167.4004   22462174.5764   22462168.244
        48.0004         43.0004
 -18223709.50148 -14189893.66248  20299559.6174   20299565.1374   20299559.648
        53.0004         48.0004
  -9640087.29147  -7463813.91447  23456458.8224   23456465.1434   23456458.076
        46.0004         42.0004
  -9986767.75048  -7771192.61947  22359604.2394   22359608.1584   22359603.806
        48.0004         44.0004
  -9437513.17046                  24153091.3994                   24153088.812
        39.0004
  -1408884.30147  -1086253.85846  24142324.5994   24142336.4304   24142325.859
        42.0004         38.0004
    916915.06149    715762.72048  20291663.5354   20291668.7804   20291663.621
        54.0004         49.0004
 -14009213.04747 -10903772.83247  22695772.5944   22695780.2444   22695773.362
        47.0004         42.0004
    263326.15249    203115.62548  20537512.0294   20537519.5804   20537512.058
        54.0004         50.0004
 -28462417.42848 -22124941.76048  20350683.9754   20350689.7474   20350683.628
        53.0004         49.0004
 14  5 25  0 18 30.0000000  0 11G07G28G08G17G02G20G26G09G10G30G04
 -14764427.33748 -11492031.60747  21989372.2434   21989378.2194   21989371.931
        49.0004         45.0004
  -8775676.95748  -6840513.74847  22450962.3324   22450969.4064   22450962.353
        48.0004         43.0004
 -18171392.46348 -14149127.11648  20309514.6374   20309520.8294   20309515.169
        53.0004         48.0004
  -9604885.79147  -7436384.16547  23463156.4224   23463164.0324   23463156.911
        46.0004         42.0004
 -10049467.68048  -7820049.59947  22347671.1754   22347675.8514   22347671.524
        48.0004         44.0004
  -9393929.40356                  24161383.5225                   24161382.243
        38.0004
  -1395981.19847  -1076199.38846  24144780.9084   24144791.5564   24144780.356
        43.0004         38.0004
    960362.02349    749617.52048  20299931.3844   20299936.9274   20299931.215
        54.0004         49.0004
 -14080755.66947 -10959520.21247  22682158.5054   22682165.9994   22682159.037
        47.0004         42.0004
    308095.71149    238001.01748  20546031.5394   20546038.7874   20546031.126
        54.0004         50.0004
 -28480113.44748 -22138730.82648  20347316.3164   20347322.2874   20347316.181
        53.0004         49.0004
 14  5 25  0 19  0.0000000  0 11G07G28G08G17G02G20G26G09G10G30G04
 -14670933.09948 -11419178.95247  22007163.4634   22007169.3334   22007163.260
        49.0004         44.0004
  -8834521.91448  -6886366.90447  22439763.6114   22439770.2674   22439764.378
        48.0004         43.0004
 -18118495.39548 -14107908.59848  20319580.9354   20319586.4044   20319580.948
        53.0004         48.0004
  -9569844.03947  -7409078.91047  23469825.0284   23469833.4884   23469824.657
        46.0004         42.0004
 -10111777.20148  -7868602.37147  22335814.2964   22335819.5474   22335814.823
        48.0004         44.0004
  -9349998.79546  -7233896.68845  24169744.1114   24169753.5534   24169743.866
        39.0004         34.0004
  -1382949.33147  -1066044.59346  24147262.0544   24147270.7224   24147260.902
        42.0004         38.0004
   1004328.67549    783877.27348  20308297.9644   20308303.1394   20308297.766
        54.0004         49.0004
 -14152330.31547 -11015292.55547  22668538.5074   22668545.8954   22668538.780
        47.0004         42.0004
    353363.87149    273274.92848  20554645.4914   20554652.9734   20554645.527
        54.0004         49.0004
 -28497250.06448 -22152084.00048  20344055.9884   20344061.0074   20344055.688
        53.0004         49.0004
 14  5 25  0 19 30.0000000  0 11G07G28G08G17G02G20G26G09G10G30G04
 -14577172.65448 -11346118.86747  22025005.9634   22025010.7894   22025005.354
        49.0004         44.0004
  -8893328.88948  -6932190.45747  22428574.1514   22428580.3874   22428573.688
        48.0004         43.0004
 -18065028.11848 -14066245.76148  20329754.9584   20329761.2674   20329755.460
        53.0004         48.0004
  -9534971.05647  -7381905.15447  23476460.2324   23476468.8184   23476460.438
        46.0004         42.0004
 -10173702.10048  -7916855.44047  22324030.7334   22324034.8554   22324031.234
        48.0004         44.0004
  -9305728.48246  -7199400.28945  24178167.6034   24178178.0194   24178167.567
        39.0004         34.0004
  -1369798.37747  -1055797.01246  24149763.4494   24149773.1384   24149762.735
        42.0004         38.0004
   1048805.68749    818534.70848  20316761.2904   20316766.9504   20316761.271
        54.0004         49.0004
 -14223941.98847 -11071093.74847  22654911.6494   22654919.1284   22654911.660
        47.0004         42.0004
    399121.38149    308930.15448  20563352.8384   20563360.4954   20563352.774
        54.0004         49.0004
 -28513834.41748 -22165006.84048  20340899.2934   20340905.7334   20340899.026
        53.0004         49.0004
 14  5 25  0 20  0.0000000  0 11G07G28G08G17G02G20G26G09G10G30G04
 -14483144.88148 -11272850.47147  22042898.9514   22042904.4324   22042898.190
        49.0004         44.0004
  -8952091.06648  -6977979.10547  22417390.5424   22417397.9154   22417391.641
        48.0004         43.0004
 -18010988.38948 -14024136.85448  20340038.7104   20340044.6354   20340039.028
        53.0004         48.0004
  -9500263.35247  -7354860.17547  23483065.2154   23483073.4514   23483065.644
        47.0004         42.0004
 -10235236.30748  -7964804.07247  22312321.0174   22312325.9204   22312321.040
        48.0004         44.0004
  -9261114.02246  -7164635.75545  24186658.3384   24186668.1884   24186656.883
        38.0004         34.0004
  -1356525.91347  -1045454.74146  24152288.1704   24152298.6774   24152289.227
        42.0004         38.0004
   1093795.38549    853591.63548  20325322.6514   20325327.8714   20325322.724
        54.0004         49.0004
 -14295583.55347 -11126918.23947  22641278.1194   22641285.1534   22641278.613
        47.0004         42.0004
    445370.94949    344968.80048  20572153.8394   20572161.3764   20572153.840
        54.0004         49.0004
 -28529861.95448 -22177495.79448  20337849.9194   20337855.5304   20337849.719
        53.0004         49.0004
 14  5 25  0 20 30.0000000  0 11G07G28G08G17G02G20G26G09G10G30G04
 -14388853.47448 -11199376.64947  22060842.2074   22060847.2274   22060841.178
        49.0004         44.0004
  -9010806.05848  -7023730.97947  22406217.3264   22406224.3214   22406218.384
        48.0004         43.0004
 -17956379.14848 -13981584.17648  20350430.2764   20350436.3614   20350430.577
        53.0004         48.0004
  -9465723.07647  -7327945.66747  23489638.6304   23489646.3424   23489638.354
        47.0004         42.0004
 -10296379.14748  -8012447.74247  22300686.2314   22300690.0724   22300686.435
        48.0004         44.0004
  -9216155.68946  -7129603.24445  24195209.0794   24195222.3254   24195212.538
        38.0004         34.0004
  -1343134.95647  -1035020.14746  24154837.6424   24154847.2604   24154836.581
        43.0004         38.0004
   1139294.73449    889045.69348  20333981.1084   20333986.4744   20333980.794
        54.0004         49.0004
 -14367253.44747 -11182764.80647  22627639.0414   22627646.6704   22627639.979
        47.0004         42.0004
    492109.85949    381388.75548  20581047.8294   20581055.2804   20581047.749
        54.0004         49.0004
 -28545333.17048 -22189551.25648  20334905.6704   20334911.5524   20334905.389
        53.0004         49.0004
 14  5 25  0 21  0.0000000  0 11G07G28G08G17G02G20G26G09G10G30G04
 -14294301.48348 -11125699.79547  22078834.0944   22078839.3844   22078834.296
        49.0004         44.0004
  -9069471.24548  -7069444.04647  22395055.2864   22395059.8484   22395054.815
        48.0004         43.0004
 -17901202.86248 -13938589.64548  20360929.9344   20360935.9834   20360930.337
        53.0004         48.0004
  -9431351.51847  -7301162.63647  23496179.9754   23496187.2954   23496179.316
        47.0004         42.0004
 -10357129.22548  -8059785.37447  22289125.1134   22289129.7864   22289125.962
        49.0004         44.0004
  -9170853.83746  -7094303.07845  24203832.9424   24203844.1264   24203833.675
        38.0004         34.0004
  -1329627.87547  -1024495.06046  24157407.2504   24157417.6234   24157407.358
        43.0004         38.0004
   1185301.18849    924894.89648  20342735.5294   20342741.1404   20342735.567
        54.0004         49.0004
 -14438949.43847 -11238631.70147  22613996.5164   22614002.1844   22613997.161
        47.0004         42.0004
    539335.99249    418188.36248  20590034.7594   20590042.5694   20590034.641
        54.0004         49.0004
 -28560248.00548 -22201173.17548  20332067.6804   20332072.9554   20332066.856
        53.0004         49.0004
 14  5 25  0 21 30.0000000  0 11G07G28G08G17G02G20G26G09G10G30G04
 -14199492.52148 -11051822.67547  22096875.6944   22096881.0424   22096875.482
        49.0004         44.0004
  -9128084.41248  -7115116.56947  22383900.1504   22383907.2224   22383901.081
        48.0004         43.0004
 -17845462.80848 -13895155.81448  20371536.9084   20371542.8574   20371537.293
        53.0004         48.0004
  -9397150.81247  -7274512.73447  23502687.7224   23502695.0594   23502687.550
        47.0004         42.0004
 -10417485.95548  -8106816.49347  22277639.5664   22277644.3054   22277639.989
        49.0004         44.0004
  -9125208.94746  -7058735.61845  24212520.2164   24212529.2664   24212518.169
        38.0004         34.0004
  -1316007.68147  -1013881.83146  24159999.1504   24160008.9314   24159998.442
        43.0004         38.0004
   1231811.78849    961136.94148  20351586.3444   20351591.6574   20351586.071
        54.0004         49.0004
 -14510670.06647 -11294517.80047  22600347.1754   22600354.9274   22600348.673
        47.0004         42.0004
    587046.60649    455365.48748  20599113.7074   20599121.3284   20599113.866
        54.0004         49.0004
 -28574607.33248 -22212362.22748  20329335.2264   20329340.3794   20329334.753
        53.0004         49.0004
 14  5 25  0 22  0.0000000  0 11G07G28G08G17G02G20G26G09G10G30G04
 -14104428.98548 -10977747.16147  22114964.2744   22114971.1164   22114964.977
        49.0004         44.0004
  -9186642.11548  -7160745.88347  22372758.0124   22372764.2734   22372758.188
        48.0004         43.0004
 -17789160.37248 -13851283.76348  20382250.7844   20382257.4224   20382251.144
        53.0004         48.0004
  -9363121.23847  -7247996.17647  23509162.9514   23509170.9444   23509162.802
        47.0004         42.0004
 -10477446.95448  -8153539.24347  22266229.8174   22266234.5484   22266229.812
        48.0004         44.0004
  -9079220.04946  -7022900.07945  24221272.9894   24221278.7794   24221270.115
        38.0004         34.0004
  -1302275.74247  -1003181.52946  24162612.5394   24162622.5754   24162611.561
        43.0004         38.0004
   1278825.23349    997770.81048  20360532.6584   20360538.3254   20360532.452
        54.0004         49.0004
 -14582412.02347 -11350420.51347  22586696.1294   22586703.3784   22586695.965
        47.0004         42.0004
    635240.62649    492919.28748  20608285.2004   20608292.1404   20608284.786
        54.0004         49.0004
 -28588409.92148 -22223117.45948  20326708.3654   20326714.2154   20326707.980
        53.0004         49.0004
 14  5 25  0 22 30.0000000  0 11G07G28G08G17G02G20G26G09G10G30G04
 -14009117.03848 -10903478.11547  22133103.5354   22133108.8834   22133102.427
        49.0004         44.0004
  -9245144.63548  -7206332.18947  22361625.1004   22361630.1754   22361625.087
        48.0004         43.0004
 -17732301.22348 -13806977.90948  20393070.8474   20393076.7694   20393071.065
        52.0004         48.0004
  -9329267.42847  -7221616.58247  23515605.2674   23515613.8774   23515604.799
        46.0004         42.0004
 -10537014.01448  -8199955.04547  22254894.5524   22254899.6974   22254894.423
        49.0004         44.0004
  -9032890.64946  -6986799.26045  24230087.5344   24230096.9064   24230086.906
        38.0004         33.0004
  -1288437.43747   -992398.36146  24165245.7074   24165255.3874   24165244.865
        43.0004         38.0004
   1326336.01149   1034792.21148  20369573.2544   20369578.9434   20369573.694
        54.0004         49.0004
 -14654175.94747 -11406340.34247  22573039.3454   22573047.2924   22573039.900
        47.0004         42.0004
    683912.93849    530845.78648  20617546.8154   20617554.3184   20617546.800
        54.0004         49.0004
 -28601659.10548 -22233441.46848  20324187.3784   20324192.9964   20324186.791
        53.0004         49.0004
 14  5 25  0 23  0.0000000  0 11G07G28G08G17G02G20G26G09G10G30G04
 -13913554.05348 -10829013.44247  22151288.9874   22151293.6724   22151287.671
        49.0004         44.0004
  -9303583.65348  -7251869.01047  22350504.2044   22350510.5994   22350504.333
        48.0004         43.0004
 -17674882.18248 -13762235.78048  20403997.2134   20404003.2964   20403997.724
        52.0004         48.0004
  -9295585.21447  -7195370.69946  23522014.6054   23522022.0734   23522014.402
        46.0004         41.0004
