     2.11           OBSERVATION DATA    G (GPS)             RINEX VERSION / TYPE
teqc  2008Oct2      gpsops              20090106 00:09:40UTCPGM / RUN BY / DATE
    30.0000                                                 INTERVAL
     1     1                                                WAVELENGTH FACT L1/2
     7    L1    L2    P1    P2    C1    S1    S2            # / TYPES OF OBSERV
Linux 2.4.20-8|Pentium IV|gcc -static|Linux|486/DX+         COMMENT
     2.10           OBSERVATION DATA    GPS                 COMMENT
soc2rnx ver 1.20    gpsops               6-Jan-2009 00:09:33COMMENT
S1, if present, is the SNR for the C/A data stream on L1.   COMMENT
 SNR is mapped to RINEX snr flag value [1,4-9]              COMMENT
    SNR:   >316  >100  >31.6  >10  >3.2    >0 bad=0         COMMENT
L1 & L2:      9     8     7     6     5     4     1         COMMENT
                                                            COMMENT
This data is provided as a public service by NASA/JPL.      COMMENT
No warranty is expressed or implied regarding suitability   COMMENT
for use.  For further information, contact:                 COMMENT
Dave Stowers, NASA/JPL m/s 238-600                          COMMENT
4800 Oak Grove Drive, Pasadena CA 91109 USA                 COMMENT
                                                            COMMENT
Forced Modulo Decimation to 30 seconds                      COMMENT
  2009     1     5     0     0    0.0000000     GPS         TIME OF FIRST OBS
GGN                 JPL                                     OBSERVER / AGENCY
CR519992104         ASH701945B_M    SCIT                    ANT # / TYPE
   -33801.4662 -6377516.5323   -82154.3508                  APPROX POSITION XYZ
        0.0083        0.0000        0.0000                  ANTENNA: DELTA H/E/N
ZR220013847         ASHTECH UZ-12       CQ00                REC # / TYPE / VERS
GLPS                                                        MARKER NAME
42005M002                                                   MARKER NUMBER
                                                            END OF HEADER
 09  1  5  0  0  0.0000000  0 10G18G 9G24G 5G29G12G14G22G21G30
 124893425.32547  97319524.05947  23766453.0334   23766453.9704   23766452.5754
        46.000          39.000
 112880297.57947  87958662.13247  21480416.2984   21480420.0714   21480416.7484
        53.000          46.000
 112313852.54247  87517274.01047  21372626.1264   21372630.8274   21372626.2064
        53.000          47.000
 125537053.48347  97821067.99547  23888916.5124   23888922.3324   23888916.2324
        45.000          39.000
 111100385.67847  86571715.25147  21141708.7324   21141712.6274   21141708.9634
        53.000          48.000
 127917748.88047  99676151.20647  24341951.3574   24341957.5164   24341950.1734
        43.000          38.000
 116601381.52547  90858211.52947  22188510.8014   22188513.9024   22188510.6844
        49.000          43.000
 128222152.44647  99913361.45947  24399869.9344   24399870.7744   24399869.1174
        43.000          37.000
 113210371.21947  88215867.29547  21543222.0164   21543224.7224   21543222.8114
        52.000          46.000
 124038153.47747  96653094.47347  23603686.3424   23603691.1744   23603684.9964
        46.000          40.000
 09  1  5  0  0 30.0000000  0 10G18G 9G24G 5G29G12G14G22G21G30
 124891462.90047  97317994.92447  23766077.8454   23766080.5314   23766078.3704
        45.000          39.000
 112896774.44047  87971501.28147  21483551.9394   21483555.5734   21483552.0064
        53.000          46.000
 112303966.15647  87509570.34647  21370744.9164   21370749.4354   21370745.0324
        53.000          47.000
 125531203.03847  97816509.22147  23887802.8644   23887808.7174   23887803.1684
        46.000          39.000
 111159453.75847  86617742.34447  21152949.4304   21152952.7904   21152949.1084
        53.000          48.000
 127926383.49347  99682879.50647  24343594.0174   24343599.7754   24343594.1034
        43.000          38.000
 116565822.10747  90830502.93347  22181743.3304   22181747.6254   22181743.5284
        49.000          43.000
 128219201.13247  99911061.77347  24399307.3774   24399309.6364   24399307.5124
        44.000          37.000
 113130419.52947  88153567.29947  21528008.2134   21528010.5384   21528008.5664
        52.000          46.000
 124033567.41447  96649520.90547  23602813.1104   23602817.9574   23602812.6014
        46.000          40.000
 09  1  5  0  1  0.0000000  0 10G18G 9G24G 5G29G12G14G22G21G30
 124889287.77047  97316300.03247  23765663.6824   23765666.5604   23765664.3894
        46.000          39.000
 112913776.52147  87984749.68947  21486787.2624   21486790.9584   21486787.3914
        53.000          46.000
 112294484.80947  87502182.30147  21368940.7434   21368945.2864   21368940.8274
        53.000          47.000
 125525197.07147  97811829.28047  23886659.3294   23886665.3944   23886660.0354
        46.000          39.000
 111218825.97447  86664006.43047  21164247.6654   21164250.9224   21164247.3234
        53.000          48.000
 127934870.93547  99689493.13947  24345208.5064   24345214.4734   24345208.6084
        43.000          38.000
 116530742.95547  90803168.59547  22175068.2764   22175071.9194   22175068.4274
        49.000          43.000
 128216111.81547  99908654.56347  24398719.8364   24398721.4044   24398720.3274
        44.000          37.000
 113050666.27547  88091421.92747  21512831.7644   21512833.8884   21512832.1834
        53.000          46.000
 124028764.26647  96645778.20047  23601898.9484   23601903.5614   23601898.7664
        46.000          40.000
 09  1  5  0  1 30.0000000  0 10G18G 9G24G 5G29G12G14G22G21G30
 124886895.81547  97314436.20147  23765208.9654   23765211.2244   23765209.5254
        46.000          40.000
 112931300.99047  87998405.15347  21490122.3384   21490125.8714   21490122.4904
        53.000          47.000
 112285406.72647  87495108.47747  21367213.2354   21367217.5864   21367213.4254
        53.000          47.000
 125519033.09847  97807026.20747  23885486.8624   23885492.5114   23885486.7824
        46.000          39.000
 111278495.68347  86710502.31047  21175602.4344   21175605.8144   21175602.0654
        53.000          48.000
 127943208.48647  99695989.94747  24346795.8154   24346800.7014   24346795.5944
        44.000          38.000
 116496140.38247  90776205.60347  22168483.3914   22168487.0694   22168483.5024
        49.000          43.000
 128212879.44447  99906135.91547  24398104.4484   24398105.8754   24398105.0574
        43.000          37.000
 112971111.16747  88029430.93647  21497692.9254   21497694.9734   21497693.2484
        52.000          46.000
 124023740.50847  96641863.60947  23600942.4284   23600947.6684   23600942.1764
        45.000          40.000
 09  1  5  0  2  0.0000000  0 10G18G 9G24G 5G29G12G14G22G21G30
 124884288.56247  97312404.60547  23764712.9244   23764715.2364   23764713.3454
        46.000          40.000
 112949350.40247  88012469.66547  21493556.8684   21493560.3694   21493556.9334
        53.000          46.000
 112276735.38347  87488351.59747  21365563.3034   21365567.8004   21365563.4384
        53.000          47.000
 125512714.52947  97802102.67647  23884284.3024   23884290.1994   23884284.9334
        46.000          39.000
 111338462.48247  86757229.68247  21187013.8234   21187017.1134   21187013.6474
        53.000          48.000
 127951399.62447  99702372.70847  24348355.1464   24348359.3104   24348354.4224
        44.000          38.000
 116462016.73547  90749615.80347  22161989.8654   22161993.7504   22161990.0204
        49.000          43.000
 128209505.08047  99903506.59747  24397462.6034   24397463.7204   24397462.5884
        43.000          37.000
 112891759.52147  87967598.51047  21482592.6014   21482594.9894   21482592.9774
        52.000          46.000
 124018499.10147  96637779.42547  23599944.9824   23599950.4074   23599944.8834
        46.000          40.000
 09  1  5  0  2 30.0000000  0 10G18G 9G24G 5G29G12G14G22G21G30
 124881466.61347  97310205.69847  23764175.6594   23764178.4734   23764175.9784
        46.000          40.000
 112967926.53847  88026944.60547  21497091.8414   21497095.2134   21497091.9444
        53.000          46.000
 112268472.89747  87481913.31047  21363990.8524   21363995.3544   21363990.9134
        53.000          47.000
 125506243.44847  97797060.33947  23883053.0614   23883058.5794   23883053.6564
        45.000          39.000
 111398724.45647  86804187.06647  21198481.3224   21198484.6164   21198480.9754
        53.000          48.000
 127959446.37647  99708642.95147  24349886.1184   24349890.8154   24349885.4454
        44.000          38.000
 116428373.04847  90723399.99147  22155587.6804   22155591.6334   22155587.7764
        49.000          43.000
 128205988.10747  99900766.15847  24396792.2844   24396794.9444   24396792.9364
        42.000          37.000
 112812614.89347  87905927.40747  21467531.9394   21467534.0894   21467532.2064
        53.000          46.000
 124013040.68347  96633526.11647  23598906.1704   23598911.4414   23598906.0794
        46.000          40.000
 09  1  5  0  3  0.0000000  0 10G18G 9G24G 5G29G12G14G22G21G30
 124878425.52547  97307836.04347  23763597.0974   23763599.2164   23763597.5784
        46.000          39.000
 112987025.90347  88041827.26147  21500726.0334   21500729.4234   21500726.2864
        52.000          46.000
 112260616.90947  87475791.77047  21362495.9474   21362500.3544   21362496.0084
        53.000          47.000
 125499617.04747  97791896.97747  23881791.3184   23881797.7804   23881791.8604
        45.000          39.000
 111459274.89347  86851369.24647  21210003.6774   21210006.9804   21210003.3924
        53.000          48.000
 127967345.99547  99714798.54247  24351389.1994   24351393.8834   24351389.4074
        44.000          38.000
 116395205.14047  90697554.92047  22149275.9664   22149279.8514   22149276.0424
        50.000          44.000
 128202323.10247  99897910.36147  24396095.3954   24396097.6034   24396095.6434
        44.000          38.000
 112733676.68747  87844417.14147  21452510.6104   21452512.8254   21452511.0304
        53.000          46.000
 124007361.67947  96629100.91647  23597825.8804   23597830.9124   23597826.1614
        46.000          40.000
 09  1  5  0  3 30.0000000  0 10G18G 9G24G 5G29G12G14G22G21G30
 124875170.03747  97305299.33247  23762977.4114   23762979.5514   23762977.6964
        46.000          39.000
 113006653.85447  88057121.79947  21504461.2264   21504464.4964   21504461.2184
        52.000          46.000
 112253174.15847  87469992.23247  21361079.4414   21361084.0314   21361079.5394
        53.000          47.000
 125492841.34247  97786617.27147  23880502.3034   23880507.9474   23880502.1954
        45.000          39.000
 111520115.73247  86898777.69247  21221581.2264   21221584.5954   21221580.9224
        53.000          48.000
 127975104.64047  99720844.27347  24352865.4484   24352870.1034   24352865.3644
        43.000          38.000
 116362518.03447  90672084.49647  22143055.8964   22143059.7124   22143056.0594
        49.000          44.000
 128198513.57347  99894941.95547  24395371.1104   24395372.6834   24395371.3054
        44.000          37.000
 112654953.22047  87783074.19247  21437529.9224   21437532.1574   21437530.3894
        53.000          46.000
 124001467.65547  96624508.17647  23596704.1814   23596709.1434   23596704.3144
        46.000          40.000
 09  1  5  0  4  0.0000000  0 10G18G 9G24G 5G29G12G14G22G21G30
 124871695.28047  97302591.75947  23762316.3854   23762318.5024   23762316.5814
        45.000          39.000
 113026806.39047  88072825.10847  21508295.9694   21508299.5234   21508296.2094
        52.000          46.000
 112246141.93347  87464512.58847  21359741.3654   21359745.7524   21359741.4764
        53.000          47.000
 125485913.39347  97781218.91147  23879183.8384   23879189.5804   23879184.3414
        45.000          39.000
 111581240.43047  86946407.34047  21233212.8734   21233216.1404   21233212.6384
        53.000          48.000
 127982719.36147  99726777.85547  24354314.5004   24354318.9294   24354314.6334
        43.000          38.000
 116330307.66947  90646985.58047  22136926.4444   22136930.0654   22136926.5634
        49.000          44.000
 128194554.31447  99891856.87647  24394616.9654   24394618.3454   24394617.0894
        44.000          37.000
 112576442.70747  87721897.17647  21422589.8444   21422592.0424   21422590.2354
        53.000          46.000
 123995354.63847  96619744.77647  23595540.7774   23595546.0584   23595540.7844
        46.000          40.000
 09  1  5  0  4 30.0000000  0 10G18G 9G24G 5G29G12G14G22G21G30
 124868005.23047  97299716.42047  23761614.0094   23761616.2814   23761614.2584
        46.000          39.000
 113047488.14347  88088940.79547  21512231.4434   21512235.3684   21512231.6314
        52.000          46.000
 112239525.87547  87459357.23247  21358482.3374   21358486.7654   21358482.5064
        53.000          47.000
 125478838.39447  97775705.96347  23877837.6914   23877843.2264   23877838.2104
        46.000          39.000
 111642650.09847  86994259.05647  21244898.6314   21244902.1474   21244898.3934
        53.000          48.000
 127990194.95447  99732603.01747  24355736.8044   24355741.9234   24355736.0934
        43.000          38.000
 116298578.05347  90622261.25947  22130888.3524   22130891.9114   22130888.7274
        50.000          44.000
 128190447.75547  99888657.04547  24393835.9724   24393837.0484   24393836.0704
        44.000          38.000
 112498152.44147  87660891.78247  21407691.7564   21407693.5714   21407692.1574
        53.000          46.000
 123989027.13147  96614814.30347  23594336.9774   23594341.7994   23594336.5414
        46.000          40.000
 09  1  5  0  5  0.0000000  0 10G18G 9G24G 5G29G12G14G22G21G30
 124864097.48547  97296671.46847  23760870.6934   23760872.6954   23760871.0964
        46.000          39.000
 113068697.94447  88105467.94447  21516267.5504   21516271.3064   21516267.5284
        52.000          46.000
 112233325.62147  87454525.86847  21357302.5154   21357307.1244   21357302.7814
        53.000          47.000
 125471615.87247  97770078.10147  23876463.3364   23876468.5384   23876463.7604
        45.000          39.000
 111704339.92947  87042329.06247  21256637.7064   21256641.4884   21256637.4404
        53.000          48.000
 127997531.06747  99738319.52247  24357133.5244   24357137.9634   24357133.0154
        43.000          38.000
 116267327.19447  90597910.00947  22124941.5514   22124945.3724   22124941.8084
        50.000          44.000
 128186190.83647  99885340.01547  24393025.1534   24393027.3824   24393025.4284
        43.000          38.000
 112420083.84947  87600059.13447  21392835.6474   21392837.5954   21392836.0794
        53.000          46.000
 123982483.42647  96609715.32847  23593091.5814   23593096.1814   23593091.2884
        47.000          40.000
 09  1  5  0  5 30.0000000  0 10G18G 9G24G 5G29G12G14G22G21G30
 124859970.54347  97293455.69547  23760085.0824   23760087.3414   23760085.2874
        46.000          39.000
 113090435.40447  88122406.25647  21520404.1434   21520407.6534   21520404.3304
        52.000          46.000
 112227541.80347  87450019.00247  21356201.8924   21356206.1214   21356202.0894
        53.000          47.000
 125464246.24347  97764335.56847  23875060.7044   23875066.0854   23875060.8404
        45.000          39.000
 111766306.38647  87090614.61447  21268429.5104   21268433.3044   21268429.0814
        53.000          48.000
 128004728.38347  99743927.90547  24358502.9964   24358507.1154   24358502.8314
        43.000          37.000
 116236553.86147  90573930.84147  22119085.6674   22119089.1754   22119085.9944
        50.000          44.000
 128181781.35647  99881904.10947  24392186.2704   24392188.4454   24392186.4874
        44.000          38.000
 112342239.35847  87539401.10847  21378022.3504   21378024.1524   21378022.6574
        53.000          46.000
 123975723.34747  96604447.77347  23591805.0254   23591810.2484   23591804.8774
        46.000          40.000
 09  1  5  0  6  0.0000000  0 10G18G 9G24G 5G29G12G14G22G21G30
 124855625.37547  97290069.88347  23759258.4334   23759260.2504   23759258.4144
        45.000          39.000
 113112702.14347  88139756.99147  21524641.2834   21524644.8194   21524641.2404
        52.000          46.000
 112222176.97747  87445838.62047  21355181.1314   21355185.5284   21355181.2254
        53.000          47.000
 125456731.91547  97758480.31247  23873630.9084   23873635.7724   23873631.5164
        45.000          38.000
 111828547.78947  87139114.42047  21280273.6234   21280277.4424   21280273.4954
        53.000          48.000
 128011789.24847  99749429.97647  24359846.2174   24359850.7404   24359846.0774
        42.000          38.000
 116206259.91947  90550325.23147  22113320.9254   22113324.1884   22113320.9834
        50.000          44.000
 128177218.74847  99878348.90147  24391318.6844   24391319.5264   24391318.7854
        45.000          38.000
 112264623.16347  87478920.97547  21363252.4524   21363254.5724   21363252.8024
        53.000          46.000
 123968748.42147  96599012.88947  23590477.7264   23590482.7184   23590477.4004
        47.000          40.000
 09  1  5  0  6 30.0000000  0 10G18G 9G24G 5G29G12G14G22G21G30
 124851061.22847  97286513.44047  23758389.3704   23758391.9074   23758389.5344
        46.000          39.000
 113135497.53247  88157519.66747  21528979.1964   21528982.7264   21528979.3644
        52.000          46.000
 112217232.06747  87441985.45647  21354239.9484   21354244.5174   21354240.2384
        53.000          47.000
 125449073.50447  97752512.77147  23872173.3444   23872178.8064   23872173.4914
        45.000          39.000
 111891060.82847  87187825.89647  21292169.5254   21292173.0984   21292169.3754
        53.000          48.000
 128018714.10547  99754826.05747  24361163.8154   24361168.2804   24361163.2644
        43.000          38.000
 116176444.28647  90527092.32647  22107647.1584   22107650.5954   22107647.2904
        50.000          44.000
 128172502.11047  99874673.64447  24390421.2274   24390421.6294   24390420.8454
        45.000          37.000
 112187237.78847  87418620.69847  21348526.3394   21348528.5794   21348526.8034
        53.000          46.000
 123961558.24647  96593410.22147  23589109.4824   23589114.4554   23589109.3114
        47.000          40.000
 09  1  5  0  7  0.0000000  0 10G18G 9G24G 5G29G12G14G22G21G30
 124846276.77647  97282785.32547  23757479.3474   23757481.7204   23757480.3754
        46.000          39.000
 113158821.36547  88175694.12147  21533417.4254   21533421.1544   21533417.6194
        52.000          46.000
 112212707.34747  87438459.71147  21353378.9634   21353383.4324   21353378.9984
        53.000          47.000
 125441271.37247  97746433.23547  23870689.1124   23870693.8304   23870689.0034
        46.000          39.000
 111953841.71847  87236746.08247  21304116.1844   21304119.7044   21304115.7574
        53.000          48.000
 128025503.79447  99760116.79047  24362456.1314   24362460.6424   24362455.3494
        43.000          38.000
 116147105.81147  90504231.23747  22102064.1074   22102067.7334   22102064.1874
        50.000          44.000
 128167628.89347  99870876.38347  24389493.5224   24389494.2064   24389493.5954
        43.000          37.000
 112110085.41547  87358501.98247  21333844.7844   21333846.8594   21333845.1564
        53.000          46.000
 123954152.25047  96587639.34147  23587700.5454   23587704.9314   23587700.5164
        47.000          40.000
 09  1  5  0  7 30.0000000  0 10G18G 9G24G 5G29G12G14G22G21G30
 124841275.62447  97278888.34547  23756527.7564   23756530.3174   23756527.9634
        46.000          39.000
 113182677.60747  88194283.43447  21537957.2624   21537960.9834   21537957.3104
        52.000          46.000
 112208608.16847  87435265.55947  21352598.7364   21352603.3294   21352598.9504
        53.000          47.000
 125433330.58147  97740245.67547  23869177.5354   23869182.9594   23869178.1244
        46.000          39.000
 112016891.78947  87285876.00347  21316114.3444   21316117.8814   21316114.1404
        53.000          48.000
 128032162.76447  99765305.65547  24363722.9754   24363727.3634   24363723.2104
        43.000          38.000
 116118248.24247  90481744.88447  22096572.4894   22096576.1994   22096572.6064
        50.000          44.000
 128162601.37047  99866958.90047  24388536.7124   24388537.8934   24388536.7904
        44.000          37.000
 112033172.89247  87298570.16447  21319209.0344   21319210.5964   21319209.2974
        53.000          46.000
 123946535.20347  96581704.00647  23586250.7334   23586254.9214   23586250.5904
        46.000          40.000
 09  1  5  0  8  0.0000000  0 10G18G 9G24G 5G29G12G14G22G21G30
 124836053.17447  97274818.94547  23755533.8564   23755536.0094   23755534.0264
        45.000          39.000
 113207062.29847  88213284.52347  21542597.4694   21542601.1224   21542597.6314
        53.000          46.000
 112204931.93047  87432400.95947  21351899.2234   21351903.8424   21351899.3364
        53.000          47.000
 125425248.41747  97733947.93447  23867639.2584   23867644.9484   23867639.5904
        45.000          39.000
 112080203.58147  87335209.87647  21328162.2374   21328165.7324   21328162.0404
        52.000          48.000
 128038688.46747  99770390.68647  24364964.9384   24364969.5224   24364964.0804
        42.000          38.000
 116089866.95747  90459629.65347  22091172.0144   22091175.2574   22091172.1414
        50.000          44.000
 128157413.99847  99862916.82947  24387549.3174   24387550.8874   24387549.5164
        43.000          37.000
 111956499.07647  87238824.35847  21304618.2424   21304620.3364   21304618.6414
        53.000          46.000
 123938703.01847  96575601.05847  23584760.0284   23584764.6124   23584759.0114
        46.000          40.000
 09  1  5  0  8 30.0000000  0 10G18G 9G24G 5G29G12G14G22G21G30
 124830611.73047  97270578.86647  23754498.3104   23754500.4874   23754498.8514
        46.000          39.000
 113231978.07547  88232699.44747  21547338.5194   21547342.3774   21547338.6574
        52.000          46.000
 112201681.87147  87429868.46047  21351280.9244   21351285.4564   21351281.0174
        53.000          47.000
 125417028.08547  97727542.52347  23866075.1364   23866080.9734   23866075.4914
        45.000          39.000
 112143776.42747  87384747.16047  21340259.7864   21340263.0534   21340259.4544
        53.000          48.000
 128045084.14947  99775374.42347  24366181.6984   24366186.6394   24366181.0394
        43.000          38.000
 116061964.17547  90437887.27747  22085861.9674   22085865.6014   22085862.0244
        50.000          44.000
 128152068.36347  99858751.48647  24386532.0574   24386533.1364   24386532.0834
        44.000          37.000
 111880069.34147  87179268.72747  21290073.8424   21290076.2924   21290074.1464
        53.000          46.000
 123930658.25947  96569332.44047  23583229.2744   23583233.5984   23583228.2564
        46.000          40.000
 09  1  5  0  9  0.0000000  0 10G18G 9G24G 5G29G12G14G22G21G30
 124824949.67147  97266166.91247  23753421.0334   23753422.5244   23753421.2164
        46.000          39.000
 113257424.13747  88252527.58647  21552180.5704   21552184.4214   21552180.4944
        52.000          46.000
 112198858.56647  87427668.48947  21350743.5094   21350748.2204   21350743.5914
        53.000          47.000
 125408670.24747  97721029.93247  23864484.8504   23864490.8264   23864485.0384
        45.000          39.000
 112207606.95147  87434485.21447  21352406.3104   21352409.6714   21352406.1584
        53.000          47.000
 128051350.42647  99780257.35147  24367373.9434   24367379.0984   24367373.5724
        43.000          39.000
 116034538.96447  90416517.04447  22080642.8574   22080646.4524   22080643.0834
        50.000          44.000
 128146561.80147  99854460.70147  24385484.1304   24385485.3664   24385484.6194
        42.000          37.000
 111803886.07847  87119905.16247  21275576.9334   21275579.0044   21275577.4064
        53.000          47.000
 123922400.71047  96562898.02347  23581657.8434   23581662.3434   23581657.5634
        47.000          40.000
 09  1  5  0  9 30.0000000  0 10G18G 9G24G 5G29G12G14G22G21G30
 124819066.59947  97261582.71647  23752301.5004   23752303.2224   23752301.9754
        46.000          39.000
 113283400.78847  88272769.16747  21557123.8484   21557127.8114   21557123.7254
        52.000          46.000
 112196463.34047  87425802.09147  21350287.7854   21350292.4874   21350287.8404
        53.000          47.000
 125400176.18647  97714411.23547  23862868.3194   23862874.1224   23862868.9414
        46.000          39.000
 112271692.30747  87484421.85447  21364601.2944   21364604.6364   21364601.0234
        53.000          47.000
 128057488.62547  99785040.47547  24368542.2924   24368546.4024   24368541.7594
        44.000          39.000
 116007590.92847  90395518.62847  22075515.3844   22075518.7274   22075515.4604
        51.000          44.000
 128140893.35347  99850043.77147  24384404.5494   24384406.6984   24384405.0874
        42.000          37.000
 111727952.04847  87060735.79747  21261127.3534   21261129.2244   21261127.6114
        53.000          47.000
 123913930.75647  96556298.09947  23580046.2784   23580050.6804   23580046.2114
        47.000          40.000
 09  1  5  0 10  0.0000000  0 10G18G 9G24G 5G29G12G14G22G21G30
 124812963.60347  97256827.14547  23751139.7994   23751141.7214   23751140.1004
        46.000          39.000
 113309908.98147  88293424.93547  21562168.3104   21562171.7054   21562168.4414
        52.000          46.000
 112194498.40747  87424270.98547  21349913.7644   21349918.4574   21349913.7864
        53.000          47.000
 125391548.24847  97707688.20347  23861226.4434   23861231.6054   23861226.8924
        45.000          39.000
 112336030.62847  87534555.59947  21376844.4084   21376847.9884   21376843.9704
        53.000          47.000
 128063500.68647  99789725.25947  24369686.5604   24369690.8624   24369686.2124
        44.000          38.000
 115981120.81047  90374892.61447  22070478.0214   22070481.3614   22070478.0854
        50.000          44.000
 128135062.47547  99845500.29347  24383295.4204   24383296.6584   24383295.5174
        42.000          37.000
 111652271.79347  87001764.17247  21246725.6744   21246727.5674   21246725.9394
        53.000          47.000
 123905250.24447  96549534.08647  23578394.7884   23578398.8264   23578394.6274
        47.000          40.000
 09  1  5  0 10 30.0000000  0 10G18G 9G24G 5G29G12G14G22G21G30
 124806639.43847  97251899.26147  23749936.7214   23749938.0444   23749936.9884
        46.000          39.000
 113336947.94247  88314494.28847  21567313.6314   21567317.2004   21567313.6074
        52.000          46.000
 112192964.27347  87423075.56847  21349621.8944   21349626.3094   21349622.1154
        53.000          47.000
 125382786.91747  97700861.25247  23859559.4014   23859564.8014   23859559.8574
        45.000          39.000
 112400618.16747  87584883.57147  21389135.2724   21389138.4754   21389134.9574
        53.000          47.000
 128069387.76447  99794312.70147  24370806.1614   24370810.4344   24370805.8244
        44.000          38.000
 115955127.06247  90354637.80947  22065531.5184   22065534.6944   22065531.9644
        50.000          44.000
 128129066.99547  99840828.56147  24382154.8834   24382156.6304   24382154.4354
        42.000          37.000
 111576847.41247  86942991.92147  21232372.9404   21232374.9584   21232373.2314
        53.000          47.000
 123896358.37747  96542605.38747  23576702.4004   23576706.8594   23576702.6484
        47.000          40.000
 09  1  5  0 11  0.0000000  0 10G18G 9G24G 5G29G12G14G22G21G30
 124800094.41447  97246799.27947  23748690.9644   23748692.9324   23748691.4704
        46.000          39.000
 113364518.56447  88335977.92847  21572560.0724   21572563.7454   21572559.9894
        52.000          46.000
 112191862.60947  87422217.14047  21349412.1454   21349416.8174   21349412.1704
        53.000          47.000
 125373893.97847  97693931.75147  23857866.6804   23857872.4604   23857866.9994
        45.000          39.000
 112465452.62747  87635403.95447  21401472.9624   21401476.0744   21401472.7814
        53.000          47.000
 128075151.27747  99798803.87747  24371902.8324   24371907.4624   24371902.5914
        43.000          38.000
 115929610.08747  90334754.48647  22060675.2534   22060679.2144   22060675.4024
        50.000          44.000
 128122906.47747  99836028.22547  24380982.6584   24380983.9244   24380982.8284
        43.000          37.000
 111501682.19647  86884421.63747  21218069.6534   21218071.4874   21218070.0464
        53.000          47.000
 123887256.33447  96535512.91647  23574970.1254   23574974.3204   23574970.3794
        47.000          40.000
 09  1  5  0 11 30.0000000  0 10G18G 9G24G 5G29G12G14G22G21G30
 124793328.15847  97241526.91047  23747403.3344   23747405.3724   23747403.9114
        46.000          39.000
 113392621.05747  88357876.00747  21577907.6674   21577911.1414   21577907.9964
        52.000          46.000
 112191194.68347  87421696.68647  21349285.3464   21349289.6164   21349285.5384
        53.000          47.000
 125364870.64047  97686900.58947  23856149.5444   23856155.6414   23856149.8544
        44.000          39.000
 112530531.21447  87686114.55447  21413856.8354   21413860.0274   21413856.5254
        52.000          47.000
 128080792.40447  99803199.66447  24372976.4934   24372981.2434   24372975.7024
        44.000          39.000
 115904569.74747  90315242.57847  22055910.6734   22055913.9954   22055910.8064
        50.000          44.000
 128116579.63347  99831098.27347  24379778.4964   24379779.4714   24379778.7414
        42.000          37.000
 111426779.23447  86826055.72647  21203816.0034   21203817.9244   21203816.5534
        54.000          47.000
 123877944.57047  96528257.02247  23573197.8364   23573202.3804   23573197.5834
        46.000          40.000
 09  1  5  0 12  0.0000000  0 10G18G 9G24G 5G29G12G14G22G21G30
 124786344.12447  97236084.81547  23746074.2764   23746076.0734   23746074.7724
        46.000          39.000
 113421258.76847  88380191.13947  21583357.5034   21583361.1844   21583357.6324
        52.000          46.000
 112190965.19147  87421517.87247  21349241.4744   21349245.9434   21349241.6184
        53.000          47.000
 125355721.89247  97679771.72547  23854408.2124   23854414.0254   23854408.6724
        45.000          39.000
 112595854.49947  87737015.79447  21426287.3184   21426290.6204   21426286.9074
        52.000          47.000
 128086316.58547  99807504.33247  24374027.8644   24374031.7844   24374027.8324
        44.000          39.000
 115880008.97547  90296104.37747  22051236.6074   22051240.2424   22051237.1664
        50.000          44.000
 128110088.34347  99826040.18347  24378543.1124   24378544.7004   24378543.4894
        43.000          37.000
 111352145.32747  86767899.45847  21189613.5914   21189615.4754   21189614.1064
        53.000          47.000
 123868427.24447  96520840.97647  23571386.8374   23571391.2694   23571386.0304
        47.000          40.000
 09  1  5  0 12 30.0000000  0 10G18G 9G24G 5G29G12G14G22G21G30
 124779134.07847  97230466.60447  23744702.6354   23744704.3754   23744702.9254
        47.000          39.000
 113450423.85647  88402917.21647  21588907.2674   21588910.8664   21588907.2944
        52.000          46.000
 112191167.58747  87421675.58547  21349280.0324   21349284.5684   21349280.2054
        53.000          47.000
 125346441.20947  97672540.03047  23852641.9744   23852648.0134   23852642.4214
        45.000          39.000
 112661411.64447  87788099.25847  21438762.4144   21438765.7544   21438762.3864
        52.000          47.000
 128091716.34347  99811712.02247  24375055.5674   24375059.9024   24375055.2764
        44.000          38.000
 115855919.75647  90277333.63247  22046652.9354   22046656.3014   22046653.0204
        50.000          44.000
 128103423.97447  99820847.25047  24377275.3664   24377276.0114   24377275.4994
        43.000          37.000
 111277775.88247  86709949.25047  21175461.5784   21175463.5374   21175461.8774
        53.000          47.000
 123858697.15347  96513259.12247  23569535.6214   23569540.0244   23569534.9304
        47.000          41.000
 09  1  5  0 13  0.0000000  0 10G18G 9G24G 5G29G12G14G22G21G30
 124771703.84847  97224676.84147  23743288.4024   23743290.8164   23743288.7774
        46.000          39.000
 113480122.29647  88426058.88747  21594558.3694   21594562.3614   21594558.3984
        52.000          46.000
 112191808.95147  87422175.35147  21349402.1944   21349406.5544   21349402.4164
        53.000          47.000
 125337035.86447  97665211.22247  23850852.6594   23850858.1354   23850853.2174
        45.000          39.000
 112727205.83847  87839367.47347  21451282.4874   21451285.9774   21451282.0444
        52.000          47.000
 128096999.38647  99815828.78547  24376060.1644   24376064.4634   24376060.0504
        43.000          38.000
 115832307.18947  90258934.29347  22042159.4854   22042162.8194   22042159.5704
        50.000          44.000
 128096591.45247  99815523.27547  24375974.1964   24375975.9084   24375974.3364
        42.000          37.000
 111203679.84247  86652212.08147  21161361.3674   21161363.6044   21161361.8274
        53.000          47.000
 123848760.36747  96505516.22947  23567644.8254   23567649.5444   23567644.3284
        47.000          41.000
 09  1  5  0 13 30.0000000  0 10G18G 9G24G 5G29G12G14G22G21G30
 124764050.45047  97218713.18147  23741831.8744   23741833.7264   23741832.4354
        46.000          39.000
 113510351.11647  88449613.84547  21600310.8284   21600314.5314   21600310.7694
        52.000          46.000
 112192887.59347  87423015.86347  21349607.3534   21349611.7034   21349607.4724
        53.000          47.000
 125327504.47647  97657784.20247  23849038.9034   23849044.3704   23849039.5554
        45.000          39.000
 112793231.32447  87890815.90047  21463846.8284   21463850.2914   21463846.5844
        53.000          47.000
 128102164.14147  99819853.35647  24377042.7774   24377047.4504   24377042.6694
        44.000          38.000
 115809167.88447  90240903.72547  22037756.0704   22037759.3654   22037756.2284
        50.000          44.000
 128089586.52147  99810064.92947  24374641.6194   24374642.8244   24374641.8524
        43.000          37.000
 111129857.17047  86594687.92647  21147313.3904   21147315.7094   21147313.8134
        53.000          47.000
 123838614.88847  96497610.69047  23565713.8224   23565718.9344   23565713.6324
        47.000          41.000
 09  1  5  0 14  0.0000000  0 10G18G 9G24G 5G29G12G14G22G21G30
 124756175.40747  97212576.79847  23740333.2874   23740335.2374   23740333.5794
        46.000          39.000
 113541112.34247  88473583.65847  21606164.5244   21606167.9384   21606164.5494
        52.000          46.000
 112194406.38747  87424199.33947  21349896.4694   21349900.6534   21349896.5864
        53.000          47.000
 125317850.26447  97650261.48547  23847201.6694   23847208.0934   23847202.2894
        45.000          39.000
 112859487.18447  87942443.85347  21476455.1574   21476458.4004   21476455.0504
        52.000          47.000
 128107214.06047  99823788.45547  24378004.1244   24378008.1054   24378004.2834
        44.000          38.000
 115786503.29147  90223243.05147  22033443.0904   22033446.7244   22033443.4654
        50.000          44.000
 128082409.66947  99804472.63047  24373275.7264   24373277.2414   24373276.1404
        43.000          37.000
 111056313.03147  86537380.82247  21133318.3384   21133320.7064   21133318.6924
        53.000          47.000
 123828262.75047  96489544.12547  23563743.8164   23563748.8534   23563743.8144
        47.000          41.000
 09  1  5  0 14 30.0000000  0 10G18G 9G24G 5G29G12G14G22G21G30
 124748078.92947  97206267.87447  23738792.4264   23738794.7604   23738792.7904
        46.000          39.000
 113572405.50647  88497967.97647  21612119.3884   21612123.0194   21612119.5974
        52.000          46.000
 112196366.32347  87425726.57347  21350269.2664   21350273.7424   21350269.2904
        53.000          47.000
 125308074.45347  97642644.00147  23845341.2624   23845347.0094   23845341.4404
        44.000          39.000
 112925970.41147  87994248.99147  21489106.4864   21489109.9434   21489106.1424
        52.000          47.000
 128112150.60747  99827635.17647  24378943.3074   24378947.3584   24378943.1064
        44.000          38.000
 115764313.12547  90205952.05647  22029220.2544   22029223.4844   22029220.4964
        50.000          44.000
 128075060.07247  99798745.71947  24371877.5624   24371878.1194   24371877.9964
        44.000          38.000
 110983050.23047  86480292.93847  21119376.8964   21119379.2894   21119377.3334
        54.000          47.000
 123817704.63347  96481317.01647  23561734.9054   23561739.8074   23561735.2024
        47.000          41.000
 09  1  5  0 15  0.0000000  0 10G18G 9G24G 5G29G12G14G22G21G30
 124739761.02447  97199786.41547  23737209.5024   23737211.8624   23737209.8754
        46.000          39.000
 113604230.99347  88522767.09147  21618175.4074   21618179.0194   21618175.5994
        52.000          46.000
 112198769.18647  87427598.93447  21350726.5544   21350730.9504   21350726.6464
        53.000          47.000
 125298179.28547  97634933.54947  23843458.4144   23843463.8484   23843458.6654
        45.000          39.000
 112992678.96347  88046229.73047  21501800.5324   21501804.0044   21501800.0544
        52.000          47.000
 128116975.33947  99831394.78247  24379861.5474   24379865.6984   24379861.3014
        43.000          38.000
 115742597.57647  90189030.91047  22025087.6024   22025091.2994   22025087.7674
        50.000          44.000
 128067537.16247  99792883.77547  24370445.9594   24370446.9414   24370446.1694
        43.000          38.000
 110910072.84847  86423427.46147  21105490.0574   21105491.9484   21105490.4944
        54.000          47.000
 123806942.13547  96472930.67947  23559687.1214   23559691.4574   23559687.1214
        47.000          41.000
 09  1  5  0 15 30.0000000  0 10G18G 9G24G 5G29G12G14G22G21G30
 124731219.47747  97193130.70347  23735584.1714   23735586.6104   23735584.7504
        46.000          39.000
 113636586.93147  88547979.54847  21624332.8894   21624336.3374   21624332.9184
        52.000          46.000
 112201613.90847  87429815.60547  21351267.9484   21351272.1314   21351268.2114
        53.000          47.000
 125288163.88447  97627129.39347  23841552.2384   23841558.3234   23841553.1154
        45.000          39.000
 113059607.78847  88098382.07247  21514536.6424   21514540.0534   21514536.6034
        52.000          47.000
 128121687.78147  99835066.89847  24380757.8124   24380762.7534   24380757.4064
        42.000          38.000
 115721353.75847  90172477.36247  22021045.2114   22021048.7104   22021045.5934
        50.000          44.000
 128059837.11547  99786883.78347  24368980.2214   24368981.9804   24368980.2524
        43.000          38.000
 110837381.76747  86366785.06847  21091657.5234   21091659.1584   21091657.8814
        54.000          47.000
 123795973.73347  96464383.90647  23557599.6184   23557604.0944   23557599.2814
        47.000          40.000
 09  1  5  0 16  0.0000000  0 10G18G 9G24G 5G29G12G14G22G21G30
 124722455.50247  97186301.63547  23733916.1174   23733918.4924   23733916.7134
        46.000          39.000
 113669474.24147  88573606.06047  21630591.0884   21630594.3714   21630591.0454
        52.000          46.000
 112204902.82647  87432378.40147  21351893.6734   21351898.0174   21351893.8074
        53.000          47.000
 125278030.91647  97619233.64347  23839624.1044   23839629.6074   23839624.4044
        45.000          39.000
 113126755.03247  88150704.57347  21527314.2204   21527317.8184   21527314.0434
        52.000          47.000
 128126290.47047  99838653.45447  24381634.0434   24381638.0624   24381633.5994
        42.000          38.000
 115700582.20047  90156291.80647  22017092.5804   22017095.7574   22017092.7214
        50.000          44.000
 128051960.39147  99780746.13047  24367481.3444   24367483.2214   24367481.4704
        44.000          38.000
 110764980.96547  86310368.87047  21077879.9804   21077881.7594   21077880.3624
        54.000          47.000
 123784801.20847  96455678.07747  23555473.6984   23555478.2004   23555473.3514
        47.000          41.000
 09  1  5  0 16 30.0000000  0 11G31G18G 9G24G 5G29G12G14G22G21G30
 140323799.71957  91550989.42157  24799811.8395   24799816.9235   24799811.5035
        42.000          37.000
 124713470.34347  97179300.23747  23732206.8174   23732208.8274   23732206.9564
        46.000          39.000
 113702894.36347  88599647.74647  21636950.8164   21636954.0384   21636950.9034
        52.000          46.000
 112208638.42347  87435289.25647  21352604.6334   21352608.7184   21352604.7014
        53.000          47.000
 125267783.43747  97611248.65747  23837674.0334   23837679.8924   23837673.9014
        45.000          39.000
 113194119.60047  88203196.43047  21540133.1584   21540137.0324   21540132.7864
        52.000          47.000
 128130786.62247  99842157.01847  24382489.4944   24382493.5314   24382489.5284
        43.000          38.000
 115680283.86047  90140474.97247  22013229.6314   22013233.1994   22013229.8334
        50.000          44.000
 128043907.56347  99774471.24147  24365949.7994   24365950.3674   24365949.6014
        45.000          38.000
 110692875.11747  86254182.51347  21064158.7014   21064160.6194   21064159.0824
        54.000          47.000
 123773427.03147  96446815.12147  23553309.0864   23553313.8064   23553308.8424
        47.000          41.000
 09  1  5  0 17  0.0000000  0 11G31G18G 9G24G 5G29G12G14G22G21G30
 140221677.36147  91471413.56147  24780379.1384   24780383.1274   24780377.9804
        41.000          36.000
 124704261.82747  97172124.80147  23730454.3664   23730456.1834   23730455.0584
        46.000          39.000
 113736844.82347  88626102.67647  21643411.1454   21643414.7364   21643411.1314
        52.000          46.000
 112212819.63647  87438547.34247  21353400.3614   21353404.5884   21353400.5334
        53.000          47.000
 125257420.61247  97603173.80947  23835701.9644   23835707.6284   23835702.6984
        46.000          39.000
 113261696.31747  88255853.61447  21552992.6234   21552996.4684   21552992.3994
        52.000          47.000
 128135175.15247  99845576.71247  24383324.5434   24383328.8034   24383324.9874
        43.000          38.000
 115660456.04447  90125024.78447  22009456.8004   22009460.1834   22009457.0704
        50.000          44.000
 128035675.40747  99768056.61947  24364382.9714   24364383.7114   24364383.0964
        44.000          38.000
 110621065.24947  86198226.80947  21050493.4534   21050495.7014   21050493.9254
        54.000          47.000
 123761849.09747  96437793.38347  23551105.8164   23551110.5284   23551105.2904
        47.000          41.000
 09  1  5  0 17 30.0000000  0 11G31G18G 9G24G 5G29G12G14G22G21G30
 140119465.11347  91391767.65947  24760928.1834   24760932.5614   24760928.0814
        42.000          37.000
 124694829.68847  97164775.08647  23728659.2684   23728661.9594   23728659.9194
        46.000          39.000
 113771325.12647  88652970.47847  21649972.6624   21649975.8644   21649972.7034
        52.000          46.000
 112217446.97447  87442153.06147  21354280.8584   21354285.1834   21354280.8144
        53.000          47.000
 125246943.59447  97595009.96347  23833708.3914   23833713.9464   23833708.9864
        45.000          39.000
 113329482.02047  88308673.67047  21565891.6384   21565895.5254   21565891.4714
        51.000          47.000
 128139457.16147  99848913.41147  24384139.5614   24384143.8934   24384138.4744
        43.000          38.000
 115641097.68447  90109940.40747  22005772.8014   22005776.2974   22005772.9574
        50.000          44.000
 128027262.12047  99761500.86247  24362781.4144   24362782.6824   24362781.5434
        43.000          38.000
 110549554.00347  86142503.78447  21036885.2854   21036887.6234   21036885.7604
        54.000          47.000
 123750067.68147  96428613.10347  23548863.7474   23548868.6424   23548863.4224
        47.000          41.000
 09  1  5  0 18  0.0000000  0 11G31G18G 9G24G 5G29G12G14G22G21G30
 140017168.67847  91312056.16247  24741462.2244   24741466.7694   24741462.0514
        41.000          36.000
 124685177.46947  97157253.89147  23726822.2064   23726824.7044   23726822.8194
        46.000          39.000
 113806338.46847  88680253.63747  21656635.4364   21656638.6644   21656635.3844
        52.000          46.000
 112222525.19647  87446110.12847  21355247.2384   21355251.5374   21355247.3334
        53.000          47.000
 125236357.40347  97586761.04747  23831693.8474   23831699.5944   23831694.4534
        45.000          39.000
 113397477.26547  88361657.01447  21578830.6854   21578834.4944   21578830.2704
        52.000          47.000
 128143637.60147  99852170.99447  24384934.4744   24384938.7044   24384934.2084
        43.000          38.000
 115622211.55547  90095223.99947  22002178.7494   22002182.2644   22002178.9404
        50.000          44.000
 128018670.66647  99754806.26847  24361146.8364   24361147.7274   24361146.6224
        44.000          38.000
 110478348.06247  86087018.64647  21023335.1794   21023337.3224   21023335.6754
        54.000          47.000
 123738087.23747  96419277.72847  23546584.1064   23546588.6764   23546583.7704
        48.000          41.000
 09  1  5  0 18 30.0000000  0 11G31G18G 9G24G 5G29G12G14G22G21G30
 139914787.46447  91232278.61647  24721979.1804   24721984.0604   24721978.4814
        41.000          36.000
 124675301.84347  97149558.61947  23724943.3904   23724945.5544   23724943.7384
        46.000          39.000
 113841881.49947  88707949.53947  21663399.0074   21663402.2504   21663399.2174
        52.000          46.000
 112228052.19547  87450416.89647  21356298.8794   21356303.3704   21356298.8834
        53.000          47.000
 125225660.44047  97578425.82447  23829658.1964   23829663.5904   23829658.4344
        45.000          39.000
 113465676.36347  88414799.17747  21591808.7884   21591812.4874   21591808.3614
        52.000          47.000
 128147715.44647  99855348.65147  24385710.3454   24385714.4564   24385710.0284
        43.000          38.000
 115603794.01347  90080872.73247  21998674.2174   21998677.4484   21998674.4934
        50.000          44.000
 128009896.56147  99747969.36647  24359476.7874   24359477.5854   24359476.9464
        45.000          38.000
 110407447.91947  86031771.78547  21009843.3854   21009845.3864   21009843.7354
        54.000          47.000
 123725905.50147  96409785.47147  23544265.8554   23544270.3894   23544265.7124
        47.000          40.000
 09  1  5  0 19  0.0000000  0 11G31G18G 9G24G 5G29G12G14G22G21G30
 139812322.70747  91152435.99647  24702481.0744   24702485.1634   24702480.4594
        41.000          36.000
 124665201.88747  97141688.53147  23723021.4904   23723023.2404   23723022.1054
        46.000          39.000
 113877953.18347  88736057.37347  21670263.0114   21670266.4684   21670263.0284
        52.000          46.000
 112234027.97147  87455073.34947  21357435.8784   21357440.6214   21357436.0694
        53.000          47.000
 125214853.47347  97570004.88447  23827601.9234   23827606.9374   23827602.1044
        45.000          39.000
 113534075.81947  88468097.42047  21604824.6844   21604828.4204   21604824.5144
        51.000          47.000
 128151690.77747  99858446.41447  24386467.1364   24386470.7734   24386466.9634
        44.000          38.000
 115585843.80647  90066885.61347  21995258.1474   21995261.6454   21995258.3124
        50.000          44.000
 128000937.64847  99740988.41647  24357772.1744   24357772.2544   24357772.0514
        44.000          38.000
 110336855.29047  85976764.56147  20996410.2694   20996412.0264   20996410.6934
        54.000          47.000
 123713522.24747  96400136.23147  23541909.0484   23541913.7504   23541908.7594
        47.000          40.000
 09  1  5  0 19 30.0000000  0 11G31G18G 9G24G 5G29G12G14G22G21G30
 139709780.88147  91072533.32047  24682967.3354   24682971.8664   24682967.0584
        40.000          36.000
 124654881.77447  97133646.89847  23721057.7384   23721059.6344   23721057.9904
        47.000          39.000
 113914557.10347  88764579.94347  21677228.6584   21677232.0144   21677228.5714
        52.000          46.000
 112240457.60447  87460083.46147  21358659.5574   21358664.2604   21358659.6344
        53.000          47.000
 125203941.95447  97561502.47347  23825525.1294   23825530.7834   23825525.8704
        45.000          39.000
 113602676.68647  88521552.64247  21617878.8044   21617882.5754   21617878.4894
        52.000          47.000
 128155569.19347  99861468.69147  24387204.5844   24387209.3304   24387204.1314
        44.000          38.000
 115568364.19347  90053265.19347  21991932.0414   21991935.2744   21991932.1764
        50.000          44.000
 127991797.06147  99733865.92947  24356032.7484   24356033.6624   24356032.4774
        43.000          38.000
 110266577.15447  85922002.39447  20983036.8514   20983038.4894   20983037.3324
        54.000          47.000
 123700942.38547  96390333.75147  23539514.8274   23539519.8284   23539514.4334
        46.000          40.000
 09  1  5  0 20  0.0000000  0 11G31G18G 9G24G 5G29G12G14G22G21G30
 139607161.11047  90992569.90447  24663439.7894   24663443.8104   24663438.6774
        40.000          36.000
 124644338.75047  97125431.56547  23719051.4374   23719053.4824   23719051.7004
        46.000          39.000
 113951690.34647  88793514.96947  21684294.6454   21684298.0324   21684294.7894
        52.000          46.000
 112247339.01547  87465445.61147  21359968.9084   21359973.8124   21359969.0804
        53.000          47.000
 125192924.85747  97552917.78247  23823428.3254   23823434.2184   23823429.1094
        44.000          39.000
 113671473.32147  88575160.44947  21630970.5454   21630974.3264   21630970.1254
        52.000          47.000
 128159349.59647  99864414.58347  24387924.2294   24387928.1384   24387923.8814
        44.000          38.000
 115551351.67147  90040008.74247  21988694.5424   21988698.0524   21988694.9044
        50.000          44.000
 127982471.19347  99726599.05347  24354257.6834   24354258.9144   24354257.6754
        44.000          38.000
 110196614.05347  85867485.70147  20969723.0794   20969725.0024   20969723.4994
        54.000          48.000
 123688163.64447  96380376.32047  23537083.5624   23537088.1414   23537083.1474
        47.000          40.000
 09  1  5  0 20 30.0000000  0 11G31G18G 9G24G 5G29G12G14G22G21G30
 139504466.14747  90912547.90647  24643897.1014   24643900.9924   24643896.3034
        40.000          36.000
 124633573.05447  97117042.72447  23717002.5344   23717004.6644   23717002.9654
        46.000          39.000
 113989353.09047  88822862.59347  21691461.5184   21691465.1114   21691461.5344
        52.000          45.000
 112254673.56847  87471160.85047  21361364.8474   21361369.1974   21361364.9924
        53.000          47.000
 125181803.89547  97544252.19247  23821312.2934   23821317.5624   23821312.5574
        45.000          39.000
 113740463.23547  88628918.86347  21644098.6814   21644102.3124   21644098.4854
        51.000          46.000
 128163033.59747  99867285.32947  24388624.8044   24388629.6134   24388624.7494
        43.000          38.000
 115534805.48247  90027115.67347  21985545.7784   21985549.0334   21985546.0454
        50.000          44.000
 127972959.55747  99719187.44847  24352448.2764   24352448.4094   24352448.3314
        45.000          38.000
 110126969.52747  85813217.25847  20956470.0244   20956472.1004   20956470.3564
        53.000          47.000
 123675187.48547  96370265.10347  23534614.3084   23534619.0804   23534614.4104
        46.000          40.000
 09  1  5  0 21  0.0000000  0 11G31G18G 9G24G 5G29G12G14G22G21G30
 139401698.33047  90832469.16247  24624341.1214   24624344.9514   24624340.7474
        41.000          36.000
 124622584.68747  97108480.38647  23714911.8484   23714913.6994   23714912.1774
        46.000          39.000
 114027544.66847  88852622.29947  21698729.0344   21698732.7054   21698728.8304
        52.000          45.000
 112262462.17647  87477229.90647  21362846.9864   21362851.4404   21362847.1844
        53.000          47.000
 125170580.49847  97535506.74547  23819176.5314   23819181.8924   23819176.8774
        44.000          39.000
 113809643.53147  88682825.59747  21657263.2094   21657266.8444   21657262.8314
        51.000          46.000
 128166622.35347  99870081.85847  24389307.8304   24389311.6864   24389307.4314
        44.000          38.000
 115518725.16147  90014585.60847  21982485.6844   21982489.2214   21982486.1604
        50.000          44.000
 127963260.80247  99711630.00847  24350602.3064   24350603.3114   24350602.5114
        44.000          38.000
 110057646.30747  85759199.18547  20943278.2764   20943280.2244   20943278.6864
        54.000          48.000
 123662014.37847  96360000.39847  23532107.4454   23532112.2004   23532107.5244
        47.000          40.000
 09  1  5  0 21 30.0000000  0 11G31G18G 9G24G 5G29G12G14G22G21G30
 139298860.21947  90752335.66347  24604771.8984   24604775.6094   24604771.5344
        42.000          36.000
 124611374.46947  97099745.18247  23712778.2294   23712780.6954   23712778.6564
        46.000          39.000
 114066264.87947  88882793.93047  21706097.3074   21706100.4974   21706097.4484
        51.000          45.000
 112270706.41447  87483653.98647  21364415.7034   21364420.1664   21364415.7374
        53.000          47.000
 125159256.97847  97526683.27447  23817022.2244   23817027.0794   23817022.7214
        45.000          39.000
 113879011.99547  88736878.94447  21670463.6564   21670467.2884   21670463.3824
        52.000          46.000
 128170118.47447  99872806.23747  24389973.4374   24389976.7974   24389973.0334
        44.000          38.000
 115503110.37947  90002418.30247  21979514.1064   21979517.7444   21979514.1594
        50.000          44.000
 127953374.52147  99703926.43747  24348720.7714   24348721.9864   24348720.9154
        44.000          38.000
 109988648.39247  85705434.59347  20930148.4354   20930150.3264   20930148.7384
        54.000          48.000
 123648645.93947  96349583.48747  23529563.4634   23529568.3894   23529562.6654
        47.000          40.000
 09  1  5  0 22  0.0000000  0 11G31G18G 9G24G 5G29G12G14G22G21G30
 139195954.87647  90672149.75847  24585190.1194   24585193.3164   24585189.5994
        41.000          37.000
 124599942.71947  97090837.33947  23710603.1094   23710604.3774   23710603.4214
        46.000          39.000
 114105514.02647  88913377.71047  21713566.3274   21713569.7714   21713566.0644
        52.000          45.000
 112279407.58847  87490434.12247  21366071.3964   21366075.8224   21366071.6164
        53.000          47.000
 125147835.43847  97517783.44147  23814848.6994   23814853.7744   23814849.0094
        45.000          39.000
 113948566.57947  88791077.31947  21683699.5224   21683703.0534   21683699.4654
        52.000          46.000
 128173524.07447  99875460.04547  24390621.1004   24390625.0364   24390620.8874
        44.000          38.000
 115487960.95447  89990613.62547  21976631.5584   21976634.8024   21976631.9894
        50.000          44.000
 127943300.48047  99696076.58647  24346803.6614   24346804.7424   24346804.1404
        45.000          38.000
 109919979.35547  85651926.27747  20917081.0364   20917083.0524   20917081.4374
        54.000          48.000
 123635083.51947  96339015.42547  23526982.6734   23526987.1154   23526982.3014
        47.000          40.000
 09  1  5  0 22 30.0000000  0 11G31G18G 9G24G 5G29G12G14G22G21G30
 139092982.97647  90591911.99247  24565595.0044   24565598.7334   24565594.5134
        43.000          37.000
 124588288.38647  97081756.03847  23708385.2284   23708386.6054   23708385.9054
        46.000          39.000
 114145290.52247  88944372.41347  21721135.4804   21721138.9414   21721135.5314
        52.000          46.000
 112288564.75447  87497569.57047  21367814.1234   21367818.5684   21367814.1864
        53.000          47.000
 125136315.78147  97508807.12547  23812655.7774   23812661.3294   23812656.2914
        45.000          39.000
 114018302.58547  88845417.05547  21696969.9484   21696973.5594   21696969.7534
        51.000          46.000
 128176838.95147  99878043.15547  24391251.8684   24391255.9104   24391251.9304
        44.000          38.000
 115473274.46147  89979169.64447  21973836.5604   21973840.0554   21973836.6194
        50.000          44.000
 127933035.89147  99688078.26147  24344850.3454   24344851.4564   24344850.3934
        45.000          38.000
 109851640.57147  85598675.28847  20904076.8274   20904078.6254   20904077.1114
        54.000          48.000
 123621326.12747  96328295.46347  23524364.7464   23524368.8824   23524364.4024
        47.000          40.000
 09  1  5  0 23  0.0000000  0 11G31G18G 9G24G 5G29G12G14G22G21G30
 138989946.71547  90511624.09247  24545987.7384   24545991.6244   24545987.9244
        43.000          37.000
 124576411.36047  97072501.22947  23706124.9434   23706126.9394   23706125.5904
        46.000          39.000
 114185593.28447  88975777.19647  21728804.8074   21728808.3434   21728804.7714
        52.000          45.000
 112298178.71647  87505060.96247  21369643.2914   21369647.9414   21369643.4044
        53.000          47.000
 125124699.71647  97499755.70147  23810445.9114   23810450.7494   23810446.0974
        45.000          39.000
 114088217.26447  88899896.04847  21710274.3224   21710277.6024   21710274.0854
        52.000          46.000
 128180065.03147  99880557.09947  24391865.6904   24391869.7434   24391865.2824
        42.000          38.000
 115459050.17647  89968085.84747  21971129.8984   21971133.2004   21971130.4694
        50.000          44.000
 127922579.98247  99679930.84747  24342861.0284   24342861.3684   24342860.9894
        44.000          38.000
 109783635.16347  85545684.07647  20891135.7714   20891137.6584   20891136.1164
        54.000          48.000
 123607374.79847  96317424.34147  23521710.0264   23521714.1564   23521709.7334
        47.000          40.000
 09  1  5  0 23 30.0000000  0 11G31G18G 9G24G 5G29G12G14G22G21G30
 138886848.81247  90431288.12347  24526368.8034   24526373.1634   24526369.1674
        42.000          37.000
 124564311.93447  97063073.12747  23703822.7254   23703824.5514   23703822.9644
        46.000          39.000
 114226422.61047  89007592.29247  21736574.2594   21736578.0354   21736574.4284
        52.000          46.000
 112308250.84947  87512909.36747  21371560.1404   21371564.6824   21371560.3424
        53.000          47.000
 125112989.30147  97490630.76147  23808217.0334   23808222.7034   23808217.6024
        45.000          39.000
 114158308.26447  88954512.39647  21723612.2724   21723615.4244   21723612.0624
        51.000          46.000
 128183203.79947  99883003.00347  24392462.7184   24392467.3754   24392462.8044
        43.000          38.000
 115445287.49747  89957361.73347  21968511.0934   21968514.2374   21968511.1804
        50.000          44.000
 127911932.25347  99671633.95247  24340834.6834   24340835.6914   24340834.3374
        44.000          38.000
 109715966.81047  85492955.51447  20878258.8184   20878260.8854   20878259.2584
