     2.11           OBSERVATION DATA    G (GPS)             RINEX VERSION / TYPE
teqc  2013Mar15     gpsops              20140530 00:23:17UTCPGM / RUN BY / DATE
Linux 2.4.21-27.ELsmp|Opteron|gcc -static|Linux x86_64|=+   COMMENT
BIT 2 OF LLI FLAGS DATA COLLECTED UNDER A/S CONDITION       COMMENT
GLPS                                                        MARKER NAME
42005M002                                                   MARKER NUMBER
GGN                 JPL                                     OBSERVER / AGENCY
ZR220013847         ASHTECH UZ-12       CQ00                REC # / TYPE / VERS
CR519992104         ASH701945B_M    SCIT                    ANT # / TYPE
   -33801.4662 -6377516.5323   -82154.3508                  APPROX POSITION XYZ
        0.0083        0.0000        0.0000                  ANTENNA: DELTA H/E/N
     1     1                                                WAVELENGTH FACT L1/2
     7    L1    L2    P1    P2    C1    S1    S2            # / TYPES OF OBSERV
    30.0000                                                 INTERVAL
                                                            COMMENT
This data is provided as a public service by NASA/JPL.      COMMENT
No warranty is expressed or implied regarding suitability   COMMENT
for use.  For further information, contact:                 COMMENT
Dave Stowers, NASA/JPL m/s 238-600                          COMMENT
4800 Oak Grove Drive, Pasadena CA 91109 USA                 COMMENT
                                                            COMMENT
Forced Modulo Decimation to 30 seconds                      COMMENT
 SNR is mapped to RINEX snr flag value [0-9]                COMMENT
  L1 & L2: min(max(int(snr_dBHz/6), 0), 9)                  COMMENT
pseudorange smoothing corrections not applied               COMMENT
  2014     5    29     0     0    0.0000000     GPS         TIME OF FIRST OBS
                                                            END OF HEADER
 14  5 29  0  0  0.0000000  0 10G20G10G08G28G17G04G07G30G26G02
 -10599095.47646  -8209514.81145  24110509.5294   24110522.0854   24110512.156
        38.0004         33.0004
 -16329743.68447 -12720125.34047  22745578.5434   22745587.8374   22745580.883
        47.0004         42.0004
 -16642250.32848 -12922666.55248  20292759.6604   20292765.3594   20292760.060
        53.0004         48.0004
  -8778194.23648  -6846373.59047  22499869.7634   22499874.9334   22499869.404
        48.0004         43.0004
 -10318886.67447  -7993575.26647  23437446.5174   23437456.7844   23437446.954
        47.0004         42.0004
 -29282046.83148 -22774717.48348  20365078.5284   20365084.3024   20365078.144
        53.0004         49.0004
 -14075353.99248 -10933586.89347  21919795.7784   21919800.4634   21919795.038
        49.0004         45.0004
 -10866016.02149  -8449537.42848  20509029.0024   20509036.3924   20509028.972
        54.0004         50.0004
  -1596749.74547  -1230827.49246  24137127.6834   24137137.3214   24137127.245
        43.0004         38.0004
 -10141029.32348  -7892057.37047  22387088.4524   22387091.6534   22387088.325
        48.0004         44.0004
 14  5 29  0  0 30.0000000  0 10G20G10G08G28G17G04G07G30G26G02
 -10556821.92546  -8176574.37845  24118557.4294   24118568.1514   24118557.978
        38.0004         34.0004
 -16401198.14547 -12775804.03947  22731982.1764   22731990.1614   22731983.513
        47.0004         42.0004
 -16590564.41648 -12882391.78948  20302595.5174   20302600.2484   20302595.361
        53.0004         48.0004
  -8837193.58947  -6892346.96047  22488641.7064   22488648.3804   22488642.054
        47.0004         43.0004
 -10283098.06847  -7965688.01947  23444257.4594   23444267.8784   23444257.049
        47.0004         42.0004
 -29301724.56248 -22790050.74448  20361333.7774   20361339.6454   20361333.759
        53.0004         49.0004
 -13982944.25648 -10861579.28147  21937380.1444   21937385.6874   21937380.107
        49.0004         45.0004
 -10822938.12349  -8415970.20248  20517226.3574   20517233.7264   20517226.392
        54.0004         50.0004
  -1584299.56647  -1221125.93646  24139497.5594   24139507.4744   24139496.792
        43.0004         38.0004
 -10204792.22248  -7941742.65747  22374954.1644   22374957.9154   22374953.732
        48.0004         44.0004
 14  5 29  0  1  0.0000000  0 10G20G10G08G28G17G04G07G30G26G02
 -10514207.65746  -8143368.37045  24126663.0484   24126674.7594   24126666.339
        38.0004         33.0004
 -16472698.90247 -12831518.81347  22718376.3734   22718383.8824   22718377.371
        47.0004         42.0004
 -16538301.27448 -12841667.23948  20312540.4414   20312546.3404   20312540.830
        53.0004         48.0004
  -8896165.95447  -6938299.31447  22477420.0004   22477426.2424   22477419.989
        47.0004         43.0004
 -10247471.17347  -7937926.77347  23451037.2374   23451047.2014   23451036.227
        46.0004         42.0004
 -29320850.16448 -22804953.77848  20357694.4414   20357700.2654   20357693.983
        53.0004         49.0004
 -13890255.10648 -10789353.94047  21955017.7824   21955024.7274   21955018.136
        49.0004         45.0004
 -10779361.27549  -8382014.18548  20525518.7214   20525526.0044   20525518.727
        54.0004         50.0004
  -1571718.92747  -1211322.72946  24141891.5354   24141902.2004   24141889.433
        42.0004         38.0004
 -10268174.63748  -7991131.46547  22362893.6544   22362896.7344   22362892.834
        48.0004         44.0004
 14  5 29  0  1 30.0000000  0 10G20G10G08G28G17G04G07G30G26G02
 -10471248.34346  -8109893.51545  24134841.6654   24134848.9194   24134842.527
        38.0004         33.0004
 -16544239.77647 -12887264.85247  22704762.7214   22704769.7764   22704763.211
        47.0004         42.0004
 -16485459.58248 -12800491.86648  20322595.5264   20322601.4524   20322596.193
        53.0004         48.0004
  -8955104.71247  -6984225.46647  22466204.5974   22466210.3254   22466204.248
        47.0004         43.0004
 -10212003.91747  -7910289.92446  23457786.4334   23457795.2004   23457786.037
        46.0004         41.0004
 -29339419.01948 -22819422.97748  20354160.9704   20354166.8324   20354160.473
        53.0004         49.0004
 -13797285.52448 -10716910.06647  21972709.4544   21972715.6894   21972709.581
        49.0004         44.0004
 -10735283.47249  -8347667.81048  20533906.5754   20533913.8054   20533906.468
        54.0004         50.0004
  -1559006.14547  -1201416.54946  24144309.8434   24144319.7554   24144310.694
        42.0004         38.0004
 -10331170.96048  -8040219.41847  22350904.0154   22350910.0014   22350905.140
        48.0004         44.0004
 14  5 29  0  2  0.0000000  0 10G20G10G08G28G17G04G07G30G26G02
 -10427945.50256  -8076150.97855  24143078.3075   24143088.8365   24143080.547
        38.0004         33.0004
 -16615820.10847 -12943041.63647  22691141.4124   22691148.9924   22691142.348
        47.0004         42.0004
 -16432043.64448 -12758869.03548  20332760.5834   20332766.5464   20332760.713
        53.0004         48.0004
  -9014008.80248  -7030124.60847  22454994.2684   22455002.6954   22454995.209
        48.0004         43.0004
 -10176699.35547  -7882779.84747  23464504.1504   23464513.4094   23464504.074
        46.0004         42.0004
 -29357433.04848 -22833459.84848  20350732.8504   20350738.6054   20350732.545
        53.0004         49.0004
 -13704040.66048 -10644251.69447  21990454.7754   21990459.1374   21990453.648
        49.0004         44.0004
 -10690708.53249  -8312934.06448  20542388.9294   20542396.0544   20542388.845
        54.0004         50.0004
  -1546165.42747  -1191410.69246  24146753.5234   24146762.1174   24146752.373
        42.0004         38.0004
 -10393781.76348  -8089006.96947  22338989.8594   22338993.8354   22338989.767
        48.0004         44.0004
 14  5 29  0  2 30.0000000  0 10G20G10G08G28G17G04G07G30G26G02
 -10384297.39956  -8042139.40145  24151389.1775   24151397.8504   24151386.388
        37.0004         33.0004
 -16687435.53947 -12998845.77747  22677514.2784   22677519.6154   22677513.989
        47.0004         42.0004
 -16378053.39148 -12716798.68048  20343034.7584   20343040.3364   20343034.935
        53.0004         48.0004
  -9072873.48448  -7075993.05647  22443794.0524   22443801.0464   22443793.432
        48.0004         43.0004
 -10141556.29247  -7855395.59447  23471192.3964   23471201.5554   23471191.696
        46.0004         42.0004
 -29374889.75748 -22847062.44648  20347410.9014   20347416.4534   20347410.372
        53.0004         49.0004
 -13610521.13348 -10571379.30747  22008249.7014   22008255.6224   22008249.276
        49.0004         44.0004
 -10645635.96249  -8277812.55048  20550965.7954   20550973.0074   20550965.823
        54.0004         50.0004
  -1533196.71647  -1181305.08546  24149219.9154   24149230.6344   24149220.287
        42.0004         38.0004
 -10456003.21848  -8137491.13147  22327149.3614   22327153.6704   22327150.052
        48.0004         44.0004
 14  5 29  0  3  0.0000000  0 10G20G10G08G28G17G04G07G30G26G02
 -10340309.63246  -8007863.13445  24159758.5094   24159768.3204   24159758.177
        38.0004         33.0004
 -16759089.47447 -13054679.90247  22663877.8984   22663884.7524   22663879.033
        47.0004         43.0004
 -16323496.76448 -12674287.00048  20353416.4344   20353421.7484   20353416.477
        53.0004         48.0004
  -9131701.97847  -7121833.30547  22432597.3624   22432605.1984   22432598.495
        47.0004         43.0004
 -10106582.37347  -7828143.14947  23477846.9374   23477856.2654   23477846.270
        47.0004         42.0004
 -29391794.80948 -22860235.17548  20344193.9144   20344199.7694   20344193.549
        53.0004         49.0004
 -13516735.94048 -10498299.89947  22026096.7004   22026101.5994   22026096.295
        49.0004         44.0004
 -10600073.62949  -8242309.40348  20559635.9974   20559643.3584   20559635.812
        54.0004         50.0004
  -1520108.26347  -1171106.18546  24151711.9974   24151720.7194   24151710.914
        42.0004         38.0004
 -10517839.90348  -8185675.47847  22315383.3614   22315387.1464   22315382.909
        48.0004         44.0004
 14  5 29  0  3 30.0000000  0 10G20G10G08G28G17G04G07G30G26G02
                  -7973317.42345                  24168200.5324   24168195.205
                        33.0004
 -16830773.81847 -13110537.73147  22650236.0984   22650244.2294   22650237.513
        47.0004         42.0004
 -16268370.47948 -12631331.42348  20363906.4364   20363912.0564   20363906.762
        53.0004         48.0004
  -9190485.37547  -7167638.40747  22421411.4894   22421418.5254   22421412.435
        47.0004         43.0004
 -10071773.12947  -7801019.04347  23484471.5324   23484480.8274   23484470.516
        47.0004         42.0004
 -29408142.28048 -22872973.43748  20341083.2164   20341088.9554   20341082.950
        53.0004         49.0004
 -13422682.17048 -10425011.20647  22043994.3264   22044000.5434   22043993.934
        49.0004         44.0004
 -10554017.61749  -8206421.56948  20568400.2674   20568407.6494   20568400.226
        54.0004         50.0004
  -1506896.41647  -1160811.14246  24154225.4954   24154235.1604   24154225.510
        43.0004         38.0004
 -10579284.77348  -8233554.52247  22303690.0144   22303693.5844   22303690.057
        49.0004         44.0004
 14  5 29  0  4  0.0000000  0 10G20G10G08G28G17G04G07G30G26G02
 -10251298.98746  -7938504.04845  24176697.4504   24176704.8244   24176696.233
        38.0004         34.0004
 -16902488.45547 -13166419.16247  22636590.6414   22636597.2114   22636590.713
        47.0004         43.0004
 -16212679.15948 -12587935.56148  20374503.9174   20374509.8584   20374504.315
        52.0004         48.0004
  -9249223.03147  -7213407.87847  22410234.2494   22410240.0364   22410235.084
        47.0004         43.0004
 -10037132.01447  -7774025.93047  23491063.2354   23491072.2544   23491062.834
        47.0004         42.0004
 -29423934.07448 -22885278.70048  20338077.8214   20338083.7064   20338077.514
        53.0004         49.0004
 -13328365.10248 -10351517.34547  22061942.2014   22061947.7984   22061941.665
        49.0004         44.0004
 -10507472.11349  -8170152.31348  20577257.4214   20577264.8214   20577257.339
        54.0004         49.0004
  -1493565.65947  -1150423.43446  24156761.9134   24156772.4724   24156762.026
        43.0004         38.0004
 -10640337.83748  -8281128.25047  22292071.7274   22292076.7044   22292072.385
        49.0004         44.0004
 14  5 29  0  4 30.0000000  0 10G20G10G08G28G17G04G07G30G26G02
 -10206278.30146  -7903422.92845  24185266.5144   24185271.8564   24185262.286
        38.0004         33.0004
 -16974230.92047 -13222322.27747  22622938.2144   22622944.3804   22622938.265
        47.0004         43.0004
 -16156425.03148 -12544101.15248  20385209.0064   20385214.3724   20385209.187
        52.0004         48.0004
  -9307912.28447  -7259139.62647  22399066.2024   22399072.1974   22399066.323
        47.0004         43.0004
 -10002660.00447  -7747164.59447  23497623.1414   23497632.4854   23497622.563
        47.0004         42.0004
 -29439169.92548 -22897150.75848  20335178.7274   20335184.4144   20335178.361
        53.0004         49.0004
 -13233787.75448 -10277820.67447  22079939.8034   22079945.3844   22079939.945
        49.0004         44.0004
 -10460438.79549  -8133502.94348  20586207.5824   20586214.8444   20586207.457
        54.0004         49.0004
  -1480118.05747  -1139944.67746  24159321.6014   24159331.7594   24159321.180
        43.0004         38.0004
 -10700997.59248  -8328395.51047  22280529.1354   22280532.9694   22280528.592
        49.0004         44.0004
 14  5 29  0  5  0.0000000  0 10G20G10G08G28G17G04G07G30G26G02
 -10160913.84746  -7868073.94745  24193897.9344   24193905.4654   24193896.387
        38.0004         33.0004
 -17045998.78047 -13278245.17247  22609280.6534   22609288.3804   22609282.144
        47.0004         43.0004
 -16099610.38248 -12499829.96748  20396020.0774   20396025.8364   20396020.546
        52.0004         48.0004
  -9366550.37748  -7304831.51147  22387907.5854   22387913.0804   22387908.054
        48.0004         43.0004
  -9968358.63147  -7720436.20347  23504150.3854   23504159.7774   23504149.864
        47.0004         42.0004
 -29453849.93348 -22908589.69848  20332385.3634   20332390.9924   20332384.765
        53.0004         49.0004
 -13138953.07048 -10203923.49347  22097985.7204   22097991.9344   22097985.954
        49.0004         44.0004
 -10412919.71749  -8096475.06048  20595250.1764   20595257.2864   20595250.017
        54.0004         49.0004
  -1466555.85047  -1129376.63246  24161902.4664   24161910.8634   24161902.455
        43.0004         38.0004
 -10761263.01848  -8375355.50447  22269060.1094   22269063.5544   22269060.868
        49.0004         44.0004
 14  5 29  0  5 30.0000000  0 10G20G10G08G28G17G04G07G30G26G02
 -10115205.11946  -7832456.68445  24202593.8714   24202601.4544   24202593.444
        38.0004         33.0004
 -17117789.37847 -13334185.77547  22595618.6974   22595626.4034   22595619.657
        47.0004         43.0004
 -16042237.20148 -12455123.56548  20406937.8084   20406943.8634   20406938.116
        52.0004         48.0004
  -9425134.09448  -7350481.02547  22376758.7294   22376766.3514   22376759.848
        48.0004         43.0004
  -9934228.97847  -7693841.61847  23510645.0664   23510653.0164   23510644.434
        46.0004         42.0004
 -29467973.55248 -22919595.07948  20329697.2824   20329703.1864   20329696.891
        53.0004         49.0004
 -13043863.78448 -10129827.90047  22116081.3044   22116086.2214   22116080.837
        49.0004         44.0004
 -10364916.44349  -8059069.88048  20604384.8964   20604391.9454   20604384.818
        54.0004         49.0004
  -1452880.90247  -1118720.72346  24164502.8334   24164514.5044   24164503.901
        43.0004         38.0004
 -10821132.20348  -8422006.72947  22257666.7494   22257671.7284   22257667.289
        49.0004         44.0004
 14  5 29  0  6  0.0000000  0 10G20G10G08G28G17G04G07G30G26G02
 -10069153.60946  -7796572.34445  24211359.5444   24211365.4604   24211356.914
        38.0004         34.0004
 -17189601.76147 -13390143.36747  22581953.7464   22581960.6564   22581954.035
        47.0004         43.0004
 -15984309.82448 -12409985.32348  20417961.0964   20417967.2704   20417961.505
        52.0004         48.0004
  -9483662.25848  -7396087.26647  22365621.5634   22365629.3474   22365622.211
        48.0004         43.0004
  -9900273.57747  -7667382.83047  23517106.0934   23517115.5044   23517105.562
        46.0004         42.0004
 -29481542.24148 -22930168.05548  20327115.1904   20327121.1794   20327115.200
        53.0004         49.0004
 -12948524.72348 -10055537.70947  22134223.8384   22134228.6824   22134223.453
        49.0004         44.0004
 -10316432.70749  -8021290.31548  20613610.9274   20613618.1074   20613610.904
        54.0004         50.0004
  -1439097.25247  -1107980.12646  24167127.4044   24167137.0464   24167127.255
        43.0004         38.0004
 -10880605.50948  -8468349.49647  22246350.4094   22246354.8094   22246350.559
        49.0004         44.0004
 14  5 29  0  6 30.0000000  0 10G20G10G08G28G17G04G07G30G26G02
 -10022758.03646  -7760419.85745  24220184.2784   24220190.2864   24220185.837
        38.0004         33.0004
 -17261431.92747 -13446114.81047  22568285.2904   22568291.1474   22568285.691
        47.0004         43.0004
 -15925828.86648 -12364415.72148  20429089.6074   20429095.0414   20429090.002
        52.0004         48.0004
  -9542130.23848  -7441646.60247  22354495.6104   22354501.4574   22354495.911
        48.0004         43.0004
  -9866492.12547  -7641059.57847  23523535.4414   23523543.6724   23523534.427
        46.0004         42.0004
 -29494554.36548 -22940307.33748  20324639.2114   20324644.7914   20324638.910
        53.0004         49.0004
 -12852936.96348  -9981053.68047  22152413.1674   22152418.0334   22152413.426
        49.0004         44.0004
 -10267468.66649  -7983136.48948  20622928.5534   20622935.6544   20622928.465
        54.0004         49.0004
  -1425205.26147  -1097155.09446  24169771.0644   24169779.8044   24169770.140
        43.0004         38.0004
 -10939679.78948  -8514381.32047  22235108.5864   22235112.5304   22235108.657
        49.0004         44.0004
 14  5 29  0  7  0.0000000  0 10G20G10G08G28G17G04G07G30G26G02
  -9976017.85746  -7723998.90545  24229078.2174   24229088.5374   24229080.425
        38.0004         33.0004
 -17333277.36647 -13502098.15147  22554613.5474   22554619.8104   22554613.941
        47.0004         43.0004
 -15866796.68348 -12318416.59048  20440323.3974   20440328.5654   20440323.600
        52.0004         48.0004
  -9600535.03348  -7487156.69147  22343381.0054   22343388.9344   22343381.700
        48.0004         43.0004
  -9832885.74647  -7614872.74847  23529930.6614   23529938.5064   23529929.260
        46.0004         42.0004
 -29507009.71448 -22950012.77048  20322268.9534   20322274.6984   20322268.748
        53.0004         49.0004
 -12757103.45248  -9906378.17547  22170649.4184   22170654.9864   22170649.340
        48.0004         44.0004
 -10218026.10549  -7944609.79048  20632337.1354   20632344.0574   20632337.081
        54.0004         49.0004
  -1411206.91747  -1086247.20646  24172433.4984   24172443.5944   24172433.743
        43.0004         38.0004
 -10998353.30948  -8560100.87047  22223942.7574   22223946.5524   22223943.419
        49.0004         44.0004
 14  5 29  0  7 30.0000000  0 10G20G10G08G28G17G04G07G30G26G02
  -9928934.81246  -7687310.74845  24238040.0954   24238049.8654   24238040.220
        38.0004         33.0004
 -17405137.07047 -13558092.61647  22540938.5224   22540945.1424   22540938.855
        47.0004         43.0004
 -15807217.46448 -12271991.19248  20451660.6494   20451666.3474   20451661.079
        52.0004         48.0004
  -9658875.68848  -7532616.79847  22332279.2484   22332286.0094   22332279.523
        48.0004         43.0004
  -9799457.35547  -7588824.60346  23536290.9864   23536300.5654   23536290.430
        46.0004         41.0004
 -29518909.74548 -22959285.48448  20320004.5874   20320010.2074   20320004.232
        53.0004         49.0004
 -12661028.68748  -9831514.69447  22188932.4214   22188937.0684   22188931.932
        48.0004         44.0004
 -10168108.88349  -7905713.22048  20641835.9484   20641843.1424   20641835.982
        54.0004         49.0004
  -1397106.24247  -1075259.56846  24175117.7524   24175127.5694   24175117.751
        43.0004         38.0004
 -11056626.14348  -8605508.20247  22212854.2344   22212857.4514   22212854.494
        49.0004         44.0004
 14  5 29  0  8  0.0000000  0 10G20G10G08G28G17G04G07G30G26G02
  -9881508.01946  -7650354.73545  24247065.3374   24247074.3504   24247065.009
        38.0004         33.0004
 -17477007.52347 -13614095.44347  22527261.4464   22527269.1184   22527262.675
        47.0004         43.0004
 -15747092.56748 -12225140.59448  20463102.0424   20463107.8744   20463102.509
        52.0004         48.0004
  -9717148.13948  -7578023.77947  22321190.6984   22321196.4444   22321190.751
        48.0004         43.0004
  -9766207.24047  -7562915.37546  23542618.5514   23542626.6714   23542617.676
        46.0004         41.0004
 -29530253.65448 -22968124.85948  20317845.8104   20317851.4264   20317845.497
        53.0004         49.0004
 -12564714.96248  -9756465.00547  22207260.4864   22207266.0204   22207259.986
        48.0004         44.0004
 -10117717.88849  -7866447.48248  20651425.1394   20651432.1104   20651425.000
        54.0004         49.0004
  -1382904.38247  -1064193.08346  24177819.5114   24177829.1544   24177819.802
        43.0004         38.0004
 -11114495.85748  -8650601.41747  22201842.5644   22201846.0824   22201842.547
        49.0004         44.0004
 14  5 29  0  8 30.0000000  0 10G20G10G08G28G17G04G07G30G26G02
  -9833737.76646  -7613131.12245  24256154.8374   24256164.2404   24256154.569
        38.0004         33.0004
 -17548886.76147 -13670105.12447  22513583.6434   22513590.3954   22513585.010
        47.0004         43.0004
 -15686424.97348 -12177867.11448  20474646.8854   20474652.2214   20474646.960
        52.0004         48.0004
  -9775349.75448  -7623375.55147  22310115.6504   22310120.7744   22310115.731
        48.0004         44.0004
  -9733136.76447  -7537146.11846  23548910.8094   23548920.4694   23548910.934
        46.0004         41.0004
 -29541041.95648 -22976531.29548  20315792.6234   20315798.4664   20315792.163
        53.0004         49.0004
 -12468165.64348  -9681231.75147  22225633.3334   22225637.9944   22225632.325
        48.0004         44.0004
 -10066855.66349  -7826814.54748  20661103.8534   20661110.9974   20661103.801
        54.0004         49.0004
  -1368603.90447  -1053049.75446  24180540.6294   24180549.3234   24180540.808
        43.0004         38.0004
 -11171961.77948  -8695379.98247  22190907.0124   22190910.4874   22190906.450
        49.0004         44.0004
 14  5 29  0  9  0.0000000  0 10G20G10G08G28G17G04G07G30G26G02
  -9785624.72046  -7575640.37045  24265312.8794   24265319.9634   24265309.717
        38.0004         33.0004
 -17620772.69047 -13726120.01947  22499904.5314   22499910.8474   22499904.840
        47.0004         43.0004
 -15625217.95648 -12130173.30348  20486293.5424   20486299.5174   20486294.216
        52.0004         48.0004
  -9833478.41948  -7668670.47547  22299053.4904   22299060.1324   22299053.682
        48.0004         44.0004
  -9700247.89347  -7511518.37747  23555170.4204   23555178.5564   23555169.586
        46.0004         42.0004
 -29551275.09348 -22984505.12748  20313845.2184   20313851.0474   20313845.150
        53.0004         49.0004
 -12371384.43448  -9605817.78747  22244050.9744   22244054.3104   22244049.433
        48.0004         44.0004
 -10015524.79649  -7786816.44048  20670871.6344   20670878.8364   20670871.773
        54.0004         49.0004
  -1354207.68747  -1041831.81446  24183280.7404   24183289.0114   24183280.515
        43.0004         38.0004
 -11229023.11748  -8739843.28847  22180047.9894   22180052.5414   22180048.307
        49.0004         44.0004
 14  5 29  0  9 30.0000000  0 10G20G10G08G28G17G04G07G30G26G02
  -9737168.41846  -7537882.16045  24274529.5674   24274538.3444   24274531.760
        38.0004         33.0004
 -17692662.82747 -13782138.19747  22486223.5524   22486229.5804   22486224.254
        47.0004         43.0004
 -15563473.32648 -12082060.57448  20498043.6514   20498049.5284   20498043.989
        52.0004         48.0004
  -9891530.64848  -7713905.84547  22288006.1324   22288012.4414   22288006.875
        48.0004         44.0004
  -9667541.07547  -7486032.48846  23561393.1894   23561402.4304   23561393.058
        46.0004         41.0004
 -29560952.78048 -22992046.14648  20312004.0164   20312009.6234   20312003.523
        53.0004         49.0004
 -12274373.71748  -9530224.97647  22262510.6794   22262516.2244   22262509.703
        48.0004         43.0004
  -9963727.00749  -7746454.49748  20680728.4704   20680735.6114   20680728.364
        54.0004         49.0004
  -1339717.49147  -1030540.65046  24186036.6904   24186046.9524   24186037.768
        43.0004         38.0004
 -11285678.19648  -8783990.03547  22169267.0854   22169270.6464   22169267.342
        49.0004         44.0004
 14  5 29  0 10  0.0000000  0 10G20G10G08G28G17G04G07G30G26G02
  -9688368.19646  -7499855.92745  24283813.6154   24283829.3654   24283817.931
        38.0004         33.0004
 -17764553.46048 -13838156.75247  22472543.9384   22472550.3434   22472544.303
        48.0004         43.0004
 -15501193.09648 -12033530.48948  20509895.2234   20509901.0084   20509895.613
        52.0004         48.0004
  -9949502.95048  -7759078.92547  22276973.4744   22276981.1034   22276974.483
        48.0004         44.0004
  -9635016.73747  -7460688.80047  23567582.2944   23567590.7904   23567582.413
        46.0004         42.0004
 -29570074.54648 -22999153.97648  20310268.0014   20310273.4994   20310267.576
        53.0004         49.0004
 -12177135.67548  -9454455.04147  22281013.5724   22281018.7274   22281013.657
        48.0004         44.0004
  -9911463.59549  -7705729.72948  20690673.8304   20690681.1124   20690673.631
        54.0004         49.0004
  -1325134.68247  -1019177.30246  24188813.7314   24188822.5724   24188812.574
        43.0004         38.0004
 -11341924.64248  -8827818.36047  22158563.2184   22158567.8344   22158563.708
        49.0004         44.0004
 14  5 29  0 10 30.0000000  0 10G20G10G08G28G17G04G07G30G26G02
                  -7461562.22245                  24293172.6844   24293169.079
                        32.0004
 -17836442.79348 -13894174.29747  22458862.9444   22458870.5774   22458863.939
        48.0004         43.0004
 -15438380.19548 -11984585.33748  20521848.2024   20521853.3374   20521847.947
        52.0004         48.0004
 -10007392.73648  -7804187.70947  22265959.1114   22265963.8454   22265958.457
        48.0004         44.0004
  -9602676.83247  -7435488.82746  23573736.2634   23573745.7814   23573736.477
        46.0004         41.0004
 -29578640.91048 -23005829.02348  20308637.9514   20308643.8084   20308637.611
        53.0004         49.0004
 -12079673.88648  -9378510.75347  22299559.8444   22299564.7424   22299559.780
        48.0004         43.0004
  -9858737.20849  -7664644.20048  20700707.3154   20700714.4984   20700707.335
        54.0004         49.0004
  -1310462.03747  -1007743.96946  24191604.6134   24191613.0844   24191604.049
        43.0004         38.0004
 -11397761.82248  -8871327.77347  22147937.8214   22147942.5854   22147938.375
        49.0004         44.0004
 14  5 29  0 11  0.0000000  0 10G20G10G08G28G17G04G07G30G26G02
  -9589739.64046  -7423002.42845  24302586.3534   24302592.7024   24302585.925
        37.0004         33.0004
 -17908329.44848 -13950189.76247  22445184.2004   22445190.4424   22445183.957
        48.0004         43.0004
 -15375038.62548 -11935228.23848  20533901.6334   20533907.0394   20533901.991
        52.0004         48.0004
 -10065198.80648  -7849231.28047  22254957.6074   22254965.3044   22254958.463
        48.0004         44.0004
  -9570523.31647  -7410434.08446  23579854.8744   23579863.5334   23579854.867
        46.0004         41.0004
 -29586653.35349 -23012072.44348  20307113.1274   20307118.5844   20307112.766
        54.0004         49.0004
 -11981992.76448  -9302395.55247  22318148.5434   22318152.8684   22318147.857
        48.0004         43.0004
  -9805551.29749  -7623200.60248  20710828.2274   20710835.3044   20710828.132
        54.0004         49.0004
  -1295703.15647   -996243.42746  24194413.0604   24194422.6504   24194413.237
        43.0004         38.0004
 -11453189.83148  -8914518.35647  22137391.1214   22137394.7364   22137390.568
        49.0004         45.0004
 14  5 29  0 11 30.0000000  0 10G20G10G08G28G17G04G07G30G26G02
                  -7384175.81845                  24312075.3834   24312068.907
                        33.0004
 -17980210.56048 -14006200.92247  22431505.2974   22431511.8654   22431505.665
        48.0004         43.0004
 -15311170.64648 -11885460.94448  20546055.0684   20546060.8384   20546055.358
        52.0004         48.0004
 -10122917.66548  -7894206.88547  22243974.1444   22243979.6004   22243974.767
        48.0004         44.0004
  -9538557.45347  -7385525.55946  23585938.0484   23585946.7274   23585937.672
        46.0004         41.0004
 -29594111.62949 -23017884.04348  20305693.9994   20305699.4974   20305693.616
        54.0004         49.0004
 -11884094.71048  -9226111.33047  22336776.9114   22336782.3174   22336777.100
        48.0004         43.0004
  -9751907.50049  -7581400.21248  20721036.0724   20721043.3564   20721036.092
        54.0004         49.0004
  -1280859.69947   -984676.98346  24197236.4934   24197246.7074   24197237.390
        43.0004         38.0004
 -11508206.92648  -8957388.73947  22126921.3094   22126925.6634   22126921.137
        49.0004         45.0004
 14  5 29  0 12  0.0000000  0 10G20G10G08G28G17G04G07G30G26G02
                  -7345081.29945                  24321624.7934   24321615.930
                        33.0004
 -18052081.81348 -14062204.39447  22417828.0694   22417833.6584   22417829.093
        48.0004         43.0004
 -15246777.30548 -11835284.28548  20558309.0004   20558314.6524   20558309.297
        52.0004         48.0004
 -10180544.23148  -7939110.56547  22233008.6834   22233015.5284   22233008.681
        48.0004         44.0004
  -9506778.21547  -7360762.46747  23591986.1184   23591993.8374   23591985.136
        46.0004         42.0004
 -29601014.20549 -23023262.63548  20304380.0154   20304385.8994   20304379.896
        54.0004         49.0004
 -11785981.08948  -9149659.12447  22355447.6994   22355452.7024   22355447.533
        48.0004         43.0004
  -9697806.22649  -7539243.34748  20731331.4334   20731338.4164   20731331.347
        54.0004         49.0004
  -1265932.09347   -973044.96946  24200078.0794   24200087.2824   24200078.071
        43.0004         38.0004
 -11562809.94548  -8999936.47047  22116530.8074   22116534.7654   22116530.390
        49.0004         45.0004
 14  5 29  0 12 30.0000000  0 10G20G10G08G28G17G04G07G30G26G02
                  -7305720.06055                  24331233.0295   24331226.733
                        32.0004
 -18123941.83448 -14118199.11447  22404153.4984   22404159.5444   22404154.426
        48.0004         43.0004
 -15181862.37848 -11784701.19148  20570661.4154   20570667.4964   20570661.973
        52.0004         48.0004
 -10238077.48348  -7983941.54247  22222060.4064   22222065.9884   22222060.715
        48.0004         44.0004
  -9475187.95847  -7336146.62347  23597997.1244   23598006.4004   23597996.741
        46.0004         42.0004
 -29607362.68549 -23028209.45648  20303172.8054   20303177.7924   20303172.071
        54.0004         49.0004
 -11687656.18648  -9073042.28547  22374158.7244   22374163.4464   22374158.043
        48.0004         43.0004
  -9643251.03449  -7496732.77548  20741712.8044   20741719.9924   20741712.810
        54.0004         49.0004
  -1250923.97047   -961350.21446  24202934.5324   24202942.9544   24202934.029
        43.0004         38.0004
 -11616999.16648  -9042161.74947  22106218.8304   22106222.7594   22106218.714
        49.0004         45.0004
 14  5 29  0 13  0.0000000  0 10G20G10G08G28G17G04G07G30G26G02
  -9388374.06446  -7266093.89745  24340904.5164   24340909.4614   24340904.568
        37.0004         32.0004
 -18195790.27648 -14174184.82847  22390481.8094   22390487.8704   22390481.688
        48.0004         43.0004
 -15116430.77748 -11733715.49648  20583112.6184   20583118.5354   20583112.968
        52.0004         48.0004
 -10295516.19048  -8028698.84647  22211129.9774   22211135.1854   22211130.183
        48.0004         44.0004
  -9443790.08447  -7311680.68746  23603971.8544   23603980.4724   23603970.961
        46.0004         41.0004
 -29613159.44249 -23032726.37248  20302069.2584   20302074.5674   20302068.616
        54.0004         49.0004
 -11589125.35348  -8996264.97947  22392908.6744   22392914.6484   22392907.901
        48.0004         43.0004
  -9588246.25349  -7453871.87648  20752179.8684   20752186.9334   20752179.685
        54.0004         49.0004
  -1235839.58947   -949596.03146  24205804.4714   24205814.1494   24205803.870
        43.0004         38.0004
 -11670775.60948  -9084065.39647  22095985.0444   22095989.1354   22095985.261
        49.0004         45.0004
 14  5 29  0 13 30.0000000  0 10G20G10G08G28G17G04G07G30G26G02
                  -7226200.81145                  24350651.1254   24350646.687
                        32.0004
 -18267621.61248 -14230157.19247  22376812.8644   22376819.0254   22376813.134
        48.0004         43.0004
 -15050482.35348 -11682327.08147  20595662.0724   20595668.1194   20595662.753
        52.0004         47.0004
 -10352854.53848  -8073377.95547  22200218.9154   22200224.6064   22200218.933
        49.0004         44.0004
  -9412582.70047  -7287363.18146  23609909.9834   23609919.7274   23609909.587
        46.0004         41.0004
 -29618401.89449 -23036811.35248  20301071.3374   20301076.6324   20301071.296
        54.0004         49.0004
 -11490388.32148  -8919326.98847  22411696.9144   22411702.1444   22411696.849
        48.0004         43.0004
  -9532791.14049  -7410660.07048  20762732.5424   20762739.6284   20762732.714
        54.0004         49.0004
  -1220678.24047   -937781.88246  24208689.1334   24208698.4204   24208689.681
        43.0004         38.0004
 -11724135.00848  -9125644.06647  22085829.9764   22085834.9604   22085831.208
        49.0004         45.0004
 14  5 29  0 14  0.0000000  0 10G20G10G08G28G17G04G07G30G26G02
                  -7186042.06945                  24360460.5784   24360454.491
                        32.0004
 -18339434.98848 -14286115.57947  22363146.7264   22363153.9444   22363147.548
        48.0004         43.0004
 -14984021.59648 -11630539.45047  20608309.2474   20608315.0294   20608309.412
        52.0004         47.0004
 -10410091.36448  -8117977.95547  22189326.7064   22189333.7214   22189326.998
        49.0004         44.0004
  -9381568.62647  -7263196.29946  23615811.8974   23615820.6354   23615811.565
        46.0004         41.0004
 -29623092.15448 -23040466.06048  20300179.1244   20300184.1474   20300178.660
        53.0004         49.0004
 -11391450.04048  -8842232.19747  22430524.9414   22430529.8884   22430524.582
        48.0004         43.0004
  -9476889.68249  -7367100.46248  20773370.2574   20773377.5284   20773370.260
        54.0004         49.0004
  -1205443.90247   -925910.86246  24211588.5684   24211597.5584   24211588.108
        43.0004         38.0004
 -11777077.50548  -9166897.88147  22075755.5784   22075760.0794   22075756.490
        49.0004         45.0004
 14  5 29  0 14 30.0000000  0 10G20G10G08G28G17G04G07G30G26G02
                  -7145617.74245                  24370336.7054   24370325.668
                        32.0004
 -18411227.51948 -14342057.72447  22349484.8804   22349491.3154   22349485.733
        48.0004         43.0004
 -14917050.71848 -11578354.32147  20621053.2154   20621059.4844   20621053.908
        52.0004         47.0004
 -10467223.61548  -8162496.47247  22178454.7184   22178460.6234   22178454.937
        49.0004         44.0004
  -9350748.46847  -7239180.52446  23621676.4254   23621686.0044   23621676.763
        46.0004         41.0004
 -29627230.17248 -23043690.44948  20299391.6384   20299397.0084   20299391.024
        53.0004         49.0004
 -11292313.32848  -8764982.77847  22449390.0534   22449393.1924   22449389.373
        48.0004         43.0004
  -9420543.83749  -7323194.57948  20784092.3124   20784099.9274   20784092.693
        54.0004         49.0004
  -1190138.53647   -913984.47946  24214500.1994   24214510.0914   24214500.132
        43.0004         38.0004
 -11829602.39548  -9207826.28447  22065761.9544   22065764.7224   22065761.396
        49.0004         45.0004
 14  5 29  0 15  0.0000000  0 10G20G10G08G28G17G04G07G30G26G02
                  -7104927.96645                  24380269.6514   24380261.799
                        32.0004
 -18482996.23948 -14397981.31647  22335827.7404   22335833.9184   22335828.376
        48.0004         43.0004
 -14849572.46548 -11525773.83447  20633894.4354   20633899.3484   20633894.326
        52.0004         47.0004
 -10524247.99348  -8206930.93447  22167603.0324   22167609.9314   22167603.541
        48.0004         44.0004
  -9320123.04747  -7215316.49146  23627504.3504   23627514.6974   23627504.416
        46.0004         41.0004
 -29630816.15649 -23046484.68048  20298709.2874   20298714.1314   20298708.907
        54.0004         49.0004
 -11192980.77948  -8687580.76247  22468291.7114   22468297.0574   22468291.626
        48.0004         43.0004
  -9363755.74749  -7278944.08748  20794899.2204   20794905.9574   20794898.977
        54.0004         49.0004
  -1174764.09347   -902004.27546  24217425.8434   24217435.1154   24217426.188
        42.0004         38.0004
 -11881707.89148  -9248427.88747  22055845.4904   22055849.3374   22055846.086
        49.0004         45.0004
 14  5 29  0 15 30.0000000  0 10G20G10G08G28G17G04G07G30G26G02
  -9128984.80446  -7063972.16545  24390261.5114   24390270.2194   24390264.527
        37.0004         32.0004
 -18554737.83648 -14453883.78247  22322176.4924   22322181.2204   22322176.218
        48.0004         43.0004
 -14781588.76848 -11472799.49447  20646830.6674   20646836.8474   20646831.306
        52.0004         47.0004
 -10581160.55148  -8251278.26947  22156772.7144   22156777.9554   22156773.204
        48.0004         44.0004
  -9289692.49647  -7191604.31346  23633295.2914   23633304.4034   23633294.937
        46.0004         41.0004
 -29633849.58649 -23048848.36048  20298131.6784   20298137.4694   20298131.335
        54.0004         49.0004
 -11093454.40048  -8610027.71447  22487232.6994   22487235.8564   22487230.951
        48.0004         43.0004
  -9306526.67649  -7234349.97548  20805789.2874   20805796.4144   20805789.372
        54.0004         49.0004
  -1159321.82447   -889971.22646  24220364.8214   24220373.1584   24220363.985
        42.0004         38.0004
 -11933391.97548  -9288701.12547  22046010.4604   22046014.5414   22046011.048
        50.0004         45.0004
 14  5 29  0 16  0.0000000  0 11G20G10G08G28G17G04G07G30G26G05G02
  -9076084.10946  -7022750.81445  24400329.7024   24400334.0874   24400331.871
        37.0004         32.0004
 -18626450.13648 -14509763.42347  22308529.1894   22308535.8894   22308530.041
        48.0004         44.0004
 -14713102.89648 -11419433.85147  20659863.6964   20659868.9074   20659863.465
        52.0004         47.0004
 -10637958.81548  -8295536.53647  22145964.9614   22145970.9274   22145964.720
        49.0004         44.0004
  -9259458.39247  -7168045.20746  23639048.4474   23639057.1384   23639048.038
        46.0004         41.0004
 -29636331.41249 -23050782.21348  20297659.2404   20297664.8834   20297659.206
        54.0004         49.0004
 -10993737.54148  -8532326.23447  22506206.9194   22506211.0914   22506206.419
        48.0004         43.0004
  -9248859.38549  -7189414.39448  20816762.9134   20816770.0224   20816762.797
        54.0004         49.0004
  -1143814.50747   -877887.49046  24223315.4404   24223323.9314   24223315.492
        42.0004         38.0004
   -623654.52747   -446934.59746  25490500.3404   25490511.0654   25490500.568
        43.0004         36.0004
 -11984654.06748  -9328645.52547  22036256.4484   22036259.9034   22036255.882
        50.0004         45.0004
 14  5 29  0 16 30.0000000  0 11G20G10G08G28G17G04G07G30G26G05G02
  -9022846.46346  -6981266.85545  24410462.5134   24410470.9064   24410462.289
        37.0004         33.0004
 -18698133.90148 -14565620.82947  22294888.2694   22294893.1004   22294888.473
        48.0004         43.0004
 -14644121.08748 -11365681.76247  20672990.1684   20672996.1074   20672990.582
        52.0004         47.0004
 -10694643.43348  -8339706.25147  22135178.9144   22135184.4194   22135177.978
        49.0004         44.0004
  -9229425.13247  -7144642.59646  23644764.0384   23644773.5094   23644762.976
        46.0004         41.0004
 -29638265.63149 -23052289.36648  20297291.5044   20297297.0214   20297291.007
        54.0004         49.0004
 -10893837.09148  -8454481.69047  22525217.1934   22525221.2384   22525216.866
        48.0004         43.0004
  -9190759.72949  -7144141.90148  20827818.8314   20827826.2164   20827818.917
        54.0004         49.0004
  -1128247.80747   -865757.48346  24226277.6454   24226286.9324   24226278.295
        42.0004         38.0004
   -703440.26246   -509105.07946  25475317.3564   25475327.3904   25475317.693
        41.0004         37.0004
 -12035496.20648  -9368262.69947  22026580.2884   22026584.0524   22026580.559
        50.0004         45.0004
 14  5 29  0 17  0.0000000  0 11G20G10G08G28G17G04G07G30G26G05G02
  -8969267.45546  -6939516.93745  24420656.2704   24420666.9814   24420657.324
        37.0004         32.0004
 -18769781.61948 -14621450.14547  22281253.7444   22281260.5904   22281254.441
        48.0004         43.0004
 -14574641.54448 -11311541.82847  20686211.7904   20686216.9874   20686211.764
        52.0004         47.0004
 -10751206.74548  -8383781.44547  22124414.1934   22124419.9824   22124414.518
        49.0004         44.0004
  -9199589.10447  -7121393.67047  23650441.1234   23650449.9504   23650440.788
        46.0004         42.0004
 -29639647.92149 -23053366.44048  20297028.2074   20297033.8604   20297028.053
        54.0004         49.0004
 -10793751.26147  -8376492.69847  22544261.8434   22544266.5044   22544262.522
        47.0004         43.0004
  -9132225.29948  -7098530.62548  20838957.5254   20838964.6364   20838957.595
        53.0004         49.0004
  -1112619.20647   -853579.23646  24229251.3804   24229260.5234   24229251.713
        42.0004         38.0004
   -783443.49646   -571445.01446  25460095.3914   25460101.4984   25460093.442
        41.0004         36.0004
 -12085913.29348  -9407548.66047  22016986.2514   22016989.7464   22016986.756
        49.0004         45.0004
 14  5 29  0 17 30.0000000  0 11G20G10G08G28G17G04G07G30G26G05G02
                  -6897503.01345                  24430925.8844   24430917.173
                        32.0004
 -18841392.98048 -14677251.12747  22267626.6544   22267633.9304   22267627.780
        48.0004         44.0004
 -14504669.58148 -11257018.18947  20699527.1414   20699532.0724   20699527.095
        52.0004         47.0004
 -10807648.12848  -8427761.62947  22113672.6874   22113679.4684   22113673.708
        49.0004         44.0004
  -9169953.73647  -7098301.10046  23656079.9404   23656089.6744   23656080.126
        46.0004         41.0004
 -29640481.11849 -23054015.65348  20296870.0924   20296874.7064   20296869.592
        54.0004         49.0004
 -10693485.43847  -8298363.45647  22563342.7124   22563346.6564   22563342.376
        47.0004         43.0004
  -9073260.72348  -7052584.17448  20850178.2504   20850185.4004   20850178.215
        53.0004         49.0004
  -1096933.23247   -841356.27346  24232236.3894   24232245.1634   24232236.427
        42.0004         38.0004
   -863665.10646   -633955.11846  25444828.5134   25444834.6574   25444827.041
        41.0004         36.0004
 -12135906.32148  -9446504.20447  22007472.9054   22007476.9144   22007473.188
        49.0004         45.0004
 14  5 29  0 18  0.0000000  0 11G20G10G08G28G17G04G07G30G26G05G02
                  -6855225.77645                  24441251.9034   24441242.537
                        33.0004
 -18912965.69548 -14733022.00847  22254006.7724   22254013.0174   22254007.471
        48.0004         44.0004
 -14434208.14048 -11202113.14247  20712935.0364   20712941.0744   20712935.314
        52.0004         47.0004
 -10863964.56448  -8471644.44847  22102956.6014   22102961.7874   22102957.242
        49.0004         44.0004
  -9140519.71447  -7075365.42746  23661681.5274   23661689.0714   23661681.318
        46.0004         41.0004
 -29640765.98249 -23054237.59448  20296815.5434   20296820.9514   20296815.143
        54.0004         49.0004
 -10593042.47847  -8220096.18147  22582456.9004   22582461.3664   22582455.956
        47.0004         43.0004
  -9013868.52548  -7006304.50648  20861480.1194   20861487.1824   20861480.156
        53.0004         49.0004
  -1081192.15347   -829090.39446  24235231.7964   24235239.5024   24235231.728
        42.0004         38.0004
   -944104.21246   -696634.71246  25429520.8374   25429526.6124   25429519.950
        40.0004         36.0004
 -12185474.33548  -9485128.55047  21998039.9884   21998044.4734   21998040.548
        49.0004         45.0004
 14  5 29  0 18 30.0000000  0 11G20G10G08G28G17G04G07G30G26G05G02
  -8806498.73846  -6812684.01845  24451631.5194   24451643.4904   24451631.892
        37.0004         33.0004
 -18984495.44248 -14788759.40147  22240395.7564   22240401.6564   22240395.823
        48.0004         44.0004
 -14363258.42048 -11146827.61847  20726436.1924   20726441.8834   20726436.783
        52.0004         47.0004
 -10920151.40948  -8515426.29147  22092264.5424   22092270.4164   22092265.061
        49.0004         44.0004
  -9111286.50347  -7052586.22146  23667244.0674   23667253.6444   23667243.881
        45.0004         41.0004
 -29640501.68149 -23054031.61548  20296865.8574   20296871.5964   20296865.516
        54.0004         49.0004
 -10492423.94847  -8141692.10247  22601603.5954   22601608.2374   22601603.520
        47.0004         43.0004
  -8954049.46148  -6959692.21548  20872863.2544   20872870.4214   20872863.229
        53.0004         49.0004
  -1065396.61147   -816782.04446  24238237.6994   24238245.9984   24238237.439
        42.0004         37.0004
  -1024758.03246   -759481.60746  25414173.5774   25414181.3434   25414171.561
        41.0004         36.0004
 -12234614.56948  -9523419.57747  21988689.6174   21988693.7494   21988689.620
        50.0004         45.0004
 14  5 29  0 19  0.0000000  0 11G20G10G08G28G17G04G07G30G26G05G02
  -8751568.39056  -6769881.15445  24462084.3295   24462092.2114   24462084.161
        37.0004         32.0004
 -19055983.19148 -14844464.06547  22226791.1374   22226798.4414   22226792.232
        48.0004         44.0004
 -14291827.24148 -11091166.92547  20740028.9904   20740034.8774   20740029.716
        52.0004         47.0004
 -10976209.80248  -8559108.04847  22081597.4934   22081602.2974   22081597.258
        49.0004         44.0004
  -9082259.02147  -7029967.33346  23672768.2684   23672776.6674   23672768.118
        45.0004         41.0004
 -29639692.42749 -23053401.00448  20297019.6214   20297025.4104   20297019.336
        54.0004         49.0004
 -10391636.12247  -8063156.10047  22620782.7514   22620788.1184   22620782.568
        47.0004         42.0004
  -8893809.83248  -6912752.21248  20884326.5464   20884333.2314   20884326.563
        53.0004         49.0004
  -1049552.76447   -804436.07246  24241253.7764   24241262.7494   24241252.033
        42.0004         37.0004
  -1105629.39446   -822498.00646  25398783.0844   25398792.3164   25398781.951
        41.0004         36.0004
 -12283330.09248  -9561379.64547  21979418.9194   21979423.0794   21979419.188
        50.0004         45.0004
 14  5 29  0 19 30.0000000  0 11G20G10G08G28G17G04G07G30G26G05G02
  -8696299.68946  -6726814.57145  24472597.2014   24472614.0674   24472601.681
        37.0004         33.0004
 -19127422.96448 -14900131.34747  22213196.8104   22213203.2884   22213197.612
        48.0004         44.0004
 -14219914.31348 -11035130.84647  20753714.0794   20753719.6164   20753714.325
        52.0004         47.0004
 -11032133.43948  -8602684.79047  22070954.6254   22070960.6164   22070955.522
        49.0004         44.0004
  -9053434.80547  -7007506.83646  23678253.0584   23678261.6404   23678252.483
        45.0004         41.0004
 -29638335.66349 -23052343.75748  20297277.7544   20297283.5154   20297277.431
        54.0004         49.0004
 -10290679.36747  -7984488.46847  22639995.0074   22639998.5064   22639994.120
        47.0004         42.0004
  -8833148.59848  -6865483.68848  20895869.8344   20895876.8544   20895869.665
        53.0004         49.0004
  -1033659.35047   -792051.47046  24244276.6894   24244285.9464   24244276.955
        42.0004         37.0004
  -1186713.14246   -885679.91446  25383352.2394   25383362.3944   25383352.213
        41.0004         36.0004
 -12331616.65648  -9599005.47147  21970230.6624   21970234.1364   21970230.314
        50.0004         45.0004
 14  5 29  0 20  0.0000000  0 11G20G10G08G28G17G04G07G30G26G05G02
                  -6683485.21445                  24483189.8734   24483183.158
                        32.0004
 -19198812.79448 -14955759.70847  22199612.1794   22199618.5564   22199612.519
        48.0004         44.0004
 -14147522.84548 -10978721.88447  20767489.3104   20767494.9044   20767489.876
        52.0004         47.0004
 -11087919.77348  -8646154.55447  22060339.7054   22060344.5884   22060339.723
        49.0004         44.0004
  -9024815.29347  -6985205.84646  23683699.6064   23683707.2474   23683698.855
        45.0004         41.0004
 -29636432.27049 -23050860.56548  20297640.1224   20297645.4224   20297639.817
        54.0004         49.0004
 -10189557.06447  -7905691.82247  22659237.7864   22659242.6854   22659236.892
        47.0004         43.0004
  -8772068.69248  -6817888.92748  20907492.8554   20907499.8714   20907492.900
        53.0004         49.0004
  -1017719.10247   -779630.37946  24247309.0464   24247318.1494   24247309.251
        42.0004         38.0004
  -1268009.07946   -949027.14346  25367882.5864   25367890.9174   25367881.181
        41.0004         36.0004
 -12379473.67848  -9636296.58847  21961123.3414   21961127.6094   21961123.946
        50.0004         45.0004
 14  5 29  0 20 30.0000000  0 11G20G10G08G28G17G04G07G30G26G05G02
  -8584751.43946  -6639893.80345  24493828.4584   24493834.1714   24493827.971
        37.0004         32.0004
 -19270150.31848 -15011347.31447  22186036.6494   22186042.7244   22186037.037
        49.0004         44.0004
 -14074656.20148 -10921942.65047  20781355.6834   20781361.6984   20781355.910
        52.0004         47.0004
 -11143566.15548  -8689515.26647  22049749.4924   22049755.8324   22049750.234
        49.0004         44.0004
  -8996401.66347  -6963065.28146  23689106.5644   23689114.7624   23689104.985
        45.0004         40.0004
 -29633983.51849 -23048952.42048  20298106.4594   20298111.3744   20298105.599
        54.0004         49.0004
 -10088272.48747  -7826768.75547  22678510.4834   22678516.8444   22678510.357
        47.0004         42.0004
  -8710573.02948  -6769970.19948  20919195.1884   20919201.9644   20919195.106
        53.0004         49.0004
  -1001734.68647   -767174.85746  24250351.4604   24250360.9734   24250351.292
        42.0004         38.0004
  -1349516.42646  -1012539.10746  25352372.2444   25352380.5494   25352370.680
        41.0004         36.0004
 -12426900.62148  -9673252.58747  21952098.4184   21952102.1354   21952098.179
        50.0004         45.0004
 14  5 29  0 21  0.0000000  0 11G20G10G08G28G17G04G07G30G26G05G02
                  -6596038.71555                  24504544.3135   24504537.444
                        32.0004
 -19341430.56948 -15066890.28647  22172471.9954   22172478.7044   22172473.245
        49.0004         44.0004
 -14001315.11748 -10864793.72247  20795311.8994   20795317.9154   20795312.346
        52.0004         47.0004
 -11199066.82448  -8732762.42847  22039188.9874   22039193.6324   22039188.688
        49.0004         44.0004
  -8968192.01947  -6941083.66646  23694473.9894   23694483.0174   23694473.435
        45.0004         40.0004
 -29630987.88549 -23046618.13248  20298676.0714   20298681.7184   20298675.680
        54.0004         49.0004
  -9986826.46847  -7747719.87647  22697815.0044   22697821.0264   22697815.389
        47.0004         42.0004
  -8648661.68348  -6721727.56048  20930976.4374   20930983.4564   20930976.317
        53.0004         49.0004
   -985706.04947   -754684.89246  24253401.5674   24253409.2294   24253401.556
        42.0004         38.0004
  -1431231.10046  -1076212.61846  25336819.7234   25336826.9214   25336820.142
        41.0004         36.0004
 -12473894.48048  -9709871.10647  21943155.2954   21943159.3464   21943155.928
        50.0004         45.0004
 14  5 29  0 21 30.0000000  0 10G10G08G28G17G04G07G30G26G05G02
 -19412650.23348 -15122386.06047  22158919.4004   22158924.9594   22158920.226
        49.0004         44.0004
 -13927502.27448 -10807277.19547  20809357.6804   20809364.0424   20809358.132
        52.0004         47.0004
 -11254419.08048  -8775893.93547  22028655.0554   22028659.9244   22028655.687
        49.0004         44.0004
  -8940187.95847  -6919262.24446  23699801.8634   23699812.4364   23699802.489
        45.0004         40.0004
 -29627445.49749 -23043857.80448  20299350.3804   20299355.2404   20299350.072
        54.0004         49.0004
  -9885221.26347  -7668546.95347  22717150.5924   22717154.9944   22717149.549
        47.0004         42.0004
  -8586336.71148  -6673162.61948  20942836.4104   20942843.4434   20942836.494
        53.0004         49.0004
   -969634.76947   -742161.70746  24256460.4424   24256468.7624   24256458.974
        42.0004         38.0004
  -1513151.72646  -1140046.60246  25321233.3544   25321242.4664   25321231.742
        41.0004         36.0004
 -12520453.70148  -9746150.95547  21934295.5944   21934299.7574   21934295.942
        50.0004         45.0004
 14  5 29  0 22  0.0000000  0 10G10G08G28G17G04G07G30G26G05G02
 -19483814.24448 -15177838.45447  22145378.1234   22145383.6184   22145378.272
        49.0004         44.0004
 -13853228.17348 -10749401.24547  20823491.6834   20823497.1664   20823492.257
        51.0004         47.0004
 -11309627.26048  -8818913.17947  22018149.6234   22018154.9134   22018149.621
        49.0004         45.0004
  -8912397.50747  -6897607.27446  23705091.2634   23705099.7964   23705090.782
        45.0004         41.0004
 -29623364.69049 -23040677.92648  20300126.5504   20300132.2294   20300126.155
        54.0004         49.0004
  -9783467.47147  -7589258.24347  22736513.7714   22736517.2874   22736512.685
        47.0004         42.0004
  -8523608.06948  -6624283.12548  20954773.7404   20954780.3064   20954773.365
        53.0004         49.0004
   -953530.69447   -729612.94346  24259523.1624   24259532.2354   24259524.987
        42.0004         38.0004
  -1595284.38146  -1204045.80946  25305603.0174   25305613.3184   25305602.518
        41.0004         36.0004
 -12566585.01848  -9782097.36847  21925517.0754   21925520.3544   21925517.544
        50.0004         45.0004
 14  5 29  0 22 30.0000000  0 10G10G08G28G17G04G07G30G26G05G02
 -19554917.46948 -15233243.48947  22131847.2184   22131852.9074   22131847.416
        49.0004         44.0004
 -13778493.40648 -10691166.33247  20837713.2214   20837718.7484   20837713.596
        51.0004         47.0004
 -11364685.78148  -8861815.81147  22007672.0944   22007676.8344   22007672.129
        49.0004         44.0004
  -8884818.95847  -6876117.43346  23710338.8634   23710347.7814   23710339.051
        46.0004         41.0004
 -29618743.88548 -23037077.26648  20301005.8624   20301011.5934   20301005.566
        53.0004         49.0004
  -9681565.70047  -7509854.23447  22755903.9484   22755909.2124   22755904.198
        47.0004         42.0004
  -8460475.92448  -6575089.21648  20966787.1004   20966794.0304   20966787.110
        53.0004         49.0004
   -937393.67447   -717038.54146  24262595.3044   24262603.7544   24262594.663
        42.0004         38.0004
  -1677625.79146  -1268207.70646  25289934.8604   25289940.9924   25289934.354
        41.0004         36.0004
 -12612285.16848  -9817707.81147  21916820.7844   21916823.9724   21916820.682
        50.0004         45.0004
 14  5 29  0 23  0.0000000  0 10G10G08G28G17G04G07G30G26G05G02
 -19625954.54348 -15288596.96747  22118328.6514   22118334.4204   22118330.030
        49.0004         44.0004
 -13703298.44148 -10632572.82447  20852022.3364   20852028.0134   20852022.861
        51.0004         47.0004
 -11419589.43248  -8904597.77747  21997224.4664   21997229.4984   21997224.452
        49.0004         45.0004
  -8857450.70947  -6854791.45246  23715547.2544   23715555.2674   23715547.223
        46.0004         41.0004
 -29613581.42848 -23033054.54148  20301988.3524   20301993.8784   20301987.973
        53.0004         49.0004
  -9579516.48647  -7430335.32547  22775323.4894   22775329.0854   22775323.469
        47.0004         42.0004
  -8396940.11248  -6525580.76348  20978877.7384   20978884.3374   20978877.553
        53.0004         49.0004
   -921223.20647   -704438.05246  24265672.4164   24265680.9284   24265672.434
        43.0004         38.0004
  -1760171.74646  -1332528.97946  25274225.8324   25274233.2664   25274226.680
        41.0004         36.0004
 -12657550.64848  -9852979.54347  21908206.5754   21908210.7044   21908206.790
        50.0004         45.0004
 14  5 29  0 23 30.0000000  0 10G10G08G28G17G04G07G30G26G05G02
 -19696923.04948 -15343897.02647  22104824.1674   22104830.1594   22104824.704
        49.0004         44.0004
 -13627646.87748 -10573623.53147  20866418.5434   20866424.3384   20866418.602
        51.0004         47.0004
 -11474335.32848  -8947256.81447  21986806.2724   21986811.4384   21986806.596
        49.0004         45.0004
  -8830293.67547  -6833630.06146  23720714.6994   23720723.0844   23720714.787
        46.0004         41.0004
 -29607878.53848 -23028610.69948  20303073.4114   20303078.7874   20303073.123
        53.0004         49.0004
  -9477323.04947  -7350704.03947  22794769.5914   22794775.5414   22794770.070
        47.0004         42.0004
  -8333003.75648  -6475760.19948  20991044.3694   20991050.9484   20991044.257
        53.0004         49.0004
   -905022.25147   -691813.83046  24268753.8164   24268763.5914   24268754.276
        42.0004         38.0004
  -1842921.66246  -1397009.16146  25258478.9294   25258486.9604   25258479.332
        41.0004         36.0004
 -12702381.52148  -9887912.62147  21899675.0644   21899679.7584   21899675.870
        50.0004         45.0004
 14  5 29  0 24  0.0000000  0 10G10G08G28G17G04G07G30G26G05G02
 -19767819.39848 -15399140.85147  22091333.0074   22091339.9494   22091333.700
        49.0004         44.0004
 -13551540.88348 -10514320.12847  20880901.3034   20880906.6144   20880901.493
        51.0004         47.0004
 -11528919.49248  -8989789.84147  21976419.0354   21976424.8754   21976419.334
        49.0004         45.0004
  -8803347.87447  -6812633.26546  23725843.4594   23725851.6444   23725842.703
