     2.11           OBSERVATION DATA    G (GPS)             RINEX VERSION / TYPE
teqc  2013Mar15     gpsops              20140514 00:23:29UTCPGM / RUN BY / DATE
Linux 2.4.21-27.ELsmp|Opteron|gcc -static|Linux x86_64|=+   COMMENT
BIT 2 OF LLI FLAGS DATA COLLECTED UNDER A/S CONDITION       COMMENT
GLPS                                                        MARKER NAME
42005M002                                                   MARKER NUMBER
GGN                 JPL                                     OBSERVER / AGENCY
ZR220013847         ASHTECH UZ-12       CQ00                REC # / TYPE / VERS
CR519992104         ASH701945B_M    SCIT                    ANT # / TYPE
   -33801.4662 -6377516.5323   -82154.3508                  APPROX POSITION XYZ
        0.0083        0.0000        0.0000                  ANTENNA: DELTA H/E/N
     1     1                                                WAVELENGTH FACT L1/2
     7    L1    L2    P1    P2    C1    S1    S2            # / TYPES OF OBSERV
    30.0000                                                 INTERVAL
                                                            COMMENT
This data is provided as a public service by NASA/JPL.      COMMENT
No warranty is expressed or implied regarding suitability   COMMENT
for use.  For further information, contact:                 COMMENT
Dave Stowers, NASA/JPL m/s 238-600                          COMMENT
4800 Oak Grove Drive, Pasadena CA 91109 USA                 COMMENT
                                                            COMMENT
Forced Modulo Decimation to 30 seconds                      COMMENT
 SNR is mapped to RINEX snr flag value [0-9]                COMMENT
  L1 & L2: min(max(int(snr_dBHz/6), 0), 9)                  COMMENT
pseudorange smoothing corrections not applied               COMMENT
  2014     5    13     0     0    0.0000000     GPS         TIME OF FIRST OBS
                                                            END OF HEADER
 14  5 13  0  0  0.0000000  0 11G20G07G13G26G10G01G09G08G28G17G04
  -4996022.68047  -3831456.01146  23618667.0404   23618680.0054   23618667.235
        42.0004         37.0004
 -24105677.88148 -18749188.11348  20278334.1994   20278341.4014   20278334.120
        53.0004         49.0004
  13037723.51047  10153754.68346  23777519.9394   23777528.6254   23777519.395
        42.0004         38.0004
   -686735.74947   -517527.15546  24182537.2584   24182556.3764   24182538.322
        42.0004         36.0004
  -6014024.67147  -4674880.17346  24296601.2504   24296614.4274   24296601.873
        42.0004         37.0004
  -7359546.74447  -5705272.48346  23368525.1214   23368542.7304   23368524.602
        44.0004         39.0004
 -19002910.46249 -14797455.18148  20182112.0374   20182120.4674   20182112.081
        54.0004         49.0004
 -25655957.93549 -19946970.33948  20088952.7884   20088961.5074   20088953.207
        54.0004         49.0004
  -4895205.31447  -3774291.99946  23843979.6234   23843995.4144   23843979.369
        43.0004         38.0004
 -16447559.87548 -12754998.80547  22412269.9654   22412280.7754   22412269.475
        49.0004         45.0004
 -22232286.26648 -17263162.13247  21661788.9554   21661797.6774   21661789.062
        50.0004         45.0004
 14  5 13  0  0 30.0000000  0 11G20G07G13G26G10G01G09G08G28G17G04
  -4991078.52247  -3827603.40846  23619607.5344   23619619.7284   23619609.043
        42.0004         37.0004
 -24073817.72548 -18724361.96548  20284397.4864   20284403.9574   20284396.784
        53.0004         49.0004
  13114671.97947  10213714.59746  23792162.2674   23792171.9804   23792162.100
        42.0004         38.0004
   -708608.26046   -534570.38146  24178374.6234   24178393.3404   24178374.875
        41.0004         36.0004
  -6064840.02147  -4714476.36446  24286932.2914   24286944.3774   24286931.557
        42.0004         37.0004
  -7264733.04747  -5631391.82846  23386567.8734   23386584.4504   23386566.913
        44.0004         40.0004
 -19038171.28049 -14824931.03748  20175401.8964   20175410.9624   20175401.926
        54.0004         49.0004
 -25693016.77249 -19975847.26248  20081900.7684   20081909.6154   20081900.929
        54.0004         49.0004
  -4938648.64947  -3808143.78846  23835712.1864   23835728.2784   23835713.069
        43.0004         39.0004
 -16407806.97348 -12724022.56747  22419835.2984   22419845.8494   22419834.284
        49.0004         45.0004
 -22313049.76348 -17326094.64647  21646420.3894   21646429.5404   21646419.506
        50.0004         45.0004
 14  5 13  0  1  0.0000000  0 11G20G07G13G26G10G01G09G08G28G17G04
  -4985928.24747  -3823590.19546  23620586.9384   23620599.3254   23620587.947
        42.0004         37.0004
 -24041369.32148 -18699077.44748  20290571.5384   20290578.4044   20290571.409
        53.0004         49.0004
  13191471.54847  10273558.51446  23806776.4634   23806784.8134   23806777.249
        42.0004         38.0004
   -730114.89646   -551328.53146  24174282.5644   24174300.5184   24174282.309
        41.0004         37.0004
  -6115886.87947  -4754252.97246  24277218.8964   24277229.8684   24277218.948
        42.0004         38.0004
  -7169663.06847  -5557311.48546  23404658.8224   23404676.5624   23404658.514
        44.0004         40.0004
 -19072856.83049 -14851958.64048  20168801.4104   20168809.8504   20168801.561
        54.0004         49.0004
 -25729478.88449 -20004259.21248  20074962.1334   20074970.8344   20074962.300
        54.0004         49.0004
  -4982322.28847  -3842175.02446  23827402.3564   23827418.0444   23827402.286
        43.0004         39.0004
 -16367937.36348 -12692955.38147  22427421.7604   22427432.3144   22427420.985
        49.0004         45.0004
 -22393474.32848 -17388763.05047  21631115.4284   21631123.7744   21631115.427
        50.0004         45.0004
 14  5 13  0  1 30.0000000  0 11G20G07G13G26G10G01G09G08G28G17G04
  -4980574.55847  -3819418.49146  23621608.2334   23621618.5084   23621608.457
        42.0004         37.0004
 -24008338.10848 -18673338.78548  20296857.5044   20296864.2984   20296857.150
        53.0004         49.0004
  13268115.67947  10333281.33546  23821361.1214   23821369.0554   23821361.848
        42.0004         38.0004
   -751261.06046   -567805.79446  24170257.1684   24170275.1564   24170257.673
        41.0004         36.0004
  -6167169.25847  -4794213.08846  24267458.7624   24267470.9424   24267459.756
        42.0004         38.0004
  -7074343.74447  -5483036.84446  23422798.1494   23422815.5164   23422796.898
        44.0004         40.0004
 -19106969.89749 -14878540.14448  20162310.0734   20162318.5154   20162309.838
        54.0004         49.0004
 -25765346.51449 -20032207.91948  20068136.6774   20068145.0304   20068136.892
        54.0004         49.0004
  -5026229.60447  -3876388.34646  23819046.6414   23819060.4394   23819046.379
        43.0004         38.0004
 -16327957.76048 -12661802.48247  22435029.0504   22435041.1844   22435028.662
        49.0004         45.0004
 -22473561.49748 -17451168.54647  21615875.9414   21615883.5174   21615875.492
        50.0004         46.0004
 14  5 13  0  2  0.0000000  0 11G20G07G13G26G10G01G09G08G28G17G04
  -4975011.82647  -3815083.87746  23622664.2004   23622676.2564   23622665.801
        42.0004         37.0004
 -23974721.27948 -18647143.80048  20303254.2734   20303261.2694   20303253.932
        53.0004         49.0004
  13344606.59747  10392884.76646  23835917.4644   23835925.2144   23835917.437
        42.0004         37.0004
   -772043.86746   -583999.93946  24166303.5554   24166320.4404   24166302.954
        41.0004         36.0004
  -6218682.94647  -4834353.44446  24257656.4584   24257668.3374   24257657.230
        42.0004         38.0004
  -6978773.77747  -5408566.88546  23440984.3004   23441001.9064   23440983.811
        44.0004         39.0004
 -19140505.29649 -14904671.52248  20155928.3174   20155936.8734   20155928.233
        54.0004         49.0004
 -25800613.81749 -20059688.84448  20061425.4354   20061433.6604   20061425.696
        54.0004         49.0004
  -5070365.37147  -3910779.68646  23810647.6394   23810662.9204   23810647.663
        43.0004         38.0004
 -16287866.89448 -12630562.88547  22442658.9074   22442670.3244   22442658.087
        50.0004         45.0004
 -22553304.94448 -17513306.20447  21600700.8704   21600709.1864   21600700.592
        50.0004         46.0004
 14  5 13  0  2 30.0000000  0 11G20G07G13G26G10G01G09G08G28G17G04
  -4969238.96547  -3810585.53746  23623764.9464   23623776.3254   23623765.495
        42.0004         37.0004
 -23940520.47748 -18620493.77148  20309762.9664   20309769.7604   20309762.369
        53.0004         49.0004
  13420941.89947  10452366.93746  23850444.2704   23850452.3364   23850443.195
        42.0004         37.0004
   -792465.04146   -599912.27746  24162416.4484   24162434.4554   24162417.001
        41.0004         36.0004
  -6270427.84447  -4874673.96546  24247809.4754   24247820.5034   24247810.939
        43.0004         38.0004
  -6882956.40847  -5333904.14746  23459216.4224   23459235.5914   23459216.518
        44.0004         39.0004
 -19173462.25449 -14930352.16148  20149656.5524   20149664.9784   20149656.737
        54.0004         49.0004
 -25835279.22749 -20086700.75648  20054828.9704   20054836.9954   20054829.207
        54.0004         49.0004
  -5114729.20347  -3945348.75046  23802205.1674   23802221.5394   23802205.211
        43.0004         38.0004
 -16247667.87848 -12599239.02147  22450307.1904   22450320.0174   22450307.596
        50.0004         45.0004
 -22632702.71948 -17575174.50847  21585592.0894   21585600.3444   21585591.571
        50.0004         45.0004
 14  5 13  0  3  0.0000000  0 11G20G07G13G26G10G01G09G08G28G17G04
  -4963256.20847  -3805923.63846  23624902.5634   23624912.8884   23624902.090
        42.0004         37.0004
 -23905738.82848 -18593391.13448  20316381.3664   20316388.1294   20316380.777
        53.0004         49.0004
  13497117.99047  10511725.04146  23864939.1384   23864949.3634   23864938.893
        42.0004         37.0004
   -812527.39346   -615545.01846  24158597.8794   24158617.0684   24158598.791
        41.0004         37.0004
  -6322404.98047  -4915175.44546  24237917.8394   24237931.6434   24237919.539
        43.0004         38.0004
  -6786896.10947  -5259052.11946  23477497.4374   23477515.2054   23477496.614
        44.0004         39.0004
 -19205841.15049 -14955582.36448  20143494.9674   20143503.5634   20143494.865
        54.0004         49.0004
 -25869342.75849 -20113243.68448  20048346.5924   20048355.5284   20048346.770
        54.0004         49.0004
  -5159321.66847  -3980095.97646  23793718.4984   23793734.4684   23793719.168
        43.0004         38.0004
 -16207365.29848 -12567834.45347  22457977.3284   22457989.0424   22457977.320
        50.0004         45.0004
 -22711754.09748 -17636772.88347  21570548.8224   21570557.9414   21570548.407
        50.0004         46.0004
 14  5 13  0  3 30.0000000  0 11G20G07G13G26G10G01G09G08G28G17G04
  -4957059.49547  -3801095.01146  23626081.5704   23626092.3604   23626082.515
        42.0004         37.0004
 -23870375.28848 -18565835.07848  20323111.0504   20323117.6034   20323110.299
        53.0004         49.0004
  13573135.31647  10570959.42746  23879404.5044   23879414.6924   23879404.254
        42.0004         37.0004
   -832229.78746   -630897.27446  24154850.5004   24154867.5364   24154849.553
        41.0004         37.0004
  -6374611.62047  -4955855.77146  24227984.1614   24227995.3424   24227984.249
        42.0004         38.0004
  -6690593.30947  -5184011.11446  23495823.4724   23495841.5604   23495822.648
        44.0004         39.0004
 -19237638.75349 -14980359.61248  20137444.3934   20137452.5464   20137444.358
        54.0004         49.0004
 -25902800.33049 -20139314.42848  20041980.0684   20041988.6304   20041980.431
        54.0004         49.0004
  -5204139.23647  -4015018.59446  23785191.0334   23785205.6564   23785190.012
        43.0004         38.0004
 -16166959.41148 -12536349.40047  22465667.0504   22465677.8094   22465665.862
        50.0004         45.0004
 -22790454.30248 -17698097.62347  21555572.2274   21555580.9274   21555572.382
        50.0004         46.0004
 14  5 13  0  4  0.0000000  0 11G20G07G13G26G10G01G09G08G28G17G04
  -4950647.20147  -3796098.40346  23627302.3524   23627315.2924   23627302.046
        42.0004         37.0004
 -23834430.91148 -18537826.41948  20329950.2124   20329957.4484   20329950.125
        53.0004         49.0004
  13648991.96847  10630068.61446  23893839.8294   23893848.7814   23893839.239
        42.0004         37.0004
   -851573.32346   -645969.90146  24151169.7024   24151186.9324   24151168.384
        41.0004         37.0004
  -6427046.84247  -4996714.20646  24218006.2994   24218017.7824   24218006.377
        42.0004         38.0004
  -6594050.63947  -5108783.19146  23514195.2004   23514212.0464   23514194.208
        44.0004         39.0004
 -19268853.69549 -15004682.83648  20131504.3004   20131512.4814   20131504.043
        54.0004         49.0004
 -25935649.96149 -20164911.45048  20035728.7484   20035737.1034   20035728.672
        54.0004         49.0004
  -5249181.00547  -4050115.93846  23776619.1274   23776633.6494   23776619.844
        43.0004         38.0004
 -16126452.53948 -12504785.64547  22473374.8554   22473386.7974   22473374.426
        50.0004         45.0004
 -22868800.91548 -17759146.82847  21540663.7594   21540671.9124   21540663.760
        50.0004         46.0004
 14  5 13  0  4 30.0000000  0 11G20G07G13G26G10G01G09G08G28G17G04
  -4944019.85147  -3790934.22546  23628564.5434   23628575.6774   23628564.034
        42.0004         37.0004
 -23797909.04148 -18509367.76948  20336900.4784   20336907.2194   20336900.028
        53.0004         49.0004
  13724684.42247  10689049.85646  23908243.8794   23908252.2214   23908243.164
        42.0004         37.0004
   -870561.32346   -660765.48746  24147555.7134   24147571.2344   24147555.171
        41.0004         36.0004
  -6479712.36247  -5037752.10346  24207983.6604   24207995.7264   24207984.346
        43.0004         38.0004
  -6497272.90147  -5033372.11346  23532611.4844   23532629.4604   23532610.641
        44.0004         39.0004
 -19299486.64749 -15028552.56348  20125674.6514   20125683.2184   20125674.740
        54.0004         49.0004
 -25967892.11249 -20190035.12548  20029593.2634   20029601.6764   20029593.588
        54.0004         49.0004
  -5294447.66647  -4085388.49846  23768005.8684   23768020.0094   23768005.279
        43.0004         38.0004
 -16085849.63948 -12473147.06847  22481101.5754   22481112.4094   22481101.089
        50.0004         45.0004
 -22946793.30848 -17819920.01447  21525822.6414   21525830.0184   21525821.579
        50.0004         46.0004
 14  5 13  0  5  0.0000000  0 11G20G07G13G26G10G01G09G08G28G17G04
  -4937172.93647  -3785598.95546  23629866.1234   23629876.9614   23629866.031
        42.0004         37.0004
 -23760808.02148 -18480457.83048  20343960.8994   20343967.4854   20343960.303
        53.0004         49.0004
  13800213.93847  10747904.13946  23922616.4204   23922624.5754   23922616.004
        42.0004         37.0004
   -889191.78346   -675282.49246  24144010.9774   24144027.4204   24144009.532
        41.0004         37.0004
  -6532604.64547  -5078966.68746  24197919.1994   24197929.0384   24197919.509
        43.0004         38.0004
  -6400259.67347  -4957777.53946  23551072.4494   23551090.1284   23551072.231
        44.0004         39.0004
 -19329533.34949 -15051965.47348  20119957.0084   20119965.5014   20119956.960
        54.0004         49.0004
 -25999521.82749 -20214681.56148  20023573.9324   20023582.7364   20023574.327
        54.0004         49.0004
  -5339934.92547  -4120832.93146  23759349.0924   23759364.0704   23759349.488
        43.0004         38.0004
 -16045150.21548 -12441433.27847  22488845.9934   22488857.1074   22488845.875
        50.0004         45.0004
 -23024426.08648 -17880412.97847  21511049.8684   21511058.0924   21511048.814
        50.0004         46.0004
 14  5 13  0  5 30.0000000  0 11G20G07G13G26G10G01G09G08G28G17G04
  -4930106.90247  -3780092.94146  23631210.1424   23631222.3844   23631211.095
        42.0004         37.0004
 -23723131.49348 -18451099.44448  20351130.3214   20351136.7664   20351129.790
        53.0004         49.0004
  13875576.16047  10806628.08646  23936956.8244   23936966.0404   23936957.043
        42.0004         37.0004
   -907468.20146   -689523.59446  24140531.7514   24140547.8454   24140531.507
        41.0004         37.0004
  -6585725.06647  -5120359.03846  24187809.0884   24187820.8194   24187809.709
        43.0004         38.0004
  -6303015.94047  -4882003.32646  23569577.0264   23569595.2494   23569576.525
        44.0004         40.0004
 -19358995.07949 -15074922.56048  20114350.2384   20114358.7104   20114350.463
        54.0004         49.0004
 -26030539.55549 -20238851.13248  20017671.4214   20017679.7604   20017671.764
        54.0004         49.0004
  -5385644.02247  -4156450.23246  23750651.7704   23750665.3014   23750651.209
        43.0004         39.0004
 -16004359.27448 -12409648.17147  22496608.1414   22496619.6904   22496607.949
        50.0004         45.0004
 -23101698.98848 -17940625.50347  21496344.5354   21496353.2144   21496343.888
        50.0004         46.0004
 14  5 13  0  6  0.0000000  0 11G20G07G13G26G10G01G09G08G28G17G04
  -4922819.45447  -3774414.40946  23632598.0164   23632610.0374   23632598.053
        42.0004         37.0004
 -23684880.08748 -18421293.10648  20358409.2334   20358415.9054   20358408.912
        53.0004         49.0004
  13950770.10047  10865220.87646  23951264.1124   23951275.0554   23951266.044
        42.0004         37.0004
   -925391.33946   -703489.42446  24137120.7244   24137137.2364   24137120.497
        41.0004         36.0004
  -6639072.48547  -5161928.27446  24177657.9114   24177669.9834   24177658.824
        43.0004         38.0004
  -6205543.93547  -4806051.25246  23588125.9474   23588143.8314   23588125.135
        44.0004         40.0004
 -19387870.03149 -15097422.42048  20108855.5674   20108863.5864   20108855.809
        54.0004         49.0004
 -26060943.12449 -20262542.13448  20011885.7074   20011894.0764   20011886.053
        54.0004         49.0004
  -5431573.26847  -4192239.09246  23741911.4514   23741925.3244   23741911.061
        43.0004         38.0004
 -15963478.59148 -12377793.13847  22504387.6924   22504399.2824   22504387.530
        50.0004         45.0004
 -23178609.07348 -18000555.32947  21481708.7414   21481717.5444   21481708.213
        51.0004         46.0004
 14  5 13  0  6 30.0000000  0 11G20G07G13G26G10G01G09G08G28G17G04
  -4915308.80547  -3768561.95446  23634028.3254   23634041.0614   23634028.269
        42.0004         37.0004
 -23646054.74848 -18391039.54148  20365797.5634   20365804.0874   20365796.813
        53.0004         48.0004
  14025794.75947  10923681.77846  23965543.6294   23965550.2264   23965542.121
        42.0004         37.0004
   -942961.95646   -717180.58646  24133776.7134   24133794.4764   24133776.851
        41.0004         36.0004
  -6692645.80847  -5203673.53746  24167463.2644   24167474.1674   24167463.921
        43.0004         38.0004
  -6107845.83047  -4729922.99346  23606716.8674   23606734.8554   23606716.785
        44.0004         40.0004
 -19416156.80649 -15119463.96148  20103472.4794   20103481.2804   20103472.804
        54.0004         49.0004
 -26090730.52549 -20285753.00848  20006217.3834   20006225.8794   20006217.758
        54.0004         49.0004
  -5477720.60447  -4228197.87946  23733128.2604   23733144.6574   23733128.996
        43.0004         39.0004
 -15922510.18148 -12345869.74747  22512183.5544   22512195.2814   22512183.796
        50.0004         45.0004
 -23255153.37648 -18060200.11847  21467142.8824   21467151.2144   21467142.710
        51.0004         46.0004
 14  5 13  0  7  0.0000000  0 11G20G07G13G26G10G01G09G08G28G17G04
  -4907572.44347  -3762533.62546  23635498.6834   23635509.6764   23635498.916
        42.0004         37.0004
 -23606655.67248 -18360338.91748  20373294.5114   20373301.5254   20373294.155
        53.0004         48.0004
  14100649.55247  10982010.33046  23979786.8504   23979795.4374   23979786.320
        42.0004         37.0004
   -960180.26346   -730597.18646  24130499.7004   24130517.3894   24130499.837
        41.0004         37.0004
  -6746443.28647  -5245593.47046  24157226.6944   24157237.3724   24157226.471
        43.0004         38.0004
  -6009923.34947  -4653619.89846  23625351.0724   23625369.8034   23625350.857
        44.0004         40.0004
 -19443853.01949 -15141045.32148  20098202.3574   20098210.7184   20098202.283
        54.0004         49.0004
 -26119899.00649 -20308481.60848  20000666.6944   20000675.2104   20000667.057
        54.0004         49.0004
  -5524083.86047  -4264324.92046  23724306.2754   23724320.6004   23724306.489
        43.0004         39.0004
 -15881456.14548 -12313879.63647  22519996.2354   22520007.8904   22519995.783
        50.0004         45.0004
 -23331328.63648 -18119557.35147  21452647.1764   21452655.4944   21452646.327
        50.0004         46.0004
 14  5 13  0  7 30.0000000  0 11G20G07G13G26G10G01G09G08G28G17G04
  -4899610.13346  -3756329.20646  23637014.1624   23637025.8274   23637014.395
        41.0004         37.0004
 -23566686.07248 -18329193.72748  20380900.8304   20380907.1254   20380900.351
        53.0004         49.0004
  14175330.49946  11040203.41346  23993998.4744   23994003.2264   23993997.972
        41.0004         37.0004
   -977049.02947   -743741.43446  24127289.8134   24127306.5724   24127290.444
        42.0004         37.0004
  -6800466.19547  -5287689.06846  24146945.5114   24146956.2174   24146946.191
        43.0004         38.0004
  -5911780.79947  -4577145.32146  23644027.2984   23644045.4944   23644027.344
        44.0004         40.0004
 -19470959.34749 -15162167.03448  20093044.0794   20093052.0124   20093044.080
        54.0004         49.0004
 -26148448.40049 -20330727.80148  19995233.8094   19995242.4574   19995234.028
        54.0004         49.0004
  -5570663.71247  -4300620.73746  23715442.5634   23715456.6104   23715442.668
        44.0004         39.0004
 -15840320.02848 -12281825.56147  22527824.7314   22527835.1754   22527823.945
        50.0004         45.0004
 -23407133.82248 -18178626.20647  21438221.8874   21438230.3324   21438221.696
        50.0004         46.0004
 14  5 13  0  8  0.0000000  0 11G20G07G13G26G10G01G09G08G28G17G04
  -4891419.84046  -3749947.17446  23638573.2014   23638584.1264   23638572.642
        41.0004         36.0004
 -23526146.61648 -18297604.49048  20388615.1074   20388621.2834   20388614.507
        53.0004         49.0004
  14249837.21647  11098260.72346  24008177.3934   24008183.1844   24008175.997
        42.0004         37.0004
   -993568.72347   -756613.67046  24124145.9094   24124163.2614   24124146.239
        42.0004         37.0004
  -6854712.61047  -5329958.81946  24136623.0554   24136633.4584   24136623.295
        43.0004         38.0004
  -5813420.04947  -4500500.71746  23662744.8194   23662762.3844   23662744.660
        44.0004         40.0004
 -19497474.00749 -15182827.70648  20087998.4124   20088006.8114   20087998.529
        54.0004         49.0004
 -26176376.19149 -20352489.63048  19989919.0784   19989927.7444   19989919.452
        54.0004         49.0004
  -5617457.95647  -4337083.60146  23706537.4704   23706551.9944   23706537.933
        44.0004         39.0004
 -15799104.19048 -12249709.36247  22535668.1314   22535679.0834   22535666.801
        49.0004         45.0004
 -23482565.70048 -18237404.17347  21423867.2034   21423875.6314   21423866.695
        50.0004         46.0004
 14  5 13  0  8 30.0000000  0 11G20G07G13G26G10G01G09G08G28G17G04
  -4882997.79146  -3743384.55046  23640175.5634   23640187.3894   23640176.054
        41.0004         37.0004
 -23485036.57048 -18265570.64048  20396437.7034   20396444.5674   20396437.499
        53.0004         48.0004
  14324169.92647  11156182.46046  24022322.4414   24022328.2014   24022320.817
        42.0004         37.0004
  -1009738.63347   -769213.34146  24121069.8524   24121086.7624   24121068.979
        42.0004         37.0004
  -6909179.77947  -5372400.59246  24126257.6054   24126270.0494   24126258.729
        43.0004         38.0004
  -5714841.64147  -4423686.50046  23681504.5144   23681521.6554   23681503.616
        44.0004         40.0004
 -19523393.86149 -15203024.89048  20083066.0974   20083074.4084   20083066.118
        54.0004         49.0004
 -26203678.84949 -20373764.34448  19984723.6984   19984732.0844   19984724.019
        54.0004         49.0004
  -5664463.34447  -4373710.99146  23697592.6604   23697606.7334   23697593.099
        44.0004         39.0004
 -15757808.65648 -12217531.07047  22543526.6694   22543537.3744   22543525.479
        49.0004         45.0004
 -23557619.78748 -18295887.76747  21409585.1664   21409592.8464   21409584.793
        51.0004         46.0004
 14  5 13  0  9  0.0000000  0 11G20G07G13G26G10G01G09G08G28G17G04
  -4874345.51346  -3736642.51846  23641820.8104   23641832.6324   23641822.193
        41.0004         37.0004
 -23443360.56348 -18233095.78848  20404368.6104   20404375.6144   20404368.237
        53.0004         48.0004
  14398323.66547  11213964.73346  24036432.1854   24036439.7134   24036431.843
        42.0004         37.0004
  -1025563.21547   -781543.92146  24118057.0814   24118074.0094   24118058.047
        42.0004         37.0004
  -6963870.47747  -5415016.53946  24115849.4374   24115860.4834   24115851.025
        43.0004         38.0004
  -5616051.60847  -4346707.38346  23700303.6774   23700320.7294   23700302.674
        44.0004         40.0004
 -19548721.10949 -15222760.30548  20078246.4234   20078254.3504   20078246.469
        54.0004         49.0004
 -26230358.23349 -20394553.38548  19979646.7324   19979655.1364   19979647.022
        54.0004         49.0004
  -5711681.51847  -4410504.18746  23688608.4004   23688621.4094   23688607.879
        44.0004         39.0004
 -15716439.38148 -12185295.30447  22551397.8504   22551410.1194   22551397.374
        49.0004         45.0004
 -23632296.67548 -18354077.43047  21395374.2554   21395382.8324   21395374.049
        51.0004         46.0004
 14  5 13  0  9 30.0000000  0 11G20G07G13G26G10G01G09G08G28G17G04
  -4865459.23347  -3729718.16546  23643513.2644   23643524.3094   23643514.119
        42.0004         37.0004
 -23401118.02148 -18200179.47448  20412407.3394   20412413.9944   20412406.647
        53.0004         49.0004
  14472299.31947  11271608.23046  24050509.4064   24050517.5824   24050508.749
        42.0004         37.0004
  -1041041.71147   -793604.84946  24115111.9884   24115128.1894   24115110.764
        42.0004         37.0004
  -7018781.63947  -5457804.25546  24105401.3164   24105411.9174   24105401.255
        42.0004         38.0004
  -5517050.57947  -4269563.85746  23719142.5534   23719160.6704   23719141.958
        44.0004         40.0004
 -19573452.86449 -15242031.69748  20073539.9964   20073548.3014   20073540.159
        54.0004         49.0004
 -26256410.61249 -20414853.85448  19974689.1424   19974697.5374   19974689.349
        54.0004         49.0004
  -5759109.04347  -4447460.52546  23679581.6164   23679598.1814   23679581.903
        44.0004         39.0004
 -15674996.58548 -12153002.24447  22559284.2854   22559295.3534   22559284.090
        49.0004         45.0004
 -23706592.13248 -18411969.87547  21381236.9224   21381244.7294   21381236.020
        51.0004         46.0004
 14  5 13  0 10  0.0000000  0 11G20G07G13G26G10G01G09G08G28G17G04
  -4856337.42747  -3722610.28146  23645248.1994   23645261.1134   23645249.679
        42.0004         37.0004
 -23358310.11848 -18166822.62448  20420553.0624   20420559.3504   20420552.639
        53.0004         49.0004
  14546095.37046  11329111.78746  24064552.3554   24064559.7934   24064550.773
        41.0004         37.0004
  -1056174.88847   -805396.67346  24112231.2354   24112250.6374   24112232.588
        42.0004         37.0004
  -7073911.97947  -5500762.78146  24094908.9514   24094920.1794   24094910.118
        42.0004         38.0004
  -5417840.65447  -4192257.55246  23738021.8074   23738039.6324   23738020.906
        44.0004         40.0004
 -19597587.37149 -15260837.70348  20068947.1444   20068955.3644   20068947.363
        54.0004         49.0004
 -26281833.71449 -20434663.97348  19969851.1744   19969859.5354   19969851.518
        54.0004         49.0004
  -5806744.32047  -4484578.73046  23670516.0224   23670530.5214   23670517.709
        43.0004         39.0004
 -15633482.80648 -12120653.88147  22567184.6574   22567195.0724   22567184.038
        49.0004         45.0004
 -23780503.21948 -18469562.81647  21367171.4224   21367179.4824   21367171.111
        51.0004         46.0004
 14  5 13  0 10 30.0000000  0 11G20G07G13G26G10G01G09G08G28G17G04
  -4846979.99147  -3715318.79146  23647028.7494   23647041.0744   23647030.697
        42.0004         37.0004
 -23314939.98948 -18133027.67548  20428806.0594   20428812.6774   20428805.468
        53.0004         48.0004
  14619708.67146  11386472.94246  24078560.1844   24078566.6244   24078559.195
        41.0004         37.0004
  -1070965.82247   -816921.82446  24109417.8554   24109432.5354   24109416.712
        42.0004         37.0004
  -7129262.53747  -5543892.89346  24084376.0484   24084388.3884   24084377.447
        42.0004         38.0004
  -5318426.34747  -4114791.99346  23756939.4444   23756957.5954   23756938.986
        44.0004         40.0004
 -19621125.64149 -15279179.10948  20064467.8984   20064475.8944   20064468.014
        54.0004         49.0004
 -26306627.91649 -20453984.04348  19965132.9214   19965140.8934   19965133.336
        54.0004         49.0004
  -5854587.59047  -4521859.02746  23661413.2464   23661425.9984   23661412.754
        43.0004         38.0004
 -15591902.15748 -12088253.41447  22575096.4054   22575107.6554   22575096.399
        49.0004         44.0004
 -23854029.09748 -18526855.60847  21353179.8334   21353187.7424   21353179.933
        51.0004         46.0004
 14  5 13  0 11  0.0000000  0 11G20G07G13G26G10G01G09G08G28G17G04
  -4837383.93446  -3707841.35346  23648855.0474   23648868.3074   23648855.458
        41.0004         37.0004
 -23271008.20548 -18098795.07048  20437165.7174   20437172.5524   20437165.532
        53.0004         49.0004
  14693138.95346  11443691.48446  24092530.6664   24092540.7144   24092532.805
        41.0004         37.0004
  -1085414.73047   -828180.46846  24106667.5974   24106683.2734   24106667.097
        42.0004         37.0004
  -7184831.49047  -5587193.19446  24073802.2814   24073813.5134   24073803.359
        43.0004         38.0004
  -5218809.11447  -4037168.30746  23775895.5884   23775914.8544   23775894.887
        44.0004         40.0004
 -19644065.79549 -15297054.44948  20060102.6134   20060110.2894   20060102.526
        54.0004         49.0004
 -26330790.65549 -20472812.06248  19960534.8064   19960543.3884   19960535.269
        54.0004         49.0004
  -5902636.37547  -4559299.45246  23652268.0374   23652282.8954   23652269.395
        43.0004         39.0004
 -15550255.81048 -12055801.74547  22583022.2234   22583033.1144   22583021.576
        49.0004         44.0004
 -23927166.62548 -18583845.77347  21339262.0124   21339270.7204   21339261.383
        51.0004         46.0004
 14  5 13  0 11 30.0000000  0 11G20G07G13G26G10G01G09G08G28G17G04
  -4827548.84046  -3700177.67446  23650728.9064   23650739.6064   23650728.252
        41.0004         37.0004
 -23226517.07248 -18064126.61048  20445632.4444   20445639.0314   20445631.951
        53.0004         48.0004
  14766383.91246  11500765.64346  24106469.8654   24106479.7904   24106470.693
        41.0004         37.0004
  -1099523.87747   -839174.38146  24103982.5894   24103999.2304   24103982.312
        42.0004         37.0004
  -7240618.63547  -5630663.50546  24063186.3794   24063196.8154   24063187.303
        43.0004         38.0004
  -5118992.72347  -3959389.44046  23794890.1214   23794909.1634   23794889.252
        44.0004         39.0004
 -19666407.67549 -15314463.60248  20055850.7924   20055858.5674   20055850.686
        54.0004         49.0004
 -26354321.54249 -20491147.73148  19956057.0734   19956065.3984   19956057.401
        54.0004         49.0004
  -5950890.45947  -4596899.86446  23643085.5524   23643099.6394   23643086.726
        43.0004         39.0004
 -15508547.21048 -12023301.56847  22590958.4114   22590971.1014   22590958.581
        49.0004         44.0004
 -23999913.97348 -18640531.91147  21325418.4684   21325426.3094   21325418.369
        51.0004         46.0004
 14  5 13  0 12  0.0000000  0 11G20G07G13G26G10G01G09G08G28G17G04
  -4817470.95746  -3692324.81846  23652644.7834   23652656.2184   23652645.296
        41.0004         37.0004
 -23181466.13048 -18029021.93348  20454205.2884   20454211.8354   20454204.689
        53.0004         48.0004
  14839443.69446  11557695.52346  24120373.1784   24120380.4424   24120373.622
        41.0004         37.0004
  -1113292.39547   -849902.85846  24101361.5334   24101378.5614   24101361.174
        42.0004         37.0004
  -7296620.96247  -5674301.48046  24052528.7534   24052540.2344   24052530.161
        43.0004         38.0004
  -5018977.43347  -3881455.58846  23813923.5094   23813941.1084   23813922.321
        44.0004         40.0004
 -19688148.26749 -15331404.22448  20051713.6204   20051721.7134   20051713.657
        54.0004         49.0004
 -26377216.81449 -20508988.11648  19951700.6784   19951708.3974   19951700.638
        54.0004         49.0004
  -5999345.71447  -4634657.04546  23633865.5424   23633879.9244   23633866.031
        44.0004         39.0004
 -15466776.66348 -11990753.12747  22598907.4774   22598919.4904   22598906.974
        49.0004         44.0004
 -24072266.53048 -18696910.41747  21311649.6524   21311658.4554   21311649.649
        51.0004         46.0004
 14  5 13  0 12 30.0000000  0 12G20G07G13G26G10G02G01G09G08G28G17G04
  -4807152.57046  -3684284.53546  23654609.0824   23654619.3744   23654609.354
        41.0004         37.0004
 -23135860.25648 -17993484.84648  20462883.5294   20462890.4154   20462883.405
        53.0004         48.0004
  14912313.36646  11614477.22946  24134240.2074   24134248.3494   24134240.063
        41.0004         37.0004
  -1126725.38347   -860369.87046  24098806.3424   24098821.0834   24098805.743
        42.0004         37.0004
  -7352841.47847  -5718109.46346  24041830.0254   24041841.7454   24041831.532
        42.0004         38.0004
   -316422.94348   -191985.57746  24070380.8044   24070389.3264   24070381.399
        49.0004         38.0004
  -4918769.76347  -3803371.83046  23832991.0884   23833009.9174   23832991.148
        44.0004         39.0004
 -19709290.42349 -15347878.52948  20047690.3344   20047698.3504   20047690.573
        54.0004         49.0004
 -26399478.80349 -20526335.03448  19947464.0484   19947472.1074   19947464.114
        54.0004         49.0004
  -6048004.50847  -4672572.82646  23624605.5074   23624619.3684   23624606.143
        44.0004         39.0004
 -15424950.33248 -11958161.21247  22606867.4364   22606878.2714   22606866.551
        49.0004         44.0004
 -24144225.60948 -18752982.31847  21297957.0444   21297965.1334   21297956.726
        51.0004         46.0004
 14  5 13  0 13  0.0000000  0 12G20G07G13G26G10G02G01G09G08G28G17G04
  -4796588.15246  -3676052.55246  23656617.5204   23656629.0224   23656619.250
        41.0004         36.0004
 -23089697.80248 -17957514.05248  20471668.1864   20471674.0734   20471667.573
        53.0004         48.0004
  14984995.37146  11671112.70146  24148071.5724   24148078.8074   24148070.701
        41.0004         36.0004
  -1139820.17847   -870573.38346  24096314.1494   24096330.0304   24096312.464
        42.0004         37.0004
  -7409275.20047  -5762083.59046  24031090.8714   24031101.3394   24031092.152
        42.0004         38.0004
   -410101.02147   -264981.20146  24052554.4434   24052563.4794   24052553.900
        45.0004         38.0004
  -4818368.39147  -3725137.12946  23852098.2524   23852116.0974   23852097.158
        44.0004         39.0004
 -19729829.65249 -15363883.01948  20043781.7574   20043789.8914   20043781.696
        54.0004         49.0004
 -26421102.28149 -20543184.41448  19943348.9314   19943357.1774   19943349.349
        54.0004         49.0004
  -6096862.01847  -4710643.44246  23615309.4984   23615322.0754   23615308.939
        44.0004         39.0004
 -15383066.93548 -11925524.82847  22614837.0904   22614846.8034   22614836.549
        49.0004         44.0004
 -24215784.98448 -18808742.76147  21284340.3434   21284347.1074   21284339.172
        51.0004         46.0004
 14  5 13  0 13 30.0000000  0 12G20G07G13G26G10G02G01G09G08G28G17G04
  -4785777.74046  -3667628.89546  23658674.8534   23658687.6354   23658676.539
        41.0004         37.0004
 -23042981.75748 -17921111.89248  20480557.6614   20480564.5554   20480557.301
        53.0004         48.0004
  15057486.74546  11727599.63446  24161865.9794   24161873.6544   24161865.147
        41.0004         36.0004
  -1152579.61946   -880515.55946  24093885.4464   24093902.2514   24093885.441
        41.0004         37.0004
  -7465922.54247  -5806224.15946  24020313.0274   24020323.2364   24020311.738
        42.0004         38.0004
   -503620.00247   -337852.86846  24034757.5984   24034767.2564   24034757.971
        43.0004         38.0004
  -4717777.43647  -3646754.69846  23871239.1734   23871258.7594   23871238.886
        44.0004         39.0004
 -19749766.48449 -15379418.11048  20039987.9364   20039995.8324   20039987.853
        54.0004         49.0004
 -26442087.17849 -20559536.19948  19939355.6424   19939363.9734   19939355.967
        54.0004         50.0004
  -6145917.40747  -4748868.24146  23605973.3024   23605987.6294   23605973.515
        44.0004         39.0004
 -15341130.04248 -11892846.75647  22622817.3294   22622829.1924   22622816.883
        49.0004         44.0004
 -24286943.66048 -18864190.97547  21270798.6814   21270805.8504   21270798.192
        51.0004         46.0004
 14  5 13  0 14  0.0000000  0 12G20G07G13G26G10G02G01G09G08G28G17G04
  -4774719.26946  -3659011.93146  23660779.4654   23660791.0124   23660780.470
        41.0004         37.0004
 -22995713.36548 -17884279.33048  20489552.7844   20489559.5094   20489552.099
        53.0004         48.0004
  15129786.32246  11783937.12646  24175623.3474   24175633.2714   24175623.522
        41.0004         36.0004
  -1165004.97846   -890197.44646  24091520.0994   24091535.8074   24091519.576
        41.0004         37.0004
  -7522782.71547  -5850530.59546  24009490.8294   24009500.7874   24009491.319
        42.0004         38.0004
   -596977.16447   -410598.42946  24016993.2294   24017001.2854   24016992.993
        43.0004         38.0004
  -4616999.34747  -3568226.44646  23890418.2024   23890435.0954   23890416.412
        44.0004         39.0004
 -19769099.88749 -15394482.99748  20036308.8794   20036316.5384   20036308.728
        54.0004         49.0004
 -26462432.36349 -20575389.50448  19935484.1054   19935491.9524   19935484.382
        54.0004         49.0004
  -6195169.33947  -4787246.20746  23596601.0924   23596616.0174   23596601.232
        44.0004         39.0004
 -15299142.09748 -11860128.91647  22630807.5524   22630818.2194   22630807.020
        49.0004         44.0004
 -24357699.18148 -18919325.04247  21257334.5864   21257342.1024   21257333.824
        51.0004         47.0004
 14  5 13  0 14 30.0000000  0 12G20G07G13G26G10G02G01G09G08G28G17G04
  -4763411.77046  -3650200.92146  23662932.1494   23662944.0484   23662932.082
        41.0004         36.0004
 -22947894.68748 -17847017.97548  20498652.9064   20498658.8614   20498651.874
        53.0004         48.0004
  15201892.17046  11840123.66046  24189343.9874   24189352.0044   24189343.822
        41.0004         36.0004
  -1177098.02346   -899620.33946  24089219.9184   24089234.5554   24089219.732
        41.0004         37.0004
  -7579855.03647  -5895002.31646  23998630.6454   23998641.9844   23998631.232
        42.0004         38.0004
   -690170.65247   -483216.46246  23999259.2624   23999267.3304   23999259.328
        43.0004         38.0004
  -4516037.23647  -3489554.82146  23909630.1894   23909647.6954   23909629.468
        44.0004         39.0004
 -19787829.56549 -15409077.44848  20032744.3664   20032752.5954   20032744.435
        54.0004         49.0004
 -26482136.82149 -20590743.54148  19931734.3354   19931742.3864   19931734.702
        54.0004         49.0004
  -6244616.74847  -4825776.48146  23587191.4884   23587205.1844   23587191.804
        44.0004         39.0004
 -15257105.94748 -11827373.50547  22638806.5724   22638817.3264   22638806.224
        49.0004         44.0004
 -24428049.48248 -18974143.34547  21243946.8174   21243954.7174   21243946.393
        51.0004         47.0004
 14  5 13  0 15  0.0000000  0 12G20G07G13G26G10G02G01G09G08G28G17G04
  -4751852.65646  -3641193.85446  23665130.2344   23665142.4244   23665131.044
        41.0004         37.0004
 -22899526.21648 -17809328.20948  20507856.6654   20507862.9494   20507856.066
        53.0004         48.0004
  15273804.25146  11896159.21046  24203028.7204   24203035.6504   24203028.061
        41.0004         36.0004
  -1188858.89346   -908784.43946  24086981.9144   24086997.0224   24086980.968
        41.0004         36.0004
  -7637137.33447  -5939637.65646  23987730.1034   23987739.4484   23987731.534
        43.0004         38.0004
   -783196.96647   -555704.22846  23981555.9014   23981564.5574   23981556.891
        42.0004         38.0004
  -4414892.50647  -3410740.88446  23928876.7394   23928895.1544   23928876.738
        43.0004         39.0004
 -19805953.64949 -15423200.01048  20029295.5934   20029302.9894   20029295.694
        54.0004         49.0004
 -26501197.79449 -20605596.16048  19928107.1194   19928114.7924   19928107.410
        54.0004         49.0004
  -6294256.84747  -4864456.91646  23577745.2024   23577757.8914   23577745.330
        44.0004         39.0004
 -15215022.76648 -11794581.45547  22646814.6584   22646825.7864   22646814.253
        49.0004         44.0004
 -24497991.01348 -19028643.13147  21230637.1474   21230645.0874   21230636.965
        51.0004         47.0004
 14  5 13  0 15 30.0000000  0 12G20G07G13G26G10G02G01G09G08G28G17G04
  -4740041.06646  -3631990.04646  23667380.1454   23667390.3804   23667379.535
        41.0004         37.0004
 -22850610.81548 -17771212.26748  20517164.4414   20517171.2904   20517164.101
        53.0004         48.0004
  15345520.29046  11952041.99746  24216675.8164   24216684.3544   24216675.025
        41.0004         36.0004
  -1200289.88246   -917691.45946  24084805.1054   24084821.9724   24084805.261
        41.0004         37.0004
  -7694629.31447  -5984436.38346  23976789.4424   23976799.2674   23976790.228
        43.0004         38.0004
   -876054.43447   -628060.45246  23963885.8164   23963892.6714   23963885.747
        42.0004         38.0004
  -4313568.55247  -3331787.29446  23948158.6794   23948177.5544   23948157.803
        43.0004         39.0004
 -19823472.28849 -15436850.80048  20025961.9954   20025969.8564   20025961.855
        54.0004         49.0004
 -26519615.01249 -20619947.16048  19924602.5334   19924610.1794   19924602.614
        54.0004         49.0004
  -6344088.77947  -4903286.82346  23568262.5434   23568275.8534   23568262.643
        44.0004         39.0004
 -15172895.87848 -11761755.34047  22654831.2114   22654841.7754   22654830.749
        49.0004         44.0004
 -24567522.27448 -19082823.23247  21217405.5484   21217413.4474   21217405.399
        51.0004         47.0004
 14  5 13  0 16  0.0000000  0 12G20G07G13G26G10G02G01G09G08G28G17G04
  -4727976.26246  -3622588.94246  23669676.2424   23669686.2484   23669675.435
        41.0004         36.0004
 -22801150.63948 -17732671.82248  20526576.8324   20526582.9434   20526576.390
        53.0004         48.0004
  15417038.25346  12007770.45546  24230284.5084   24230291.0454   24230284.775
        40.0004         36.0004
  -1211393.14446   -926343.13246  24082692.6644   24082707.4614   24082692.126
        41.0004         37.0004
  -7752330.73947  -6029398.32846  23965809.7534   23965818.8034   23965809.623
        43.0004         38.0004
   -968741.73547   -700284.05846  23946247.4074   23946255.0244   23946247.855
        43.0004         38.0004
  -4212068.92947  -3252696.79746  23967473.0434   23967492.2104   23967472.730
        43.0004         39.0004
 -19840385.44249 -15450029.78148  20022743.3304   20022750.8474   20022743.353
        54.0004         49.0004
 -26537388.26949 -20633796.37248  19921220.1014   19921228.1304   19921220.376
        54.0004         49.0004
  -6394111.75747  -4942265.59646  23558742.6354   23558756.5334   23558743.664
        44.0004         39.0004
 -15130728.34548 -11728897.55347  22662854.9244   22662866.4084   22662855.267
        49.0004         44.0004
 -24636641.69148 -19136682.41147  21204252.9324   21204259.9874   21204252.509
        51.0004         47.0004
 14  5 13  0 16 30.0000000  0 12G20G07G13G26G10G02G01G09G08G28G17G04
  -4715655.92646  -3612988.71446  23672019.7984   23672031.5734   23672020.235
        41.0004         36.0004
 -22751146.46548 -17693707.47848  20536092.5204   20536098.7274   20536091.538
        53.0004         48.0004
  15488357.77046  12063344.29046  24243855.4344   24243862.0064   24243856.059
        40.0004         36.0004
  -1222168.93347   -934739.62546  24080643.9134   24080658.1544   24080642.438
        42.0004         37.0004
  -7810239.85647  -6074522.09246  23954788.9364   23954797.5974   23954789.600
        43.0004         38.0004
  -1061255.36347   -772372.33146  23928642.6994   23928650.9144   23928643.250
        43.0004         38.0004
  -4110394.99747  -3173470.49246  23986821.7274   23986839.7864   23986820.691
        43.0004         39.0004
 -19856691.20149 -15462735.47048  20019640.4924   20019648.3514   20019640.380
        54.0004         49.0004
 -26554515.09949 -20647141.87848  19917960.8504   19917968.6174   19917961.148
        54.0004         49.0004
  -6444323.31847  -4981391.30946  23549187.3584   23549201.4234   23549188.024
        44.0004         39.0004
 -15088521.17948 -11696008.87847  22670887.7304   22670899.1924   22670886.864
        49.0004         44.0004
 -24705345.73648 -19190217.92747  21191178.7324   21191186.4464   21191178.245
        51.0004         47.0004
 14  5 13  0 17  0.0000000  0 12G20G07G13G26G10G02G01G09G08G28G17G04
  -4703077.88346  -3603187.67746  23674413.0064   23674425.8024   23674413.874
        41.0004         37.0004
 -22700599.74548 -17654320.37748  20545710.9814   20545717.2814   20545710.358
        53.0004         48.0004
  15559477.54746  12118762.48546  24257389.3464   24257399.1024   24257389.743
        40.0004         36.0004
  -1232618.65246   -942882.01646  24078653.4004   24078668.6704   24078652.433
        41.0004         37.0004
  -7868355.25147  -6119806.60446  23943730.5334   23943740.0404   23943730.452
        43.0004         38.0004
  -1153592.68047   -844323.23546  23911070.6894   23911079.4134   23911071.606
        43.0004         38.0004
  -4008549.35347  -3094110.37546  24006202.3994   24006220.4754   24006201.679
        43.0004         39.0004
 -19872389.03449 -15474967.45448  20016653.1134   20016660.6214   20016653.038
        54.0004         49.0004
 -26570994.22149 -20659982.67248  19914825.0654   19914832.6604   19914825.410
        54.0004         49.0004
  -6494721.54647  -5020662.48746  23539597.8704   23539611.1644   23539597.179
        44.0004         40.0004
 -15046276.72748 -11663091.15247  22678925.9704   22678937.4934   22678925.323
        49.0004         44.0004
 -24773631.87948 -19243427.80347  21178184.1854   21178192.0474   21178183.855
        51.0004         47.0004
 14  5 13  0 17 30.0000000  0 12G20G07G13G26G10G02G01G09G08G28G17G04
  -4690242.32646  -3593185.98046  23676856.1484   23676867.3904   23676856.009
        41.0004         36.0004
 -22649514.12048 -17614513.34348  20555431.4854   20555438.3354   20555431.452
        53.0004         48.0004
  15630394.62846  12174022.72246  24270885.6324   24270893.3544   24270884.740
        40.0004         36.0004
  -1242745.31247   -950772.68446  24076725.7264   24076740.5024   24076725.757
        42.0004         37.0004
  -7926677.51247  -6165252.30646  23932631.5174   23932641.8844   23932631.914
        43.0004         39.0004
  -1245752.97347   -916136.18546  23893534.0714   23893541.4034   23893533.335
        43.0004         38.0004
  -3906536.18547  -3014619.74246  24025614.2714   24025633.0954   24025613.977
        43.0004         39.0004
 -19887480.13849 -15486726.66048  20013781.1834   20013789.3424   20013781.321
        54.0004         50.0004
 -26586826.17549 -20672319.18548  19911812.0794   19911820.0834   19911812.561
        54.0004         49.0004
  -6545306.58347  -5060079.23946  23529971.0464   23529984.7024   23529971.509
        44.0004         40.0004
 -15003999.14348 -11630147.61547  22686971.5314   22686982.9304   22686970.823
        49.0004         44.0004
 -24841499.52848 -19296311.58347  21165269.5114   21165277.1114   21165269.159
        51.0004         47.0004
 14  5 13  0 18  0.0000000  0 12G20G07G13G26G10G02G01G09G08G28G17G04
  -4677147.53546  -3582982.29346  23679347.8964   23679359.8614   23679347.357
        41.0004         37.0004
 -22597891.03448 -17574287.51048  20565255.8134   20565261.8004   20565254.996
        53.0004         48.0004
  15701108.12946  12229124.31746  24284341.7014   24284348.1454   24284340.470
        40.0004         36.0004
  -1252550.06546   -958412.56046  24074858.9494   24074874.7724   24074859.462
        41.0004         37.0004
  -7985204.99247  -6210857.89946  23921493.7724   23921504.6204   23921493.828
        43.0004         39.0004
  -1337733.47447   -987809.04546  23876029.2114   23876037.7904   23876029.811
        43.0004         38.0004
  -3804357.82047  -2935000.37246  24045058.5984   24045078.4814   24045058.259
        43.0004         39.0004
 -19901963.58949 -15498012.37248  20011025.2374   20011032.8884   20011025.108
        54.0004         50.0004
 -26602009.51049 -20684150.28148  19908922.6184   19908931.0294   19908923.081
        54.0004         49.0004
  -6596076.36747  -5099639.94846  23520310.4704   23520323.2744   23520310.320
        44.0004         40.0004
 -14961690.64848 -11597179.98747  22695022.4154   22695032.7654   22695022.181
        49.0004         44.0004
 -24908945.99148 -19348867.16247  21152434.6934   21152442.4304   21152434.623
        51.0004         47.0004
 14  5 13  0 18 30.0000000  0 12G20G07G13G26G10G02G01G09G08G28G17G04
  -4663789.37346  -3572573.37846  23681890.2444   23681901.7414   23681889.244
        41.0004         36.0004
 -22545729.66848 -17533642.23248  20575181.4674   20575187.4844   20575180.811
        53.0004         48.0004
  15771619.82346  12284068.67546  24297759.8924   24297765.6634   24297758.916
        40.0004         36.0004
  -1262031.73446   -965800.64246  24073056.3624   24073070.5384   24073055.047
        41.0004         37.0004
  -8043934.08847  -6256620.59846  23910318.1694   23910329.7334   23910317.891
        43.0004         39.0004
  -1429529.24647  -1059337.95946  23858561.7404   23858569.0614   23858561.659
        43.0004         38.0004
  -3702014.14547  -2855252.21246  24064534.3464   24064552.4264   24064534.140
        44.0004         39.0004
 -19915835.92349 -15508821.89048  20008385.4184   20008392.9234   20008385.307
        54.0004         50.0004
 -26616540.37749 -20695472.95948  19906157.5794   19906165.2764   19906158.079
        54.0004         49.0004
  -6647026.30547  -5139341.03746  23510614.0414   23510628.1024   23510614.962
        44.0004         40.0004
 -14919350.80348 -11564187.92647  22703079.7874   22703091.0564   22703078.930
        49.0004         44.0004
 -24975966.36848 -19401090.73447  21139680.9894   21139688.3904   21139680.643
        51.0004         47.0004
 14  5 13  0 19  0.0000000  0 12G20G07G13G26G10G02G01G09G08G28G17G04
  -4650169.28646  -3561960.37246  23684483.6234   23684493.2104   23684482.158
        41.0004         37.0004
 -22493034.53348 -17492581.03648  20585208.7304   20585215.5914   20585208.491
        53.0004         48.0004
  15841925.28346  12338852.31246  24311137.4334   24311143.3114   24311137.034
        40.0004         36.0004
  -1271194.52147   -972940.25246  24071310.7274   24071326.7714   24071311.491
        42.0004         37.0004
  -8102866.28747  -6302541.56046  23899103.2374   23899113.2404   23899103.644
        43.0004         39.0004
  -1521140.78247  -1130723.32446  23841127.9634   23841136.3014   23841128.980
        43.0004         38.0004
  -3599510.53847  -2775379.39246  24084040.3374   24084058.0194   24084039.791
        44.0004         39.0004
 -19929099.37449 -15519156.95448  20005861.1524   20005868.8854   20005861.056
        54.0004         50.0004
 -26630420.48949 -20706288.55548  19903516.1144   19903523.8184   19903516.546
        54.0004         49.0004
  -6698157.74147  -5179183.54646  23500885.0554   23500897.6804   23500884.816
        45.0004         40.0004
 -14876984.55048 -11531175.29047  22711141.4454   22711152.7784   22711141.395
        49.0004         44.0004
 -25042560.84848 -19452982.43347  21127008.4634   21127016.2624   21127008.391
        52.0004         47.0004
 14  5 13  0 19 30.0000000  0 12G20G07G13G26G10G02G01G09G08G28G17G04
  -4636284.13246  -3551140.80946  23687124.2964   23687136.3614   23687124.374
        41.0004         37.0004
 -22439805.99048 -17451104.19648  20595338.1144   20595344.2424   20595337.631
        53.0004         48.0004
  15912024.66846  12393475.35746  24324476.0864   24324484.5234   24324476.118
        40.0004         36.0004
  -1280038.36247   -979831.32946  24069627.4764   24069644.4004   24069628.085
        42.0004         37.0004
  -8161999.26447  -6348618.98346  23887850.8304   23887860.7494   23887851.234
        43.0004         39.0004
  -1612564.17047  -1201962.07346  23823730.5194   23823739.3424   23823731.812
        43.0004         38.0004
  -3496848.13547  -2695382.85346  24103576.8304   24103595.4504   24103575.974
        44.0004         39.0004
 -19941752.10949 -15529016.13948  20003453.4324   20003461.1944   20003453.467
        54.0004         49.0004
 -26643647.40349 -20716595.16448  19900999.2264   19901007.0214   19900999.751
        54.0004         49.0004
  -6749467.40047  -5219164.93746  23491119.9674   23491134.1294   23491120.779
        45.0004         40.0004
 -14834592.70248 -11498142.70947  22719208.7984   22719219.7274   22719208.367
        49.0004         44.0004
 -25108725.94148 -19504539.54747  21114417.7104   21114425.5104   21114417.476
        52.0004         47.0004
 14  5 13  0 20  0.0000000  0 12G20G07G13G26G10G02G01G09G08G28G17G04
  -4622135.44846  -3540115.93046  23689816.1014   23689828.6004   23689817.465
        41.0004         37.0004
 -22386049.04548 -17409215.61648  20605567.8074   20605573.8814   20605567.088
        53.0004         48.0004
  15981913.87046  12447934.64945  24337775.5574   24337782.6414   24337775.756
        40.0004         35.0004
  -1288567.83847   -986477.45646  24068004.9204   24068020.7194   24068005.854
        42.0004         37.0004
  -8221334.88747  -6394854.29846  23876559.3454   23876569.4644   23876559.713
        43.0004         39.0004
  -1703799.99747  -1273054.68446  23806369.3894   23806377.4414   23806370.029
        43.0004         38.0004
  -3394032.52847  -2615266.92746  24123141.3274   24123160.2394   24123141.138
        44.0004         39.0004
 -19953796.88349 -15538401.58448  20001161.1144   20001168.8594   20001161.037
        54.0004         49.0004
 -26656223.00849 -20726394.26148  19898606.3764   19898613.6514   19898606.646
        54.0004         49.0004
  -6800956.48647  -5259286.12546  23481322.1954   23481334.6184   23481322.162
        45.0004         40.0004
 -14792180.37448 -11465094.17647  22727278.9784   22727291.7754   22727278.804
        49.0004         44.0004
 -25174462.17948 -19555762.49147  21101908.3334   21101915.8824   21101907.850
        52.0004         47.0004
 14  5 13  0 20 30.0000000  0 12G20G07G13G26G10G02G01G09G08G28G17G04
  -4607718.08846  -3528881.66846  23692560.9694   23692571.4964   23692560.101
        41.0004         37.0004
 -22331761.83748 -17366913.84548  20615897.7234   20615904.4734   20615897.620
        53.0004         48.0004
  16051595.76846  12502232.37846  24351036.6114   24351044.5434   24351036.383
        40.0004         36.0004
  -1296780.56647   -992876.74046  24066442.5724   24066458.1754   24066442.604
        42.0004         37.0004
  -8280867.94047  -6441243.46846  23865229.8534   23865239.9614   23865231.207
        44.0004         39.0004
  -1794841.84447  -1343996.13446  23789044.2624   23789051.6564   23789044.476
        43.0004         38.0004
  -3291062.47847  -2535030.66046  24142736.9084   24142755.6024   24142735.733
        44.0004         39.0004
 -19965229.18249 -15547309.78048  19998985.7004   19998992.9474   19998985.643
        54.0004         49.0004
 -26668142.55949 -20735682.14848  19896338.0024   19896345.6214   19896338.064
        54.0004         49.0004
  -6852619.50147  -5299542.84446  23471490.4164   23471504.6394   23471491.191
        45.0004         40.0004
 -14749746.50148 -11432028.84947  22735354.1764   22735365.8174   22735353.923
        49.0004         44.0004
 -25239763.63048 -19606646.63547  21089481.4094   21089489.3754   21089481.370
        52.0004         47.0004
 14  5 13  0 21  0.0000000  0 12G20G07G13G26G10G02G01G09G08G28G17G04
  -4593032.54646  -3517438.43946  23695354.1664   23695367.5514   23695355.474
        41.0004         36.0004
 -22276947.79348 -17324201.55048  20626328.2634   20626335.3234   20626328.182
        53.0004         48.0004
  16121066.84146  12556365.83846  24364256.3634   24364264.4364   24364255.959
        40.0004         36.0004
  -1304680.28147   -999032.14546  24064939.1904   24064953.9444   24064939.540
        42.0004         37.0004
  -8340599.39547  -6487787.21646  23853863.6414   23853874.1714   23853864.829
        44.0004         39.0004
  -1885689.74447  -1414786.45646  23771755.5434   23771764.1724   23771756.104
        43.0004         39.0004
  -3187942.80547  -2454677.80046  24162359.2794   24162378.4934   24162358.487
        44.0004         39.0004
 -19976050.82549 -15555742.14048  19996926.4414   19996934.1534   19996926.298
        54.0004         49.0004
 -26679407.47849 -20744459.93748  19894194.1474   19894201.8394   19894194.569
        54.0004         49.0004
  -6904457.13947  -5339935.63946  23461626.5284   23461639.4874   23461626.607
        45.0004         40.0004
 -14707295.34448 -11398950.05047  22743432.2604   22743443.8374   22743431.996
        49.0004         44.0004
 -25304630.34348 -19657192.02647  21077138.3564   21077145.3444   21077137.577
        52.0004         47.0004
 14  5 13  0 21 30.0000000  0 12G20G07G13G26G10G02G01G09G08G28G17G04
  -4578076.73246  -3505784.61546  23698200.0204   23698211.4544   23698201.200
        41.0004         36.0004
 -22221609.19248 -17281080.51548  20636859.2434   20636865.4634   20636858.870
        53.0004         48.0004
  16190326.11946  12610334.23746  24377436.0024   24377440.9924   24377435.471
        40.0004         36.0004
  -1312267.99447  -1004944.39446  24063495.4074   24063510.4284   24063494.865
        42.0004         37.0004
  -8400527.78747  -6534484.44346  23842459.4754   23842469.0194   23842460.535
        44.0004         39.0004
