     2.11           OBSERVATION DATA    G (GPS)             RINEX VERSION / TYPE
teqc  2008Oct2      gpsops              20090128 00:09:55UTCPGM / RUN BY / DATE
    30.0000                                                 INTERVAL
     1     1                                                WAVELENGTH FACT L1/2
     7    L1    L2    P1    P2    C1    S1    S2            # / TYPES OF OBSERV
Linux 2.4.20-8|Pentium IV|gcc -static|Linux|486/DX+         COMMENT
     2.10           OBSERVATION DATA    GPS                 COMMENT
soc2rnx ver 1.20    gpsops              28-Jan-2009 00:09:49COMMENT
S1, if present, is the SNR for the C/A data stream on L1.   COMMENT
 SNR is mapped to RINEX snr flag value [1,4-9]              COMMENT
    SNR:   >316  >100  >31.6  >10  >3.2    >0 bad=0         COMMENT
L1 & L2:      9     8     7     6     5     4     1         COMMENT
                                                            COMMENT
This data is provided as a public service by NASA/JPL.      COMMENT
No warranty is expressed or implied regarding suitability   COMMENT
for use.  For further information, contact:                 COMMENT
Dave Stowers, NASA/JPL m/s 238-600                          COMMENT
4800 Oak Grove Drive, Pasadena CA 91109 USA                 COMMENT
                                                            COMMENT
Forced Modulo Decimation to 30 seconds                      COMMENT
  2009     1    27     0     0    0.0000000     GPS         TIME OF FIRST OBS
GGN                 JPL                                     OBSERVER / AGENCY
CR519992104         ASH701945B_M    SCIT                    ANT # / TYPE
   -33801.4662 -6377516.5323   -82154.3508                  APPROX POSITION XYZ
        0.0083        0.0000        0.0000                  ANTENNA: DELTA H/E/N
ZR220013847         ASHTECH UZ-12       CQ00                REC # / TYPE / VERS
GLPS                                                        MARKER NAME
42005M002                                                   MARKER NUMBER
                                                            END OF HEADER
 09  1 27  0  0  0.0000000  0 12G 6G 9G14G 5G30G24G22G18G31G29G21G12
 126551719.92447  98611698.70447  24082017.1294   24082024.7404   24082016.8314
        43.000          38.000
 123909341.45447  96552717.55447  23579176.0034   23579181.2444   23579176.9484
        44.000          38.000
 117061860.22547  91217002.42947  22276158.7024   22276160.6154   22276158.2974
        50.000          44.000
 123716174.92647  96402198.40947  23542418.8894   23542422.3194   23542418.8444
        45.000          40.000
 120519157.09447  93911017.03647  22934044.3844   22934048.3394   22934042.8324
        49.000          42.000
 117825015.94447  91811674.48947  22421375.8894   22421381.9174   22421376.4064
        49.000          43.000
 124546213.76247  97048997.62947  23700355.9274   23700356.2194   23700356.1454
        47.000          40.000
 121210427.41547  94449679.36447  23065579.7644   23065581.3414   23065579.9044
        48.000          41.000
 115468542.31047  89975473.56447  21972943.5014   21972947.2504   21972943.6474
        52.000          46.000
 123751939.48647  96430062.84547  23549225.3364   23549230.6214   23549224.5004
        45.000          40.000
 104825853.92047  81682470.19347  19947706.0854   19947708.8014   19947706.5494
        54.000          49.000
 128330830.29847  99998029.64747  24420559.4424   24420562.8044   24420558.9504
        44.000          39.000
 09  1 27  0  0 30.0000000  0 12G 6G 9G14G 5G30G24G22G18G31G29G21G12
 126524663.74447  98590615.96747  24076867.4674   24076875.4184   24076867.6044
        42.000          38.000
 124007361.71047  96629096.97747  23597829.4094   23597833.4534   23597829.6204
        44.000          38.000
 117096202.11447  91243762.35247  22282693.1464   22282696.8114   22282693.3844
        50.000          44.000
 123709576.77047  96397057.00247  23541162.7204   23541167.6714   23541163.2924
        45.000          40.000
 120491895.97147  93889774.63447  22928855.6074   22928860.3574   22928855.2424
        49.000          42.000
 117895365.05747  91866491.94047  22434763.2094   22434768.9644   22434763.6284
        49.000          43.000
 124506319.22147  97017910.98147  23692764.2064   23692765.5524   23692763.9964
        47.000          40.000
 121174636.48747  94421790.33547  23058768.2304   23058770.8204   23058768.6474
        48.000          41.000
 115382037.18047  89908067.01547  21956482.6634   21956485.7294   21956482.3184
        52.000          46.000
 123822913.33847  96485367.10247  23562730.9794   23562736.4094   23562730.8804
        45.000          40.000
 104826871.82847  81683263.35747  19947899.7964   19947902.4844   19947900.1854
        54.000          49.000
 128338092.55147 100003688.60147  24421941.2724   24421945.8584   24421941.0024
        43.000          39.000
 09  1 27  0  1  0.0000000  0 12G 6G 9G14G 5G30G24G22G18G31G29G21G12
 126497877.43747  98569743.51647  24071770.9774   24071777.6114   24071770.5864
        43.000          38.000
 124105653.63147  96705688.09047  23616534.2924   23616537.9394   23616534.0514
        45.000          38.000
 117130736.36647  91270672.17847  22289264.8234   22289268.2844   22289265.2244
        50.000          44.000
 123703156.33347  96392054.09147  23539940.6454   23539946.1204   23539941.2934
        44.000          39.000
 120464660.29747  93868552.05347  22923673.0914   22923677.7934   22923672.7514
        50.000          42.000
 117966088.25147  91921600.90447  22448222.0744   22448227.1714   22448222.0834
        49.000          43.000
 124466217.14647  96986662.60747  23685132.9504   23685134.0134   23685133.0264
        47.000          40.000
 121138753.23947  94393829.35747  23051939.8334   23051942.5584   23051940.2794
        47.000          41.000
 115295849.95347  89840908.18547  21940081.5284   21940084.6444   21940081.6814
        52.000          46.000
 123893756.21547  96540569.29347  23576212.3594   23576217.4704   23576212.2244
        46.000          41.000
 104828504.38347  81684535.46847  19948210.5264   19948213.1204   19948210.9354
        54.000          49.000
 128345513.64947 100009471.30847  24423353.7934   24423358.0424   24423353.6254
        44.000          39.000
 09  1 27  0  1 30.0000000  0 12G 6G 9G14G 5G30G24G22G18G31G29G21G12
 126471361.15747  98549081.46947  24066725.3494   24066731.9594   24066725.0124
        43.000          37.000
 124204215.62447  96782489.65447  23635290.3594   23635293.7324   23635290.2054
        45.000          38.000
 117165461.60347  91297730.82147  22295872.7594   22295876.3994   22295872.9544
        50.000          44.000
 123696916.93147  96387192.24647  23538753.1004   23538758.4054   23538754.0314
        45.000          40.000
 120437453.84547  93847352.24547  22918496.0334   22918500.1744   22918495.3764
        49.000          42.000
 118037184.91047  91977000.86547  22461751.0834   22461756.3454   22461751.2594
        49.000          43.000
 124425909.45047  96955254.00847  23677463.0414   23677463.7244   23677463.2734
        47.000          40.000
 121102781.02547  94365799.05547  23045094.5604   23045097.2374   23045094.8484
        48.000          41.000
 115209984.82047  89774000.33647  21923742.1054   21923745.0234   21923741.6324
        52.000          46.000
 123964467.77247  96595669.17047  23589668.5664   23589673.5774   23589668.0904
        45.000          41.000
 104830753.10047  81686287.70747  19948638.2494   19948640.9234   19948638.5904
        54.000          49.000
 128353096.33947 100015379.93147  24424796.0964   24424800.6344   24424795.7504
        43.000          38.000
 09  1 27  0  2  0.0000000  0 12G 6G 9G14G 5G30G24G22G18G31G29G21G12
 126445114.33047  98528629.37847  24061730.4164   24061736.5584   24061730.5764
        44.000          37.000
 124303045.20747  96859499.72347  23654096.9574   23654100.2844   23654096.5904
        45.000          38.000
 117200375.59447  91324936.54847  22302516.5084   22302519.8004   22302516.6554
        49.000          43.000
 123690861.12447  96382473.45347  23537600.5554   23537606.3184   23537601.0364
        45.000          40.000
 120410279.29347  93826177.30047  22913324.2534   22913328.7934   22913323.9284
        49.000          42.000
 118108653.48347  92032690.62647  22475350.6394   22475356.5464   22475350.8554
        49.000          43.000
 124385397.37747  96923686.18347  23669753.6194   23669754.6714   23669753.5814
        46.000          39.000
 121066721.76047  94337700.94847  23038232.5684   23038235.5294   23038232.8464
        47.000          41.000
 115124444.93947  89707345.92347  21907464.5264   21907467.2524   21907464.0394
        52.000          46.000
 124035047.02247  96650665.96347  23603099.1664   23603104.6014   23603098.9554
        46.000          41.000
 104833618.61747  81688520.56647  19949183.5204   19949186.2474   19949183.9074
        54.000          49.000
 128360843.08647 100021416.42547  24426270.1144   24426274.4084   24426270.0494
        44.000          39.000
 09  1 27  0  2 30.0000000  0 12G 6G 9G14G 5G30G24G22G18G31G29G21G12
 126419134.02947  98508384.98147  24056786.9104   24056793.2944   24056787.1654
        43.000          37.000
 124402137.62347  96936714.59547  23672953.2584   23672956.5294   23672953.4284
        45.000          38.000
 117235473.77447  91352285.79447  22309195.4614   22309198.9374   22309195.6484
        50.000          44.000
 123684988.90047  96377897.71447  23536483.3354   23536488.8394   23536483.7434
        45.000          40.000
 120383136.64447  93805027.19447  22908159.2314   22908163.4714   22908159.3534
        49.000          42.000
 118180490.10947  92088667.18247  22489020.8454   22489026.8444   22489020.7844
        48.000          42.000
 124344679.30047  96891957.80147  23662004.7024   23662006.3894   23662004.4074
        47.000          39.000
 121030575.06647  94309534.68647  23031354.4814   23031357.3534   23031354.9374
        48.000          41.000
 115039231.50847  89640945.88847  21891248.7164   21891251.9074   21891248.5324
        52.000          46.000
 124105490.25447  96705556.74547  23616504.0844   23616509.2064   23616503.9614
        46.000          40.000
 104837099.51547  81691232.94247  19949846.0804   19949848.5044   19949846.4014
        54.000          49.000
 128368753.23447 100027580.22647  24427775.8764   24427780.2964   24427775.4604
        44.000          39.000
 09  1 27  0  3  0.0000000  0 12G 6G 9G14G 5G30G24G22G18G31G29G21G12
 126393421.46947  98488349.22347  24051893.4014   24051900.2984   24051893.7224
        44.000          37.000
 124501492.25147  97014133.81347  23691860.0494   23691863.1014   23691859.9084
        45.000          38.000
 117270755.78247  91379778.29147  22315909.6704   22315912.9744   22315909.6574
        50.000          44.000
 123679304.72447  96373468.49447  23535401.2604   23535407.0744   23535401.9754
        45.000          40.000
 120356030.60847  93783905.62147  22903001.1854   22903005.9144   22903000.6544
        48.000          42.000
 118252695.20247  92144930.85247  22502760.9394   22502767.0224   22502760.7154
        48.000          42.000
 124303758.91547  96860071.78447  23654218.1574   23654219.4264   23654218.0644
        46.000          39.000
 120994345.49447  94281303.85447  23024460.3234   23024462.9644   23024460.7244
        48.000          41.000
 114954349.63147  89574804.20847  21875096.1754   21875099.4114   21875095.6274
        52.000          46.000
 124175798.06647  96760342.02047  23629883.1314   23629888.2484   23629882.8844
        45.000          40.000
 104841198.39947  81694426.86547  19950626.2324   19950628.5524   19950626.5804
        54.000          49.000
 128376831.41347 100033874.96047  24429312.7144   24429317.5994   24429312.5374
        44.000          39.000
 09  1 27  0  3 30.0000000  0 12G 6G 9G14G 5G30G24G22G18G31G29G21G12
 126367972.95747  98468519.20447  24047050.8934   24047057.3304   24047051.1054
        43.000          37.000
 124601103.70547  97091753.14447  23710815.0624   23710818.4024   23710814.8734
        45.000          38.000
 117306216.15847  91407409.76647  22322657.5064   22322660.8864   22322657.6474
        50.000          44.000
 123673807.79847  96369185.17647  23534355.7494   23534360.9994   23534356.2044
        45.000          40.000
 120328960.53347  93762812.07747  22897849.8984   22897854.7234   22897849.4514
        49.000          42.000
 118325264.01447  92201477.94647  22516570.1624   22516576.4274   22516570.0734
        48.000          42.000
 124262633.75747  96828026.22147  23646392.3554   23646393.3524   23646392.4544
        46.000          39.000
 120958031.96947  94253007.59547  23017549.8824   23017552.5144   23017550.1954
        48.000          41.000
 114869799.05347  89508920.68947  21859006.6554   21859009.9014   21859006.3424
        52.000          46.000
 124245965.88047  96815018.20047  23643235.7194   23643240.6354   23643235.3894
        45.000          40.000
 104845912.43347  81698100.12547  19951523.3014   19951525.6284   19951523.7464
        54.000          49.000
 128385076.14547 100040299.47547  24430881.7564   24430886.6344   24430881.3154
        45.000          39.000
 09  1 27  0  4  0.0000000  0 12G 6G 9G14G 5G30G24G22G18G31G29G21G12
 126342790.95347  98448896.88347  24042259.0944   24042265.9264   24042258.9994
        44.000          37.000
 124700972.76647  97169573.20647  23729819.3594   23729822.7554   23729819.3654
        44.000          38.000
 117341856.07547  91435181.14347  22329439.3914   22329442.7084   22329439.6104
        50.000          44.000
 123668503.82047  96365052.19847  23533346.5034   23533351.4834   23533346.8104
        45.000          40.000
 120301932.16047  93741751.02247  22892706.4284   22892711.2894   22892706.1144
        49.000          42.000
 118398198.36847  92258309.87247  22530449.1264   22530455.4474   22530449.2344
        48.000          42.000
 124221308.43247  96795824.68447  23638528.3224   23638529.4464   23638528.3684
        46.000          39.000
 120921640.44347  94224650.55647  23010624.7944   23010627.5264   23010625.4714
        48.000          41.000
 114785585.97947  89443300.15347  21842981.4414   21842984.9174   21842981.1714
        52.000          46.000
 124315996.30247  96869587.30547  23656561.8364   23656567.4794   23656561.7544
        45.000          40.000
 104851245.72147  81702255.92247  19952538.1694   19952540.7584   19952538.5724
        54.000          49.000
 128393493.08547 100046858.17547  24432483.4584   24432487.6164   24432483.1804
        44.000          39.000
 09  1 27  0  4 30.0000000  0 12G 6G 9G14G 5G30G24G22G18G31G29G21G12
 126317871.81647  98429479.35847  24037517.0384   24037523.3424   24037517.1824
        43.000          38.000
 124801093.88647  97247589.69347  23748871.7434   23748875.3504   23748871.7864
        44.000          38.000
 117377670.09547  91463088.19247  22336254.9214   22336257.8654   22336255.1214
        49.000          44.000
 123663392.26147  96361069.17647  23532373.8284   23532378.8104   23532374.1394
        46.000          40.000
 120274945.35247  93720722.36447  22887571.1444   22887575.8424   22887571.0934
        49.000          42.000
 118471493.80547  92315423.15447  22544396.7194   22544403.2774   22544396.7184
        48.000          42.000
 124179781.21747  96763465.82847  23630626.0344   23630627.3904   23630625.8034
        46.000          40.000
 120885169.32047  94196231.48847  23003684.4234   23003687.2334   23003684.8184
        48.000          41.000
 114701711.29047  89377943.29447  21827020.6594   21827024.1494   21827020.0794
        52.000          46.000
 124385884.61747  96924045.66547  23669861.3384   23669866.5814   23669860.8574
        45.000          40.000
 104857195.73647  81706892.28647  19953670.3374   19953673.0274   19953670.7774
        54.000          49.000
 128402081.38447 100053550.41447  24434117.6664   24434121.8334   24434117.4494
        44.000          39.000
 09  1 27  0  5  0.0000000  0 12G 6G 9G14G 5G30G24G22G18G31G29G21G12
 126293215.95447  98410267.02147  24032825.3674   24032832.3414   24032824.8044
        44.000          38.000
 124901466.08747  97325801.81647  23767971.9374   23767975.8234   23767972.0104
        44.000          38.000
 117413657.22447  91491130.12447  22343102.7154   22343106.2744   22343103.1614
        50.000          44.000
 123658476.73147  96357238.90447  23531438.4414   23531443.4544   23531438.7404
        46.000          40.000
 120248003.77547  93699728.94147  22882444.2624   22882448.9844   22882443.5684
        49.000          42.000
 118545149.51647  92372817.17147  22558413.0684   22558419.1734   22558413.3364
        48.000          42.000
 124138054.29447  96730951.35447  23622685.4974   23622686.6954   23622685.2754
        47.000          40.000
 120848621.93047  94167752.99347  22996729.7234   22996732.6054   22996730.3454
        48.000          41.000
 114618179.22747  89312853.41447  21811124.9324   21811128.4114   21811124.4744
        52.000          46.000
 124455631.22047  96978393.60647  23683133.6104   23683138.9314   23683132.9914
        45.000          40.000
 104863764.18347  81712010.54547  19954920.4594   19954922.9494   19954920.9044
        54.000          49.000
 128410844.42847 100060378.80947  24435785.4234   24435789.6014   24435784.9384
        45.000          39.000
 09  1 27  0  5 30.0000000  0 12G 6G 9G14G 5G30G24G22G18G31G29G21G12
 126268819.98147  98391257.18747  24028182.9394   24028189.6044   24028183.5194
        44.000          38.000
 125002084.04047  97404205.44547  23787118.4534   23787123.1714   23787118.7514
        44.000          37.000
 117449812.63647  91519303.18747  22349982.8144   22349986.6254   22349983.0384
        50.000          44.000
 123653756.80047  96353561.05647  23530540.0904   23530545.4704   23530540.4004
        45.000          40.000
 120221107.02547  93678770.44647  22877326.3934   22877330.9214   22877326.2534
        49.000          42.000
 118619161.18747  92430488.56947  22572497.4364   22572503.2274   22572497.2934
        49.000          42.000
 124096125.96647  96698279.92047  23614706.7444   23614708.0624   23614706.6714
        46.000          40.000
 120811998.42047  94139215.18547  22989760.5454   22989763.1474   22989760.9324
        48.000          41.000
 114534990.05247  89248030.71347  21795294.7714   21795297.8764   21795294.3694
        53.000          46.000
 124525232.08447  97032627.99547  23696378.3474   23696383.7124   23696377.7834
        44.000          40.000
 104870948.97147  81717609.07347  19956287.6284   19956290.2264   19956288.0314
        54.000          49.000
 128419781.57547 100067342.87447  24437485.7994   24437490.3214   24437485.1184
        44.000          39.000
 09  1 27  0  6  0.0000000  0 12G 6G 9G14G 5G30G24G22G18G31G29G21G12
 126244685.60347  98372451.19147  24023590.1904   24023596.4814   24023589.9984
        43.000          38.000
 125102947.43647  97482800.31647  23806312.1454   23806316.8314   23806312.5114
        44.000          37.000
 117486136.42247  91547607.45747  22356895.0224   22356898.5194   22356895.2944
        49.000          44.000
 123649237.48847  96350039.53047  23529680.1994   23529684.9974   23529680.8484
        45.000          40.000
 120194260.63147  93657851.19447  22872217.1554   22872221.9324   22872217.0514
        48.000          42.000
 118693530.02947  92488438.28247  22586649.3454   22586654.6184   22586649.5734
        48.000          42.000
 124054000.14247  96665454.60247  23606690.8224   23606691.8244   23606690.9064
        47.000          40.000
 120775303.21447  94110621.51947  22982778.1394   22982780.2744   22982778.3524
        48.000          41.000
 114452149.59347  89183479.74247  21779530.7164   21779533.6134   21779530.3554
        52.000          46.000
 124594688.25647  97086749.64147  23709595.2124   23709600.6394   23709594.9704
        45.000          40.000
 104878752.71147  81723689.89247  19957772.4844   19957775.2694   19957772.9314
        54.000          49.000
 128428897.23847 100074446.05147  24439220.3054   24439224.6644   24439219.9974
        44.000          39.000
 09  1 27  0  6 30.0000000  0 12G 6G 9G14G 5G30G24G22G18G31G29G21G12
 126220810.61247  98353847.30447  24019046.7014   24019053.5964   24019046.9674
        43.000          38.000
 125204052.66847  97561583.66247  23825552.2554   23825556.1404   23825552.5154
        44.000          37.000
 117522624.98747  91576040.11547  22363838.5384   22363842.0594   22363838.8764
        50.000          44.000
 123644919.61747  96346674.97747  23528858.2474   23528863.6004   23528858.4904
        44.000          39.000
 120167465.59747  93636971.97247  22867118.5404   22867123.0634   22867118.3044
        49.000          42.000
 118768252.60347  92546663.62847  22600868.6334   22600873.9084   22600868.8704
        48.000          42.000
 124011676.70447  96632475.28947  23598636.9204   23598637.9114   23598636.9674
        47.000          40.000
 120738537.06447  94081972.56547  22975781.7844   22975783.8984   22975782.3024
        48.000          42.000
 114369658.90147  89119201.31947  21763832.9794   21763835.9864   21763832.5364
        52.000          46.000
 124663997.57547  97140756.83047  23722784.3824   23722789.9184   23722784.2114
        45.000          40.000
 104887174.51747  81730252.31547  19959375.0494   19959377.8554   19959375.4024
        54.000          49.000
 128438192.57647 100081689.21347  24440989.3854   24440993.6854   24440988.9574
        44.000          39.000
 09  1 27  0  7  0.0000000  0 12G 6G 9G14G 5G30G24G22G18G31G29G21G12
 126197194.99747  98335445.53747  24014553.2384   24014560.0714   24014553.3054
        43.000          38.000
 125305398.00647  97640554.09147  23844837.6134   23844841.6184   23844837.5654
        44.000          37.000
 117559276.91147  91604600.09247  22370813.2874   22370816.6444   22370813.5484
        49.000          44.000
 123640806.38447  96343469.87947  23528075.6644   23528081.2964   23528075.8344
        45.000          39.000
 120140725.11547  93616135.25147  22862029.6964   22862034.3954   22862029.3134
        49.000          42.000
 118843328.25747  92605164.09747  22615155.1134   22615160.6024   22615155.3434
        48.000          42.000
 123969157.32247  96599343.30747  23590545.7304   23590546.9704   23590545.8524
        48.000          41.000
 120701703.17447  94053270.83047  22968772.4584   22968774.7734   22968772.7314
        49.000          42.000
 114287522.64547  89055199.07647  21748202.7844   21748205.9204   21748202.1954
        52.000          46.000
 124733159.29047  97194649.03547  23735945.6884   23735951.3104   23735945.1214
        44.000          40.000
 104896215.19747  81737296.98147  19961095.5174   19961098.2774   19961095.7724
        54.000          49.000
 128447669.58247 100089073.93147  24442792.7194   24442796.9844   24442792.1714
        44.000          39.000
 09  1 27  0  7 30.0000000  0 12G 6G 9G14G 5G30G24G22G18G31G29G21G12
 126173833.90847  98317242.09047  24010107.8144   24010114.4234   24010107.7384
        43.000          38.000
 125406976.84647  97719706.47247  23864167.5274   23864171.4484   23864167.5334
        43.000          37.000
 117596085.71647  91633282.29547  22377817.7194   22377821.1374   22377817.8654
        50.000          43.000
 123636896.07347  96340422.89347  23527331.4684   23527336.6284   23527332.0414
        45.000          39.000
 120114037.81847  93595339.98647  22856951.2444   22856955.8244   22856951.0354
        49.000          42.000
 118918751.26147  92663935.22247  22629507.4314   22629513.3574   22629507.6254
        48.000          42.000
 123926439.35747  96566056.58647  23582416.8944   23582417.9934   23582416.7714
        47.000          41.000
 120664799.86047  94024515.01347  22961749.6604   22961752.3074   22961750.2564
        48.000          42.000
 114205739.59547  88991472.06747  21732640.1814   21732642.9774   21732639.9314
        52.000          46.000
 124802168.29347  97248422.24047  23749077.5474   23749083.4604   23749077.2864
        44.000          40.000
 104905871.43747  81744821.30647  19962933.0664   19962935.7334   19962933.4624
        54.000          49.000
 128457326.77247 100096599.05747  24444630.6214   24444634.6004   24444629.9994
        44.000          39.000
 09  1 27  0  8  0.0000000  0 12G 6G 9G14G 5G30G24G22G18G31G29G21G12
 126150731.07347  98299239.89047  24005711.9724   24005718.1424   24005711.3594
        43.000          38.000
 125508791.23047  97799042.38547  23883542.3144   23883546.0054   23883542.3084
        43.000          37.000
 117633053.35547  91662088.26847  22384852.4984   22384855.8774   22384852.8434
        49.000          44.000
 123633195.45847  96337539.31947  23526627.3834   23526632.7344   23526627.7504
        45.000          40.000
 120087410.94947  93574591.79447  22851884.4464   22851889.0064   22851883.8474
        48.000          42.000
 118994524.31247  92722979.11847  22643926.8244   22643932.3964   22643927.0374
        48.000          42.000
 123883528.62547  96532619.67147  23574250.9394   23574252.2864   23574250.8984
        47.000          40.000
 120627833.32247  93995709.91947  22954715.3704   22954718.0164   22954715.7014
        48.000          42.000
 114124317.11847  88928026.01747  21717145.9034   21717148.7034   21717145.6114
        52.000          46.000
 124871027.96347  97302079.08647  23762181.0414   23762187.1934   23762180.4564
        46.000          40.000
 104916147.98947  81752828.98747  19964888.5744   19964891.3604   19964888.9044
        54.000          49.000
 128467170.69047 100104269.66947  24446503.6524   24446507.4664   24446503.1764
        45.000          39.000
 09  1 27  0  8 30.0000000  0 12G 6G 9G14G 5G30G24G22G18G31G29G21G12
 126127881.50147  98281435.04847  24001363.1794   24001370.2314   24001363.1764
        43.000          38.000
 125610834.44547  97878556.60747  23902960.3124   23902963.6454   23902960.4374
        42.000          37.000
 117670173.56247  91691013.12847  22391916.1234   22391919.4704   22391916.4844
        49.000          44.000
 123629702.86247  96334817.84247  23525962.4684   23525967.9284   23525962.9514
        45.000          40.000
 120060842.82947  93553889.38647  22846828.9174   22846832.9814   22846828.4964
        49.000          42.000
 119070641.69347  92782291.32347  22658411.4824   22658417.2534   22658411.6074
        48.000          42.000
 123840421.65847  96499029.82347  23566047.6164   23566049.3534   23566047.5934
        47.000          40.000
 120590801.87947  93966854.25547  22947668.5284   22947671.0394   22947669.1144
        49.000          42.000
 114043254.43347  88864860.32147  21701720.2704   21701723.0794   21701719.7654
        52.000          46.000
 124939732.98447  97355615.41447  23775255.3574   23775260.9194   23775254.9214
        45.000          40.000
 104927040.80847  81761316.88047  19966961.4824   19966964.1004   19966961.9134
        54.000          49.000
 128477199.11947 100112084.06347  24448411.8104   24448416.1834   24448411.9824
        44.000          39.000
 09  1 27  0  9  0.0000000  0 12G 6G 9G14G 5G30G24G22G18G31G29G21G12
 126105286.00547  98263828.19447  23997062.9314   23997069.3984   23997063.1634
        43.000          37.000
 125713105.80947  97958248.59747  23922421.9904   23922425.3914   23922422.4284
        42.000          36.000
 117707445.88947  91720056.51947  22399008.9004   22399012.2474   22399009.1304
        49.000          43.000
 123626422.22347  96332261.51547  23525338.3324   23525343.6534   23525339.1394
        45.000          40.000
 120034338.02447  93533236.32147  22841784.7914   22841789.5144   22841784.2504
        49.000          42.000
 119147103.34647  92841871.78047  22672961.8694   22672967.4244   22672961.9674
        48.000          42.000
 123797121.68247  96465289.57347  23557808.3104   23557809.4304   23557808.2714
        47.000          40.000
 120553709.60847  93937951.18847  22940610.0734   22940612.2694   22940610.4384
        49.000          42.000
 113962556.15347  88801978.58547  21686363.8554   21686366.6644   21686363.5444
        52.000          46.000
 125008284.04247  97409031.79447  23788300.6444   23788305.5644   23788300.3614
        46.000          40.000
 104938552.15647  81770286.74947  19969152.0874   19969154.6424   19969152.4684
        54.000          49.000
 128487415.71047 100120045.06047  24450355.9234   24450360.7924   24450355.7054
        44.000          39.000
 09  1 27  0  9 30.0000000  0 12G 6G 9G14G 5G30G24G22G18G31G29G21G12
 126082943.39847  98246418.37347  23992811.3674   23992817.9244   23992811.6154
        43.000          37.000
 125815602.23147  98038115.94447  23941926.1614   23941929.9264   23941926.5364
        42.000          37.000
 117744867.55047  91749216.28447  22406129.9054   22406133.0894   22406130.0794
        49.000          43.000
 123623355.54347  96329871.91347  23524754.7664   23524759.9934   23524755.0964
        45.000          40.000
 120007898.28247  93512633.96047  22836753.7584   22836758.1254   22836753.3694
        49.000          42.000
 119223907.09547  92901718.81547  22687576.9324   22687582.7824   22687577.3444
        48.000          42.000
 123753629.84347  96431399.85447  23549532.0064   23549533.3464   23549531.8534
        47.000          40.000
 120516558.34247  93909002.15347  22933540.3804   22933542.8774   22933540.8794
        48.000          42.000
 113882225.16447  88739383.04847  21671077.3614   21671080.2344   21671076.8324
        52.000          46.000
 125076679.77247  97462327.13147  23801316.0094   23801320.9254   23801316.0724
        45.000          40.000
 104950681.86747  81779738.46347  19971460.2444   19971462.9374   19971460.7594
        54.000          49.000
 128497822.40847 100128154.23447  24452336.6524   24452340.8334   24452336.5354
        45.000          39.000
 09  1 27  0 10  0.0000000  0 12G 6G 9G14G 5G30G24G22G18G31G29G21G12
 126060852.10047  98229204.41447  23988607.8574   23988614.1314   23988608.0724
        43.000          37.000
 125918320.62247  98118156.26747  23961472.3834   23961477.0334   23961472.9544
        42.000          37.000
 117782435.63847  91778490.13947  22413278.6794   22413282.0774   22413278.8484
        49.000          43.000
 123620504.33247  96327650.20447  23524212.1144   23524217.3744   23524212.8114
        45.000          40.000
 119981525.60647  93492083.84847  22831735.2174   22831739.6744   22831734.9334
        49.000          42.000
 119301050.27647  92961830.34047  22702256.9544   22702262.6664   22702256.9544
        48.000          42.000
 123709946.58847  96397360.95847  23541219.6534   23541220.9154   23541219.6174
        47.000          40.000
 120479349.91247  93880008.57147  22926459.5444   22926462.0124   22926459.8774
        48.000          41.000
 113802263.71547  88677075.46647  21655861.0604   21655864.2084   21655860.5964
        52.000          46.000
 125144918.08847  97515499.79847  23814301.3424   23814306.1384   23814301.2114
        45.000          40.000
 104963429.01847  81789671.30247  19973885.9434   19973888.7014   19973886.2854
        54.000          49.000
 128508420.41347 100136412.45347  24454353.2744   24454357.8594   24454353.2694
        44.000          39.000
 09  1 27  0 10 30.0000000  0 12G 6G 9G14G 5G30G24G22G18G31G29G21G12
 126039009.88147  98212184.50547  23984450.9034   23984457.8614   23984451.4734
        43.000          38.000
 126021257.04547  98198366.47647  23981060.5764   23981064.5104   23981060.7554
        41.000          37.000
 117820146.37347  91807875.13747  22420454.9384   22420458.1984   22420455.0664
        49.000          43.000
 123617869.63347  96325597.19547  23523711.0084   23523716.2194   23523711.6474
        46.000          40.000
 119955221.51847  93471587.19247  22826729.6144   22826733.9154   22826729.4004
        49.000          42.000
 119378529.94447  93022204.06047  22717000.5724   22717006.6564   22717001.1374
        48.000          42.000
 123666072.13347  96363173.08347  23532870.4664   23532871.6684   23532870.3434
        46.000          40.000
 120442084.89947  93850970.89047  22919368.2594   22919370.8184   22919368.5184
        48.000          41.000
 113722673.45147  88615057.12147  21640715.1484   21640718.6204   21640714.6884
        52.000          46.000
 125212996.40147  97568547.78847  23827255.9564   23827261.3244   23827255.7344
        45.000          40.000
 104976792.46247  81800084.37147  19976428.9794   19976431.5604   19976429.3544
        54.000          49.000
 128519210.42547 100144820.29047  24456406.2584   24456410.5804   24456405.8794
        44.000          39.000
 09  1 27  0 11  0.0000000  0 12G 6G 9G14G 5G30G24G22G18G31G29G21G12
 126017417.71247  98195359.48647  23980343.1054   23980349.6754   23980343.2664
        44.000          38.000
 126124410.72247  98278745.97547  24000690.3204   24000694.3834   24000689.9594
        41.000          37.000
 117857999.30447  91837370.94347  22427658.3134   22427661.3314   22427658.5674
        49.000          43.000
 123615455.51647  96323716.08947  23523251.9294   23523256.9384   23523252.4174
        45.000          40.000
 119928990.20247  93451147.24547  22821737.8364   22821742.2484   22821737.4334
        49.000          42.000
 119456346.07147  93082839.97047  22731808.5834   22731814.3784   22731808.9214
        48.000          41.000
 123622009.04847  96328838.23247  23524485.4804   23524486.6084   23524485.2594
        46.000          40.000
 120404767.38947  93821892.30847  22912267.0904   22912269.5374   22912267.6154
        48.000          41.000
 113643459.25047  88553331.80947  21625641.3024   21625644.4544   21625640.8954
        52.000          46.000
 125280915.79047  97621471.93847  23840180.9804   23840185.4134   23840180.9984
        45.000          40.000
 104990774.30047  81810979.30047  19979089.5404   19979092.2264   19979089.9924
        54.000          49.000
 128530196.03547 100153380.54947  24458496.9494   24458501.0564   24458496.4414
        44.000          39.000
 09  1 27  0 11 30.0000000  0 12G 6G 9G14G 5G30G24G22G18G31G29G21G12
 125996072.41647  98178726.81647  23976280.6634   23976287.1554   23976280.4004
        43.000          38.000
 126227777.07547  98359291.19647  24020360.5024   24020363.9824   24020360.1784
        42.000          37.000
 117895990.35947  91866974.37447  22434887.5144   22434890.9664   22434887.7014
        49.000          44.000
 123613262.36747  96322007.15347  23522834.2584   23522839.3944   23522834.7654
        46.000          40.000
 119902832.47247  93430764.63747  22816759.9564   22816764.9504   22816759.6954
        49.000          43.000
 119534494.86347  93143735.08847  22746679.9324   22746685.4784   22746679.8494
        48.000          42.000
 123577756.68747  96294355.87347  23516064.7094   23516065.3474   23516064.7694
        47.000          40.000
 120367397.96447  93792773.29347  22905155.7664   22905158.9254   22905156.0854
        48.000          41.000
 113564622.03647  88491900.26047  21610639.0474   21610642.0134   21610638.6784
        52.000          47.000
 125348673.15047  97674269.85147  23853074.8534   23853079.0464   23853074.7274
        45.000          39.000
 105005372.51047  81822354.51847  19981867.4924   19981870.2004   19981867.8704
        54.000          49.000
 128541377.45647 100162093.38547  24460624.3744   24460628.7124   24460623.9404
        44.000          38.000
 09  1 27  0 12  0.0000000  0 12G 6G 9G14G 5G30G24G22G18G31G29G21G12
 125974975.35747  98162287.58047  23972265.6114   23972272.4544   23972265.7614
        42.000          38.000
 126331355.41447  98440001.60147  24040070.5154   24040074.2274   24040071.2284
        42.000          38.000
 117934118.90347  91896684.94547  22442143.3204   22442146.8514   22442143.5934
        49.000          44.000
 123611294.17047  96320473.52047  23522459.7744   23522464.8024   23522460.4014
        45.000          40.000
 119876752.78047  93410442.83347  22811797.3954   22811801.8634   22811797.2894
        49.000          42.000
 119612976.44247  93204889.51847  22761614.8124   22761620.3984   22761615.0424
        48.000          42.000
 123533318.28547  96259728.55347  23507608.2564   23507609.3564   23507608.2924
        46.000          40.000
 120329980.72147  93763616.99347  22898035.3684   22898038.4054   22898035.9494
        48.000          41.000
 113486167.04047  88430766.53447  21595709.7924   21595712.6014   21595709.2714
        53.000          47.000
 125416269.19647  97726942.05447  23865938.0414   23865942.5214   23865937.6614
        45.000          39.000
 105020589.01047  81834211.52447  19984763.1704   19984765.8034   19984763.5814
        54.000          49.000
 128552758.36747 100170961.68647  24462790.1554   24462794.5344   24462789.7974
        43.000          38.000
 09  1 27  0 12 30.0000000  0 12G 6G 9G14G 5G30G24G22G18G31G29G21G12
 125954122.13047  98146038.35747  23968297.1174   23968304.2974   23968297.2834
        42.000          37.000
 126435140.01747  98520872.73447  24059820.5734   24059823.9784   24059821.1064
        43.000          38.000
 117972379.16747  91926498.15147  22449423.9594   22449427.0554   22449424.0594
        49.000          43.000
 123609549.94647  96319114.39947  23522127.4044   23522132.6044   23522127.6214
        45.000          39.000
 119850749.97247  93390180.91847  22806849.2814   22806853.6864   22806848.7024
        49.000          42.000
 119691785.67347  93266299.27947  22776611.4624   22776617.4894   22776611.4894
        48.000          42.000
 123488691.87947  96224954.72847  23499116.0194   23499116.9894   23499115.9064
        46.000          40.000
 120292514.69747  93734422.67647  22890906.2784   22890908.5174   22890906.6414
        48.000          41.000
 113408093.58347  88369930.11647  21580853.0154   21580855.7064   21580852.7364
        53.000          47.000
 125483699.44047  97779485.07947  23878769.7364   23878773.8164   23878769.6774
        45.000          39.000
 105036420.29547  81846547.58347  19987775.8374   19987778.4264   19987776.2124
        54.000          49.000
 128564337.35747 100179984.31047  24464994.0744   24464997.7554   24464993.3564
        43.000          38.000
 09  1 27  0 13  0.0000000  0 12G 6G 9G14G 5G30G24G22G18G31G29G21G12
 125933514.41247  98129980.43347  23964375.6594   23964382.8444   23964375.7904
        42.000          37.000
 126539130.77547  98601904.52247  24079609.4084   24079613.0044   24079609.9384
        44.000          38.000
 118010771.92747  91956414.61847  22456729.7224   22456732.7974   22456729.8654
        49.000          43.000
 123608034.84547  96317933.82347  23521839.2424   23521844.4984   23521839.6294
        44.000          39.000
 119824829.82847  93369983.45147  22801916.8544   22801921.2984   22801916.8684
        49.000          42.000
 119770923.68147  93327965.20847  22791670.8524   22791676.9814   22791670.9004
        48.000          42.000
 123443881.50247  96190037.54947  23490588.6764   23490590.0154   23490588.4244
        46.000          40.000
 120255005.03447  93705194.36347  22883768.2894   22883770.8614   22883768.9294
        47.000          41.000
 113330407.36547  88309395.43947  21566069.8244   21566072.4094   21566069.3734
        52.000          47.000
 125550965.74447  97831900.33547  23891570.1324   23891574.8144   23891569.8904
        45.000          40.000
 105052869.23047  81859364.92847  19990905.8994   19990908.5314   19990906.3434
        54.000          49.000
 128576119.48547 100189165.25647  24467235.2634   24467239.5274   24467235.1764
        44.000          38.000
 09  1 27  0 13 30.0000000  0 12G 6G 9G14G 5G30G24G22G18G31G29G21G12
 125913148.86847  98114111.23747  23960500.4224   23960507.2824   23960500.4674
        42.000          37.000
 126643322.94847  98683093.24847  24099436.2274   24099440.3284   24099436.9574
        44.000          38.000
 118049292.31247  91986430.51547  22464059.9754   22464063.0224   22464060.2164
        49.000          43.000
 123606748.54247  96316931.53747  23521593.7384   23521599.5674   23521594.0324
        45.000          39.000
 119798992.37247  93349850.40247  22796999.9274   22797004.2244   22796999.4704
        49.000          42.000
 119850386.13647  93389883.95547  22806792.4314   22806798.4014   22806792.7464
        48.000          42.000
 123398886.21547  96154976.29447  23482026.5124   23482027.5974   23482026.4774
        47.000          40.000
 120217451.55947  93675931.90547  22876621.8984   22876624.7594   22876622.1644
        48.000          41.000
 113253109.00547  88249162.99047  21551360.2374   21551363.0824   21551359.8704
        52.000          47.000
 125618065.15347  97884185.56047  23904338.5054   23904343.4724   23904337.9684
        44.000          39.000
 105069933.54647  81872661.78547  19994153.3244   19994155.8004   19994153.6924
        54.000          49.000
 128588103.65647 100198503.60247  24469515.7134   24469520.0504   24469515.1044
        43.000          38.000
 09  1 27  0 14  0.0000000  0 12G 6G 9G14G 5G30G24G22G18G31G29G21G12
 125893025.27747  98098430.55347  23956670.9114   23956677.7724   23956671.2184
        43.000          37.000
 126747714.52647  98764437.36247  24119301.3404   24119304.8924   24119301.7504
        43.000          38.000
 118087938.82247  92016544.69647  22471414.0414   22471417.0584   22471414.3394
        49.000          43.000
 123605693.77647  96316109.68347  23521393.2294   23521398.6234   23521394.1344
        45.000          39.000
 119773240.85447  93329784.32147  22792099.6394   22792103.7774   22792099.5964
        49.000          42.000
 119930171.72447  93452054.50347  22821975.0504   22821980.9244   22821975.2974
        48.000          42.000
 123353707.68247  96119772.21647  23473429.6184   23473430.3144   23473429.5574
        47.000          40.000
 120179856.90547  93646637.36947  22869467.9994   22869470.6404   22869468.5154
        48.000          41.000
 113176202.12147  88189235.58547  21536725.2364   21536728.1684   21536724.7224
        53.000          47.000
 125684996.27747  97936339.64447  23917074.6984   23917080.1584   23917074.3734
        44.000          39.000
 105087613.43347  81886438.30647  19997517.6664   19997520.1614   19997518.0514
        54.000          49.000
 128600292.95447 100208001.81847  24471835.3974   24471839.6794   24471835.1194
        44.000          38.000
 09  1 27  0 14 30.0000000  0 12G 6G 9G14G 5G30G24G22G18G31G29G21G12
 125873141.17947  98082936.49447  23952887.4464   23952893.8174   23952887.5004
        43.000          37.000
 126852301.75147  98845933.92947  24139203.9124   24139207.3854   24139203.7934
        44.000          38.000
 118126707.48547  92046754.05147  22478791.5184   22478794.6854   22478791.6224
        49.000          43.000
 123604871.67747  96315469.09947  23521237.2974   23521242.9904   23521237.5324
        46.000          40.000
 119747576.83547  93309786.42247  22787215.9954   22787220.5634   22787215.5904
        49.000          42.000
 120010277.29347  93514474.38947  22837218.8594   22837224.5284   22837218.9994
        48.000          41.000
 123308346.12047  96084425.56547  23464797.2414   23464798.6144   23464797.2404
        46.000          40.000
 120142222.33647  93617311.73447  22862306.4244   22862308.9414   22862306.9014
        49.000          41.000
 113099688.42747  88129614.55847  21522165.2854   21522168.1534   21522164.9624
        53.000          47.000
 125751757.16547  97988361.07147  23929779.1734   23929783.8644   23929778.9014
        44.000          39.000
 105105907.55447  81900693.45347  20000998.8934   20001001.5294   20000999.2494
        54.000          49.000
 128612688.06347 100217660.36847  24474194.1774   24474198.3654   24474193.4624
        44.000          39.000
 09  1 27  0 15  0.0000000  0 12G 6G 9G14G 5G30G24G22G18G31G29G21G12
 125853496.78747  98067629.22847  23949148.4404   23949155.5854   23949148.4674
        43.000          38.000
 126957083.20147  98927581.84847  24159142.9724   24159146.7064   24159143.0784
        44.000          38.000
 118165597.26747  92077057.80147  22486191.7724   22486195.0544   22486192.0504
        49.000          43.000
 123604285.60247  96315012.43347  23521125.5654   23521130.8654   23521126.1484
        45.000          40.000
 119722003.95247  93289859.53447  22782349.2314   22782354.1264   22782349.1884
        49.000          42.000
 120090702.16647  93577143.07747  22852523.1254   22852528.7364   22852523.3344
        48.000          41.000
 123262803.93247  96048938.14547  23456130.5584   23456131.9604   23456130.4854
        47.000          40.000
 120104551.39847  93587957.75247  22855137.9684   22855140.5374   22855138.3624
        49.000          42.000
 113023572.05747  88070303.12747  21507680.5494   21507683.6424   21507680.2194
        53.000          47.000
 125818348.05247  98040250.01947  23942450.7384   23942455.9894   23942450.8224
        45.000          39.000
 105124817.05447  81915428.11947  20004597.1744   20004599.8974   20004597.5664
        54.000          49.000
 128625291.83047 100227481.53347  24476592.4044   24476596.5964   24476592.2474
        43.000          38.000
 09  1 27  0 15 30.0000000  0 12G 6G 9G14G 5G30G24G22G18G31G29G21G12
 125834092.77947  98052509.25347  23945456.5404   23945462.9564   23945456.9344
        42.000          37.000
 127062057.89547  99009380.34147  24179119.0944   24179122.3644   24179119.1064
        43.000          37.000
 118204607.62147  92107455.50347  22493615.3164   22493618.2944   22493615.6754
        49.000          43.000
 123603939.23747  96314742.54247  23521059.9924   23521065.0904   23521060.3474
        46.000          40.000
 119696526.30847  93270006.84747  22777500.9994   22777505.3684   22777500.7964
        49.000          42.000
 120171445.69247  93640060.06847  22867888.2174   22867893.9674   22867888.5854
        48.000          41.000
 123217084.19047  96013312.38547  23447430.9514   23447431.8784   23447430.8144
        47.000          41.000
 120066848.40247  93558578.77147  22847963.2364   22847966.0344   22847963.6344
        48.000          41.000
 112947857.33947  88011304.67347  21493272.6894   21493275.5364   21493272.1334
        53.000          47.000
 125884769.52447  98092006.97347  23955090.2734   23955096.3354   23955090.1714
        44.000          39.000
 105144343.04847  81930643.17347  20008312.8694   20008315.5014   20008313.1744
        54.000          49.000
 128638107.77147 100237468.01247  24479031.1134   24479035.1974   24479030.3944
        43.000          38.000
 09  1 27  0 16  0.0000000  0 12G 6G 9G14G 5G30G24G22G18G31G29G21G12
 125814921.86747  98037570.95247  23941807.5384   23941814.9714   23941807.4664
        43.000          37.000
 127167216.90747  99091322.45247  24199130.0474   24199133.1524   24199129.9494
        42.000          37.000
 118243730.05947  92137940.54247  22501060.0804   22501063.3834   22501060.1184
        49.000          43.000
 123603828.78347  96314656.49747  23521038.6914   23521044.0784   23521038.8644
        46.000          40.000
 119671140.26847  93250225.54647  22772670.2604   22772674.8954   22772669.6604
        49.000          43.000
 120252499.98047  93703219.20547  22883312.2324   22883318.0504   22883312.2674
        47.000          41.000
 123171182.18847  95977544.60647  23438695.7414   23438697.1024   23438696.0574
        47.000          41.000
 120029108.86247  93529171.31547  22840781.4814   22840784.4774   22840781.8444
        49.000          42.000
 112872540.99847  87952616.64147  21478940.3284   21478943.2574   21478940.1614
        53.000          47.000
 125951014.41347  98143626.34647  23967696.7304   23967701.7494   23967696.4424
        44.000          39.000
 105164479.47947  81946333.89047  20012144.5654   20012147.4154   20012144.9224
        54.000          49.000
 128651131.58447 100247616.45147  24481509.7844   24481513.7024   24481509.5914
        45.000          38.000
 09  1 27  0 16 30.0000000  0 12G 6G 9G14G 5G30G24G22G18G31G29G21G12
 125795986.80047  98022816.37647  23938205.0664   23938212.1594   23938205.7144
        43.000          38.000
 127272561.88747  99173409.48547  24219176.2934   24219180.2314   24219176.4744
        42.000          37.000
 118282965.77547  92168513.84547  22508525.9704   22508529.8244   22508526.5044
        48.000          43.000
 123603960.12147  96314758.85947  23521063.5854   23521069.0214   23521063.8834
        46.000          40.000
 119645852.29147  93230520.66047  22767858.3084   22767862.4954   22767857.7754
        49.000          43.000
 120333867.03247  93766622.05547  22898795.7794   22898801.6434   22898795.8974
        47.000          41.000
 123125103.08647  95941638.82247  23429927.2934   23429928.6794   23429927.3834
        47.000          41.000
 119991339.13747  93499740.35147  22833594.2144   22833597.2244   22833594.6084
        48.000          42.000
 112797629.75247  87894244.26647  21464685.2194   21464688.0794   21464684.7564
        53.000          47.000
 126017085.89147  98195110.56547  23980270.0404   23980275.4794   23980269.3884
        44.000          39.000
 105185229.60647  81962502.81247  20016093.4134   20016096.1544   20016093.8634
        54.000          49.000
 128664368.94247 100257931.29047  24484028.6214   24484032.7124   24484028.6024
        44.000          38.000
 09  1 27  0 17  0.0000000  0 12G 6G 9G14G 5G30G24G22G18G31G29G21G12
 125777285.78147  98008244.21347  23934646.1874   23934652.9264   23934645.7944
        43.000          37.000
 127378088.97247  99255638.39147  24239257.8874   24239261.1414   24239258.0344
        41.000          36.000
 118322311.86947  92199173.14247  22516013.6984   22516016.8704   22516013.7324
        48.000          43.000
 123604334.57247  96315050.63447  23521134.4464   23521140.3374   23521135.1464
        45.000          39.000
 119620664.22347  93210893.60647  22763065.1524   22763069.4384   22763064.6664
        49.000          43.000
 120415544.13147  93830266.51047  22914338.3734   22914344.2604   22914338.6554
        47.000          41.000
 123078847.39147  95905595.43647  23421125.3734   23421126.3234   23421125.3354
        47.000          41.000
 119953541.15747  93470287.37847  22826401.6184   22826404.5724   22826401.9064
        49.000          42.000
 112723125.71747  87836189.19747  21450507.6314   21450510.4374   21450507.3464
        53.000          47.000
 126082981.60247  98246457.82747  23992808.8854   23992814.9204   23992807.9314
        44.000          39.000
 105206592.25147  81979149.01947  20020158.6444   20020161.4114   20020159.0404
        54.000          49.000
 128677820.94347 100268413.39347  24486588.7424   24486592.6694   24486588.4164
        44.000          38.000
 09  1 27  0 17 30.0000000  0 12G 6G 9G14G 5G30G24G22G18G31G29G21G12
 125758817.79747  97993853.62047  23931132.6914   23931139.0794   23931132.3254
        42.000          37.000
 127483795.89847  99338007.43747  24259373.6804   24259376.5684   24259373.5934
        40.000          36.000
 118361766.43547  92229916.98647  22523521.4424   22523524.9774   22523521.7224
        49.000          43.000
 123604954.39147  96315533.62747  23521253.0184   23521258.2734   23521253.3644
        46.000          39.000
 119595578.76347  93191346.52547  22758291.8044   22758295.9124   22758291.4654
        49.000          43.000
 120497529.50647  93894151.17447  22929939.4544   22929945.5834   22929939.3734
        47.000          41.000
 123032416.73047  95869415.71647  23412289.9144   23412290.8084   23412290.1334
        47.000          41.000
 119915717.13447  93440814.10547  22819203.7474   22819206.6644   22819204.2524
        49.000          42.000
 112649031.66447  87778453.60147  21436407.8894   21436410.7254   21436407.6774
        53.000          47.000
 126148700.97847  98297667.69647  24005315.0384   24005320.9274   24005314.4114
        44.000          39.000
 105228567.43047  81996272.52247  20024340.2284   20024343.1024   20024340.5464
        54.000          49.000
 128691489.56347 100279064.30247  24489189.3984   24489193.6824   24489189.0324
        43.000          38.000
 09  1 27  0 18  0.0000000  0 12G 6G 9G14G 5G30G24G22G18G31G29G21G12
 125740580.70347  97979642.94847  23927661.3734   23927668.1164   23927661.0164
        42.000          37.000
 127589678.64447  99420513.47847  24279521.7134   24279525.1504   24279522.1184
        40.000          36.000
 118401325.57947  92260742.31947  22531049.2924   22531052.6464   22531049.5974
        49.000          43.000
 123605820.74647  96316208.70647  23521417.9514   23521423.0344   23521418.4394
        45.000          39.000
 119570597.52747  93171880.64647  22753537.8654   22753542.2124   22753537.7764
        49.000          43.000
 120579819.90047  93958273.50347  22945598.8124   22945605.1114   22945598.9684
        47.000          41.000
 122985811.30347  95833099.80147  23403420.8744   23403422.3154   23403420.9504
        48.000          41.000
 119877868.39147  93411321.57047  22812002.0564   22812004.3034   22812002.4244
        49.000          42.000
 112575349.50447  87721038.96147  21422386.4814   21422389.4944   21422386.0964
        52.000          47.000
 126214242.04847  98348738.62347  24017786.9494   24017792.8964   24017786.5204
        45.000          39.000
 105251153.53147  82013872.06847  20028638.2094   20028641.1174   20028638.6154
        54.000          49.000
 128705375.44947 100289884.50047  24491831.5954   24491835.9764   24491830.7454
        43.000          38.000
 09  1 27  0 18 30.0000000  0 12G 6G 9G14G 5G30G24G22G18G31G29G21G12
 125722572.28147  97965610.45247  23924234.6324   23924241.6184   23924234.7684
        43.000          37.000
 127695733.82247  99503153.88747  24299702.2324   24299706.5724   24299703.0794
        40.000          36.000
 118440986.06847  92291646.61047  22538596.3684   22538599.7074   22538596.5994
        49.000          43.000
 123606934.52247  96317076.61247  23521629.0454   23521634.6644   23521629.9244
        45.000          39.000
 119545721.69347  93152496.90047  22748804.1414   22748808.3764   22748803.8624
        49.000          43.000
 120662412.26547  94022631.15547  22961315.8214   22961322.0604   22961315.8544
        47.000          41.000
 122939031.26547  95796647.85347  23394519.0164   23394520.2654   23394518.8534
        48.000          42.000
 119839996.24947  93381810.79347  22804794.9854   22804796.9614   22804795.2754
        49.000          42.000
 112502080.82647  87663946.51547  21408443.8174   21408447.1124   21408443.5214
        53.000          47.000
 126279602.91947  98399669.14247  24030224.7684   24030230.3514   24030224.5924
        44.000          39.000
 105274348.92547  82031946.39847  20033052.0694   20033055.0084   20033052.4064
        54.000          49.000
 128719479.34447 100300874.58347  24494515.4604   24494519.3594   24494515.4054
        43.000          38.000
 09  1 27  0 19  0.0000000  0 12G 6G 9G14G 5G30G24G22G18G31G29G21G12
 125704794.13547  97951757.39947  23920851.8434   23920857.9254   23920851.8904
        43.000          38.000
 127801961.31747  99585928.55347  24319917.2584   24319921.1704   24319917.0114
        39.000          35.000
 118480748.31347  92322630.19547  22546163.1964   22546166.3664   22546163.2754
        49.000          43.000
 123608300.66447  96318141.14447  23521889.2064   23521894.9004   23521889.6544
        45.000          39.000
 119520956.97847  93133199.75047  22744091.5444   22744095.7884   22744091.2094
        49.000          43.000
 120745307.41047  94087224.73747  22977090.2424   22977096.5744   22977090.2614
        47.000          41.000
 122892081.06547  95760063.27947  23385585.0594   23385585.9834   23385585.1914
        48.000          42.000
 119802105.82147  93352285.78847  22797584.5844   22797586.7854   22797584.9414
        49.000          42.000
 112429231.49147  87607180.83047  21394581.1094   21394584.1464   21394580.7374
        53.000          47.000
 126344784.89947  98450460.23947  24042628.5254   24042633.8564   24042628.4544
        43.000          39.000
 105298156.17247  82050497.49447  20037582.5884   20037585.3334   20037583.0184
        54.000          49.000
 128733805.80547 100312038.07747  24497241.4204   24497246.1944   24497240.8444
        44.000          38.000
 09  1 27  0 19 30.0000000  0 12G 6G 9G14G 5G30G24G22G18G31G29G21G12
 125687241.57847  97938080.13147  23917511.3704   23917518.7054   23917511.1214
        42.000          38.000
 127908354.80047  99668832.54747  24340163.1134   24340167.2254   24340163.1544
        40.000          35.000
 118520606.32847  92353688.39747  22553747.7984   22553750.9064   22553748.1604
        48.000          43.000
 123609917.74147  96319401.23547  23522197.4034   23522201.9154   23522197.5034
        45.000          39.000
 119496302.08547  93113988.16847  22739399.8814   22739404.1204   22739399.4294
        49.000          43.000
 120828499.74947  94152049.91147  22992921.0454   22992927.5734   22992920.9724
        47.000          40.000
 122844958.63847  95723344.51247  23376617.6814   23376618.8454   23376617.8564
        47.000          41.000
 119764195.98947  93322745.63447  22790370.3854   22790373.2194   22790370.9204
        49.000          42.000
 112356800.51147  87550741.13147  21380798.0894   21380800.8184   21380797.5114
        53.000          47.000
 126409783.83347  98501108.71947  24054997.7054   24055002.9824   24054997.5534
        44.000          39.000
 105322570.99847  82069522.02847  20042228.5084   20042231.4004   20042228.9174
        54.000          49.000
 128748353.02347 100323373.60047  24500010.3954   24500014.4744   24500010.3734
        43.000          38.000
 09  1 27  0 20  0.0000000  0 12G 6G 9G14G 5G30G24G22G18G31G29G21G12
 125669915.44847  97924579.30047  23914214.6794   23914220.9794   23914214.6994
        43.000          38.000
 128014913.76447  99751865.50047  24360441.5494   24360445.2034   24360441.8144
        40.000          35.000
 118560559.87347  92384821.04547  22561350.4404   22561353.6824   22561350.7984
        48.000          43.000
 123611789.79047  96320859.98647  23522554.0324   23522558.4924   23522554.5364
        45.000          39.000
 119471761.79447  93094865.89347  22734730.0284   22734734.8174   22734729.8334
        49.000          43.000
 120911989.09147  94217106.49847  23008808.5474   23008814.9624   23008808.5784
        46.000          40.000
 122797666.91647  95686493.83547  23367618.3554   23367619.6454   23367618.3694
        48.000          42.000
 119726271.24147  93293193.88347  22783153.6124   22783156.4924   22783153.9584
        48.000          42.000
 112284792.30247  87494630.86647  21367095.3524   21367098.1454   21367095.0684
        53.000          47.000
 126474600.49547  98551615.19247  24067331.4344   24067337.1564   24067331.6014
        43.000          39.000
 105347595.01247  82089021.25647  20046990.4784   20046993.2664   20046990.8584
        54.000          49.000
 128763124.74247 100334884.06347  24502820.9754   24502824.9014   24502820.7584
        43.000          38.000
 09  1 27  0 20 30.0000000  0 12G 6G 9G14G 5G30G24G22G18G31G29G21G12
 125652812.63847  97911252.46647  23910959.5204   23910966.7684   23910959.6074
        43.000          38.000
 128121634.01147  99835024.14247  24380748.6334   24380752.3644   24380749.9344
        40.000          35.000
 118600604.82547  92416024.91247  22568970.8354   22568974.0814   22568971.2464
        48.000          43.000
