     2.11           OBSERVATION DATA    G (GPS)             RINEX VERSION / TYPE
teqc  2013Mar15     gpsops              20140522 00:38:12UTCPGM / RUN BY / DATE
Linux 2.4.21-27.ELsmp|Opteron|gcc -static|Linux x86_64|=+   COMMENT
BIT 2 OF LLI FLAGS DATA COLLECTED UNDER A/S CONDITION       COMMENT
GLPS                                                        MARKER NAME
42005M002                                                   MARKER NUMBER
GGN                 JPL                                     OBSERVER / AGENCY
ZR220013847         ASHTECH UZ-12       CQ00                REC # / TYPE / VERS
CR519992104         ASH701945B_M    SCIT                    ANT # / TYPE
   -33801.4662 -6377516.5323   -82154.3508                  APPROX POSITION XYZ
        0.0083        0.0000        0.0000                  ANTENNA: DELTA H/E/N
     1     1                                                WAVELENGTH FACT L1/2
     7    L1    L2    P1    P2    C1    S1    S2            # / TYPES OF OBSERV
    30.0000                                                 INTERVAL
                                                            COMMENT
This data is provided as a public service by NASA/JPL.      COMMENT
No warranty is expressed or implied regarding suitability   COMMENT
for use.  For further information, contact:                 COMMENT
Dave Stowers, NASA/JPL m/s 238-600                          COMMENT
4800 Oak Grove Drive, Pasadena CA 91109 USA                 COMMENT
                                                            COMMENT
Forced Modulo Decimation to 30 seconds                      COMMENT
 SNR is mapped to RINEX snr flag value [0-9]                COMMENT
  L1 & L2: min(max(int(snr_dBHz/6), 0), 9)                  COMMENT
pseudorange smoothing corrections not applied               COMMENT
  2014     5    21     0     0    0.0000000     GPS         TIME OF FIRST OBS
                                                            END OF HEADER
 14  5 21  0  0  0.0000000  0 12G09G10G07G20G08G26G28G02G17G01G13G04
 -13909474.94149 -10833583.33648  19979342.7724   19979349.1194   19979342.829
        54.0004         50.0004
 -11251394.53647  -8760911.31746  23586215.2554   23586223.6724   23586215.817
        44.0004         40.0004
 -20168530.99948 -15679878.96547  20905901.9804   20905907.3754   20905901.477
        52.0004         47.0004
  -5091247.75746  -3914750.24246  23749614.5514   23749625.2714   23749615.223
        40.0004         36.0004
 -19611711.28949 -15249251.91648  19890559.8104   19890566.8524   19890560.263
        54.0004         49.0004
   -792155.51047   -601996.47746  24052219.6014   24052231.3344   24052218.809
        43.0004         38.0004
  -5304735.53747  -4135428.59346  23221574.7214   23221585.6464   23221575.122
        45.0004         40.0004
  -5246447.75847  -4034894.08646  23349767.9074   23349774.1884   23349767.413
        44.0004         39.0004
 -11907607.12248  -9216681.77547  22936780.1214   22936790.8944   22936779.780
        48.0004         44.0004
   -699143.08446   -516138.00246  24630983.4334   24630998.8234   24630981.909
        41.0004         36.0004
   1767597.34246   1426862.07945  24680675.4524   24680682.7314   24680676.101
        39.0004         35.0004
 -24379568.74848 -18952746.75147  20822390.0964   20822396.0984   20822389.156
        52.0004         47.0004
 14  5 21  0  0 30.0000000  0 12G09G10G07G20G08G26G28G02G17G01G13G04
 -13905433.15449 -10830433.83248  19980111.7554   19980118.1984   19980111.687
        54.0004         50.0004
 -11315585.18047  -8810929.86746  23573999.7844   23574008.2274   23574000.261
        44.0004         40.0004
 -20101222.08448 -15627430.43347  20918710.4164   20918715.7704   20918709.964
        52.0004         47.0004
  -5069957.67646  -3898160.61346  23753667.3484   23753675.7394   23753666.597
        40.0004         36.0004
 -19604288.91249 -15243468.19348  19891972.4094   19891978.7594   19891972.747
        54.0004         49.0004
   -793031.45047   -602678.88446  24052051.5074   24052065.1964   24052050.342
        42.0004         38.0004
  -5360229.89847  -4178670.78846  23211014.4124   23211024.8074   23211014.593
        45.0004         40.0004
  -5331564.79847  -4101218.90246  23333570.2424   23333576.8984   23333570.352
        44.0004         40.0004
 -11865224.33048  -9183656.26147  22944846.4254   22944854.9214   22944844.920
        48.0004         44.0004
   -593136.97446   -433535.79746  24651155.2124   24651169.8724   24651154.312
        41.0004         36.0004
   1831585.45846   1476723.07545  24692853.3674   24692858.1734   24692853.140
        39.0004         35.0004
 -24433417.63248 -18994706.86548  20812142.6464   20812149.3764   20812142.184
        52.0004         48.0004
 14  5 21  0  1  0.0000000  0 12G09G10G07G20G08G26G28G02G17G01G13G04
 -13900788.46449 -10826814.53248  19980995.8904   19981002.1214   19980995.882
        54.0004         50.0004
 -11379949.26447  -8861083.57546  23561751.1424   23561760.6044   23561752.009
        44.0004         40.0004
 -20033451.94948 -15574622.51047  20931606.1884   20931611.1254   20931605.889
        52.0004         47.0004
  -5048375.10346  -3881343.10245  23757771.6184   23757783.4844   23757773.652
        40.0004         35.0004
 -19596208.80549 -15237171.94848  19893509.9654   19893516.5074   19893510.684
        54.0004         49.0004
   -793644.95347   -603156.79746  24051935.2414   24051947.8194   24051935.202
        42.0004         38.0004
  -5415858.48447  -4222017.58146  23200429.9084   23200438.9804   23200429.512
        45.0004         40.0004
  -5416434.74747  -4167351.18546  23317419.7724   23317426.7644   23317419.359
        44.0004         39.0004
 -11822890.21148  -9150668.66247  22952901.2134   22952911.2274   22952900.917
        48.0004         44.0004
   -487055.24146   -350874.66646  24671341.0034   24671356.0694   24671340.803
        41.0004         36.0004
   1895327.42546   1526392.26545  24704982.5064   24704987.8394   24704982.376
        39.0004         34.0004
 -24486789.04848 -19036294.93748  20801986.9304   20801993.5144   20801986.466
        52.0004         48.0004
 14  5 21  0  1 30.0000000  0 12G09G10G07G20G08G26G28G02G17G01G13G04
 -13895526.09049 -10822713.92048  19981996.8494   19982003.2354   19981997.057
        54.0004         50.0004
 -11444469.91547  -8911359.28746  23549472.9124   23549482.4734   23549474.045
        44.0004         40.0004
 -19965207.68748 -15521445.14347  20944592.9984   20944598.7554   20944592.391
        52.0004         47.0004
  -5026483.75746  -3864284.94845  23761939.0874   23761950.8874   23761940.898
        40.0004         35.0004
 -19587455.81749 -15230351.39148  19895175.7244   19895182.2484   19895175.766
        54.0004         49.0004
   -793982.75247   -603419.86946  24051869.9804   24051883.6044   24051869.141
        43.0004         38.0004
  -5471603.81447  -4265455.32446  23189820.1644   23189831.2924   23189820.994
        45.0004         40.0004
  -5501040.11547  -4233277.30946  23301320.6544   23301326.4184   23301319.731
        44.0004         40.0004
 -11780591.50748  -9117708.66947  22960949.2614   22960961.2924   22960949.992
        48.0004         43.0004
   -380885.21546   -268144.70745  24691545.9364   24691560.7504   24691545.022
        40.0004         35.0004
   1958837.82446   1575881.00145  24717067.4654   24717074.4924   24717067.717
        39.0004         34.0004
 -24539665.80248 -19077497.55448  20791924.0594   20791930.9754   20791923.641
        52.0004         48.0004
 14  5 21  0  2  0.0000000  0 12G09G10G07G20G08G26G28G02G17G01G13G04
 -13889657.45449 -10818140.89848  19983113.6584   19983120.1904   19983113.483
        54.0004         50.0004
 -11509156.18447  -8961764.03446  23537163.6334   23537172.6654   23537164.494
        44.0004         40.0004
 -19896502.84248 -15467908.86947  20957666.9334   20957672.3014   20957666.244
        52.0004         47.0004
  -5004293.16246  -3846993.64345  23766162.5424   23766171.6404   23766161.755
        40.0004         35.0004
 -19578041.21449 -15223015.28748  19896967.2254   19896973.7724   19896967.246
        54.0004         49.0004
   -794057.65847   -603478.09846  24051855.5134   24051869.6284   24051855.664
        43.0004         38.0004
  -5527474.89647  -4308991.07446  23179189.0044   23179199.0884   23179189.087
        45.0004         41.0004
  -5585389.42447  -4299003.90546  23285268.8234   23285275.8764   23285268.678
        44.0004         40.0004
 -11738341.20048  -9084786.38647  22968990.6924   22969000.1534   22968989.850
        48.0004         43.0004
   -274640.39446   -185356.46445  24711761.3874   24711780.0534   24711761.662
        40.0004         35.0004
   2022104.88946   1625180.12445  24729106.4964   24729112.9764   24729107.270
        39.0004         35.0004
 -24592056.94348 -19118321.77348  20781954.6734   20781961.6234   20781954.222
        52.0004         48.0004
 14  5 21  0  2 30.0000000  0 12G09G10G07G20G08G26G28G02G17G01G13G04
 -13883181.90149 -10813094.95448  19984346.1404   19984352.0854   19984346.195
        54.0004         50.0004
 -11574005.93647  -9012296.18746  23524823.7484   23524832.8954   23524824.276
        44.0004         40.0004
 -19827339.37048 -15414015.22447  20970828.4594   20970833.7554   20970827.892
        52.0004         47.0004
  -4981801.41646  -3829467.65845  23770442.5144   23770452.8634   23770442.925
        40.0004         35.0004
 -19567964.26649 -15215163.06648  19898884.9474   19898891.1134   19898885.184
        54.0004         49.0004
   -793870.63147   -603332.21346  24051890.3604   24051903.2414   24051891.169
        43.0004         38.0004
  -5583468.99047  -4352622.66246  23168534.0654   23168543.5004   23168533.788
        45.0004         41.0004
  -5669479.61847  -4364528.60246  23269266.7494   23269273.4784   23269267.095
        44.0004         40.0004
 -11696140.36248  -9051902.64347  22977020.9484   22977030.6424   22977020.441
        48.0004         43.0004
   -168322.48346   -102511.23345  24731993.3664   24732009.2254   24731994.372
        40.0004         35.0004
   2085128.58446   1674289.63545  24741100.2044   24741107.0874   24741100.269
        39.0004         35.0004
 -24643960.01448 -19158765.67948  20772078.0384   20772084.2524   20772077.425
        52.0004         48.0004
 14  5 21  0  3  0.0000000  0 12G09G10G07G20G08G26G28G02G17G01G13G04
 -13876096.82249 -10807574.05048  19985693.9934   19985700.6244   19985694.045
        54.0004         50.0004
 -11639014.60347  -9062952.16946  23512452.1024   23512461.1424   23512453.075
        45.0004         40.0004
 -19757715.97948 -15359763.20647  20984077.1374   20984082.2714   20984076.783
        52.0004         47.0004
  -4959004.29246  -3811703.70545  23774780.7364   23774791.9074   23774780.667
        39.0004         35.0004
 -19557221.50349 -15206792.02948  19900928.7914   19900935.4334   19900929.024
        54.0004         49.0004
   -793420.27447   -602981.14546  24051976.5064   24051989.5644   24051976.989
        43.0004         38.0004
  -5639580.46347  -4396345.72146  23157855.9274   23157864.7394   23157855.928
        46.0004         41.0004
  -5753305.34847  -4429847.22946  23253315.2144   23253321.4654   23253315.055
        45.0004         40.0004
 -11653987.87748  -9019056.58247  22985041.7524   22985053.2714   22985041.728
        48.0004         43.0004
    -61930.70146    -19608.44745  24752239.8654   24752254.5314   24752239.070
        39.0004         35.0004
   2147911.49946   1723211.51645  24753046.8974   24753055.1134   24753046.606
        39.0004         35.0004
 -24695369.93248 -19198825.31348  20762294.4164   20762301.3764   20762294.188
        52.0004         48.0004
 14  5 21  0  3 30.0000000  0 12G09G10G07G20G08G26G28G02G17G01G13G04
 -13868403.25649 -10801579.01048  19987158.2304   19987164.7114   19987158.074
        54.0004         50.0004
 -11704180.96647  -9113731.02246  23500050.8694   23500059.8784   23500052.184
        45.0004         40.0004
 -19687635.87448 -15305155.29947  20997412.9324   20997418.7074   20997412.687
        52.0004         47.0004
  -4935901.15946  -3793701.32045  23779178.0404   23779185.0924   23779177.285
        39.0004         35.0004
 -19545813.66649 -15197902.75848  19903099.7454   19903106.3464   19903099.986
        54.0004         49.0004
   -792708.97347   -602426.74246  24052111.7924   24052124.6744   24052111.219
        42.0004         38.0004
  -5695807.90447  -4440159.14546  23147156.6374   23147165.4704   23147155.673
        46.0004         41.0004
  -5836864.94847  -4494958.47546  23237414.9644   23237421.5914   23237415.082
        45.0004         40.0004
 -11611886.21848  -8986250.13447  22993054.0364   22993063.8824   22993053.507
        48.0004         43.0004
     44531.89346     63349.52045  24772498.5254   24772514.8154   24772498.215
        39.0004         34.0004
   2210452.26346   1771944.67245  24764946.9184   24764956.3474   24764948.006
        39.0004         34.0004
 -24746285.59548 -19238499.80948  20752605.6554   20752612.2634   20752605.517
        52.0004         48.0004
 14  5 21  0  4  0.0000000  0 12G09G10G07G20G08G26G28G02G17G01G13G04
 -13860101.75149 -10795110.24148  19988737.8104   19988744.2024   19988737.873
        54.0004         50.0004
 -11769503.18547  -9164631.32146  23487621.0344   23487630.4404   23487622.223
        45.0004         40.0004
 -19617101.59448 -15250193.49447  21010834.8394   21010840.7944   21010834.718
        52.0004         47.0004
  -4912490.80246  -3775459.52345  23783629.0594   23783641.2004   23783630.858
        39.0004         34.0004
 -19533741.48249 -15188495.81148  19905397.1074   19905403.4354   19905397.216
        54.0004         49.0004
   -791738.43047   -601670.32446  24052296.4704   24052309.3384   24052295.994
        42.0004         38.0004
  -5752149.09147  -4484061.18746  23136434.7344   23136443.2624   23136434.201
        46.0004         41.0004
  -5920156.07047  -4559860.51946  23221564.6854   23221570.5884   23221564.586
        45.0004         40.0004
 -11569837.28348  -8953484.75647  23001055.5834   23001066.0234   23001055.056
        48.0004         43.0004
  -9301457.12556  -7219239.19155  24792773.8025   24792784.9675   24792770.478
        39.0004         34.0004
   2272750.34146   1820488.72745  24776803.4674   24776810.2234   24776802.672
        39.0004         34.0004
 -24796705.14348 -19277787.72548  20743011.1984   20743017.6384   20743010.882
        52.0004         48.0004
 14  5 21  0  4 30.0000000  0 12G09G10G07G20G08G26G28G02G17G01G13G04
 -13851193.81349 -10788168.93348  19990432.8254   19990439.3914   19990432.739
        54.0004         50.0004
 -11834980.74547  -9215652.67246  23475160.6974   23475170.1034   23475162.028
        45.0004         40.0004
 -19546116.38848 -15194880.31747  21024343.2544   21024349.0314   21024342.724
        52.0004         47.0004
  -4888773.03846  -3756978.23345  23788145.2424   23788155.9614   23788144.774
        39.0004         34.0004
 -19521006.17149 -15178572.14348  19907820.1054   19907826.7174   19907820.444
        54.0004         49.0004
   -790511.66747   -600714.25746  24052529.8324   24052543.7464   24052528.886
        42.0004         37.0004
  -5808602.79747  -4528050.91546  23125691.2724   23125701.6844   23125691.507
        46.0004         41.0004
  -6003177.43547  -4624552.37946  23205766.1384   23205773.0964   23205766.203
        45.0004         40.0004
 -11527844.37248  -8920763.04047  23009046.5384   23009055.9114   23009046.068
        48.0004         43.0004
  -9194861.35846  -7136177.42345  24813054.9604   24813073.2574   24813055.162
        39.0004         34.0004
   2334803.63146   1868842.04845  24788612.4164   24788617.7924   24788611.533
        40.0004         35.0004
 -24846627.61748 -19316688.30148  20733510.8844   20733517.9364   20733510.233
        52.0004         48.0004
 14  5 21  0  5  0.0000000  0 12G09G10G07G20G08G26G28G02G17G01G13G04
 -13841677.50049 -10780753.56848  19992243.7754   19992249.9354   19992243.998
        54.0004         50.0004
 -11900609.59147  -9266791.89446  23462673.2224   23462680.3654   23462673.267
        45.0004         40.0004
 -19474680.30148 -15139215.80247  21037937.2284   21037942.3424   21037936.374
        52.0004         47.0004
  -4864744.39046  -3738254.68645  23792715.6174   23792729.3024   23792717.703
        39.0004         34.0004
 -19507605.52049 -15168130.03048  19910370.2354   19910376.8174   19910370.804
        54.0004         49.0004
   -789028.06747   -599558.03846  24052812.0434   24052825.3384   24052812.946
        42.0004         38.0004
  -5865164.36647  -4572124.69247  23114927.7484   23114938.0904   23114927.888
        46.0004         42.0004
  -6085924.34447  -4689030.35646  23190020.0704   23190025.9664   23190020.191
        45.0004         40.0004
 -11485907.08848  -8888084.68647  23017027.7814   23017037.4344   23017026.409
        48.0004         43.0004
  -9088200.74046  -7053065.11845  24833351.4514   24833367.9664   24833351.627
        38.0004         34.0004
   2396614.12946   1917006.16845  24800374.7634   24800379.0944   24800373.728
        39.0004         35.0004
 -24896049.10948 -19355198.50548  20724106.6044   20724113.1224   20724106.708
        52.0004         48.0004
 14  5 21  0  5 30.0000000  0 12G09G10G07G20G08G26G28G02G17G01G13G04
 -13831553.97349 -10772865.04848  19994170.1954   19994176.2424   19994170.183
        54.0004         50.0004
 -11966388.48147  -9318048.03946  23450155.7584   23450163.0494   23450156.094
        45.0004         40.0004
 -19402796.50648 -15083202.42347  21051616.3174   21051621.6194   21051615.892
        52.0004         47.0004
 -12717504.00246  -9857288.20045  23797350.8764   23797358.2804   23797349.174
        39.0004         34.0004
 -19493540.07949 -15157169.89848  19913046.7184   19913052.9014   19913047.176
        54.0004         49.0004
   -787289.68147   -598203.29246  24053142.4134   24053154.6694   24053141.958
        42.0004         38.0004
  -5921831.88047  -4616281.01846  23104144.4804   23104153.7524   23104144.674
        46.0004         41.0004
  -6168394.91447  -4753293.00046  23174326.3194   23174332.6904   23174326.229
        45.0004         41.0004
 -11444027.26548  -8855451.10247  23024996.9304   23025006.9194   23024995.704
        48.0004         43.0004
  -8981477.80346  -6969904.24645  24853659.2564   24853674.6014   24853659.067
        38.0004         33.0004
   2458180.69046   1964980.20745  24812089.4464   24812095.7504   24812089.322
        40.0004         35.0004
 -24944968.09848 -19393317.14748  20714797.4674   20714804.1734   20714796.699
        52.0004         48.0004
 14  5 21  0  6  0.0000000  0 12G09G10G07G20G08G26G28G02G17G01G13G04
 -13820830.39249 -10764508.95348  19996210.8064   19996216.9354   19996210.874
        54.0004         50.0004
 -12032322.59047  -9369425.13446  23437608.3624   23437615.5594   23437608.675
        45.0004         40.0004
 -19330474.27548 -15026847.40547  21065378.7214   21065383.8864   21065378.067
        52.0004         47.0004
 -12692857.81446  -9838083.45445  23802038.7004   23802052.2824   23802040.327
        39.0004         34.0004
 -19478816.94549 -15145697.28248  19915848.4124   19915854.8924   19915848.756
        54.0004         49.0004
   -785305.37447   -596656.92746  24053521.3634   24053534.6164   24053520.593
        42.0004         38.0004
  -5978609.90047  -4660523.45046  23093339.3344   23093349.5524   23093339.791
        46.0004         41.0004
  -6250593.59947  -4817343.79046  23158682.8344   23158690.4684   23158684.665
        45.0004         41.0004
 -11402213.80848  -8822869.21947  23032952.7944   23032963.6304   23032952.927
        48.0004         43.0004
  -8874702.37356  -6886702.41255  24873978.7565   24873998.3805   24873978.332
        38.0004         33.0004
   2519495.93646   2012758.41345  24823758.2034   24823764.3684   24823756.635
        40.0004         35.0004
 -24993389.72448 -19431048.22648  20705583.2964   20705589.6764   20705582.976
        52.0004         48.0004
 14  5 21  0  6 30.0000000  0 11G09G10G07G20G08G26G28G02G17G13G04
 -13809499.10749 -10755679.32548  19998367.1734   19998373.0664   19998367.060
        54.0004         50.0004
 -12098401.80947  -9420915.30746  23425033.9414   23425041.0264   23425033.868
        45.0004         41.0004
 -19257707.39248 -14970145.90647  21079225.5554   21079230.8774   21079224.943
        52.0004         47.0004
 -12667896.27356  -9818632.97555  23806787.3595   23806799.7235   23806789.052
        39.0004         34.0004
 -19463428.15349 -15133705.97348  19918776.8644   19918783.3064   19918777.222
        54.0004         49.0004
   -783068.48947   -594913.75946  24053945.4704   24053959.8524   24053944.850
        43.0004         38.0004
  -6035487.91847  -4704843.79846  23082515.9664   23082526.4334   23082516.016
        46.0004         41.0004
  -6332509.96747  -4881174.59146  23143095.7114   23143101.6934   23143095.821
        45.0004         41.0004
 -11360460.41148  -8790334.13647  23040898.4404   23040909.1644   23040898.280
        48.0004         43.0004
   2580567.56346   2060346.80445  24835377.7024   24835382.7794   24835378.316
        39.0004         35.0004
 -25041304.04848 -19468384.01648  20696465.4454   20696471.5864   20696465.083
        52.0004         48.0004
 14  5 21  0  7  0.0000000  0 12G09G10G07G20G08G26G28G02G17G01G13G04
 -13797566.77949 -10746381.35048  20000637.7324   20000643.8564   20000637.628
        54.0004         50.0004
 -12164630.10547  -9472521.63646  23412430.5764   23412439.4204   23412431.020
        45.0004         40.0004
 -19184504.49148 -14913104.64547  21093155.4654   21093160.8244   21093155.054
        52.0004         47.0004
 -12642624.40346  -9798940.68545  23811599.8754   23811610.0454   23811599.469
        39.0004         34.0004
 -19447379.96249 -15121200.84448  19921830.8784   19921837.3374   19921831.197
        54.0004         49.0004
   -780586.79147   -592979.81846  24054418.2674   24054429.9714   24054418.997
        43.0004         38.0004
  -6092469.46047  -4749244.81746  23071672.0114   23071681.5574   23071672.518
        46.0004         41.0004
  -6414147.53047  -4944788.13746  23127560.8434   23127567.1314   23127560.305
        45.0004         40.0004
 -11318774.68848  -8757851.78247  23048832.2744   23048842.0814   23048831.208
        48.0004         43.0004
  -8660983.62656  -6720167.93955  24914646.1365   24914663.1625   24914646.899
        38.0004         33.0004
   2641389.20846   2107740.40545  24846954.9314   24846961.0084   24846952.409
        39.0004         34.0004
 -25088715.07448 -19505327.61448  20687443.3534   20687449.8634   20687442.543
        52.0004         48.0004
 14  5 21  0  7 30.0000000  0 11G09G10G07G20G08G26G28G02G17G13G04
 -13785030.30749 -10736612.61548  20003023.2214   20003029.4804   20003022.982
        54.0004         50.0004
 -12231002.12647  -9524239.97246  23399800.0414   23399809.1414   23399800.471
        45.0004         40.0004
 -19110864.54348 -14855722.83447  21107168.7164   21107174.7394   21107168.218
        52.0004         47.0004
 -12617037.24856  -9779002.69055  23816468.0815   23816478.0485   23816467.744
        39.0004         34.0004
 -19430669.13249 -15108179.37348  19925010.5284   19925017.1764   19925010.981
        54.0004         49.0004
   -777858.65847   -590853.87246  24054937.2004   24054949.7344   24054936.593
        43.0004         38.0004
  -6149548.85047  -4793722.08346  23060809.5304   23060820.5684   23060810.552
        46.0004         41.0004
  -6495500.49147  -5008179.91646  23112078.9784   23112086.1684   23112079.960
        45.0004         41.0004
 -11277155.12048  -8725420.97647  23056751.5484   23056761.8384   23056751.525
        48.0004         43.0004
   2701963.69646   2154941.38045  24858480.7634   24858485.7834   24858478.654
        39.0004         34.0004
 -25135617.73748 -19541875.09248  20678517.8454   20678524.4224   20678517.786
        52.0004         48.0004
 14  5 21  0  8  0.0000000  0 12G09G10G07G20G08G26G28G02G17G01G13G04
 -13771891.12849 -10726374.24348  20005523.5764   20005529.8684   20005523.596
        54.0004         50.0004
 -12297516.75547  -9576069.42246  23387143.7984   23387151.5874   23387142.782
        45.0004         40.0004
 -19036790.62948 -14798002.86547  21121264.7684   21121270.2634   21121264.023
        52.0004         47.0004
 -12591134.44646  -9758818.79645  23821397.0314   23821406.9354   23821397.491
        39.0004         34.0004
 -19413296.76849 -15094642.42548  19928316.4494   19928323.1434   19928316.556
        54.0004         49.0004
   -774886.55047   -588537.80046  24055504.2114   24055515.1304   24055502.362
        43.0004         38.0004
  -6206724.23547  -4838274.15246  23049929.4254   23049940.5094   23049930.642
        46.0004         41.0004
  -6576567.11947  -5071348.58546  23096652.9094   23096658.4104   23096652.157
        45.0004         41.0004
 -11235604.31348  -8693043.75747  23064657.6324   23064668.9824   23064657.862
        48.0004         43.0004
                  -6553476.03555                  24955368.3355   24955354.608
                        32.0004
   2762290.15646   2201949.09145  24869958.3764   24869964.0264   24869958.253
        39.0004         34.0004
 -25182010.96648 -19578025.61048  20669689.8104   20669696.3464   20669688.901
        52.0004         48.0004
 14  5 21  0  8 30.0000000  0 11G09G10G07G20G08G26G28G02G17G13G04
 -13758151.52949 -10715668.00648  20008138.0004   20008144.2444   20008138.069
        54.0004         50.0004
 -12364174.08447  -9628010.06146  23374457.8264   23374466.6574   23374458.782
        45.0004         41.0004
 -18962287.10448 -14739948.13647  21135442.4424   21135447.2314   21135441.465
        52.0004         47.0004
 -12564916.46846  -9738389.28145  23826384.5814   23826396.8874   23826387.526
        39.0004         34.0004
 -19395265.19349 -15080591.80548  19931748.1824   19931753.9094   19931748.082
        54.0004         49.0004
   -771673.83847   -586034.24946  24056114.6004   24056126.4544   24056113.465
        42.0004         38.0004
  -6263994.83247  -4882900.42046  23039031.8044   23039041.4544   23039032.581
        46.0004         41.0004
  -6657346.88347  -5134293.72746  23081281.2624   23081285.5574   23081281.172
        45.0004         41.0004
 -11194125.46948  -8660722.61347  23072552.3404   23072562.5644   23072551.073
        48.0004         43.0004
   2822366.13746   2248761.64345  24881388.9944   24881397.8294   24881390.854
        39.0004         35.0004
 -25227894.56648 -19613779.01148  20660958.2994   20660964.7114   20660957.885
        52.0004         48.0004
 14  5 21  0  9  0.0000000  0 11G09G10G07G20G08G26G28G02G17G13G04
 -13743812.54649 -10704494.71948  20010866.6084   20010872.5724   20010866.617
        54.0004         50.0004
 -12430972.31147  -9680060.49746  23361747.3974   23361754.7664   23361747.524
        45.0004         41.0004
 -18887356.59948 -14681560.70047  21149700.9634   21149706.2934   21149700.655
        52.0004         47.0004
 -12538382.30046  -9717713.36845  23831437.5204   23831449.4364   23831436.312
        39.0004         34.0004
 -19376575.05948 -15066028.02048  19935304.2724   19935310.6544   19935304.441
        53.0004         49.0004
   -768222.65147   -583344.86746  24056769.7894   24056783.0174   24056769.645
        42.0004         37.0004
  -6321358.43847  -4927599.15746  23028115.6904   23028125.4244   23028116.058
        46.0004         41.0004
  -6737837.70547  -5197013.69946  23065963.6774   23065969.7824   23065964.898
        46.0004         41.0004
 -11152720.72548  -8628459.19347  23080430.3014   23080440.8764   23080430.328
        48.0004         43.0004
   2882191.12846   2295378.60845  24892773.0644   24892783.8754   24892774.791
        39.0004         34.0004
 -25273267.39548 -19649134.41448  20652324.1344   20652330.2404   20652323.638
        52.0004         48.0004
 14  5 21  0  9 30.0000000  0 11G09G10G07G20G08G26G28G02G17G13G04
 -13728874.63749 -10692854.73848  20013708.8644   20013715.3344   20013709.108
        54.0004         50.0004
 -12497909.15247  -9732218.94546  23349009.9994   23349017.3684   23349009.959
        45.0004         41.0004
 -18812001.41148 -14622842.33147  21164040.0004   21164045.5324   21164039.801
        51.0004         47.0004
 -12511531.04446  -9696790.38545  23836543.8244   23836554.3634   23836545.186
        39.0004         35.0004
 -19357226.52048 -15050951.19848  19938986.1444   19938992.3584   19938986.494
        53.0004         49.0004
   -764534.60947   -580470.94046  24057473.3114   24057483.5314   24057472.326
        42.0004         38.0004
  -6378812.52247  -4972368.40146  23017181.1454   23017191.9044   23017182.701
        46.0004         41.0004
  -6818037.10147  -5259506.59346  23050701.9804   23050708.6394   23050702.586
        46.0004         41.0004
 -11111391.65448  -8596254.74847  23088296.0724   23088305.2484   23088294.918
        48.0004         43.0004
   2941764.56046   2341799.56445  24904110.1364   24904120.7794   24904111.103
        39.0004         35.0004
 -25318127.44248 -19684090.24648  20643787.3494   20643793.9504   20643786.819
        53.0004         48.0004
 14  5 21  0 10  0.0000000  0 11G09G10G07G20G08G26G28G02G17G13G04
 -13713337.42549 -10680747.77548  20016665.6854   20016671.4134   20016665.610
        54.0004         50.0004
 -12564981.94347  -9784483.32246  23336246.2114   23336253.9114   23336246.689
        45.0004         40.0004
 -18736223.05348 -14563794.23047  21178460.5244   21178465.5174   21178460.251
        51.0004         47.0004
 -12484360.66646  -9675618.75445  23841715.3434   23841728.4054   23841716.822
        39.0004         34.0004
 -19337219.28848 -15035361.10648  19942793.3184   19942799.7764   19942793.639
        53.0004         49.0004
   -760610.43647   -577413.02046  24058219.7574   24058230.9284   24058218.126
        42.0004         38.0004
  -6436353.60747  -5017205.43746  23006232.9074   23006240.6684   23006233.005
        46.0004         41.0004
  -6897941.67547  -5321769.75646  23035497.6354   23035502.5864   23035496.936
        46.0004         41.0004
 -11070138.89448  -8564109.75847  23096145.7154   23096155.7704   23096144.931
        48.0004         43.0004
   3001086.83946   2388024.79245  24915399.1764   24915406.8384   24915400.468
        39.0004         34.0004
 -25362472.09848 -19718644.47648  20635349.0654   20635355.1094   20635348.540
        53.0004         48.0004
 14  5 21  0 10 30.0000000  0 11G09G10G07G20G08G26G28G02G17G13G04
 -13697202.33349 -10668174.92348  20019736.1334   20019741.7354   20019736.288
        54.0004         50.0004
 -12632189.42947  -9836852.66346  23323456.0504   23323464.6004   23323457.121
        45.0004         40.0004
 -18660024.49248 -14504418.69247  21192960.9914   21192966.5424   21192959.786
        51.0004         47.0004
 -12456870.57956  -9654198.00955  23846947.0995   23846957.5595   23846946.486
        39.0004         34.0004
 -19316554.18149 -15019258.38448  19946725.8104   19946732.0284   19946726.030
        54.0004         49.0004
   -756452.74847   -574173.13046  24059010.3384   24059022.0414   24059009.990
        42.0004         38.0004
  -6493979.94747  -5062108.91246  22995265.4834   22995274.9854   22995266.937
        46.0004         41.0004
  -6977549.79947  -5383801.90846  23020348.1314   23020353.5934   23020348.336
        46.0004         41.0004
 -11028964.95348  -8532026.18247  23103980.4324   23103990.4204   23103980.467
        48.0004         43.0004
   3060157.36346   2434053.86945  24926638.4984   24926648.6694   24926640.549
        39.0004         34.0004
 -25406300.34248 -19752796.31548  20627008.8394   20627015.3284   20627008.557
        53.0004         48.0004
 14  5 21  0 11  0.0000000  0 11G09G10G07G20G08G26G28G02G17G13G04
 -13680472.05549 -10655138.29748  20022919.7404   20022925.4894   20022919.481
        54.0004         50.0004
 -12699531.50347  -9889326.89146  23310641.2504   23310648.7854   23310641.966
        45.0004         40.0004
 -18583410.14848 -14444719.17447  21207540.0074   21207544.4904   21207539.424
        51.0004         47.0004
 -12429061.46746  -9632528.63445  23852237.0074   23852248.1934   23852239.886
        39.0004         34.0004
 -19295233.77249 -15002645.03748  19950783.0954   19950789.3424   19950783.312
        54.0004         49.0004
   -752065.03547   -570753.98546  24059844.7004   24059856.4124   24059843.802
        42.0004         38.0004
  -6551690.86247  -5107078.28646  22984285.2674   22984292.9284   22984284.606
        46.0004         41.0004
  -7056861.07847  -5445602.75946  23005255.3614   23005261.6134   23005255.584
        46.0004         41.0004
 -10987873.50048  -8500006.90047  23111800.4264   23111810.4624   23111799.508
        48.0004         43.0004
   3118973.67746   2479884.85845  24937833.8894   24937843.7804   24937831.949
        39.0004         34.0004
 -25449612.33448 -19786545.86948  20618766.3114   20618773.1674   20618765.842
        53.0004         48.0004
 14  5 21  0 11 30.0000000  0 11G09G10G07G20G08G26G28G02G17G13G04
 -13663145.33649 -10641636.90748  20026216.7754   20026222.7544   20026217.024
        54.0004         50.0004
 -12767003.89947  -9941902.65046  23297801.3194   23297809.4814   23297801.985
        45.0004         40.0004
 -18506380.82548 -14384696.29147  21222198.5094   21222203.6394   21222197.725
        51.0004         47.0004
 -12400930.17946  -9610608.24845  23857592.7774   23857603.6734   23857592.320
        39.0004         34.0004
 -19273256.87349 -14985520.13748  19954965.0424   19954971.3884   19954965.334
        54.0004         49.0004
   -747447.13947   -567155.49946  24060723.0164   24060735.4754   24060723.022
        42.0004         38.0004
  -6609481.83647  -5152110.04046  22973287.7184   22973295.7144   22973287.292
        46.0004         41.0004
  -7135871.04547  -5507168.82446  22990219.5324   22990225.4434   22990219.968
        46.0004         41.0004
 -10946864.00348  -8468051.46347  23119605.0164   23119613.7094   23119603.608
        48.0004         43.0004
   3177537.51546   2525519.10245  24948975.3734   24948984.7274   24948976.754
        39.0004         34.0004
 -25492404.64248 -19819890.47548  20610623.4764   20610629.8774   20610623.110
        53.0004         48.0004
 14  5 21  0 12  0.0000000  0 11G09G10G07G20G08G26G28G02G17G13G04
 -13645224.63449 -10627672.67448  20029626.8274   20029632.9494   20029626.676
        54.0004         50.0004
 -12834606.50647  -9994579.87546  23284937.7444   23284945.2044   23284937.375
        45.0004         41.0004
 -18428940.49848 -14324353.14147  21236934.4794   21236939.7894   21236933.815
        51.0004         47.0004
 -12372477.46446  -9588437.39945  23863009.3334   23863013.7604   23863007.028
        39.0004         35.0004
 -19250625.48049 -14967885.24048  19959271.4374   19959278.2844   19959271.598
        54.0004         49.0004
   -742602.66147   -563380.44546  24061644.2484   24061657.3554   24061644.028
        42.0004         38.0004
  -6667352.21947  -5197203.68246  22962273.8724   22962283.3404   22962274.978
        46.0004         41.0004
  -7214579.24147  -5568499.74746  22975242.9454   22975248.2844   22975242.630
        46.0004         41.0004
 -10905940.07448  -8436162.69547  23127391.0914   23127401.9074   23127391.040
        48.0004         43.0004
   3235846.61946   2570954.86045  24960074.8644   24960080.7304   24960072.576
        39.0004         34.0004
 -25534677.15248 -19852830.05148  20602579.5064   20602585.6994   20602578.995
        53.0004         48.0004
 14  5 21  0 12 30.0000000  0 11G09G10G07G20G08G26G28G02G17G13G04
 -13626713.10649 -10613248.05748  20033149.7484   20033155.2664   20033149.534
        54.0004         50.0004
 -12902339.46147 -10047358.67646  23272047.9264   23272055.4074   23272048.439
        45.0004         40.0004
 -18351093.70048 -14263693.26947  21251748.6554   21251753.0844   21251747.924
        51.0004         47.0004
 -12343704.34846  -9566016.85745  23868479.3344   23868493.8294   23868481.978
        39.0004         34.0004
 -19227342.35149 -14949742.50348  19963702.0304   19963708.0534   19963702.489
        54.0004         49.0004
   -737535.45047   -559431.82846  24062609.3034   24062620.1654   24062609.621
        42.0004         38.0004
  -6725301.37247  -5242358.70146  22951247.4524   22951255.9614   22951247.186
        46.0004         41.0004
  -7292985.46747  -5629595.36346  22960321.7194   22960328.0574   22960322.090
        46.0004         41.0004
 -10865105.12348  -8404343.25847  23135162.1294   23135171.5734   23135161.559
        48.0004         43.0004
   3293898.76246   2616190.38145  24971117.0104   24971127.4434   24971119.832
        38.0004         34.0004
 -25576430.43048 -19885365.02448  20594633.5644   20594639.8994   20594633.048
        53.0004         48.0004
 14  5 21  0 13  0.0000000  0 11G09G10G07G20G08G26G28G02G17G13G04
 -13607606.59649 -10598359.81948  20036785.2794   20036791.5824   20036785.323
        54.0004         50.0004
 -12970195.97347 -10100233.75546  23259134.5384   23259142.7314   23259135.729
        45.0004         40.0004
 -18272838.30248 -14202715.00547  21266639.8504   21266645.0074   21266639.250
        51.0004         47.0004
 -12314604.93946  -9543342.07645  23874018.1054   23874027.7944   23874019.897
        39.0004         34.0004
 -19203403.33849 -14931088.68448  19968257.5824   19968263.9824   19968257.726
        54.0004         49.0004
   -732242.46447   -555307.26746  24063615.5814   24063627.4254   24063615.643
        42.0004         38.0004
  -6783321.79747  -5287569.26346  22940206.0054   22940215.4024   22940206.207
        46.0004         41.0004
  -7371082.73547  -5690450.24446  22945460.9684   22945466.9624   22945460.127
        46.0004         41.0004
 -10824356.05148  -8372590.75447  23142916.3414   23142927.0724   23142915.890
        48.0004         43.0004
   3351698.44746   2661229.18845  24982118.4824   24982124.1834   24982117.855
        38.0004         33.0004
 -25617658.35848 -19917490.63648  20586788.5064   20586794.5414   20586788.316
        53.0004         48.0004
 14  5 21  0 13 30.0000000  0 11G09G10G07G20G08G26G28G02G17G13G04
 -13587909.92049 -10583011.71248  20040533.4434   20040539.6754   20040533.406
        54.0004         50.0004
 -13038178.05347 -10153206.68446  23246198.0574   23246207.0744   23246199.320
        45.0004         40.0004
 -18194180.63548 -14141423.27747  21281607.4704   21281613.3414   21281607.133
        51.0004         46.0004
 -12285182.03946  -9520415.25345  23879621.3834   23879628.7864   23879619.010
        39.0004         34.0004
 -19178813.09049 -14911927.41048  19972936.9064   19972943.4754   19972937.256
        54.0004         49.0004
   -726729.41247   -551011.23346  24064665.8264   24064677.4374   24064665.049
        42.0004         38.0004
  -6841414.97047  -5332836.49946  22929150.4964   22929160.9724   22929151.241
        46.0004         41.0004
  -7448872.47447  -5751065.47746  22930657.8294   22930662.8964   22930658.404
        46.0004         41.0004
 -10783698.39547  -8340909.48247  23150652.8824   23150663.5504   23150652.995
        47.0004         43.0004
   3409241.27346   2706067.83545  24993071.6814   24993077.8344   24993067.431
        38.0004         33.0004
 -25658362.93448 -19949208.44348  20579042.6074   20579048.8814   20579041.716
        53.0004         48.0004
 14  5 21  0 14  0.0000000  0 11G09G10G07G20G08G26G28G02G17G13G04
 -13567622.37149 -10567203.18248  20044393.9364   20044399.8484   20044394.044
        54.0004         50.0004
 -13106282.01947 -10206274.57346  23233239.2064   23233247.6514   23233239.853
        45.0004         40.0004
 -18115121.70448 -14079818.88447  21296651.5744   21296657.4284   21296651.141
        51.0004         46.0004
 -12255433.58246  -9497234.74445  23885280.9004   23885288.1034   23885279.646
        39.0004         35.0004
 -19153570.99748 -14892258.20348  19977740.1574   19977746.5824   19977740.532
        53.0004         49.0004
   -720996.70047   -546544.05346  24065755.9794   24065768.0744   24065755.929
        42.0004         37.0004
  -6899576.92747  -5378157.35047  22918082.6404   22918091.8494   22918083.318
        46.0004         42.0004
  -7526350.70747  -5811437.98646  22915913.4904   22915919.4774   22915914.039
        46.0004         41.0004
 -10743132.93547  -8309300.04547  23158372.4194   23158382.1994   23158372.334
        47.0004         43.0004
   3466528.54346   2750707.36345  25003970.5974   25003976.3794   25003970.183
        38.0004         34.0004
 -25698541.52648 -19980516.38948  20571396.4844   20571403.1904   20571396.515
        53.0004         48.0004
 14  5 21  0 14 30.0000000  0 11G09G10G07G20G08G26G28G02G17G13G04
 -13546748.96449 -10550938.14148  20048366.1144   20048371.9924   20048366.115
        54.0004         50.0004
 -13174509.68847 -10259438.85746  23220256.0534   23220263.4454   23220256.239
        45.0004         41.0004
 -18035668.51148 -14017907.27647  21311771.5404   21311776.3844   21311770.849
        51.0004         46.0004
 -12225362.15646  -9473802.57445  23891002.7614   23891012.5564   23891002.543
        39.0004         34.0004
 -19127681.74948 -14872084.72148  19982666.4814   19982673.2064   19982666.892
        53.0004         49.0004
   -715050.23447   -541910.31346  24066888.5834   24066899.4494   24066887.388
        42.0004         37.0004
  -6957809.03047  -5423532.86047  22907003.0014   22907011.3084   22907002.528
        46.0004         42.0004
  -7603519.56247  -5871569.41847  22901227.9874   22901234.9584   22901229.515
        46.0004         42.0004
 -10702664.50147  -8277766.21647  23166074.0794   23166083.7614   23166073.108
        47.0004         43.0004
   3523556.10946   2795144.48645  25014822.2574   25014825.6384   25014821.465
        38.0004         34.0004
 -25738196.43048 -20011416.27148  20563850.3074   20563856.7604   20563850.407
        53.0004         48.0004
 14  5 21  0 15  0.0000000  0 11G09G10G07G20G08G26G28G02G17G13G04
 -13525285.45949 -10534213.28548  20052450.1154   20052456.4714   20052450.189
        54.0004         49.0004
 -13242853.49947 -10312693.65346  23207249.5944   23207257.2404   23207249.840
        45.0004         41.0004
 -17955817.71148 -13955685.84047  21326966.5324   21326971.8304   21326965.794
        51.0004         46.0004
 -12194961.51946  -9450113.83345  23896785.4934   23896794.4254   23896787.427
        39.0004         34.0004
 -19101140.50148 -14851403.18848  19987717.5854   19987723.6294   19987717.673
        53.0004         49.0004
   -708886.26647   -537107.09646  24068060.7924   24068070.9774   24068060.756
        42.0004         38.0004
  -7016103.42147  -5468956.91947  22895908.4564   22895917.9954   22895909.003
        46.0004         42.0004
  -7680371.25647  -5931453.70847  22886603.6824   22886610.5454   22886605.048
        46.0004         42.0004
 -10662289.39348  -8246305.09847  23173756.9814   23173767.3924   23173756.214
        48.0004         43.0004
   3580329.00746   2839383.21145  25025623.4424   25025632.8114   25025625.257
        38.0004         34.0004
 -25777320.81348 -20041902.75548  20556405.1664   20556411.8694   20556404.566
        53.0004         48.0004
 14  5 21  0 15 30.0000000  0 11G09G10G07G20G08G26G28G02G17G13G04
 -13503236.62349 -10517032.33048  20056646.0664   20056652.1214   20056646.002
        54.0004         50.0004
 -13311315.26547 -10366040.35746  23194221.8564   23194230.1214   23194221.987
        45.0004         41.0004
 -17875575.89548 -13893159.72247  21342236.2434   21342241.9854   21342235.605
        51.0004         46.0004
 -12164234.29746  -9426170.69945  23902633.1924   23902646.0224   23902634.818
        38.0004         34.0004
 -19073952.06648 -14830217.35148  19992891.1664   19992897.2534   19992891.431
        53.0004         49.0004
   -702510.59047   -532138.89946  24069273.9054   24069286.7394   24069273.493
        42.0004         37.0004
  -7074461.09647  -5514430.27947  22884804.2734   22884812.8584   22884803.949
        46.0004         42.0004
  -7756907.35147  -5991092.08347  22872040.7054   22872045.5854   22872040.557
        46.0004         42.0004
 -10622013.34648  -8214921.18847  23181421.5364   23181431.8574   23181420.543
        48.0004         43.0004
   3636843.18146   2883420.27745  25036378.1314   25036383.8794   25036379.672
        38.0004         33.0004
 -25815917.14448 -20071977.77348  20549060.5304   20549067.2244   20549060.637
        53.0004         48.0004
 14  5 21  0 16  0.0000000  0 11G09G10G07G20G08G26G28G02G17G13G04
 -13480603.77249 -10499396.29848  20060953.2364   20060958.7924   20060953.184
        54.0004         50.0004
 -13379893.48147 -10419477.80146  23181171.9804   23181179.1744   23181172.435
        45.0004         41.0004
 -17794946.01648 -13830331.21247  21357579.3154   21357585.0364   21357579.047
        51.0004         46.0004
 -12133180.24746  -9401972.80745  23908544.0464   23908554.3114   23908543.678
        38.0004         34.0004
 -19046117.79048 -14808528.26448  19998187.6264   19998194.3314   19998188.032
        53.0004         49.0004
   -695925.41247   -527007.45946  24070525.7904   24070537.7094   24070526.557
        42.0004         37.0004
  -7132879.91447  -5559951.30547  22873686.4484   22873696.2474   22873686.901
        46.0004         42.0004
  -7833126.37447  -6050483.38847  22857536.0704   22857541.2004   22857536.156
        46.0004         42.0004
 -10581838.23648  -8183615.91947  23189065.6294   23189076.4344   23189065.818
        48.0004         43.0004
   3693097.87046   2927255.16545  25047084.9894   25047093.0224   25047084.464
        38.0004         34.0004
 -25853984.44948 -20101640.56548  20541816.3774   20541822.8164   20541816.161
        53.0004         48.0004
 14  5 21  0 16 30.0000000  0 11G09G10G07G20G08G26G28G02G17G13G04
 -13457386.75449 -10481305.07148  20065370.6824   20065377.0704   20065370.873
        54.0004         50.0004
 -13448584.87747 -10473003.42846  23168099.8754   23168107.1554   23168101.071
        45.0004         41.0004
 -17713929.82248 -13767201.67647  21372996.0674   21373001.4384   21372995.648
        51.0004         46.0004
 -12101797.07646  -9377518.48145  23914518.6884   23914525.9844   23914515.824
        38.0004         34.0004
 -19017637.46848 -14786335.76448  20003607.3744   20003613.6404   20003607.618
        53.0004         49.0004
   -689131.67747   -521713.52646  24071818.6534   24071830.8384   24071818.596
        42.0004         38.0004
  -7191356.17747  -5605517.08547  22862557.9044   22862567.3554   22862559.091
        46.0004         42.0004
  -7909024.58147  -6109624.71947  22843093.1934   22843098.0344   22843093.771
        46.0004         42.0004
 -10541764.53147  -8152389.66447  23196692.1994   23196702.5254   23196691.489
        47.0004         43.0004
  -2552585.95546  -1939511.40045  25057739.2834   25057744.5844   25057738.710
        38.0004         34.0004
 -25891519.97448 -20130888.97748  20534673.7324   20534680.0704   20534673.541
        53.0004         48.0004
 14  5 21  0 17  0.0000000  0 11G09G10G07G20G08G26G28G02G17G13G04
 -13433588.70449 -10462761.09348  20069899.5464   20069905.3534   20069899.647
        54.0004         49.0004
 -13517389.12647 -10526616.99546  23155007.7254   23155015.1494   23155007.961
        45.0004         41.0004
 -17632531.71848 -13703774.55047  21388485.6974   21388490.8954   21388485.386
        51.0004         46.0004
 -12070086.02546  -9352808.69045  23920550.3004   23920563.6124   23920550.318
        38.0004         33.0004
 -18988513.94548 -14763642.06748  20009149.6354   20009155.6074   20009149.630
        53.0004         49.0004
   -682132.90047   -516259.79346  24073152.0974   24073162.7364   24073150.884
        42.0004         38.0004
  -7249889.01147  -5651126.94847  22851420.1544   22851428.1004   22851420.424
        46.0004         42.0004
  -7984601.54847  -6168515.72647  22828710.8374   22828717.3884   22828711.380
        46.0004         42.0004
 -10501795.74647  -8121245.16147  23204297.3964   23204307.9604   23204297.047
        47.0004         43.0004
  -2496850.38446  -1896081.03645  25068344.8814   25068352.9274   25068346.337
        38.0004         33.0004
 -25928524.48548 -20159723.61748  20527632.3434   20527638.7934   20527631.740
        53.0004         48.0004
 14  5 21  0 17 30.0000000  0 11G09G10G07G20G08G26G28G02G17G13G04
 -13409207.78649 -10443762.93348  20074539.0394   20074545.2504   20074538.897
        54.0004         50.0004
 -13586301.40847 -10580314.75146  23141892.9114   23141900.5244   23141893.940
        45.0004         41.0004
 -17550751.29848 -13640049.51447  21404048.2264   21404053.1914   21404047.392
        51.0004         46.0004
 -12038043.29946  -9327840.42445  23926648.9314   23926658.1514   23926647.681
        38.0004         34.0004
 -18958745.28048 -14740445.65948  20014814.0434   20014820.1324   20014814.300
        53.0004         49.0004
   -674928.23747   -510645.64046  24074522.3444   24074533.1154   24074521.725
        42.0004         38.0004
  -7308472.95847  -5696776.63447  22840271.7724   22840279.9494   22840272.520
        46.0004         42.0004
  -8059852.47947  -6227152.68847  22814390.6794   22814395.9444   22814390.415
        46.0004         42.0004
 -10461930.65847  -8090181.47447  23211882.6054   23211894.2594   23211883.233
        47.0004         43.0004
  -2441372.88646  -1852851.78045  25078905.6104   25078908.7874   25078902.912
        38.0004         33.0004
 -25964993.56448 -20188141.03148  20520692.1874   20520698.4164   20520692.075
        53.0004         48.0004
 14  5 21  0 18  0.0000000  0 11G09G10G07G20G08G26G28G02G17G13G04
 -13384248.05249 -10424313.74848  20079288.6864   20079294.3044   20079288.795
        54.0004         50.0004
 -13655322.19947 -10634097.05946  23128758.2774   23128767.3994   23128759.166
        46.0004         41.0004
 -17468594.10248 -13576030.88547  21419682.0634   21419687.8404   21419681.574
        51.0004         46.0004
 -12005670.65746  -9302615.11845  23932809.4624   23932818.4384   23932807.470
        38.0004         34.0004
 -18928335.36448 -14716749.57548  20020600.7614   20020606.8914   20020601.255
        53.0004         49.0004
   -667522.42747   -504874.75146  24075931.8874   24075942.6034   24075931.684
        43.0004         38.0004
  -7367108.39847  -5742466.44947  22829113.8914   22829123.2594   22829113.992
        46.0004         42.0004
  -8134777.96347  -6285536.05747  22800132.6864   22800138.5494   22800133.019
        46.0004         42.0004
 -10422173.56747  -8059201.93447  23219449.2984   23219459.3524   23219448.566
        47.0004         43.0004
  -2386156.33546  -1809825.82545  25089412.3504   25089418.3924   25089410.782
        38.0004         33.0004
 -26000928.89948 -20216142.54948  20513854.2294   20513860.0014   20513853.380
        53.0004         48.0004
 14  5 21  0 18 30.0000000  0 11G09G10G07G20G08G26G28G02G17G13G04
 -13358710.93649 -10404414.65748  20084148.4714   20084154.2834   20084148.285
        54.0004         50.0004
 -13724449.47547 -10687962.33746  23115604.5684   23115612.2904   23115605.382
        46.0004         41.0004
 -17386062.93648 -13511720.85047  21435386.6424   21435392.3234   21435386.654
        51.0004         46.0004
 -11972967.24346  -9277132.00645  23939033.8944   23939045.7674   23939032.983
        38.0004         34.0004
 -18897285.25648 -14692554.64248  20026509.6904   20026515.6544   20026509.801
        53.0004         49.0004
   -659917.41747   -498948.65746  24077379.0274   24077389.6884   24077377.812
        43.0004         38.0004
  -7425792.45247  -5788194.14647  22817946.5984   22817955.7684   22817946.993
        46.0004         42.0004
  -8209375.84547  -6343664.14147  22785937.3764   22785942.6904   22785938.205
        47.0004         42.0004
 -10382525.85447  -8028307.62247  23226993.6844   23227004.0764   23226993.620
        47.0004         43.0004
  -2331201.08646  -1767003.52445  25099868.4834   25099874.3374   25099868.310
        38.0004         33.0004
 -26036329.20148 -20243727.15848  20507117.0754   20507123.7144   20507117.170
        53.0004         48.0004
 14  5 21  0 19  0.0000000  0 11G09G10G07G20G08G26G28G02G17G13G04
 -13332598.88249 -10384067.56048  20089117.1384   20089122.8184   20089117.074
        54.0004         50.0004
 -13793682.21447 -10741909.80146  23102430.5354   23102437.5144   23102430.838
        46.0004         41.0004
 -17303161.59948 -13447122.37347  21451162.9894   21451167.7954   21451162.292
        51.0004         46.0004
 -11939933.63246  -9251391.61045  23945317.8534   23945329.2834   23945317.933
        38.0004         33.0004
 -18865597.24948 -14667862.64348  20032539.4604   20032546.0434   20032539.630
        53.0004         49.0004
   -652116.29747   -492869.73546  24078862.7934   24078873.2474   24078863.069
        43.0004         38.0004
  -7484524.00147  -5833958.83747  22806770.3954   22806779.8654   22806770.384
        46.0004         42.0004
  -8283645.08147  -6401536.14947  22771804.4314   22771809.7064   22771804.677
        47.0004         42.0004
 -10342990.48347  -7997500.84647  23234517.4474   23234527.6784   23234516.723
        47.0004         43.0004
  -2276508.72846  -1724386.07145  25110277.0904   25110282.1044   25110276.638
        38.0004         33.0004
 -26071194.50748 -20270894.88948  20500482.7644   20500489.1804   20500482.301
        53.0004         48.0004
 14  5 21  0 19 30.0000000  0 11G09G10G07G20G08G26G28G02G17G13G04
 -13305909.58549 -10363270.66348  20094196.1654   20094201.8004   20094196.083
        54.0004         50.0004
 -13863015.25447 -10795935.42646  23089237.4654   23089244.8864   23089236.687
        46.0004         41.0004
 -17219889.48648 -13382234.98347  21467009.1794   21467013.7784   21467008.114
        51.0004         46.0004
 -11906565.61946  -9225390.69445  23951667.1684   23951678.3834   23951668.692
        38.0004         34.0004
 -18833269.21448 -14642671.92348  20038691.4914   20038697.3414   20038691.658
        53.0004         49.0004
   -644117.85347   -486637.07546  24080385.0864   24080396.1674   24080383.794
        43.0004         38.0004
  -7543296.87847  -5879755.74147  22795585.1484   22795593.9524   22795586.029
        47.0004         42.0004
  -8357580.62347  -6459148.13547  22757735.8154   22757740.6114   22757735.360
        47.0004         42.0004
 -10303565.57347  -7966780.15247  23242020.7514   23242030.1614   23242019.293
        47.0004         43.0004
  -2222075.99846  -1681970.87645  25120630.1484   25120638.7534   25120633.821
        38.0004         33.0004
 -26105520.42848 -20297642.32248  20493950.5184   20493957.3404   20493950.223
        53.0004         48.0004
 14  5 21  0 20  0.0000000  0 11G09G10G07G20G08G26G28G02G17G13G04
 -13278649.16849 -10342028.73548  20099383.4494   20099389.3724   20099383.254
        54.0004         50.0004
 -13932451.17847 -10850041.21646  23076023.6534   23076029.0344   23076023.355
        46.0004         41.0004
 -17136254.17848 -13317064.58147  21482923.7004   21482929.0904   21482923.350
        51.0004         46.0004
 -11872867.42346  -9199132.48745  23958078.6674   23958090.8164   23958081.152
        39.0004         34.0004
 -18800307.08448 -14616987.09948  20044963.7054   20044969.9374   20044963.692
        53.0004         49.0004
   -635928.79247   -480255.85646  24081943.0234   24081954.0014   24081943.060
        43.0004         38.0004
  -7602113.47047  -5925586.71647  22784393.8564   22784402.3284   22784393.896
        47.0004         42.0004
  -8431184.86547  -6516501.96547  22743728.0704   22743734.2534   22743729.242
        47.0004         42.0004
 -10264257.99647  -7936150.87647  23249499.3544   23249510.6044   23249499.414
        47.0004         43.0004
  -2167907.75646  -1639761.82345  25130944.2224   25130949.0244   25130941.347
        38.0004         34.0004
 -26139310.45548 -20323972.17848  20487520.8124   20487527.0014   20487520.609
        53.0004         48.0004
 14  5 21  0 20 30.0000000  0 11G09G10G07G20G08G26G28G02G17G13G04
 -13250812.78749 -10320338.00948  20104680.5764   20104686.2134   20104680.607
        54.0004         50.0004
 -14001981.22347 -10904220.34646  23062791.6134   23062799.8584   23062791.988
        46.0004         41.0004
 -17052252.19248 -13251608.45647  21498909.0144   21498914.3404   21498908.392
        50.0004         46.0004
 -11838831.89046  -9172611.38345  23964558.3904   23964568.6534   23964558.058
        39.0004         34.0004
 -18766705.60348 -14590804.08448  20051357.7924   20051364.0854   20051358.173
        53.0004         49.0004
   -627544.66447   -473722.64846  24083537.1364   24083550.2904   24083537.623
        43.0004         38.0004
  -7660964.56447  -5971444.57547  22773194.8584   22773203.0404   22773194.824
        47.0004         42.0004
  -8504449.43847  -6573591.11947  22729786.8174   22729791.4784   22729786.144
        47.0004         42.0004
 -10225062.41347  -7905608.87447  23256958.5134   23256969.0584   23256958.149
        47.0004         43.0004
  -2113998.02646  -1597754.19945  25141199.6364   25141206.7664   25141201.355
        38.0004         34.0004
 -26172557.04448 -20349878.57448  20481193.9044   20481200.4814   20481193.463
        53.0004         48.0004
 14  5 21  0 21  0.0000000  0 11G09G10G07G20G08G26G28G02G17G13G04
 -13222409.12549 -10298205.24048  20110085.2644   20110091.4554   20110085.228
        54.0004         50.0004
 -14071611.04347 -10958477.21646  23049541.6484   23049549.8514   23049542.455
        46.0004         41.0004
 -16967893.64248 -13185874.48647  21514961.8134   21514967.3924   21514961.295
        50.0004         46.0004
 -11804465.45846  -9145832.47745  23971099.1944   23971109.7784   23971097.466
        39.0004         35.0004
 -18732473.59348 -14564129.74348  20057871.9724   20057877.9254   20057872.099
        53.0004         49.0004
   -618974.96347   -467044.84546  24085169.5494   24085179.6364   24085169.503
        43.0004         38.0004
  -7719854.90747  -6017333.01247  22761987.7794   22761996.0314   22761988.457
        47.0004         42.0004
  -8577379.86547  -6630419.90147  22715908.1044   22715913.1544   22715908.423
        47.0004         42.0004
 -10185987.68347  -7875161.04247  23264394.0074   23264404.6524   23264393.853
        47.0004         43.0004
  -2060354.31446  -1555953.86545  25151409.1474   25151415.3964   25151408.497
        38.0004         33.0004
 -26205266.56948 -20375366.47648  20474969.6194   20474976.0434   20474969.516
        53.0004         48.0004
 14  5 21  0 21 30.0000000  0 11G09G10G07G20G08G26G28G02G17G13G04
 -13193435.77549 -10275628.56048  20115598.9144   20115604.8024   20115599.038
        54.0004         50.0004
 -14141334.62547 -11012807.16146  23036273.6194   23036282.2574   23036274.205
        46.0004         41.0004
 -16883177.30848 -13119861.72547  21531082.3054   21531087.8594   21531082.181
        50.0004         46.0004
 -11769763.75346  -9118792.27745  23977704.0384   23977711.2964   23977701.052
        40.0004         35.0004
 -18697608.63848 -14536962.20348  20064506.5454   20064512.5264   20064506.954
        53.0004         49.0004
   -610217.87647   -460221.02146  24086834.4264   24086845.7704   24086834.458
        43.0004         38.0004
  -7778778.15947  -6063247.10247  22750774.2724   22750784.7364   22750775.428
        47.0004         42.0004
  -8649970.09247  -6686983.58547  22702094.5714   22702099.5524   22702094.885
        47.0004         42.0004
