     2.11           OBSERVATION DATA    G (GPS)             RINEX VERSION / TYPE
teqc  2008Oct2      gpsops              20090111 00:09:22UTCPGM / RUN BY / DATE
    30.0000                                                 INTERVAL
     1     1                                                WAVELENGTH FACT L1/2
     7    L1    L2    P1    P2    C1    S1    S2            # / TYPES OF OBSERV
Linux 2.4.20-8|Pentium IV|gcc -static|Linux|486/DX+         COMMENT
     2.10           OBSERVATION DATA    GPS                 COMMENT
soc2rnx ver 1.20    gpsops              11-Jan-2009 00:09:13COMMENT
S1, if present, is the SNR for the C/A data stream on L1.   COMMENT
 SNR is mapped to RINEX snr flag value [1,4-9]              COMMENT
    SNR:   >316  >100  >31.6  >10  >3.2    >0 bad=0         COMMENT
L1 & L2:      9     8     7     6     5     4     1         COMMENT
                                                            COMMENT
This data is provided as a public service by NASA/JPL.      COMMENT
No warranty is expressed or implied regarding suitability   COMMENT
for use.  For further information, contact:                 COMMENT
Dave Stowers, NASA/JPL m/s 238-600                          COMMENT
4800 Oak Grove Drive, Pasadena CA 91109 USA                 COMMENT
                                                            COMMENT
Forced Modulo Decimation to 30 seconds                      COMMENT
  2009     1    10     0     0    0.0000000     GPS         TIME OF FIRST OBS
GGN                 JPL                                     OBSERVER / AGENCY
CR519992104         ASH701945B_M    SCIT                    ANT # / TYPE
   -33801.4662 -6377516.5323   -82154.3508                  APPROX POSITION XYZ
        0.0083        0.0000        0.0000                  ANTENNA: DELTA H/E/N
ZR220013847         ASHTECH UZ-12       CQ00                REC # / TYPE / VERS
GLPS                                                        MARKER NAME
42005M002                                                   MARKER NUMBER
                                                            END OF HEADER
 09  1 10  0  0  0.0000000  0 11G18G24G14G22G30G12G29G 5G 9G31G21
 124644691.65247  97125713.37547  23719111.9374   23719111.9964   23719110.6404
        46.000          39.000
 112255894.25247  87472099.56647  21361605.6514   21361610.4014   21361606.3044
        53.000          47.000
 115470301.50947  89976854.41147  21973270.4014   21973274.3104   21973270.9474
        51.000          44.000
 127973130.37847  99719316.02447  24352481.6444   24352482.7904   24352481.7284
        44.000          38.000
 123683853.98247  96377014.05847  23536264.7674   23536268.6154   23536264.2854
        47.000          41.000
 128130957.12447  99842283.59147  24382525.8014   24382530.5994   24382525.8094
        43.000          38.000
 113688417.20347  88588366.80747  21634194.5704   21634198.2224   21634194.2384
        52.000          47.000
 125242183.69247  97591284.51947  23832814.1484   23832819.6764   23832815.1424
        45.000          39.000
 113991777.53847  88824750.55247  21691923.1474   21691927.0134   21691922.9404
        52.000          46.000
 129455160.50247 100874135.06747  24634510.5364   24634514.6744   24634509.3124
        39.000          36.000
 110121174.62247  85808697.01547  20955368.6184   20955371.3624   20955368.9494
        54.000          47.000
 09  1 10  0  0 30.0000000  0 11G18G24G14G22G30G12G29G 5G 9G31G21
 124633693.12747  97117143.12747  23717017.5884   23717020.1084   23717018.0464
        46.000          39.000
 112263704.44747  87478185.45547  21363092.3244   21363096.8364   21363092.4674
        53.000          47.000
 115454583.44147  89964606.62147  21970279.4184   21970283.0774   21970279.4294
        50.000          44.000
 127963437.87547  99711763.49247  24350637.1094   24350638.7564   24350637.1354
        44.000          38.000
 123670695.94347  96366761.10747  23533760.5664   23533765.5204   23533760.5904
        47.000          41.000
 128134482.74047  99845030.89847  24383196.7404   24383201.9524   24383196.1444
        43.000          38.000
 113757361.46547  88642089.60347  21647314.0744   21647317.8704   21647313.8504
        52.000          47.000
 125230968.15747  97582545.18547  23830680.7534   23830685.9694   23830681.1524
        45.000          39.000
 114029940.82947  88854488.21647  21699185.2584   21699188.9024   21699185.1854
        52.000          45.000
 129352389.98547 100794054.24247  24614954.0254   24614957.4794   24614953.0384
        41.000          36.000
 110051906.75247  85754722.06847  20942187.5904   20942189.6454   20942188.0154
        54.000          48.000
 09  1 10  0  1  0.0000000  0 11G18G24G14G22G30G12G29G 5G 9G31G21
 124622471.55547  97108399.07747  23714882.4534   23714885.0194   23714882.9224
        46.000          39.000
 112271969.12147  87484625.47647  21364664.9054   21364669.4304   21364664.9024
        53.000          47.000
 115439330.02847  89952720.90747  21967376.9844   21967380.5094   21967377.3634
        51.000          44.000
 127953557.00147  99704064.15647  24348756.3664   24348758.3904   24348756.6734
        44.000          38.000
 123657341.22347  96356354.88547  23531219.2864   23531224.2784   23531218.5124
        47.000          41.000
 128137913.84847  99847704.55247  24383849.9774   24383854.1994   24383849.3974
        43.000          38.000
 113826494.88247  88695959.78947  21660469.6934   21660473.4524   21660469.3144
        51.000          46.000
 125219651.40447  97573726.98147  23828527.5724   23828532.3694   23828527.9714
        45.000          39.000
 114068632.29047  88884637.44747  21706547.9774   21706551.4614   21706548.1424
        52.000          45.000
 129249548.97547 100713918.44947  24595383.7774   24595387.8234   24595383.5334
        43.000          37.000
 109982963.05347  85700999.71647  20929068.0394   20929070.0894   20929068.3544
        54.000          48.000
 09  1 10  0  1 30.0000000  0 11G18G24G14G22G30G12G29G 5G 9G31G21
 124611028.93047  97099482.79147  23712704.5524   23712707.2034   23712705.2234
        47.000          39.000
 112280690.81147  87491421.61847  21366324.5374   21366329.2034   21366324.6994
        53.000          47.000
 115424542.54047  89941198.24047  21964562.6004   21964566.4094   21964562.5414
        50.000          44.000
 127943488.64547  99696218.77447  24346840.7154   24346842.1164   24346840.8474
        44.000          38.000
 123643792.71947  96345797.65347  23528641.1714   23528645.5424   23528640.8634
        47.000          41.000
 128141253.81747  99850307.21847  24384485.0554   24384489.2304   24384485.2264
        43.000          38.000
 113895815.90847  88749976.16447  21673661.0534   21673664.7834   21673660.8034
        52.000          46.000
 125208236.95847  97564832.65647  23826354.7554   23826360.3794   23826355.5024
        45.000          39.000
 114107853.32347  88915199.32247  21714011.5224   21714015.2794   21714011.5404
        52.000          46.000
 129146641.62047 100633730.93747  24575802.0964   24575805.5224   24575801.0164
        43.000          37.000
 109914348.82547  85647534.10147  20916011.0544   20916013.2534   20916011.4754
        54.000          48.000
 09  1 10  0  2  0.0000000  0 11G18G24G14G22G30G12G29G 5G 9G31G21
 124599362.12447  97090391.80847  23710484.7414   23710486.7974   23710484.8754
        46.000          39.000
 112289867.29747  87498572.14047  21368070.9244   21368075.4464   21368071.0574
        53.000          47.000
 115410216.75647  89930035.35247  21961836.7514   21961840.1744   21961837.2364
        50.000          44.000
 127933228.76247  99688224.13447  24344888.0684   24344889.6574   24344888.2694
        44.000          39.000
 123630047.93347  96335087.47947  23526025.5904   23526029.7124   23526025.0834
        47.000          41.000
 128144501.32147  99852837.79947  24385103.2214   24385107.8554   24385103.1724
        44.000          38.000
 113965319.03347  88804134.43047  21686887.1594   21686890.8974   21686887.1644
        51.000          46.000
 125196723.37147  97555861.08147  23824163.4364   23824169.2444   23824163.8054
        45.000          39.000
 114147599.99847  88946170.79447  21721575.1304   21721578.6674   21721575.1624
        52.000          46.000
 129043667.08547 100553491.09447  24556206.3324   24556209.8944   24556205.9904
        42.000          37.000
 109846063.64947  85594324.88547  20903017.0134   20903019.0154   20903017.3304
        54.000          48.000
 09  1 10  0  2 30.0000000  0 11G18G24G14G22G30G12G29G 5G 9G31G21
 124587474.38347  97081128.64047  23708222.5544   23708224.7834   23708223.1264
        46.000          39.000
 112299502.52047  87506080.11947  21369904.1794   21369908.8874   21369904.3254
        53.000          47.000
 115396355.15147  89919234.15147  21959198.6944   21959202.3034   21959198.7394
        50.000          44.000
 127922779.61347  99680082.00047  24342899.7664   24342901.8244   24342900.0404
        44.000          38.000
 123616110.76747  96324227.40547  23523373.3674   23523377.7694   23523373.0284
        47.000          41.000
 128147661.03547  99855299.97647  24385704.6984   24385708.4994   24385704.7044
        44.000          38.000
 114035004.74647  88858434.97647  21700148.1784   21700151.7504   21700147.8204
        51.000          46.000
 125185115.29247  97546815.89247  23821955.0424   23821960.3294   23821955.6964
        45.000          39.000
 114187875.25147  88977554.14047  21729239.2834   21729242.9284   21729239.2014
        52.000          46.000
 128940630.80447 100473203.13947  24536599.0834   24536603.0754   24536599.2754
        42.000          37.000
 109778113.87547  85541377.02547  20890086.5594   20890088.6264   20890086.9354
        54.000          48.000
 09  1 10  0  3  0.0000000  0 12G18G 6G24G14G22G30G12G29G 5G 9G31G21
 124575356.43647  97071686.10947  23705916.3994   23705918.6824   23705917.2304
        47.000          39.000
 142632770.22957  93350194.18357  25239188.6285   25239194.4445   25239189.5485
        41.000          36.000
 112309588.00447  87513938.94847  21371823.6254   21371828.1054   21371823.7134
        53.000          47.000
 115382947.52347  89908786.70347  21956647.2954   21956650.9594   21956647.6344
        50.000          44.000
 127912130.99847  99671784.45247  24340872.8084   24340874.9514   24340872.9444
        44.000          38.000
 123601973.22847  96313211.19847  23520682.6924   23520687.4924   23520682.4324
        47.000          41.000
 128150725.04847  99857687.58547  24386287.4274   24386291.9284   24386287.2284
        43.000          38.000
 114104860.86747  88912868.30847  21713441.3374   21713444.8374   21713441.1704
        52.000          46.000
 125173405.09747  97537691.14047  23819726.9084   23819732.0914   23819727.4454
        45.000          39.000
 114228669.22047  89009341.68247  21737002.1254   21737005.6474   21737002.1534
        52.000          45.000
 128837525.88947 100392861.64647  24516978.2774   24516982.7604   24516979.0724
        43.000          37.000
 109710493.42247  85488685.77747  20877218.6854   20877220.8234   20877219.0734
        54.000          48.000
 09  1 10  0  3 30.0000000  0 12G18G 6G24G14G22G30G12G29G 5G 9G31G21
 124563026.24147  97062078.19547  23703570.3244   23703572.1324   23703570.7534
        47.000          39.000
 142566567.21347  93298607.33247  25226591.4644   25226596.6834   25226591.4094
        41.000          35.000
 112320141.99347  87522162.85347  21373831.9544   21373836.3824   21373831.9554
        53.000          47.000
 115370010.18547  89898705.71347  21954185.2444   21954188.9154   21954185.4784
        50.000          44.000
 127901299.44747  99663344.33147  24338811.4674   24338813.7814   24338811.9064
        44.000          38.000
 123587653.47147  96302053.01447  23517957.7184   23517962.4824   23517957.1934
        46.000          41.000
 128153712.69747  99860015.70147  24386856.1504   24386860.6474   24386856.1714
        43.000          38.000
 114174902.11047  88967445.89747  21726769.7924   21726773.1704   21726769.4024
        51.000          46.000
 125161611.91647  97528501.73947  23817482.6304   23817488.1954   23817483.0274
        44.000          39.000
 114269998.95547  89041546.70747  21744867.0394   21744870.4194   21744867.0874
        52.000          45.000
 128734372.04347 100312482.02847  24497349.0434   24497353.1494   24497348.9164
        41.000          37.000
 109643222.66947  85436267.01847  20864417.5264   20864419.6544   20864417.8624
        54.000          48.000
 09  1 10  0  4  0.0000000  0 12G18G 6G24G14G22G30G12G29G 5G 9G31G21
 124550471.85047  97052295.58347  23701181.5404   23701183.4644   23701181.5194
        47.000          39.000
 142500639.72847  93247235.20847  25214045.4094   25214051.3894   25214045.5344
        41.000          36.000
 112331153.40647  87530743.19047  21375927.3634   21375931.6364   21375927.4574
        53.000          47.000
 115357530.60847  89888981.42347  21951810.5924   21951813.9334   21951810.6684
        50.000          44.000
 127890272.22647  99654751.74547  24336713.3014   24336715.4124   24336713.2004
        44.000          38.000
 123573140.45747  96290744.21947  23515195.9154   23515200.4984   23515195.3864
        47.000          40.000
 128156613.50247  99862276.12947  24387407.7654   24387412.2034   24387407.6054
        43.000          38.000
 114245113.66747  89022156.19647  21740130.2604   21740134.1834   21740129.7484
        52.000          46.000
 125149725.55147  97519239.71747  23815220.1414   23815225.9104   23815220.2334
        44.000          39.000
 114311852.02647  89074159.52347  21752831.2184   21752834.5374   21752831.3894
        52.000          45.000
 128631160.05747 100232057.13247  24477708.0074   24477712.7004   24477707.8464
        42.000          37.000
 109576292.90047  85384113.96447  20851681.1864   20851683.3314   20851681.5774
        54.000          48.000
 09  1 10  0  4 30.0000000  0 12G18G 6G24G14G22G30G12G29G 5G 9G31G21
 124537696.05347  97042340.43247  23698749.9724   23698751.7524   23698750.5824
        47.000          39.000
 142434991.22147  93196080.47147  25201553.7664   25201558.1474   25201553.5024
        41.000          36.000
 112342625.88647  87539682.79047  21378110.4204   21378114.9764   21378110.6374
        53.000          47.000
 115345511.12947  89879615.64047  21949523.2034   21949526.7264   21949523.4704
        50.000          44.000
 127879050.96247  99646007.97847  24334578.0044   24334579.0184   24334578.1424
        45.000          38.000
 123558437.81747  96279287.66347  23512398.5934   23512402.7504   23512398.0674
        47.000          40.000
 128159431.69747  99864472.19647  24387943.9434   24387948.1704   24387943.9384
        43.000          38.000
 114315495.86147  89076999.44947  21753523.7154   21753527.5234   21753523.4954
        52.000          46.000
 125137750.43947  97509908.54647  23812941.7264   23812947.1344   23812942.2124
        45.000          39.000
 114354230.59447  89107181.81147  21760895.2404   21760898.8224   21760895.4734
        51.000          45.000
 128527894.91547 100151590.77447  24458057.5714   24458062.1334   24458056.6224
        42.000          38.000
 109509710.05847  85332231.24247  20839010.7944   20839013.0724   20839011.1604
        54.000          48.000
 09  1 10  0  5  0.0000000  0 12G18G 6G24G14G22G30G12G29G 5G 9G31G21
 124524698.73147  97032212.67847  23696276.9914   23696278.0574   23696277.3944
        47.000          39.000
 142369622.27547  93145143.58647  25189114.2334   25189119.9974   25189114.2454
        42.000          36.000
 112354559.61147  87548981.80847  21380381.3334   21380385.7284   21380381.4154
        53.000          47.000
 115333949.84247  89870606.90247  21947323.3114   21947326.8374   21947323.7144
        50.000          44.000
 127867634.80247  99637112.33547  24332405.7004   24332407.1324   24332405.8074
        44.000          38.000
 123543546.43347  96267684.05747  23509564.5104   23509568.7924   23509564.3004
        47.000          40.000
 128162168.87147  99866605.12347  24388464.8944   24388469.6174   24388464.5234
        42.000          37.000
 114386045.39747  89131973.10947  21766948.9824   21766952.5864   21766948.7934
        52.000          46.000
 125125687.81147  97500509.16447  23810646.0694   23810651.1934   23810646.8704
        45.000          39.000
 114397133.77747  89140612.89447  21769059.8314   21769063.0194   21769060.0514
        51.000          45.000
 128424578.48847 100071084.49447  24438396.7674   24438401.3514   24438395.9424
        42.000          38.000
 109443476.80047  85280620.92247  20826407.1824   20826409.2034   20826407.5544
        54.000          48.000
 09  1 10  0  5 30.0000000  0 12G18G 6G24G14G22G30G12G29G 5G 9G31G21
 124511480.85447  97021913.04747  23693761.6864   23693763.1284   23693762.0874
        47.000          39.000
 142304534.47147  93094425.78547  25176727.8534   25176733.5704   25176728.4554
        41.000          36.000
 112366956.19847  87558641.49747  21382740.1444   21382744.6084   21382740.2424
        53.000          47.000
 115322846.38747  89861954.90447  21945210.1534   21945213.9514   21945210.2134
        50.000          45.000
 127856023.52347  99628064.61947  24330195.5664   24330197.4484   24330195.6414
        44.000          38.000
 123528467.74647  96255934.48547  23506694.9284   23506699.1374   23506694.7744
        47.000          40.000
 128164827.18647  99868676.62047  24388970.1074   24388975.4824   24388970.0864
        42.000          38.000
 114456760.22947  89187075.56947  21780405.2674   21780409.1744   21780405.0684
        51.000          46.000
 125113540.06047  97491043.43247  23808334.3304   23808339.5964   23808334.8774
        44.000          39.000
 114440561.62347  89174452.79747  21777323.4244   21777327.3784   21777323.6814
        51.000          45.000
 128321214.08147  99990540.80047  24418727.1744   24418732.4274   24418726.8614
        42.000          38.000
 109377597.06947  85229286.08247  20813870.6074   20813872.7304   20813870.9704
        54.000          48.000
 09  1 10  0  6  0.0000000  0 12G18G 6G24G14G22G30G12G29G 5G 9G31G21
 124498040.26747  97011439.90347  23691203.6814   23691205.8304   23691204.3914
        47.000          39.000
 142239726.45847  93043926.03147  25164395.9884   25164401.5894   25164395.8214
        40.000          36.000
 112379814.02147  87568660.59547  21385186.9714   21385191.3864   21385187.0674
        53.000          47.000
 115312197.66147  89853657.24147  21943184.2034   21943187.4614   21943184.0964
        50.000          45.000
 127844213.60547  99618862.14447  24327948.6824   24327949.7734   24327948.9944
        44.000          38.000
 123513200.68147  96244038.14047  23503790.2684   23503793.7994   23503789.7184
        47.000          40.000
 128167406.53647  99870686.55447  24389461.8474   24389466.0304   24389461.3184
        42.000          38.000
 114527635.27747  89242302.87547  21793892.3024   21793896.2884   21793892.0344
        51.000          46.000
 125101306.69647  97481511.02147  23806006.1184   23806011.7024   23806006.6354
        44.000          39.000
 114484511.42947  89208699.43047  21785686.8374   21785690.3094   21785687.1114
        51.000          45.000
 128217801.83047  99909959.82447  24399048.5824   24399053.2394   24399047.8644
        43.000          38.000
 109312071.57247  85178227.26847  20801401.6494   20801403.6414   20801402.0314
        55.000          48.000
 09  1 10  0  6 30.0000000  0 12G18G 6G24G14G22G30G12G29G 5G 9G31G21
 124484380.63747  97000796.05447  23688604.0444   23688606.6574   23688604.8024
        46.000          39.000
 142175202.44247  92993647.54747  25152116.7204   25152122.8564   25152117.7214
        40.000          36.000
 112393137.14047  87579042.26047  21387722.4044   21387726.8164   21387722.5984
        53.000          47.000
 115302006.28547  89845715.95347  21941244.4924   21941248.0524   21941244.5714
        50.000          44.000
 127832207.83647  99609507.07147  24325664.4704   24325665.8054   24325664.4714
        44.000          38.000
 123497749.19747  96231998.08747  23500849.7524   23500853.5074   23500849.5164
        47.000          40.000
 128169911.43447  99872638.49947  24389938.1124   24389942.6324   24389937.6964
        42.000          37.000
 114598671.25247  89297655.57047  21807410.1774   21807414.0704   21807409.9834
        51.000          46.000
 125088992.74547  97471915.80647  23803663.3584   23803668.1714   23803664.0244
        44.000          39.000
 114528985.80747  89243354.81847  21794150.4424   21794153.4114   21794150.6324
        52.000          45.000
 128114347.40147  99829345.99847  24379362.1514   24379366.6294   24379361.4604
        42.000          38.000
 109246906.54847  85127449.34047  20789001.1964   20789003.2304   20789001.6334
        54.000          48.000
 09  1 10  0  7  0.0000000  0 12G18G 6G24G14G22G30G12G29G 5G 9G31G21
 124470499.23347  96989979.40047  23685962.5234   23685964.7244   23685963.0144
        46.000          39.000
 142110959.63747  92943588.22147  25139892.4854   25139898.3364   25139892.6324
        40.000          35.000
 112406922.92447  87589784.44347  21390345.8014   21390350.1154   21390346.0074
        53.000          47.000
 115292267.56447  89838127.39147  21939391.4994   21939394.5934   21939391.6974
        50.000          44.000
 127820002.07547  99599996.12547  24323341.8634   24323342.8214   24323341.7354
        45.000          38.000
 123482111.09847  96219812.62047  23497873.5454   23497877.7614   23497872.9934
        47.000          40.000
 128172339.48247  99874530.56047  24390400.3884   24390404.5204   24390399.9304
        43.000          38.000
 114669862.05247  89353128.91447  21820957.4224   21820960.9774   21820956.8514
        51.000          46.000
 125076596.61047  97462256.55147  23801303.8744   23801309.1544   23801304.4834
        45.000          39.000
 114573980.65747  89278415.76747  21802712.6204   21802715.8914   21802712.6854
        52.000          45.000
 128010849.93247  99748698.63147  24359667.1934   24359672.0764   24359666.6204
        42.000          38.000
 109182101.69247  85076952.06747  20776669.0784   20776671.0904   20776669.4824
        54.000          48.000
 09  1 10  0  7 30.0000000  0 12G18G 6G24G14G22G30G12G29G 5G 9G31G21
 124456398.72647  96978992.01747  23683279.4324   23683281.3634   23683279.7924
        46.000          39.000
 142047001.91747  92893751.06047  25127722.0274   25127726.8274   25127721.7954
        41.000          36.000
 112421174.34047  87600889.45847  21393057.6164   21393061.9774   21393057.8154
        53.000          47.000
 115282983.68347  89830893.23847  21937624.5864   21937627.8064   21937624.7194
        50.000          44.000
 127807598.70947  99590331.24047  24320981.0694   24320982.3784   24320981.2064
        44.000          38.000
 123466290.06847  96207484.60547  23494862.9224   23494867.1454   23494862.8444
        47.000          40.000
 128174696.02747  99876366.88347  24390848.8354   24390853.2944   24390848.4514
        44.000          38.000
 114741207.49247  89408722.75847  21834534.1024   21834537.3894   21834534.0134
        51.000          46.000
 125064122.76247  97452536.74847  23798930.7054   23798935.3194   23798931.4534
        45.000          39.000
 114619497.74947  89313883.66047  21811374.1764   21811377.4274   21811374.4044
        52.000          45.000
 127907314.78147  99668021.91647  24339965.3214   24339969.8294   24339964.6054
        43.000          38.000
 109117663.13747  85026740.21647  20764406.8334   20764408.7204   20764407.2214
        54.000          48.000
 09  1 10  0  8  0.0000000  0 12G18G 6G24G14G22G30G12G29G 5G 9G31G21
 124442077.13047  96967832.35947  23680554.6334   23680556.5474   23680554.8314
        46.000          39.000
 141983327.88147  92844134.96047  25115604.4504   25115609.8794   25115605.1384
        41.000          36.000
 112435890.16747  87612356.34947  21395858.0874   21395862.5034   21395858.2714
        53.000          47.000
 115274151.20147  89824010.84647  21935943.7974   21935946.8854   21935944.0614
        50.000          44.000
 127794994.17647  99580509.58647  24318582.1144   24318584.1574   24318582.2374
        44.000          38.000
 123450285.12547  96195013.28947  23491817.4244   23491821.1414   23491817.0184
        47.000          40.000
 128176980.58047  99878147.11447  24391283.4684   24391287.0434   24391283.4984
        43.000          38.000
 114812703.01147  89464433.54647  21848139.1654   21848142.5724   21848138.7454
        51.000          46.000
 125051570.76747  97442756.03947  23796542.4144   23796546.5814   23796542.4754
        45.000          39.000
 114665534.81847  89349756.73447  21820134.6834   21820138.0164   21820134.8924
        51.000          45.000
 127803742.11347  99587315.97047  24320255.5864   24320260.6134   24320255.1114
        43.000          37.000
 109053591.55547  84976814.32747  20752214.4454   20752216.4274   20752214.8514
        54.000          48.000
 09  1 10  0  8 30.0000000  0 12G18G 6G24G14G22G30G12G29G 5G 9G31G21
 124427535.92447  96956501.56347  23677787.3244   23677789.1714   23677787.7224
        46.000          39.000
 141919939.36747  92794741.31047  25103542.3604   25103547.4834   25103542.3414
        39.000          35.000
 112451072.34547  87624186.63247  21398747.2054   21398751.3314   21398747.2574
        53.000          47.000
 115265769.96347  89817480.06247  21934348.7794   21934351.9604   21934348.8894
        51.000          44.000
 127782188.88947  99570531.49147  24316145.7544   24316147.4514   24316145.8104
        45.000          38.000
 123434098.33847  96182400.27147  23488736.8654   23488740.9124   23488736.9164
        47.000          40.000
 128179195.61847  99879873.19047  24391704.4204   24391709.0414   24391704.0254
        43.000          38.000
 114884346.85647  89520259.91247  21861772.4744   21861776.0884   21861772.4444
        52.000          46.000
 125038943.46647  97432916.63347  23794138.7874   23794143.9784   23794139.6384
        45.000          39.000
 114712091.76147  89386034.88947  21828993.9784   21828997.3824   21828994.1664
        51.000          45.000
 127700135.49147  99506583.58047  24300540.2234   24300545.3254   24300539.4024
        42.000          37.000
 108989891.15747  84927177.67047  20740092.6604   20740094.7094   20740092.9844
        54.000          48.000
 09  1 10  0  9  0.0000000  0 12G18G 6G24G14G22G30G12G29G 5G 9G31G21
 124412775.24047  96944999.76547  23674978.4514   23674980.3114   23674978.6264
        46.000          39.000
 141856836.78647  92745570.52147  25091534.2064   25091539.3564   25091534.1664
        39.000          35.000
 112466721.15947  87636380.52647  21401724.8854   21401729.2434   21401725.0784
        53.000          47.000
 115257838.89847  89811300.07047  21932839.6144   21932842.5454   21932839.7934
        50.000          44.000
 127769182.08847  99560396.35347  24313670.6074   24313671.8344   24313671.0684
        45.000          38.000
 123417730.61647  96169646.26847  23485622.5004   23485626.4004   23485622.3494
        47.000          41.000
 128181342.64247  99881546.25647  24392113.0674   24392118.1904   24392112.5914
        44.000          38.000
 114956136.03547  89576199.52547  21875433.4194   21875437.0834   21875433.2894
        51.000          46.000
 125026242.35447  97423019.72547  23791721.9184   23791726.4824   23791722.8874
        45.000          39.000
 114759167.73747  89422717.49647  21837952.3314   21837955.6764   21837952.5574
        51.000          45.000
 127596497.08147  99425826.43447  24280818.0824   24280823.4414   24280817.8464
        41.000          38.000
 108926564.71547  84877832.40647  20728042.0314   20728043.8424   20728042.4564
        54.000          48.000
 09  1 10  0  9 30.0000000  0 12G18G 6G24G14G22G30G12G29G 5G 9G31G21
 124397794.30047  96933326.33547  23672127.7594   23672129.9764   23672127.9654
        46.000          39.000
 141794020.22247  92696622.58647  25079579.7984   25079586.5574   25079580.3994
        40.000          35.000
 112482836.23547  87648937.74947  21404791.4744   21404795.8934   21404791.6184
        53.000          47.000
 115250355.73447  89805469.08947  21931415.4414   21931418.6464   21931415.8894
        51.000          44.000
 127755972.39447  99550103.15747  24311157.3494   24311157.8014   24311157.4794
        46.000          38.000
 123401181.84847  96156751.20247  23482473.0334   23482476.9734   23482472.7534
        47.000          41.000
 128183422.77347  99883167.20747  24392508.8734   24392513.8474   24392509.0864
        44.000          38.000
 115028066.87447  89632249.53847  21889121.2264   21889125.1024   21889120.6264
        51.000          46.000
 125013468.34547  97413065.99447  23789291.0634   23789296.0394   23789291.5274
        45.000          39.000
 114806760.95147  89459803.13847  21847008.8494   21847012.4434   21847008.9354
        50.000          45.000
 127492828.66147  99345045.91947  24261090.9164   24261095.9664   24261090.1894
        43.000          38.000
 108863614.40147  84828780.22947  20716062.8674   20716064.7914   20716063.2474
        54.000          48.000
 09  1 10  0 10  0.0000000  0 12G18G 6G24G14G22G30G12G29G 5G 9G31G21
 124382595.03847  96921482.77647  23669235.1284   23669237.3334   23669235.4844
        46.000          39.000
 121731446.72057 112647854.10157  25067680.9675   25067687.5115   25067682.1305
        41.000          35.000
 112499419.48547  87661859.77447  21407947.2574   21407951.4204   21407947.4394
        53.000          47.000
 115243321.08347  89799987.59347  21930076.6724   21930080.0574   21930076.8934
        50.000          44.000
 127742560.06647  99539652.04547  24308604.7874   24308605.3434   24308605.1634
        44.000          38.000
 123384454.43947  96143716.92247  23479289.7944   23479294.0134   23479289.2374
        46.000          41.000
 128185438.57747  99884738.01347  24392892.2814   24392896.8674   24392891.9534
        43.000          38.000
 115100138.08547  89688408.92147  21902836.0244   21902839.8514   21902835.8984
        51.000          46.000
 125000624.64347  97403057.97447  23786847.0174   23786852.2064   23786847.7124
        46.000          39.000
 114854872.02847  89497292.31047  21856163.9964   21856167.6774   21856163.9354
        51.000          45.000
 127389134.04147  99264245.00347  24241357.9994   24241363.2234   24241356.9254
        43.000          38.000
 108801044.53047  84780024.50447  20704156.2384   20704158.3614   20704156.5854
        54.000          48.000
 09  1 10  0 10 30.0000000  0 12G18G 6G24G14G22G30G12G29G 5G 9G31G21
 124367176.33647  96909468.23947  23666300.6344   23666302.8154   23666301.2734
        46.000          39.000
 121669205.89847 112599354.81047  25055837.6464   25055842.9644   25055837.8374
        40.000          35.000
 112516469.90447  87675145.83347  21411191.7524   21411196.0754   21411191.8064
        53.000          47.000
 115236732.18647  89794853.44947  21928823.1104   21928826.2864   21928823.1914
        51.000          44.000
 127728943.16447  99529041.52147  24306012.7344   24306014.3724   24306013.2744
        45.000          38.000
 123367548.45747  96130543.50147  23476072.5204   23476076.8664   23476072.0024
        47.000          40.000
 128187390.85647  99886259.33347  24393264.0284   24393268.2804   24393263.3354
        43.000          38.000
 115172345.92447  89744674.76347  21916576.9004   21916580.4454   21916576.7674
        51.000          46.000
 124987711.62247  97392995.92147  23784389.5364   23784395.0044   23784390.3374
        45.000          39.000
 114903498.97547  89535183.48047  21865417.7834   21865421.0824   21865417.8034
        51.000          45.000
 127285414.49047  99183424.67447  24221620.6404   24221625.9094   24221619.4164
        42.000          38.000
 108738856.82847  84731566.56147  20692322.5594   20692324.2874   20692322.9194
        54.000          48.000
 09  1 10  0 11  0.0000000  0 12G18G 6G24G14G22G30G12G29G 5G 9G31G21
 124351540.42647  96897284.44047  23663325.6054   23663327.7394   23663325.8434
        46.000          39.000
 121607254.98847 112551081.42047  25044048.3834   25044053.5004   25044048.8624
        40.000          35.000
 112533989.53247  87688797.51347  21414525.6014   21414529.8434   21414525.7274
        53.000          47.000
 115230589.51247  89790067.00447  21927653.9574   21927657.1444   21927654.0484
        50.000          45.000
 127715122.89647  99518272.53047  24303383.6614   24303384.5564   24303383.9974
        45.000          39.000
 123350466.60247  96117233.02647  23472822.0294   23472826.5104   23472821.7994
        47.000          41.000
 128189282.87647  99887733.70447  24393623.9874   24393628.0334   24393623.9054
        44.000          38.000
 115244689.16447  89801046.12747  21930343.2004   21930346.9124   21930342.7214
        51.000          46.000
 124974732.86847  97382882.66047  23781919.9394   23781924.9844   23781920.4094
        45.000          39.000
 114952642.69347  89573477.30647  21874769.2594   21874772.9094   21874769.3084
        51.000          45.000
 127181674.28947  99102588.30747  24201879.2194   24201884.6614   24201878.6614
        43.000          38.000
 108677056.04147  84683410.12247  20680561.9944   20680563.9014   20680562.3144
        54.000          48.000
 09  1 10  0 11 30.0000000  0 12G18G 6G24G14G22G30G12G29G 5G 9G31G21
 124335685.46447  96884929.94347  23660308.1694   23660310.5294   23660308.4334
        46.000          39.000
 121545592.50047 112503032.77047  25032313.9254   25032320.0254   25032314.9814
        40.000          35.000
 112551977.05047  87702813.77847  21417948.1904   21417952.7834   21417948.3934
        53.000          47.000
 115224890.07747  89785625.93847  21926569.5404   21926572.6814   21926569.6164
        51.000          45.000
 127701095.95247  99507342.49447  24300713.7344   24300715.2204   24300713.9594
        45.000          38.000
 123333207.80047  96103784.68447  23469537.5884   23469542.3604   23469537.5744
        47.000          41.000
 128191114.22847  99889160.79247  24393972.5334   24393976.8274   24393971.8234
        43.000          38.000
 115317162.92647  89857519.17347  21944134.6654   21944138.2814   21944134.4134
        51.000          46.000
 124961688.00447  97372717.87847  23779437.2084   23779442.2884   23779437.4554
        45.000          39.000
 115002299.82947  89612171.20647  21884218.5874   21884222.0824   21884218.7354
        51.000          45.000
 127077913.58247  99021735.94747  24182134.8254   24182139.6854   24182134.5274
        45.000          39.000
 108615642.98447  84635555.81047  20668875.4924   20668877.4954   20668875.8394
        54.000          48.000
 09  1 10  0 12  0.0000000  0 12G18G 6G24G14G22G30G12G29G 5G 9G31G21
 124319612.13747  96872405.29547  23657249.5944   23657252.0224   23657249.9464
        46.000          39.000
 121484219.71747 112455209.85247  25020636.3154   25020641.9124   25020636.1554
        39.000          35.000
 112570433.26047  87717195.25647  21421460.2784   21421464.9284   21421460.3354
        53.000          47.000
 115219632.68147  89781529.31447  21925569.1264   21925572.3014   21925569.2754
        51.000          45.000
 127686862.19947  99496251.30147  24298005.0924   24298006.4734   24298005.1084
        45.000          39.000
 123315773.43347  96090199.53347  23466219.7744   23466224.6024   23466219.5214
        47.000          41.000
 128192886.82247  99890542.12647  24394309.8204   24394313.6654   24394309.2154
        44.000          38.000
 115389764.78247  89914092.04447  21957950.5524   21957954.1174   21957950.3964
        51.000          46.000
 124948579.16647  97362503.25647  23776942.6384   23776947.8404   23776943.3934
        45.000          39.000
 115052470.03047  89651264.90047  21893765.8034   21893769.1544   21893765.8134
        51.000          45.000
 126974135.43147  98940870.02147  24162386.3784   24162390.6894   24162386.8714
        44.000          39.000
 108554620.61947  84588005.92947  20657263.2574   20657265.1784   20657263.6454
        54.000          48.000
 09  1 10  0 12 30.0000000  0 12G18G 6G24G14G22G30G12G29G 5G 9G31G21
 124303322.79147  96859712.33247  23654149.9084   23654151.9424   23654150.2964
        46.000          39.000
 121423139.03047 112407614.54247  25009012.7514   25009017.6844   25009012.3594
        41.000          35.000
 112589360.73847  87731943.95647  21425062.2974   21425066.6354   21425062.2984
        53.000          47.000
 115214818.41247  89777777.98347  21924652.8284   21924656.3104   21924652.9504
        51.000          45.000
 127672423.07947  99485000.10947  24295257.9194   24295259.1854   24295258.0404
        45.000          39.000
 123298166.87147  96076480.22047  23462869.3994   23462873.6424   23462869.1994
        47.000          41.000
 128194604.59547  99891880.74247  24394636.4784   24394640.8254   24394635.9434
        43.000          38.000
 115462494.22547  89970764.33747  21971790.2224   21971794.0364   21971789.7904
        51.000          46.000
 124935410.23147  97352241.78947  23774436.6854   23774441.8634   23774437.1384
        44.000          39.000
 115103154.22447  89690759.10647  21903410.4734   21903413.8874   21903410.6154
        51.000          45.000
 126870344.30447  98859993.99247  24142635.5404   24142639.9264   24142635.5294
        43.000          39.000
 108493994.57847  84540764.86747  20645726.5484   20645728.3094   20645726.9624
        55.000          48.000
 09  1 10  0 13  0.0000000  0 12G18G 6G24G14G22G30G12G29G 5G 9G31G21
 124286816.10747  96846850.00847  23651008.9854   23651011.1454   23651009.1714
        46.000          39.000
 121362349.54347 112360246.11347  24997444.3754   24997450.1554   24997444.9984
        41.000          35.000
 112608757.86647  87747058.61847  21428753.4684   21428757.8274   21428753.5904
        53.000          47.000
 115210444.13747  89774369.51147  21923820.2464   21923823.5554   21923820.4344
        50.000          45.000
 127657775.67947  99473586.59347  24292469.9354   24292472.0994   24292470.0324
        44.000          38.000
 123280387.64447  96062626.35547  23459486.3734   23459490.7544   23459485.8334
        47.000          41.000
 128196267.70747  99893176.73847  24394952.6254   24394957.1354   24394952.7624
        43.000          38.000
 115535346.92147  90027532.67647  21985653.7674   21985657.6004   21985653.6494
        51.000          46.000
 124922181.12247  97341933.44247  23771919.0734   23771924.1994   23771919.1754
        44.000          39.000
 115154349.89147  89730651.86647  21913152.7584   21913156.0814   21913153.0444
        51.000          45.000
 126766541.00347  98779108.48247  24122881.9274   24122886.8734   24122881.0874
        44.000          39.000
 108433765.89647  84493833.44147  20634265.5834   20634267.3314   20634265.9594
        55.000          49.000
 09  1 10  0 13 30.0000000  0 12G18G 6G24G14G22G30G12G29G 5G 9G31G21
 124270093.51547  96833819.43847  23647826.8244   23647828.3314   23647826.9934
        46.000          39.000
 121301852.79547 112313105.81547  24985932.7754   24985936.9574   24985932.3814
        40.000          35.000
 112628625.99247  87762540.29047  21432534.2024   21432538.5864   21432534.0914
        53.000          47.000
 115206509.27247  89771303.42947  21923071.5374   21923074.6064   21923071.6874
        50.000          45.000
 127642920.64147  99462011.27947  24289643.4854   24289644.6384   24289643.5884
        44.000          38.000
 123262437.30947  96048639.15347  23456070.5214   23456074.8974   23456070.4604
        47.000          41.000
 128197878.37347  99894431.88847  24395259.3314   24395263.3714   24395259.0584
        42.000          38.000
 115608320.73147  90084395.38947  21999540.1544   21999544.0834   21999539.9334
        51.000          46.000
 124908894.60347  97331580.35747  23769390.8304   23769395.8424   23769391.0374
        45.000          39.000
 115206056.71947  89770942.93147  21922992.3444   21922995.5584   21922992.4104
        51.000          44.000
 126662728.68847  98698215.92847  24103127.6574   24103131.7764   24103126.1474
        44.000          39.000
 108373938.23347  84447214.50047  20622880.5984   20622882.5704   20622880.9644
        55.000          49.000
 09  1 10  0 14  0.0000000  0 12G18G 6G24G14G22G30G12G29G 5G 9G31G21
 124253152.58747  96820618.74447  23644603.1894   23644604.6334   23644603.5264
        46.000          39.000
 121241646.65747 112266191.96947  24974475.1734   24974481.2184   24974474.9264
        39.000          35.000
 112648962.71747  87778387.09947  21436404.3224   21436408.7394   21436404.3914
        53.000          47.000
 115203009.90847  89768576.70347  21922405.4394   21922408.8174   21922405.6734
        51.000          45.000
 127627854.40247  99450271.40947  24286776.5424   24286777.6184   24286776.3754
        44.000          38.000
 123244314.57447  96034517.61547  23452621.4834   23452626.0334   23452621.4804
        47.000          41.000
 128199435.78447  99895645.53647  24395554.9594   24395559.8564   24395554.9064
        43.000          38.000
 115681410.47247  90141348.44147  22013448.6994   22013452.6314   22013448.5314
        51.000          46.000
 124895549.96247  97321181.97847  23766851.7244   23766856.7744   23766851.9364
        46.000          39.000
 115258271.33347  89811629.67247  21932928.4344   21932931.3474   21932928.2534
        51.000          44.000
 126558907.49847  98617316.48347  24083371.3554   24083374.8654   24083370.1054
        43.000          39.000
 108314511.94747  84400908.31247  20611572.3684   20611574.0684   20611572.8344
        55.000          49.000
 09  1 10  0 14 30.0000000  0 12G18G 6G24G14G22G30G12G29G 5G 9G31G21
 124235997.43947  96807251.12547  23641338.5844   23641340.4384   23641338.9674
        47.000          39.000
 121181735.73447 112219508.14147  24963075.2234   24963079.6174   24963074.7104
        41.000          36.000
 112669772.36647  87794602.42847  21440364.1284   21440368.5254   21440364.3394
        53.000          47.000
 115199948.48547  89766191.23047  21921823.1464   21921826.1524   21921823.3674
        51.000          45.000
 127612580.33647  99438369.60147  24283869.8624   24283870.7224   24283870.0114
        45.000          38.000
 123226024.54547  96020265.72947  23449140.5094   23449145.2454   23449140.0084
        46.000          40.000
 128200945.83547  99896822.29147  24395842.7784   24395847.2354   24395842.0174
        42.000          38.000
 115754617.50847  90198392.88847  22027379.3434   22027383.6524   22027379.2214
        51.000          46.000
 124882152.84147  97310742.72747  23764302.0894   23764307.2874   23764302.7734
        45.000          39.000
 115310996.50047  89852714.23747  21942961.4554   21942965.0654   21942961.6824
        50.000          44.000
 126455084.00147  98536415.23147  24063614.0644   24063617.8394   24063614.1114
        45.000          39.000
 108255493.89247  84354920.23647  20600341.3854   20600343.2984   20600341.7904
        54.000          49.000
 09  1 10  0 15  0.0000000  0 12G18G 6G24G14G22G30G12G29G 5G 9G31G21
 124218625.72047  96793714.76047  23638032.6944   23638034.5644   23638033.1004
        46.000          39.000
 121122117.56647 112173052.46247  24951730.1594   24951735.7364   24951729.7464
        40.000          36.000
 112691052.11447  87811184.07447  21444413.4774   21444417.9564   21444413.7404
        53.000          46.000
 115197320.94247  89764143.83747  21921322.8554   21921326.1914   21921322.9984
        51.000          45.000
 127597094.56447  99426302.81147  24280922.9524   24280924.4454   24280923.4854
        45.000          38.000
 123207565.17147  96005881.87547  23445627.6464   23445632.2934   23445627.2874
        47.000          40.000
 128202406.86547  99897960.83847  24396120.4634   24396125.3914   24396120.8394
        42.000          38.000
 115827935.84847  90255524.07047  22041331.2774   22041335.4324   22041330.9594
        50.000          46.000
 124868701.93047  97300261.56347  23761742.0794   23761747.6254   23761742.8864
        45.000          39.000
 115364227.73847  89894193.15247  21953090.9184   21953094.4594   21953091.0394
        50.000          44.000
 126351257.56647  98455511.68847  24043856.5964   24043860.3424   24043857.0294
        44.000          39.000
 108196883.70147  84309249.97747  20589188.1514   20589190.3924   20589188.5384
        55.000          49.000
 09  1 10  0 15 30.0000000  0 12G18G 6G24G14G22G30G12G29G 5G 9G31G21
 124201040.38047  96780011.92147  23634686.0574   23634688.0784   23634686.9594
        46.000          39.000
 121062795.27447 112126827.33747  24940440.9454   24940447.2054   24940440.8184
        40.000          36.000
 112712804.73847  87828134.19247  21448552.7454   21448557.1544   21448552.8654
        52.000          46.000
 115195128.35747  89762435.37147  21920905.6784   21920908.6984   21920905.7694
        51.000          45.000
 127581399.20247  99414072.68647  24277936.4234   24277937.2164   24277936.3434
        45.000          38.000
 123188940.16547  95991368.96147  23442084.1674   23442088.2424   23442083.7934
        47.000          41.000
 128203823.27947  99899064.62647  24396389.9124   24396394.4764   24396389.4074
        43.000          38.000
 115901365.38447  90312741.90647  22055304.4194   22055308.5164   22055303.8404
        50.000          45.000
 124855201.73947  97289742.01147  23759173.3064   23759178.1334   23759174.0174
        45.000          39.000
 115417966.75747  89936067.73747  21963317.0384   21963320.5644   21963317.1354
        50.000          44.000
 126247433.42647  98374609.94547  24024099.3384   24024102.8234   24024099.9204
        44.000          39.000
 108138687.32847  84263902.17147  20578113.8884   20578115.9514   20578114.3534
        55.000          49.000
 09  1 10  0 16  0.0000000  0 12G18G 6G24G14G22G30G12G29G 5G 9G31G21
 124183239.60347  96766141.20147  23631298.4534   23631300.0054   23631299.1994
        46.000          39.000
 121003766.98347 112080831.30947  24929208.9294   24929213.9424   24929208.1614
        40.000          35.000
 112735027.90347  87845450.96547  21452781.5284   21452785.9984   21452781.7454
        53.000          46.000
 115193366.69247  89761062.69547  21920570.4504   21920573.2134   21920570.6364
        51.000          45.000
 127565490.98347  99401676.73747  24274909.1394   24274909.8364   24274909.6194
        45.000          39.000
 123170148.29247  95976726.01547  23438507.7644   23438512.2424   23438507.6634
        47.000          41.000
 128205194.48047  99900133.18547  24396650.6944   24396655.2184   24396650.6584
        43.000          38.000
 115974901.01447  90370042.41447  22069297.8594   22069301.6744   22069297.6204
        50.000          45.000
 124841651.53347  97279183.46847  23756594.8764   23756599.9944   23756595.5124
        45.000          39.000
 115472209.92447  89978335.16447  21973639.4894   21973642.8194   21973639.4314
        50.000          44.000
 126143611.27447  98293709.74747  24004342.1964   24004345.8574   24004341.9604
        44.000          39.000
 108080904.68847  84218876.75447  20567117.9774   20567120.0554   20567118.3394
        54.000          49.000
 09  1 10  0 16 30.0000000  0 12G18G 6G24G14G22G30G12G29G 5G 9G31G21
 124165225.20647  96752104.03947  23627870.6224   23627872.6914   23627870.5644
        46.000          39.000
 120945034.63047 112035065.85447  24918031.9004   24918037.8944   24918031.7404
        39.000          35.000
 112757723.50847  87863135.87247  21457100.3464   21457104.8694   21457100.4574
        52.000          46.000
 115192035.99647  89760025.83247  21920317.1644   21920320.3494   21920317.2794
        51.000          45.000
 127549370.83847  99389115.64447  24271841.5454   24271842.7624   24271841.6674
        44.000          38.000
 123151192.27147  95961955.15347  23434900.4954   23434904.9544   23434900.0624
        47.000          41.000
 128206523.47247  99901168.83047  24396904.4234   24396908.1954   24396903.7804
        44.000          38.000
 116048541.48247  90427424.60247  22083311.3444   22083315.0834   22083311.1184
        51.000          45.000
 124828054.62147  97268588.53447  23754007.9614   23754012.4594   23754008.4324
        45.000          39.000
 115526957.47747  90020995.61947  21984057.4654   21984060.8394   21984057.3894
        50.000          44.000
 126039795.41947  98212814.40347  23984586.6014   23984589.9014   23984586.0524
        45.000          39.000
 108023540.31547  84174177.25047  20556202.1394   20556204.1374   20556202.5754
        54.000          49.000
 09  1 10  0 17  0.0000000  0 12G18G 6G24G14G22G30G12G29G 5G 9G31G21
 124146997.91347  96737900.96547  23624402.1304   23624404.5194   23624402.3364
        46.000          40.000
 120886599.10647 111989531.71147  24906911.2344   24906917.5014   24906912.3934
        40.000          35.000
 112780892.31947  87881189.50947  21461509.3574   21461513.8604   21461509.5564
        53.000          46.000
 115191135.24747  89759324.00447  21920145.8714   21920148.8984   21920146.1644
        51.000          45.000
 127533038.51447  99376389.18547  24268733.8124   24268734.2254   24268733.6034
        44.000          38.000
 123132073.69547  95947057.61947  23431262.5784   23431266.7054   23431261.9004
        47.000          41.000
 128207812.46147  99902173.31047  24397149.0834   24397153.0314   24397148.8674
        44.000          38.000
 116122284.43147  90484886.65447  22097344.3174   22097347.8594   22097344.0454
        50.000          45.000
 124814413.34847  97257959.04447  23751411.3284   23751416.1794   23751412.1544
        45.000          39.000
 115582208.49147  90064048.37947  21994571.4634   21994574.4684   21994571.6664
        50.000          44.000
 125935989.04147  98131926.45547  23964832.9394   23964836.4114   23964832.8504
        45.000          39.000
 107966597.34947  84129806.11947  20545366.0504   20545368.0924   20545366.4744
        54.000          49.000
 09  1 10  0 17 30.0000000  0 12G18G 6G24G14G22G30G12G29G 5G 9G31G21
 124128556.71947  96723531.22447  23620892.6304   23620894.9954   23620893.0594
        46.000          39.000
 120828459.59747 111944228.20247  24895848.4014   24895854.1754   24895848.4224
        43.000          35.000
 112804532.93147  87899610.78447  21466008.1694   21466012.5494   21466008.2564
        52.000          46.000
 115190661.77747  89758955.11647  21920055.6924   21920058.7224   21920056.0564
        51.000          45.000
 127516492.25847  99363496.05547  24265584.9024   24265586.1264   24265585.0084
        44.000          38.000
 123112792.49147  95932033.36047  23427593.7734   23427597.9474   23427593.8754
        48.000          41.000
 128209062.01247  99903147.05247  24397386.8474   24397390.2884   24397386.9744
        44.000          38.000
 116196126.14547  90542425.66547  22111395.7234   22111399.3744   22111395.2544
        50.000          45.000
 124800728.02747  97247295.21947  23748807.3104   23748811.8884   23748807.4884
        45.000          39.000
 115637960.33447  90107491.40347  22005180.7744   22005183.5724   22005180.7574
        51.000          44.000
 125832193.17947  98051046.70347  23945080.5874   23945084.9844   23945080.6364
        45.000          39.000
 107910077.06247  84085764.34647  20534610.5284   20534612.6504   20534610.7974
        55.000          49.000
 09  1 10  0 18  0.0000000  0 12G18G 6G24G14G22G30G12G29G 5G 9G31G21
 124109903.63147  96708996.37147  23617343.4474   23617345.7224   23617343.6884
        46.000          40.000
 120770618.10647 111899156.87247  24884841.7854   24884847.1894   24884842.1214
        43.000          35.000
 112828646.94447  87918400.93647  21470596.7554   21470601.1684   21470597.0524
        52.000          46.000
 115190615.63247  89758919.21247  21920046.8494   21920049.7774   21920047.0644
        51.000          45.000
 127499732.92147  99350436.90947  24262395.0614   24262396.3144   24262394.9744
        42.000          37.000
 123093351.47947  95916884.57147  23423893.7924   23423898.2014   23423893.7094
        47.000          41.000
 128210275.13147  99904092.40947  24397617.9224   24397621.6594   24397617.5384
        44.000          39.000
 116270065.26047  90600040.56547  22125465.8744   22125469.4844   22125465.6504
        50.000          45.000
 124787002.03847  97236599.71047  23746195.2544   23746200.0374   23746196.0494
        45.000          39.000
 115694213.25047  90151324.87247  22015885.2074   22015888.3364   22015885.2394
        51.000          44.000
 125728411.79647  97970178.20147  23925331.6854   23925335.4174   23925330.7284
        44.000          39.000
 107853983.94647  84042055.43747  20523936.3854   20523938.4124   20523936.7384
        54.000          49.000
 09  1 10  0 18 30.0000000  0 12G18G 6G24G14G22G30G12G29G 5G 9G31G21
 124091037.75047  96694295.70547  23613753.2124   23613755.3284   23613753.4944
        46.000          40.000
 120713073.29247 111854316.74847  24873891.6794   24873896.6174   24873891.3144
        42.000          35.000
 112853232.59647  87937558.60947  21475275.1274   21475279.8124   21475275.2804
        53.000          46.000
 115190993.46547  89759213.68047  21920118.6734   21920121.5474   21920118.7704
        51.000          45.000
 127482757.86547  99337209.64947  24259164.8994   24259166.4414   24259164.9254
        43.000          37.000
 123073749.71747  95901610.54247  23420163.5634   23420167.9504   23420163.2884
        47.000          41.000
 128211452.25647  99905009.71747  24397841.5944   24397845.5934   24397841.6984
        44.000          39.000
 116344097.24247  90657727.83347  22139553.7084   22139557.3354   22139553.5834
        50.000          45.000
 124773235.54447  97225872.64047  23743575.4214   23743580.4804   23743575.8624
        45.000          39.000
 115750964.61147  90195546.74047  22026684.6594   22026687.9544   22026684.9294
        51.000          44.000
 125624645.98247  97889321.82747  23905585.4274   23905589.3924   23905584.3284
        44.000          39.000
 107798319.08847  83998680.24347  20513343.5904   20513345.6594   20513343.8934
        54.000          49.000
 09  1 10  0 19  0.0000000  0 12G18G 6G24G14G22G30G12G29G 5G 9G31G21
 124071960.36447  96679430.22447  23610122.4854   23610125.1694   23610122.8654
        46.000          40.000
 120655826.93047 111809709.16547  24862997.4494   24863002.1564   24862997.6124
        42.000          35.000
 112878291.54247  87957085.07947  21480043.8244   21480048.3364   21480043.9834
        52.000          46.000
 115191794.69447  89759838.07047  21920271.0324   21920274.4114   21920271.2454
        51.000          45.000
 127465567.86147  99323814.90347  24255893.8454   24255895.1324   24255893.4274
        43.000          37.000
 123053989.55247  95886213.06247  23416403.2494   23416407.2344   23416402.5164
        47.000          41.000
 128212595.60447  99905900.71147  24398059.4394   24398063.0694   24398059.2544
        44.000          38.000
 116418220.46447  90715486.21047  22153658.8324   22153662.3864   22153658.1144
        50.000          45.000
 124759431.58747  97215116.38547  23740948.2254   23740953.7544   23740949.2224
        45.000          39.000
 115808214.18647  90240156.83047  22037578.7564   22037582.1204   22037579.0764
        51.000          44.000
 125520899.38547  97808480.42047  23885843.2344   23885846.7114   23885842.7464
        45.000          39.000
 107743086.36347  83955641.76147  20502833.5614   20502835.2464   20502834.0604
        55.000          49.000
 09  1 10  0 19 30.0000000  0 12G18G 6G24G14G22G30G12G29G 5G 9G31G21
 124052672.08947  96664400.40847  23606452.4544   23606454.6794   23606452.4414
        47.000          40.000
 120598879.21847 111765334.29047  24852160.5884   24852166.4294   24852160.8454
        42.000          35.000
 112903823.70447  87976980.29347  21484902.4374   21484906.6544   21484902.4634
        53.000          46.000
 115193017.95047  89760791.30247  21920503.6504   21920506.9344   21920503.9714
        51.000          45.000
 127448162.10347  99310252.01747  24252581.5854   24252583.1284   24252581.3144
        43.000          38.000
 123034072.49147  95870693.32647  23412613.3484   23412616.9584   23412613.3704
        47.000          41.000
 128213707.31647  99906767.03947  24398270.8124   24398274.4284   24398270.7874
        44.000          38.000
 116492432.54647  90773313.81847  22167780.6214   22167784.6294   22167780.2974
        50.000          45.000
 124745591.97147  97204332.33447  23738314.9764   23738319.7484   23738314.9924
        45.000          39.000
 115865960.35547  90285153.86047  22048567.4924   22048570.8194   22048567.6854
        50.000          44.000
 125417174.66947  97727656.05947  23866105.0904   23866108.6344   23866105.1584
        45.000          40.000
 107688288.83747  83912942.40847  20492405.7174   20492407.7864   20492406.1184
        54.000          49.000
 09  1 10  0 20  0.0000000  0 12G18G 6G24G14G22G30G12G29G 5G 9G31G21
 124033173.48947  96649206.70947  23602742.2384   23602744.2244   23602742.5264
        46.000          39.000
 120542230.62447 111721192.51247  24841381.0624   24841386.6734   24841381.1104
        42.000          35.000
 112929828.74747  87997243.98247  21489850.9024   21489855.4484   21489850.9274
        53.000          46.000
 115194661.45247  89762071.99647  21920816.2794   21920819.7794   21920816.4964
        51.000          45.000
 127430540.11647  99296520.64347  24249228.4914   24249229.4434   24249228.1434
        43.000          38.000
 123013999.73747  95855052.28747  23408793.7654   23408797.1404   23408793.8074
        47.000          41.000
 128214788.90947  99907609.91747  24398476.6854   24398480.0714   24398476.2024
        43.000          38.000
 116566730.57347  90831208.39147  22181919.3594   22181923.0084   22181919.1014
        50.000          45.000
 124731718.40147  97193521.83847  23735674.7394   23735679.5714   23735675.5724
        45.000          39.000
 115924202.05447  90330537.02347  22059650.5244   22059653.4994   22059650.7574
        50.000          44.000
 125313474.19347  97646850.58047  23846371.4314   23846375.1514   23846371.3214
        45.000          40.000
 107633928.84747  83870583.98647  20482061.3324   20482063.4114   20482061.7494
        54.000          49.000
 09  1 10  0 20 30.0000000  0 12G18G 6G24G14G22G30G12G29G 5G 9G31G21
 124013465.64147  96633849.95847  23598991.6844   23598993.4354   23598992.3134
        46.000          39.000
 120485882.09147 111677284.56247  24830658.8724   24830663.4594   24830658.9264
        41.000          35.000
 112956307.37847  88017876.69847  21494889.6164   21494893.9114   21494889.8334
        52.000          46.000
 115196724.23547  89763679.41847  21921209.0144   21921212.0954   21921209.4094
        51.000          45.000
 127412701.72247  99282620.65447  24245833.1034   24245834.4604   24245833.0504
        43.000          37.000
 122993773.23847  95839291.42647  23404944.7194   23404948.2544   23404944.1744
        47.000          41.000
 128215842.72047  99908431.12447  24398677.0854   24398681.0604   24398676.8874
        44.000          38.000
 116641112.56547  90889168.40347  22196074.0234   22196077.3184   22196073.6224
        50.000          45.000
 124717813.35147  97182686.80547  23733028.7234   23733033.5304   23733029.3124
        45.000          39.000
