     2.11           OBSERVATION DATA    G (GPS)             RINEX VERSION / TYPE
teqc  2013Mar15     gpsops              20140502 00:24:06UTCPGM / RUN BY / DATE
Linux 2.4.21-27.ELsmp|Opteron|gcc -static|Linux x86_64|=+   COMMENT
BIT 2 OF LLI FLAGS DATA COLLECTED UNDER A/S CONDITION       COMMENT
GLPS                                                        MARKER NAME
42005M002                                                   MARKER NUMBER
GGN                 JPL                                     OBSERVER / AGENCY
ZR220013847         ASHTECH UZ-12       CQ00                REC # / TYPE / VERS
CR519992104         ASH701945B_M    SCIT                    ANT # / TYPE
   -33801.4662 -6377516.5323   -82154.3508                  APPROX POSITION XYZ
        0.0083        0.0000        0.0000                  ANTENNA: DELTA H/E/N
     1     1                                                WAVELENGTH FACT L1/2
     7    L1    L2    P1    P2    C1    S1    S2            # / TYPES OF OBSERV
    30.0000                                                 INTERVAL
                                                            COMMENT
This data is provided as a public service by NASA/JPL.      COMMENT
No warranty is expressed or implied regarding suitability   COMMENT
for use.  For further information, contact:                 COMMENT
Dave Stowers, NASA/JPL m/s 238-600                          COMMENT
4800 Oak Grove Drive, Pasadena CA 91109 USA                 COMMENT
                                                            COMMENT
Forced Modulo Decimation to 30 seconds                      COMMENT
 SNR is mapped to RINEX snr flag value [0-9]                COMMENT
  L1 & L2: min(max(int(snr_dBHz/6), 0), 9)                  COMMENT
pseudorange smoothing corrections not applied               COMMENT
  2014     5     1     0     0    0.0000000     GPS         TIME OF FIRST OBS
                                                            END OF HEADER
 14  5  1  0  0  0.0000000  0 12G17G10G08G09G23G20G01G28G13G11G04G07
 -16589048.62948 -12882301.60247  21864103.5254   21864111.5034   21864103.209
        51.0004         46.0004
  -3501647.97846  -2724516.93746  25004449.7974   25004467.8914   25004451.292
        40.0004         36.0004
  -7603517.30148  -5919216.99247  21309779.9064   21309786.6784   21309780.172
        51.0004         46.0004
 -14846158.20848 -11522190.02547  21305805.8384   21305812.2664   21305805.793
        50.0004         46.0004
   3209046.39646   2511890.25646  24451172.2654   24451179.6254   24451171.408
        41.0004         36.0004
  -2940569.93047  -2076929.59846  23685649.3714   23685658.1844   23685649.989
        43.0004         38.0004
 -14725847.24348 -11448929.58747  21908417.2454   21908426.7064   21908417.988
        49.0004         45.0004
   1587096.45446   1230076.83246  24413848.9054   24413856.2504   24413849.057
        41.0004         37.0004
 -11680174.81147  -9056536.75547  22240024.3114   22240031.5244   22240023.933
        47.0004         43.0004
 -10241910.38847  -7961436.77046  23248844.6154   23248850.4474   23248844.190
        44.0004         39.0004
 -11080109.93447  -8594166.43546  23374284.1854   23374294.6854   23374283.718
        44.0004         40.0004
 -24295411.97249 -18897955.45848  20237204.0704   20237209.4804   20237203.665
        54.0004         49.0004
 14  5  1  0  0 30.0000000  0 12G17G10G08G09G23G20G01G28G13G11G04G07
 -16573406.94248 -12870113.24147  21867080.2714   21867087.6454   21867079.748
        51.0004         46.0004
  -3528468.78046  -2745416.08746  24999345.0794   24999362.0864   24999346.312
        40.0004         36.0004
  -7686996.91548  -5984265.99147  21293894.3824   21293900.9274   21293894.345
        51.0004         46.0004
 -14926755.55448 -11584993.10447  21290468.5314   21290474.8354   21290468.636
        50.0004         46.0004
   3298380.62846   2581501.43846  24468171.8864   24468179.8154   24468171.181
        41.0004         36.0004
  -2946090.01547  -2081230.89946  23684597.9234   23684607.9964   23684598.747
        43.0004         38.0004
 -14667066.23548 -11403126.17547  21919603.5734   21919612.9984   21919603.322
        49.0004         45.0004
   1570110.93846   1216841.42246  24410615.9574   24410623.9864   24410616.248
        41.0004         37.0004
 -11599162.40547  -8993410.23247  22255440.3964   22255447.4064   22255440.111
        47.0004         43.0004
 -10147097.84147  -7887556.86046  23266887.1484   23266893.1334   23266886.420
        44.0004         39.0004
 -11180489.42847  -8672384.03546  23355182.8444   23355193.3264   23355182.431
        44.0004         40.0004
 -24321537.09749 -18918312.68548  20232232.9194   20232237.8554   20232232.438
        54.0004         49.0004
 14  5  1  0  1  0.0000000  0 12G17G10G08G09G23G20G01G28G13G11G04G07
 -16557415.06948 -12857652.01447  21870123.6334   21870130.1784   21870123.190
        51.0004         47.0004
  -3555528.98646  -2766501.79746  24994196.8744   24994212.3784   24994196.253
        40.0004         36.0004
  -7770188.10448  -6049090.25247  21278063.2374   21278070.1294   21278063.497
        51.0004         46.0004
 -15007025.48848 -11647541.05047  21275193.1724   21275199.8244   21275193.769
        50.0004         46.0004
   3387548.41946   2650982.90446  24485138.7084   24485147.5704   24485139.215
        41.0004         36.0004
  -2951594.93847  -2085520.40446  23683550.8524   23683560.7624   23683551.706
        43.0004         38.0004
 -14607830.94648 -11356968.78347  21930875.8414   21930885.0004   21930875.450
        49.0004         45.0004
   1552836.84946   1203381.15246  24407328.5384   24407336.6524   24407328.020
        41.0004         37.0004
 -11518073.30547  -8930223.94547  22270871.0604   22270878.7084   22270871.165
        47.0004         42.0004
 -10052054.00947  -7813496.72546  23284972.5934   23284978.6154   23284973.078
        44.0004         39.0004
 -11280801.87647  -8750549.38146  23336092.7824   23336104.6284   23336093.922
        45.0004         40.0004
 -24347125.68149 -18938251.83048  20227363.2434   20227368.5554   20227362.868
        54.0004         49.0004
 14  5  1  0  1 30.0000000  0 12G17G10G08G09G23G20G01G28G13G11G04G07
 -16541071.28048 -12844916.56547  21873233.5134   21873240.9244   21873233.242
        51.0004         47.0004
  -3582825.33646  -2787771.51946  24989002.0704   24989017.8524   24989003.005
        40.0004         36.0004
  -7853083.57548  -6113684.07647  21262288.3444   21262295.4254   21262289.078
        51.0004         47.0004
 -15086960.78748 -11709828.24947  21259982.9544   21259988.8784   21259982.492
        51.0004         46.0004
   3476551.96246   2720336.40446  24502075.3534   24502084.9774   24502076.179
        41.0004         36.0004
  -2957078.45447  -2089793.20046  23682508.0524   23682516.8144   23682507.658
        43.0004         38.0004
 -14548138.83848 -11310455.42647  21942235.7044   21942243.4784   21942234.680
        49.0004         45.0004
   1535277.55846   1189698.64846  24403986.3684   24403995.0724   24403987.323
        41.0004         37.0004
 -11436905.90147  -8866976.65447  22286316.9784   22286325.3474   22286317.000
        47.0004         42.0004
  -9956777.58247  -7739255.33146  23303103.3294   23303108.9204   23303103.087
        44.0004         39.0004
 -11381040.71447  -8828657.37446  23317018.9494   23317029.0344   23317018.813
        45.0004         40.0004
 -24372171.93149 -18957768.38148  20222597.3044   20222602.2964   20222596.759
        54.0004         49.0004
 14  5  1  0  2  0.0000000  0 12G17G10G08G09G23G20G01G28G13G11G04G07
 -16524377.73348 -12831908.57747  21876410.1624   21876417.1894   21876409.958
        51.0004         47.0004
  -3610358.34646  -2809225.64946  24983762.5614   24983778.5224   24983763.360
        41.0004         36.0004
  -7935679.46148  -6178044.45847  21246570.9414   21246578.0474   21246571.457
        51.0004         47.0004
 -15166558.27548 -11771852.20447  21244835.7304   21244842.1384   21244835.621
        51.0004         46.0004
   3565389.92946   2789560.89146  24518980.6344   24518990.4124   24518980.889
        41.0004         36.0004
  -2962538.68147  -2094047.86246  23681469.8684   23681478.5414   23681469.056
        43.0004         38.0004
 -14487991.12348 -11263587.05147  21953680.3624   21953688.9154   21953680.073
        49.0004         44.0004
   1517433.52046   1175794.28446  24400590.3874   24400598.8024   24400592.172
        41.0004         37.0004
 -11355663.53247  -8803670.94047  22301777.4314   22301784.9034   22301776.388
        47.0004         42.0004
  -9861271.17347  -7664834.73046  23321277.1534   23321283.8904   23321277.064
        43.0004         39.0004
 -11481203.29247  -8906705.93946  23297959.0984   23297968.3604   23297957.984
        45.0004         40.0004
 -24396674.21249 -18976861.06148  20217934.2634   20217939.5394   20217933.958
        54.0004         49.0004
 14  5  1  0  2 30.0000000  0 12G17G10G08G09G23G20G01G28G13G11G04G07
 -16507338.94648 -12818631.56847  21879652.3224   21879660.0664   21879651.978
        51.0004         47.0004
  -3638131.17746  -2830866.64246  24978477.6764   24978493.3024   24978478.499
        41.0004         36.0004
  -8017974.87048  -6242170.70747  21230910.5134   21230917.5444   21230911.124
        51.0004         47.0004
 -15245817.37448 -11833612.48647  21229752.9004   21229759.5554   21229752.826
        50.0004         46.0004
   3654057.93346   2858652.93746  24535854.4744   24535863.2994   24535853.805
        41.0004         36.0004
  -2967976.40947  -2098284.97946  23680434.0454   23680443.2474   23680434.026
        43.0004         39.0004
 -14427391.86848 -11216366.81947  21965212.5154   21965221.5304   21965211.704
        49.0004         44.0004
   1499301.95546   1161665.87546  24397142.1004   24397149.3854   24397141.786
        41.0004         37.0004
 -11274351.76347  -8740311.15747  22317250.3104   22317257.3244   22317249.493
        47.0004         42.0004
  -9765539.87747  -7590238.91046  23339494.4704   23339500.2994   23339494.519
        43.0004         39.0004
 -11581289.65947  -8984695.12646  23278912.6504   23278923.3094   23278912.380
        45.0004         40.0004
 -24420633.16049 -18995530.36148  20213375.2574   20213380.6254   20213375.018
        54.0004         49.0004
 14  5  1  0  3  0.0000000  0 12G17G10G08G09G23G20G01G28G13G11G04G07
 -16489952.61948 -12805083.75547  21882960.5994   21882968.5404   21882960.816
        51.0004         47.0004
  -3666140.12446  -2852691.63146  24973147.0454   24973162.2224   24973148.398
        41.0004         36.0004
  -8099962.33948  -6306057.00047  21215309.0814   21215316.1164   21215309.508
        51.0004         47.0004
 -15324730.84148 -11895103.45147  21214736.4674   21214742.5824   21214736.171
        50.0004         46.0004
   3742558.42346   2927614.45946  24552694.6594   24552703.3394   24552694.817
        41.0004         36.0004
  -2973385.68447  -2102499.94946  23679404.0124   23679413.2024   23679404.999
        43.0004         39.0004
 -14366338.34448 -11168792.60947  21976830.2134   21976839.2414   21976830.198
        49.0004         44.0004
   1480886.80746   1147316.47046  24393638.0854   24393644.3474   24393637.128
        41.0004         37.0004
 -11192969.00147  -8676896.05647  22332736.2674   22332743.5284   22332736.517
        47.0004         42.0004
  -9669581.92147  -7515466.46546  23357754.7714   23357761.4364   23357755.164
        44.0004         39.0004
 -11681292.80647  -9062619.47646  23259882.4104   23259893.1904   23259882.027
        45.0004         41.0004
 -24444042.96549 -19013771.76148  20208920.7634   20208925.4284   20208920.204
        54.0004         49.0004
 14  5  1  0  3 30.0000000  0 12G17G10G08G09G23G20G01G28G13G11G04G07
 -16472226.01048 -12791270.78347  21886334.4834   21886341.9714   21886333.722
        51.0004         47.0004
  -3694390.51546  -2874704.75546  24967772.4124   24967785.6774   24967771.509
        41.0004         36.0004
  -8181643.51748  -6369704.62947  21199765.7144   21199772.3904   21199765.800
        51.0004         47.0004
 -15403300.56748 -11956326.55847  21199784.3144   21199791.2804   21199784.974
        51.0004         46.0004
   3830884.97646   2996440.43046  24569502.3234   24569512.6824   24569503.098
        41.0004         36.0004
  -2978769.37547  -2106694.96746  23678379.4804   23678389.3084   23678380.020
        43.0004         39.0004
 -14304836.84748 -11120869.34647  21988533.4144   21988542.8294   21988532.874
        49.0004         44.0004
   1462183.26446   1132742.33746  24390078.5964   24390083.6814   24390078.168
        41.0004         37.0004
 -11111522.74347  -8613431.46047  22348235.5864   22348241.8434   22348234.988
        47.0004         42.0004
  -9573404.73747  -7440523.22146  23376056.7224   23376063.5374   23376056.602
        44.0004         39.0004
 -11781215.30347  -9140480.96746  23240867.0724   23240877.9004   23240867.198
        45.0004         41.0004
 -24466906.79249 -19031587.72248  20204569.4494   20204575.0284   20204569.083
        54.0004         49.0004
 14  5  1  0  4  0.0000000  0 12G17G10G08G09G23G20G01G28G13G11G04G07
 -16454156.43748 -12777190.56947  21889772.1714   21889779.5984   21889772.219
        51.0004         47.0004
  -3722878.30246  -2896902.81946  24962350.0534   24962364.7134   24962351.494
        41.0004         36.0004
  -8263010.13448  -6433107.14947  21184282.1514   21184289.0164   21184282.528
        51.0004         47.0004
 -15481519.00348 -12017275.93047  21184900.4764   21184906.4324   21184900.208
        51.0004         46.0004
   3919040.71046   3065133.27546  24586277.2004   24586286.1434   24586278.515
        41.0004         36.0004
  -2984120.76447  -2110864.83646  23677360.7504   23677369.6554   23677362.254
        44.0004         39.0004
 -14242884.04248 -11072594.40847  22000323.4924   22000331.5914   22000322.474
        49.0004         44.0004
   1443196.08346   1117947.22646  24386465.2104   24386471.2114   24386464.381
        41.0004         37.0004
 -11030011.09947  -8549915.91447  22363747.3094   22363753.9934   22363746.077
        47.0004         42.0004
  -9477005.99947  -7365407.27846  23394401.1784   23394407.8724   23394400.490
        44.0004         39.0004
 -11881049.47547  -9218273.65046  23221869.9354   23221880.2314   23221869.060
        45.0004         40.0004
 -24489218.09849 -19048973.15548  20200323.9814   20200329.1354   20200323.406
        54.0004         49.0004
 14  5  1  0  4 30.0000000  0 12G17G10G08G09G23G20G01G28G13G11G04G07
 -16435749.59548 -12762847.55347  21893275.5714   21893282.3964   21893275.256
        51.0004         47.0004
  -3751607.70146  -2919289.19146  24956883.6214   24956899.9364   24956884.069
        41.0004         36.0004
  -8344062.48848  -6496264.78547  21168858.3594   21168865.1304   21168858.652
        51.0004         47.0004
 -15559386.75648 -12077952.05447  21170082.4244   21170089.0144   21170082.632
        51.0004         46.0004
   4007020.44946   3133688.99546  24603018.9404   24603029.5244   24603021.280
        40.0004         36.0004
  -2989441.69447  -2115010.94746  23676348.8674   23676358.6814   23676349.154
        44.0004         39.0004
 -14180485.18648 -11023971.89447  22012196.5964   22012204.5754   22012196.382
        49.0004         44.0004
   1423921.45346   1102928.10946  24382796.8304   24382803.7284   24382796.897
        41.0004         37.0004
 -10948440.65647  -8486354.56247  22379268.4914   22379275.7004   22379268.493
        47.0004         42.0004
  -9380392.30747  -7290123.86746  23412785.9014   23412792.6534   23412786.306
        43.0004         39.0004
 -11980796.54947  -9295998.47246  23202889.3514   23202898.9444   23202888.003
        45.0004         41.0004
 -24510978.98249 -19065929.68548  20196183.2364   20196188.1094   20196182.763
        54.0004         49.0004
 14  5  1  0  5  0.0000000  0 12G17G10G08G09G23G20G01G28G13G11G04G07
 -16417002.43948 -12748239.35247  21896842.9694   21896849.9804   21896842.377
        51.0004         47.0004
  -3780573.85846  -2941860.05246  24951371.0854   24951385.8594   24951372.123
        41.0004         36.0004
  -8424792.15648  -6559170.98047  21153495.5914   21153502.8284   21153496.001
        51.0004         47.0004
 -15636895.53748 -12138348.45747  21155332.9754   21155340.1304   21155333.265
        51.0004         46.0004
   4094827.44646   3202110.12146  24619729.4554   24619737.7644   24619729.705
        40.0004         36.0004
  -2994725.00347  -2119127.74846  23675343.3324   23675352.4464   23675343.784
        43.0004         39.0004
 -14117636.65248 -10974998.97247  22024156.7554   22024165.2354   22024156.498
        49.0004         44.0004
   1404364.54747   1087689.02646  24379074.5954   24379083.6554   24379075.146
        42.0004         37.0004
 -10866809.12547  -8422745.59847  22394803.4674   22394811.7524   22394802.211
        47.0004         42.0004
  -9283561.08247  -7214670.94946  23431211.2264   23431218.5214   23431212.910
        43.0004         39.0004
 -12080448.67747  -9373649.31346  23183924.8134   23183934.8244   23183925.095
        45.0004         41.0004
 -24532182.78249 -19082452.12448  20192148.2254   20192153.1294   20192147.809
        54.0004         49.0004
 14  5  1  0  5 30.0000000  0 12G17G10G08G09G23G20G01G28G13G11G04G07
 -16397924.30848 -12733373.25347  21900473.3864   21900480.7254   21900473.193
        51.0004         47.0004
  -3809784.02846  -2964621.03846  24945813.3634   24945828.6644   24945813.681
        41.0004         36.0004
  -8505202.66148  -6621828.47647  21138194.0544   21138201.3034   21138194.728
        51.0004         47.0004
 -15714049.26948 -12198468.20447  21140650.6164   21140657.3994   21140651.080
        51.0004         46.0004
   4182453.30246   3270390.06146  24636404.9354   24636411.8124   24636404.059
        40.0004         36.0004
  -2999976.04847  -2123219.41046  23674345.1404   23674353.5874   23674344.694
        44.0004         39.0004
 -14054346.80248 -10925682.17947  22036200.3314   22036208.8264   22036199.811
        49.0004         44.0004
   1384518.41947   1072224.58646  24375298.7344   24375306.8094   24375298.649
        42.0004         37.0004
 -10785125.93247  -8359096.38247  22410346.4354   22410354.4884   22410346.923
        47.0004         42.0004
  -9186521.80147  -7139055.94146  23449678.4974   23449684.5044   23449678.324
        43.0004         39.0004
 -12180010.06447  -9451229.44546  23164978.9344   23164989.9044   23164978.107
        45.0004         41.0004
 -24552834.66049 -19098544.48748  20188218.4294   20188223.6654   20188217.831
        54.0004         49.0004
 14  5  1  0  6  0.0000000  0 12G17G10G08G09G23G20G01G28G13G11G04G07
 -16378513.52548 -12718247.94947  21904167.3024   21904174.3814   21904166.750
        51.0004         47.0004
  -3839235.40646  -2987569.98246  24940208.9804   24940222.9524   24940209.436
        41.0004         37.0004
  -8585286.55848  -6684231.48147  21122954.6034   21122961.3414   21122955.197
        52.0004         47.0004
 -15790841.42548 -12258306.19147  21126038.2124   21126044.5394   21126038.009
        51.0004         46.0004
   4269900.17046   3338530.55946  24653043.9144   24653053.2554   24653044.327
        40.0004         36.0004
  -3005188.73147  -2127281.19446  23673352.2244   23673361.9664   23673353.141
        44.0004         39.0004
 -13990613.59848 -10876019.91747  22048328.0944   22048336.9784   22048327.707
        49.0004         44.0004
   1364386.67047   1056537.59946  24371467.6934   24371473.5704   24371467.480
        42.0004         37.0004
 -10703390.40747  -8295406.39247  22425900.9174   22425907.5164   22425900.614
        47.0004         42.0004
  -9089273.52647  -7063278.09746  23468182.4314   23468189.5524   23468183.793
        43.0004         38.0004
 -12279474.56147  -9528734.07846  23146051.5954   23146062.4254   23146051.083
        46.0004         41.0004
 -24572929.32149 -19114202.66048  20184394.4944   20184399.3384   20184394.002
        54.0004         49.0004
 14  5  1  0  6 30.0000000  0 12G17G10G08G09G23G20G01G28G13G11G04G07
 -16358773.15348 -12702865.82147  21907923.7674   21907931.0154   21907923.239
        51.0004         47.0004
  -3868928.62146  -3010707.36446  24934557.8174   24934572.2684   24934558.330
        41.0004         37.0004
  -8665041.17548  -6746377.90047  21107778.3184   21107784.6184   21107778.393
        52.0004         47.0004
 -15867269.30648 -12317860.34147  21111494.1774   21111500.7154   21111494.282
        51.0004         46.0004
   4357165.93146   3406529.92345  24669650.7214   24669661.3304   24669650.294
        40.0004         35.0004
  -3010362.30147  -2131312.46946  23672367.5884   23672376.7904   23672367.774
        44.0004         39.0004
 -13926439.11748 -10826013.79547  22060540.2034   22060550.6394   22060539.931
        49.0004         44.0004
   1343968.65146   1040627.53946  24367581.8134   24367589.4224   24367582.146
        41.0004         36.0004
 -10621606.04847  -8231678.33847  22441463.8504   22441470.1274   22441462.894
        47.0004         42.0004
  -8991818.74547  -6987339.26446  23486728.8434   23486734.2804   23486728.833
        43.0004         38.0004
 -12378839.94847  -9606161.48746  23127143.4084   23127152.8114   23127142.258
        46.0004         41.0004
 -24592465.90049 -19129425.96148  20180676.7324   20180681.5774   20180676.245
        54.0004         49.0004
 14  5  1  0  7  0.0000000  0 12G17G10G08G09G23G20G01G28G13G11G04G07
 -16338704.61148 -12687227.98347  21911742.4684   21911750.2604   21911741.725
        51.0004         46.0004
  -3898863.52146  -3034033.07446  24928861.0814   24928876.2884   24928862.042
        41.0004         36.0004
  -8744462.33148  -6808264.48047  21092664.5364   21092671.1384   21092665.084
        52.0004         47.0004
 -15943329.36548 -12377127.87247  21097020.4444   21097026.5404   21097020.501
        51.0004         46.0004
   4444249.46646   3474387.31246  24686221.9974   24686228.1664   24686221.859
        40.0004         36.0004
  -3015494.04547  -2135311.16846  23671391.3934   23671400.3904   23671392.073
        43.0004         39.0004
 -13861824.29448 -10775664.55847  22072836.0364   22072844.6234   22072835.539
        49.0004         44.0004
   1323265.23446   1024495.07546  24363641.3574   24363647.3424   24363642.110
        41.0004         36.0004
 -10539774.43947  -8167913.46747  22457036.1544   22457043.1374   22457035.108
        47.0004         42.0004
  -8894160.09947  -6911241.59746  23505312.5364   23505317.4474   23505312.348
        43.0004         38.0004
 -12478102.70447  -9683508.93446  23108252.8824   23108263.9984   23108253.094
        46.0004         41.0004
 -24611442.27749 -19144212.74348  20177065.6234   20177070.4784   20177065.241
        54.0004         49.0004
 14  5  1  0  7 30.0000000  0 12G17G10G08G09G23G20G01G28G13G11G04G07
 -16318312.12448 -12671337.71847  21915623.6994   21915630.2314   21915622.564
        51.0004         46.0004
  -3929042.53046  -3057549.00446  24923119.1224   24923132.2064   24923118.384
        41.0004         36.0004
  -8823548.72048  -6869890.20147  21077614.9374   21077621.8054   21077615.208
        52.0004         47.0004
 -16019020.78748 -12436108.15647  21082617.0714   21082623.0734   21082616.806
        51.0004         46.0004
   4531147.63346   3542100.24145  24702759.1644   24702763.8764   24702758.176
        40.0004         35.0004
  -3020584.01647  -2139277.31346  23670422.5964   23670431.3084   23670422.682
        43.0004         39.0004
 -13796772.77948 -10724975.03447  22085215.3984   22085223.7494   22085214.225
        49.0004         44.0004
   1302274.30246   1008138.59346  24359648.1234   24359653.3634   24359648.024
        41.0004         36.0004
 -10457900.52347  -8104115.63347  22472616.9814   22472622.6794   22472615.930
        47.0004         42.0004
  -8796301.90847  -6834988.44446  23523933.6824   23523940.4794   23523934.048
        43.0004         38.0004
 -12577262.38647  -9760776.06846  23089383.5254   23089394.9754   23089383.574
        46.0004         41.0004
 -24629859.11149 -19158563.52048  20173560.9804   20173565.9234   20173560.738
        54.0004         49.0004
 14  5  1  0  8  0.0000000  0 12G17G10G08G09G23G20G01G28G13G11G04G07
 -16297594.85648 -12655194.36447  21919565.2034   21919572.3744   21919564.835
        51.0004         46.0004
  -3959463.77046  -3081253.68846  24917326.8384   24917343.1074   24917328.747
        41.0004         36.0004
  -8902294.43248  -6931250.45147  21062630.0824   21062636.7394   21062630.383
        52.0004         47.0004
 -16094338.01048 -12494796.86547  21068284.4804   21068290.5624   21068284.660
        51.0004         46.0004
   4617861.21046   3609669.33545  24719260.1634   24719267.3394   24719258.489
        40.0004         35.0004
  -3025627.54447  -2143207.27446  23669463.8394   23669471.8234   23669463.814
        44.0004         39.0004
 -13731283.57348 -10673944.44747  22097677.6104   22097685.3774   22097676.851
        49.0004         44.0004
   1280998.60446    991560.20246  24355599.2054   24355605.7934   24355598.695
        41.0004         36.0004
 -10375984.62547  -8040285.09047  22488204.2624   22488212.1004   22488203.899
        47.0004         42.0004
  -8698243.93447  -6758579.60946  23542595.0634   23542600.0764   23542593.878
        43.0004         38.0004
 -12676313.77147  -9837958.81346  23070535.3064   23070545.6874   23070533.835
        46.0004         41.0004
 -24647711.85149 -19172474.74848  20170163.9464   20170168.8714   20170163.437
        54.0004         49.0004
 14  5  1  0  8 30.0000000  0 12G17G10G08G09G23G20G01G28G13G11G04G07
 -16276555.62348 -12638800.13447  21923569.3544   21923576.0784   21923568.464
        51.0004         46.0004
  -3990127.66046  -3105147.44046  24911493.8384   24911509.1864   24911493.334
        41.0004         36.0004
  -8980696.20648  -6992342.70547  21047710.7564   21047717.1934   21047711.073
        52.0004         47.0004
 -16169278.18248 -12553191.76047  21054023.7634   21054030.0484   21054023.455
        51.0004         46.0004
   4704388.52246   3677093.32745  24735724.4464   24735732.9954   24735724.403
        40.0004         35.0004
  -3030623.30447  -2147100.01746  23668512.2544   23668520.9124   23668512.291
        43.0004         39.0004
 -13665358.43948 -10622574.18647  22110221.9254   22110231.6374   22110221.501
        49.0004         44.0004
   1259438.10246    974759.90546  24351497.0224   24351503.9964   24351495.922
        41.0004         36.0004
 -10294029.47147  -7976423.93747  22503799.3994   22503807.6624   22503798.978
        46.0004         42.0004
  -8599989.15247  -6682017.43446  23561290.9644   23561297.3064   23561291.020
        43.0004         38.0004
 -12775254.25847  -9915055.14246  23051707.0554   23051717.5464   23051706.712
        46.0004         41.0004
 -24664999.47849 -19185945.62148  20166874.2414   20166878.7524   20166873.661
        54.0004         49.0004
 14  5  1  0  9  0.0000000  0 12G17G10G08G09G23G20G01G28G13G11G04G07
 -16255197.82248 -12622157.67147  21927633.1404   21927640.0644   21927633.007
        51.0004         46.0004
  -4021035.75446  -3129231.50646  24905611.5444   24905625.8514   24905611.945
        41.0004         36.0004
  -9058751.73448  -7053165.16247  21032857.3254   21032863.6374   21032857.623
        52.0004         47.0004
 -16243839.29648 -12611291.29147  21039835.5504   21039841.7184   21039835.175
        51.0004         46.0004
   4790727.12246   3744370.24145  24752154.2154   24752162.8344   24752153.745
        40.0004         35.0004
  -3035570.44747  -2150954.87046  23667570.5914   23667579.7244   23667571.291
        43.0004         38.0004
 -13599000.27848 -10570866.49747  22122850.8154   22122858.1904   22122849.554
        49.0004         44.0004
   1237591.69946    957736.83046  24347338.5544   24347346.9554   24347338.681
        41.0004         36.0004
 -10212038.94147  -7912535.22747  22519400.7174   22519408.9974   22519401.297
        46.0004         42.0004
  -8501541.41347  -6605304.91146  23580025.4884   23580030.3664   23580025.408
        43.0004         38.0004
 -12874082.33147  -9992063.87946  23032900.3604   23032912.0534   23032899.928
        46.0004         41.0004
 -24681721.94249 -19198976.10748  20163691.6524   20163697.0044   20163691.354
        54.0004         49.0004
 14  5  1  0  9 30.0000000  0 12G17G10G08G09G23G20G01G28G13G11G04G07
 -16233523.80548 -12605268.80547  21931757.3244   21931764.6284   21931757.276
        51.0004         46.0004
  -4052188.15346  -3153505.92346  24899683.3674   24899698.0794   24899683.949
        41.0004         36.0004
  -9136457.71848  -7113715.24747  21018070.0054   21018076.7884   21018070.570
        52.0004         47.0004
 -16318018.52748 -12669093.25647  21025719.4784   21025725.8214   21025719.447
        51.0004         46.0004
   4876875.27146   3811498.75246  24768547.8574   24768557.8564   24768547.118
        40.0004         36.0004
  -3040466.67447  -2154770.06146  23666638.3764   23666648.0274   23666639.021
        43.0004         39.0004
 -13532210.68048 -10518822.62247  22135559.4034   22135567.1634   22135559.004
        49.0004         44.0004
   1215459.18046    940490.80046  24343126.7574   24343133.4004   24343126.828
        41.0004         37.0004
 -10130015.93647  -7848621.21047  22535010.5814   22535018.7054   22535009.624
        46.0004         42.0004
  -8402903.09847  -6528443.89246  23598796.3624   23598801.2104   23598795.532
        43.0004         38.0004
 -12972795.35047 -10068982.96646  23014115.3934   23014126.0464   23014115.742
        46.0004         41.0004
 -24697877.54349 -19211564.88348  20160617.7324   20160622.3554   20160617.338
        54.0004         49.0004
 14  5  1  0 10  0.0000000  0 12G17G10G08G09G23G20G01G28G13G11G04G07
 -16211534.88748 -12588134.56847  21935941.7214   21935948.8784   21935941.317
        51.0004         46.0004
  -4083584.72546  -3177970.60246  24893708.2814   24893724.0034   24893708.966
        41.0004         37.0004
  -9213810.17548  -7173989.86247  21003350.4434   21003356.9574   21003350.737
        52.0004         47.0004
 -16391812.41148 -12726594.94947  21011676.7534   21011682.9894   21011676.531
        51.0004         46.0004
   4962831.96846   3878478.07846  24784907.3324   24784912.2514   24784904.808
        40.0004         36.0004
  -3045309.84647  -2158543.91146  23665716.6264   23665725.7044   23665717.540
        43.0004         39.0004
 -13464990.76948 -10466443.43947  22148349.9524   22148359.3614   22148350.447
        49.0004         44.0004
   1193041.61446    923022.66446  24338861.6374   24338868.5954   24338861.012
        41.0004         37.0004
 -10047962.54847  -7784683.51146  22550624.9634   22550632.3394   22550624.173
        46.0004         41.0004
  -8304076.39747  -6451436.05346  23617601.8374   23617607.3704   23617601.672
        43.0004         38.0004
 -13071390.07847 -10145809.87146  22995354.2854   22995364.6294   22995353.476
        45.0004         41.0004
 -24713464.55349 -19223710.59948  20157651.4914   20157656.5764   20157650.818
        54.0004         49.0004
 14  5  1  0 10 30.0000000  0 12G17G10G08G09G23G20G01G28G13G11G04G07
 -16189234.36348 -12570757.51847  21940185.4894   21940192.6164   21940184.869
        51.0004         46.0004
  -4115226.91046  -3202626.67346  24887687.4064   24887702.7314   24887687.928
        41.0004         37.0004
  -9290806.79748  -7233987.20147  20988698.0374   20988704.8794   20988698.979
        52.0004         47.0004
 -16465218.88348 -12783794.75347  20997707.7304   20997714.2354   20997707.934
        51.0004         46.0004
   5048595.33746   3945306.75046  24801223.5824   24801232.3614   24801224.889
        40.0004         36.0004
  -3050098.83047  -2162275.53746  23664805.9384   23664815.1554   23664806.286
        43.0004         39.0004
 -13397343.13148 -10413730.96447  22161223.6654   22161231.6424   22161223.438
        49.0004         44.0004
   1170338.25146    905331.81946  24334539.4124   24334548.2964   24334540.172
        41.0004         37.0004
  -9965882.16647  -7720724.79646  22566243.1744   22566252.5514   22566243.569
        46.0004         41.0004
  -8205064.65547  -6374284.02046  23636443.5224   23636449.8354   23636442.975
        43.0004         38.0004
 -13169864.65347 -10222543.16346  22976615.0214   22976624.1074   22976614.455
        46.0004         41.0004
 -24728482.44149 -19235412.84848  20154793.6584   20154798.4294   20154793.299
        54.0004         49.0004
 14  5  1  0 11  0.0000000  0 12G17G10G08G09G23G20G01G28G13G11G04G07
 -16166621.82748 -12553137.35047  21944488.4834   21944496.0534   21944488.052
        51.0004         46.0004
  -4147112.50546  -3227472.40246  24881620.1744   24881632.9274   24881619.904
        41.0004         36.0004
  -9367441.18348  -7293702.28047  20974115.5904   20974121.7704   20974115.863
        52.0004         47.0004
 -16538232.31248 -12840688.30647  20983813.8504   20983819.7824   20983814.204
        51.0004         47.0004
   5134166.30446   4011985.51645  24817507.0594   24817516.3434   24817508.056
        40.0004         35.0004
  -3054828.77347  -2165961.14346  23663906.1004   23663914.9434   23663906.203
        44.0004         39.0004
 -13329266.87148 -10360684.50147  22174178.6244   22174186.7864   22174178.029
        49.0004         44.0004
   1147351.63647    887420.27346  24330166.1804   24330171.7174   24330166.148
        42.0004         37.0004
  -9883774.90747  -7656745.12846  22581869.3844   22581876.8764   22581867.604
        46.0004         41.0004
  -8105868.08447  -6296987.98846  23655320.3434   23655324.9224   23655319.405
        43.0004         38.0004
 -13268213.61747 -10299178.56346  22957899.7544   22957908.5894   22957899.411
        46.0004         41.0004
 -24742927.18049 -19246668.48148  20152044.9904   20152049.7904   20152044.442
        54.0004         49.0004
 14  5  1  0 11 30.0000000  0 12G17G10G08G09G23G20G01G28G13G11G04G07
 -16143702.67548 -12535278.24947  21948850.1444   21948857.3674   21948849.606
        51.0004         46.0004
  -4179244.44346  -3252510.09646  24875504.0894   24875519.9894   24875506.229
        41.0004         36.0004
  -9443712.84848  -7353134.72347  20959601.6194   20959607.8664   20959601.597
        52.0004         47.0004
 -16610852.57748 -12897275.49747  20969994.6514   20970001.1934   20969994.693
        51.0004         47.0004
   5219540.65046   4078511.06745  24833752.3824   24833760.5714   24833754.097
        40.0004         35.0004
  -3059500.99447  -2169601.78246  23663016.4804   23663025.5814   23663017.281
        44.0004         39.0004
 -13260766.43048 -10307307.50247  22187213.3994   22187223.3094   22187212.980
        49.0004         44.0004
   1124079.34746    869286.13846  24325737.8314   24325744.4154   24325737.460
        41.0004         37.0004
  -9801646.17547  -7592748.71146  22597496.7754   22597504.3634   22597495.852
        46.0004         41.0004
  -8006491.57547  -6219551.76346  23674229.9934   23674235.8364   23674230.119
        42.0004         38.0004
 -13366437.15147 -10375716.24546  22939207.1384   22939217.2444   22939207.344
        46.0004         41.0004
 -24756800.19849 -19257478.62048  20149404.7334   20149410.0064   20149404.339
        54.0004         49.0004
 14  5  1  0 12  0.0000000  0 12G17G10G08G09G23G20G01G28G13G11G04G07
 -16120478.69448 -12517181.63147  21953269.4914   21953276.2814   21953268.727
        51.0004         46.0004
  -4211623.17046  -3277740.10446  24869342.5384   24869357.8814   24869343.633
        41.0004         36.0004
  -9519618.43048  -7412281.90347  20945157.3404   20945163.7694   20945157.665
        52.0004         47.0004
 -16683076.81148 -12953554.08947  20956250.9904   20956257.1884   20956250.842
        51.0004         47.0004
   5304716.82046   4144882.18745  24849963.3304   24849970.9754   24849961.774
        40.0004         35.0004
  -3064113.61747  -2173195.97446  23662139.0874   23662147.8064   23662139.121
        43.0004         39.0004
 -13191843.66048 -10253601.41847  22200329.4634   22200337.5634   22200328.525
        49.0004         44.0004
   1100520.86147    850928.96846  24321253.8024   24321262.1084   24321254.441
        42.0004         37.0004
  -9719498.57347  -7528737.60446  22613128.7274   22613136.2134   22613128.507
        46.0004         41.0004
  -7906938.00247  -6141977.51646  23693175.2884   23693180.3444   23693174.749
        42.0004         38.0004
 -13464532.47547 -10452154.00446  22920541.4084   22920551.1104   22920541.149
        46.0004         41.0004
 -24770100.29549 -19267842.33348  20146873.8364   20146879.2074   20146873.558
        54.0004         49.0004
 14  5  1  0 12 30.0000000  0 12G17G10G08G09G23G20G01G28G13G11G04G07
 -16096948.45548 -12498846.35747  21957746.8464   21957753.7054   21957746.512
        51.0004         46.0004
  -4244244.77446  -3303159.35746  24863133.4984   24863148.5014   24863135.358
        41.0004         36.0004
  -9595150.47648  -7471138.02247  20930783.7914   20930790.2544   20930784.018
        52.0004         47.0004
 -16754897.93648 -13009518.57247  20942583.9654   20942589.8844   20942583.930
        51.0004         47.0004
   5389697.75946   4211101.15045  24866133.9574   24866142.9804   24866133.511
        40.0004         35.0004
  -3068660.57947  -2176739.01046  23661274.0364   23661282.2534   23661273.724
        43.0004         39.0004
 -13122496.13948 -10199564.35647  22213525.0454   22213534.0364   22213525.373
        49.0004         44.0004
   1076681.28947    832352.77746  24316718.0394   24316727.1614   24316718.381
        42.0004         37.0004
  -9637330.72047  -7464710.71746  22628766.6284   22628771.5574   22628764.875
        46.0004         41.0004
  -7807205.85547  -6064264.16046  23712153.5794   23712159.6294   23712153.116
        42.0004         38.0004
 -13562492.95147 -10528486.68946  22901900.0604   22901909.5944   22901899.143
        46.0004         41.0004
 -24782822.24049 -19277755.54148  20144452.9734   20144458.4004   20144452.740
        54.0004         49.0004
 14  5  1  0 13  0.0000000  0 12G17G10G08G09G23G20G01G28G13G11G04G07
 -16073120.70948 -12480279.25947  21962281.6454   21962288.3734   21962280.849
        51.0004         46.0004
  -4277116.03046  -3328773.14446  24856879.7654   24856894.1444   24856880.693
        41.0004         37.0004
  -9670312.07448  -7529705.47048  20916481.1524   20916487.4714   20916481.446
        52.0004         48.0004
 -16826319.69848 -13065171.87147  20928992.7804   20928998.9764   20928992.713
        51.0004         47.0004
   5474475.27646   4277161.60745  24882266.6024   24882274.7414   24882265.753
        40.0004         35.0004
  -3073146.23147  -2180234.26046  23660418.2524   23660428.5574   23660419.767
        43.0004         39.0004
 -13052732.18048 -10145202.80447  22226801.1724   22226809.6864   22226800.814
        48.0004         44.0004
   1052554.16047    813552.51846  24312127.5114   24312133.3784   24312126.825
        42.0004         37.0004
  -9555151.79247  -7400675.18546  22644402.8444   22644411.3484   22644402.797
        46.0004         41.0004
  -7707304.23247  -5986418.74546  23731164.0054   23731169.2914   23731163.996
        43.0004         38.0004
 -13660322.08847 -10604717.03346  22883282.8464   22883293.0274   22883283.182
        46.0004         41.0004
 -24794971.27249 -19287222.32748  20142141.2604   20142146.1244   20142140.985
        54.0004         49.0004
 14  5  1  0 13 30.0000000  0 12G17G10G08G09G23G20G01G28G13G11G04G07
 -16048993.05948 -12461478.47247  21966872.7584   21966879.2934   21966871.852
        51.0004         46.0004
  -4310232.45746  -3354577.96846  24850578.3844   24850591.4814   24850578.230
        41.0004         37.0004
  -9745095.41848  -7587978.17648  20902250.2614   20902256.7474   20902250.530
        52.0004         48.0004
 -16897334.46448 -13120508.02447  20915479.2164   20915484.5674   20915478.782
        51.0004         47.0004
   5559052.79946   4343066.25245  24898359.0794   24898368.8094   24898360.305
        39.0004         35.0004
  -3077564.30247  -2183676.86346  23659579.4214   23659588.5204   23659579.547
        43.0004         39.0004
 -12982548.97148 -10090514.55447  22240156.6484   22240165.0084   22240156.180
        48.0004         44.0004
   1028144.04847    794531.76146  24307481.6364   24307490.1184   24307481.690
        42.0004         37.0004
  -9472959.84247  -7336629.52946  22660045.4654   22660052.6964   22660043.813
        46.0004         41.0004
  -7607231.00847  -5908439.58546  23750208.0124   23750212.5234   23750207.437
        43.0004         38.0004
 -13758012.76847 -10680839.48046  22864693.0764   22864701.8024   22864692.606
        46.0004         41.0004
 -24806541.34549 -19296237.97148  20139939.5414   20139944.3134   20139939.136
        54.0004         49.0004
 14  5  1  0 14  0.0000000  0 12G17G10G08G09G23G20G01G28G13G11G04G07
 -16024568.00848 -12442445.94347  21971519.8144   21971527.5684   21971520.063
        51.0004         46.0004
  -4343594.78146  -3380574.39146  24844229.3064   24844243.0604   24844229.246
        41.0004         37.0004
  -9819497.12848  -7645953.51247  20888091.5064   20888098.5164   20888092.214
        52.0004         47.0004
 -16967939.59348 -13175524.97647  20902043.4394   20902049.1164   20902043.336
        51.0004         47.0004
   5643428.82846   4408813.87445  24914414.4584   24914424.8554   24914417.146
        39.0004         34.0004
  -3081912.79247  -2187065.24746  23658751.6844   23658760.5924   23658751.721
        43.0004         39.0004
 -12911948.66748 -10035501.30447  22253591.2544   22253599.9264   22253590.439
        48.0004         44.0004
   1003450.68847    775290.27946  24302783.9304   24302788.2644   24302782.935
        42.0004         37.0004
  -9390757.59147  -7272575.82746  22675687.5154   22675694.1854   22675685.853
        46.0004         41.0004
  -7506989.18347  -5830329.05446  23769282.3804   23769288.0414   23769282.677
        43.0004         38.0004
 -13855562.35747 -10756851.98746  22846130.3354   22846138.8664   22846130.427
        46.0004         41.0004
 -24817531.71049 -19304801.89548  20137848.1264   20137852.8714   20137847.726
        54.0004         49.0004
 14  5  1  0 14 30.0000000  0 12G17G10G08G09G23G20G01G28G13G11G04G07
 -15999849.32348 -12423184.60647  21976224.2274   21976231.2354   21976223.792
        51.0004         46.0004
  -4377204.38946  -3406763.50946  24837832.4104   24837847.2854   24837833.960
        41.0004         37.0004
  -9893515.48748  -7703630.13548  20874006.9924   20874013.0694   20874007.407
        52.0004         48.0004
 -17038133.69348 -13230221.65147  20888685.5354   20888691.5124   20888685.768
        51.0004         47.0004
   5727600.53346   4474402.25045  24930434.0724   24930440.8654   24930434.136
        39.0004         34.0004
  -3086190.95947  -2190398.82746  23657937.9814   23657946.7324   23657938.417
        43.0004         39.0004
 -12840934.33148  -9980165.43347  22267105.2664   22267112.4084   22267104.584
        48.0004         44.0004
    978473.39447    755827.54946  24298030.0354   24298036.9454   24298030.151
        42.0004         37.0004
  -9308548.98047  -7208517.17746  22691329.7624   22691337.1814   22691329.725
        46.0004         41.0004
  -7406582.40347  -5752090.00046  23788389.9414   23788394.7314   23788389.459
        42.0004         38.0004
 -13952969.61847 -10832753.60346  22827593.9234   22827602.5764   22827593.671
        46.0004         41.0004
 -24827942.75149 -19312914.39748  20135866.9054   20135872.0234   20135866.587
        54.0004         49.0004
 14  5  1  0 15  0.0000000  0 12G17G10G08G09G23G20G01G28G13G11G04G07
 -15974838.50348 -12403695.63547  21980983.8994   21980990.9294   21980983.025
        51.0004         46.0004
  -4411060.81947  -3433144.97646  24831391.9994   24831405.1794   24831391.343
        42.0004         37.0004
  -9967146.46248  -7761004.90048  20859995.3134   20860001.2464   20859995.678
        52.0004         48.0004
 -17107913.15148 -13284595.23347  20875407.2144   20875413.6174   20875407.158
        51.0004         47.0004
   5811567.40146   4539831.02545  24946413.4674   24946420.6484   24946412.833
        39.0004         34.0004
  -3090396.29147  -2193675.66046  23657135.9734   23657146.5104   23657137.196
        44.0004         39.0004
 -12769507.10448  -9924507.82847  22280697.0354   22280705.6924   22280696.571
        48.0004         44.0004
    953213.07047    736144.26746  24293222.2774   24293229.0824   24293222.884
        42.0004         37.0004
  -9226336.01047  -7144455.13446  22706974.5904   22706983.1034   22706974.352
        45.0004         41.0004
  -7306012.84047  -5673724.11546  23807527.6034   23807532.5654   23807527.343
        43.0004         38.0004
 -14050230.95147 -10908541.48847  22809086.3614   22809095.1254   22809085.324
        46.0004         42.0004
 -24837772.47149 -19320573.92248  20133996.2754   20134001.3204   20133996.064
        54.0004         50.0004
 14  5  1  0 15 30.0000000  0 12G17G10G08G09G23G20G01G28G13G11G04G07
 -15949538.98548 -12383981.70147  21985797.8754   21985805.0934   21985797.316
        51.0004         46.0004
  -4445165.49246  -3459719.85946  24824901.8604   24824914.8394   24824900.973
        41.0004         37.0004
 -10040387.78348  -7818076.04448  20846057.7844   20846064.0524   20846058.382
        52.0004         48.0004
 -17177276.24248 -13338644.37147  20862208.0914   20862213.9914   20862207.763
        52.0004         47.0004
   5895326.87246   4605098.19645  24962350.3864   24962357.2574   24962352.031
        39.0004         34.0004
  -3094528.34347  -2196895.38146  23656350.9144   23656359.8604   23656351.063
        43.0004         39.0004
 -12697669.82248  -9868530.69847  22294367.2344   22294375.2314   22294366.518
        48.0004         44.0004
    927668.84347    716239.76246  24288361.4064   24288367.2244   24288362.051
        42.0004         37.0004
  -9144122.36747  -7080392.55546  22722619.1654   22722628.0834   22722619.063
        45.0004         41.0004
  -7205283.91047  -5595234.02346  23826694.2034   23826699.5944   23826695.377
        42.0004         38.0004
 -14147344.61647 -10984214.32047  22790605.0014   22790613.7724   22790604.834
        46.0004         42.0004
 -24847020.82249 -19327780.43448  20132236.5594   20132241.4394   20132236.059
        54.0004         50.0004
 14  5  1  0 16  0.0000000  0 12G17G10G08G09G23G20G01G28G13G11G04G07
 -15923951.67248 -12364043.50747  21990667.1834   21990674.8634   21990666.301
        51.0004         46.0004
  -4479517.08946  -3486487.14546  24818363.1954   24818377.7324   24818364.223
        41.0004         37.0004
 -10113234.71648  -7874839.86248  20832195.5684   20832201.9834   20832195.945
        52.0004         48.0004
 -17246218.42648 -13392365.52547  20849088.3454   20849094.4324   20849088.323
        52.0004         47.0004
   5978879.10346   4670203.87145  24978254.0384   24978258.4884   24978251.107
        39.0004         35.0004
  -3098583.72347  -2200055.35946  23655578.3584   23655588.0764   23655579.137
        43.0004         39.0004
 -12625423.05448  -9812234.48747  22308114.8544   22308123.7554   22308115.039
        48.0004         44.0004
    901842.47247    696115.40546  24283446.9574   24283452.8384   24283446.905
        42.0004         37.0004
  -9061909.03547  -7016330.21346  22738265.4304   22738271.3714   22738263.343
        45.0004         41.0004
  -7104396.69547  -5516620.61146  23845893.6174   23845898.7994   23845893.893
        42.0004         38.0004
 -14244306.63447 -11059768.96947  22772153.8004   22772163.1394   22772153.279
        46.0004         42.0004
 -24855685.39649 -19334532.04748  20130587.7104   20130592.5694   20130587.414
        54.0004         50.0004
 14  5  1  0 16 30.0000000  0 12G17G10G08G09G23G20G01G28G13G11G04G07
 -15898080.96548 -12343884.49447  21995589.5944   21995596.8884   21995589.462
        51.0004         46.0004
  -4514117.92346  -3513448.63746  24811780.0344   24811793.5044   24811779.132
        41.0004         37.0004
 -10185685.75148  -7931295.18148  20818408.6424   20818415.3624   20818408.995
        52.0004         48.0004
 -17314739.35648 -13445758.43547  20836049.4704   20836055.2054   20836049.262
        52.0004         47.0004
   6062220.99946   4735145.64945  24994113.3124   24994116.9814   24994110.872
        39.0004         35.0004
  -3102561.77147  -2203155.09746  23654822.7064   23654830.5514   23654823.156
        44.0004         39.0004
 -12552770.56748  -9755622.13547  22321940.2274   22321949.6364   22321939.898
        48.0004         44.0004
    875732.32447    675769.93146  24278478.1594   24278484.6404   24278478.397
        42.0004         37.0004
  -8979700.64647  -6952271.73746  22753907.9454   22753914.0964   22753907.388
        45.0004         41.0004
  -7003355.73047  -5437887.40946  23865120.2404   23865125.1934   23865121.155
        42.0004         37.0004
 -14341116.12947 -11135204.76647  22753731.3494   22753740.3424   22753730.913
        46.0004         42.0004
 -24863767.28549 -19340829.61748  20129049.9534   20129055.0584   20129049.280
        54.0004         50.0004
 14  5  1  0 17  0.0000000  0 12G17G10G08G09G23G20G01G28G13G11G04G07
 -15871926.81648 -12323504.61047  22000567.0944   22000573.8504   22000566.811
        51.0004         46.0004
  -4548966.19146  -3540602.94446  24805147.0884   24805161.7884   24805147.864
        41.0004         36.0004
 -10257735.03648  -7987437.45948  20804698.1804   20804704.2024   20804698.377
        53.0004         48.0004
 -17382833.57548 -13498818.84847  20823091.1364   20823097.8334   20823091.414
        52.0004         47.0004
   6145353.44846   4799924.22645  25009931.1814   25009935.0764   25009930.528
        39.0004         34.0004
  -3106458.33347  -2206191.33246  23654080.6404   23654089.3994   23654080.800
        44.0004         39.0004
 -12479711.93348  -9698693.30147  22335845.0004   22335850.6074   22335843.075
        48.0004         44.0004
    849341.06747    655205.40046  24273456.8744   24273462.2334   24273456.290
        42.0004         37.0004
  -8897497.20647  -6888217.11746  22769550.7954   22769556.7744   22769550.741
        45.0004         41.0004
  -6902161.45347  -5359034.70646  23884377.3084   23884383.3814   23884377.449
        42.0004         37.0004
 -14437767.72547 -11210517.52847  22735338.9244   22735349.2184   22735338.649
        46.0004         42.0004
 -24871262.99849 -19346670.43348  20127623.1334   20127628.3754   20127622.849
        54.0004         50.0004
 14  5  1  0 17 30.0000000  0 12G17G10G08G09G23G20G01G28G13G11G04G07
 -15845491.17648 -12302905.39347  22005597.2614   22005604.5264   22005596.821
        51.0004         46.0004
  -4584060.94346  -3567949.30546  24798467.3374   24798484.0504   24798468.714
        41.0004         37.0004
 -10329378.97848  -8043263.88948  20791065.2214   20791070.8534   20791065.141
        53.0004         48.0004
 -17450497.68248 -13551544.09647  20810215.4384   20810221.8034   20810215.488
        52.0004         47.0004
   6228275.90046   4864539.14345  25025710.8334   25025717.3694   25025711.037
        39.0004         35.0004
  -3110271.38747  -2209162.50446  23653354.8634   23653363.8684   23653355.630
        44.0004         39.0004
 -12406248.61248  -9641449.13947  22349823.7344   22349830.9834   22349822.531
        48.0004         43.0004
    822669.26847    634422.26146  24268380.2864   24268387.2604   24268380.275
        42.0004         37.0004
  -8815301.02247  -6824168.14446  22785192.7494   22785198.6794   22785192.566
        45.0004         40.0004
  -6800815.83447  -5280064.09846  23903662.4214   23903669.6194   23903662.666
        42.0004         38.0004
 -14534258.54247 -11285705.00247  22716976.7804   22716987.6864   22716976.596
        46.0004         42.0004
 -24878171.00349 -19352053.30048  20126308.9004   20126313.8374   20126308.368
        54.0004         50.0004
 14  5  1  0 18  0.0000000  0 12G17G10G08G09G23G20G01G28G13G11G04G07
 -15818780.23548 -12282091.65247  22010680.5374   22010687.0204   22010680.183
        51.0004         46.0004
  -4619406.03346  -3595490.75546  24791743.6284   24791757.7494   24791743.598
        41.0004         36.0004
 -10400618.06348  -8098774.84848  20777508.3824   20777514.4104   20777508.781
        53.0004         48.0004
 -17517732.85248 -13603935.11647  20797420.8334   20797426.9374   20797421.047
        52.0004         47.0004
   6310983.01346   4928986.25245  25041450.5004   25041457.4554   25041448.747
        39.0004         34.0004
  -3114002.82347  -2212070.06946  23652644.6714   23652654.7064   23652644.845
        44.0004         39.0004
 -12332386.23148  -9583894.02647  22363877.9644   22363886.1544   22363877.652
        48.0004         43.0004
    795713.66147    613417.97246  24263251.8994   24263256.5784   24263250.844
        42.0004         37.0004
  -8733118.12247  -6760129.53846  22800831.1004   22800837.3674   22800830.754
        45.0004         41.0004
  -6699325.45147  -5200980.69746  23922977.0724   23922981.8904   23922975.924
        42.0004         38.0004
 -14630589.32447 -11360767.78347  22698646.4874   22698655.7714   22698646.074
        47.0004         42.0004
 -24884494.02349 -19356980.34048  20125105.5954   20125110.3224   20125105.222
        54.0004         50.0004
 14  5  1  0 18 30.0000000  0 12G17G10G08G09G23G20G01G28G13G11G04G07
 -15791792.09848 -12261061.91347  22015816.1084   22015822.7334   22015815.337
        51.0004         46.0004
  -4654997.98246  -3623224.52446  24784968.5334   24784983.4534   24784969.479
        41.0004         36.0004
 -10471444.86048  -8153964.54348  20764030.4714   20764037.0274   20764030.945
        53.0004         48.0004
 -17584532.09848 -13655986.45547  20784709.3914   20784716.2024   20784709.386
        52.0004         47.0004
   6393478.01346   4993268.08245  25057145.6674   25057154.9964   25057146.990
        39.0004         34.0004
  -3117645.96647  -2214908.85146  23651951.6384   23651959.3204   23651952.321
        44.0004         39.0004
 -12258122.48948  -9526026.15447  22378010.6324   22378018.6504   22378009.478
        48.0004         43.0004
    768478.74147    592196.04146  24258068.4394   24258075.1034   24258068.167
        42.0004         37.0004
  -8650946.83647  -6696099.95546  22816467.6644   22816475.1054   22816467.283
        45.0004         40.0004
  -6597688.30747  -5121782.93146  23942316.3274   23942322.4824   23942317.107
        42.0004         38.0004
 -14726753.34347 -11435700.61147  22680347.0724   22680356.0644   22680345.994
        47.0004         42.0004
 -24890226.46049 -19361447.17448  20124014.7154   20124019.8834   20124014.451
        54.0004         50.0004
 14  5  1  0 19  0.0000000  0 12G17G10G08G09G23G20G01G28G13G11G04G07
 -15764531.26248 -12239819.67947  22021003.4624   22021010.5794   22021003.436
        51.0004         46.0004
  -4690839.04546  -3651152.42846  24778148.7894   24778162.8904   24778149.349
        41.0004         36.0004
 -10541858.49048  -8208832.28748  20750631.5384   20750637.4914   20750631.627
        53.0004         48.0004
 -17650894.89248 -13707697.70147  20772081.0734   20772087.5574   20772081.031
        52.0004         47.0004
   6475757.41146   5057381.93245  25072803.2254   25072809.6204   25072804.844
        39.0004         35.0004
  -3121201.53947  -2217679.38146  23651274.7624   23651284.1264   23651274.933
        44.0004         39.0004
 -12183461.72848  -9467848.91747  22392218.3214   22392225.8134   22392216.755
        48.0004         43.0004
    740962.79647    570755.15046  24252832.8094   24252839.3094   24252832.419
        42.0004         37.0004
  -8568792.16647  -6632083.33046  22832101.1464   22832109.1924   22832101.007
        45.0004         41.0004
  -6495909.37047  -5042474.66146  23961684.3824   23961689.8544   23961685.118
        42.0004         38.0004
 -14822750.01447 -11510503.04647  22662079.2314   22662088.0304   22662079.022
        47.0004         42.0004
 -24895370.76049 -19365455.71648  20123035.7924   20123040.9464   20123035.320
        54.0004         50.0004
 14  5  1  0 19 30.0000000  0 12G17G10G08G09G23G20G01G28G13G11G04G07
 -15737000.31248 -12218366.97547  22026242.8024   22026249.8434   22026242.322
        51.0004         46.0004
  -4726929.49546  -3679274.64546  24771281.8494   24771294.9224   24771281.781
        41.0004         36.0004
 -10611855.56248  -8263375.43548  20737310.8844   20737317.5394   20737311.282
        53.0004         48.0004
 -17716818.69848 -13759066.87847  20759535.9284   20759542.3144   20759536.055
        52.0004         47.0004
   6557819.75146   5121326.62845  25088417.6054   25088428.2804   25088419.874
        38.0004         34.0004
  -3124667.25547  -2220379.90646  23650615.2244   23650623.7764   23650615.794
        44.0004         39.0004
 -12108406.10848  -9409364.00847  22406500.3744   22406508.6414   22406499.521
        48.0004         43.0004
    713165.82547    549095.25346  24247542.2524   24247548.9784   24247542.283
        42.0004         37.0004
  -8486656.79447  -6568081.74246  22847729.7824   22847738.4074   22847731.170
        45.0004         40.0004
  -6393991.67147  -4963058.26046  23981078.9924   23981083.8284   23981079.631
        42.0004         38.0004
 -14918576.67347 -11585172.99847  22643843.3474   22643853.2414   22643843.387
        47.0004         42.0004
 -24899926.01249 -19369005.26248  20122168.8974   20122173.8424   20122168.363
        54.0004         50.0004
 14  5  1  0 20  0.0000000  0 12G17G10G08G09G23G20G01G28G13G11G04G07
 -15709201.45848 -12196705.51647  22031532.3164   22031539.3154   22031531.704
        51.0004         46.0004
  -4763268.80446  -3707590.80046  24764365.9144   24764378.9414   24764366.146
        41.0004         36.0004
 -10681432.37448  -8317591.11348  20724071.0024   20724077.5104   20724071.233
        53.0004         48.0004
 -17782300.20348 -13810091.41247  20747075.3604   20747081.6254   20747075.365
        52.0004         47.0004
   6639664.43446   5185101.69745  25103994.4284   25104002.5974   25103994.449
        39.0004         34.0004
  -3128041.24947  -2223008.94846  23649973.0834   23649982.0144   23649973.372
        44.0004         39.0004
 -12032956.95848  -9350572.43847  22420857.4954   22420865.8284   22420857.478
        48.0004         43.0004
    685088.89747    527217.20246  24242199.5254   24242205.0664   24242199.539
        42.0004         37.0004
  -8404542.38847  -6504096.49646  22863358.3394   22863364.7494   22863356.933
        45.0004         40.0004
  -6291936.76347  -4883534.94546  24000500.3194   24000505.4884   24000499.726
        42.0004         38.0004
 -15014229.99947 -11659707.89947  22625641.5244   22625650.2154   22625641.397
        47.0004         42.0004
 -24903890.39249 -19372094.38348  20121414.7194   20121419.5424   20121414.248
        54.0004         50.0004
 14  5  1  0 20 30.0000000  0 12G17G10G08G09G23G20G01G28G13G11G04G07
 -15681136.99448 -12174837.08747  22036872.7774   22036879.8774   22036872.363
        51.0004         46.0004
  -4799856.92046  -3736100.83146  24757403.2684   24757416.4284   24757403.746
        41.0004         36.0004
 -10750585.72848  -8371476.82648  20710911.5924   20710918.1014   20710911.787
        52.0004         48.0004
 -17847336.64348 -13860769.13747  20734699.5774   20734705.6924   20734699.489
        52.0004         47.0004
   6721289.91446   5248705.96645  25119527.6014   25119532.9214   25119526.304
