     2.11           OBSERVATION DATA    G (GPS)             RINEX VERSION / TYPE
teqc  2008Oct2      gpsops              20090130 00:09:59UTCPGM / RUN BY / DATE
    30.0000                                                 INTERVAL
     1     1                                                WAVELENGTH FACT L1/2
     7    L1    L2    P1    P2    C1    S1    S2            # / TYPES OF OBSERV
Linux 2.4.20-8|Pentium IV|gcc -static|Linux|486/DX+         COMMENT
     2.10           OBSERVATION DATA    GPS                 COMMENT
soc2rnx ver 1.20    gpsops              30-Jan-2009 00:09:52COMMENT
S1, if present, is the SNR for the C/A data stream on L1.   COMMENT
 SNR is mapped to RINEX snr flag value [1,4-9]              COMMENT
    SNR:   >316  >100  >31.6  >10  >3.2    >0 bad=0         COMMENT
L1 & L2:      9     8     7     6     5     4     1         COMMENT
                                                            COMMENT
This data is provided as a public service by NASA/JPL.      COMMENT
No warranty is expressed or implied regarding suitability   COMMENT
for use.  For further information, contact:                 COMMENT
Dave Stowers, NASA/JPL m/s 238-600                          COMMENT
4800 Oak Grove Drive, Pasadena CA 91109 USA                 COMMENT
                                                            COMMENT
Forced Modulo Decimation to 30 seconds                      COMMENT
  2009     1    29     8    16   20.0000000     GPS         TIME OF FIRST OBS
GGN                 JPL                                     OBSERVER / AGENCY
CR519992104         ASH701945B_M    SCIT                    ANT # / TYPE
   -33801.4662 -6377516.5323   -82154.3508                  APPROX POSITION XYZ
        0.0083        0.0000        0.0000                  ANTENNA: DELTA H/E/N
ZR220013847         ASHTECH UZ-12       CQ00                REC # / TYPE / VERS
GLPS                                                        MARKER NAME
42005M002                                                   MARKER NUMBER
                                                            END OF HEADER
 09  1 29  8 16 30.0000000  0 12G17G 3G 7G11G25G23G 6G28G32G13G19G20
 132342064.99757 103123679.63057  25183865.5125   25183867.3285   25183864.3275
        41.000          35.000
 130062905.98657  83555500.69057  22847218.7325   22847221.0045   22847218.7525
        46.000          40.000
 127381418.51557  99258243.18657  24239880.9065   24239881.4365   24239880.6065
        43.000          38.000
 124775308.29657  79435299.09157  21841020.5085   21841021.9745   21841020.7585
        52.000          45.000
 123432325.64957  96181018.47057  23488402.1785   23488403.9785   23488402.6775
        47.000          41.000
 104757135.56857  81628938.90357  19934618.2955   19934617.5385   19934618.4875
        57.000          51.000
 139504791.54157  90912810.34457  24643952.6955   24643956.8315   24643952.9005
        41.000          37.000
 137770682.20057  89561568.75657  24313952.8095   24313953.2365   24313954.3245
        43.000          36.000
 130214519.59257  83673635.43357  22876075.3005   22876078.0325   22876075.9825
        46.000          41.000
 120510193.62457  76111835.21057  21029394.1185   21029394.8215   21029394.1415
        54.000          47.000
 119320896.50757  75185112.68857  20803076.2625   20803076.8535   20803076.9875
        54.000          49.000
 128732527.88557  82518848.35157  22594052.1135   22594054.3785   22594052.8005
        48.000          42.000
 09  1 29  8 17  0.0000000  0 12G17G 3G 7G11G25G23G 6G28G32G13G19G20
 132239902.42047 103044072.41647  25164424.3224   25164424.9194   25164423.6414
        42.000          36.000
 130162508.34247  83633112.90047  22866172.3094   22866174.6464   22866172.6114
        47.000          40.000
 127324267.91347  99213710.25947  24229004.6914   24229006.2854   24229004.6254
        43.000          38.000
 124721689.92147  79393518.53147  21830817.6344   21830818.6624   21830817.6594
        52.000          45.000
 123372061.78047  96134059.62847  23476934.8714   23476936.3824   23476934.8424
        47.000          41.000
 104747345.74847  81621310.47047  19932755.3164   19932754.6994   19932755.4624
        57.000          51.000
 139606773.17247  90992276.55647  24663359.5024   24663362.8444   24663359.4194
        42.000          37.000
 137763995.48647  89556358.34247  24312680.9934   24312682.2854   24312681.8234
        42.000          36.000
 130276886.80947  83722233.25947  22887943.2774   22887945.9654   22887943.6214
        46.000          41.000
 120444734.49647  76060828.10247  21016937.5674   21016938.6474   21016937.2184
        53.000          47.000
 119372723.36547  75225497.25447  20812938.3004   20812939.1504   20812939.0804
        53.000          49.000
 128776865.82447  82553397.40247  22602489.1814   22602491.0774   22602489.8224
        49.000          42.000
 09  1 29  8 17 30.0000000  0 12G17G 3G 7G11G25G23G 6G28G32G13G19G20
 132137800.12947 102964512.17047  25144994.8434   25144995.9494   25144994.9154
        42.000          36.000
 130262320.96547  83710888.96147  22885165.9774   22885168.4604   22885166.2544
        46.000          40.000
 127266895.68347  99169004.62147  24218087.2644   24218088.5934   24218086.7604
        44.000          38.000
 124668162.05947  79351808.50347  21820631.6644   21820632.5354   21820631.8564
        52.000          45.000
 123311642.77647  96086979.87647  23465437.4774   23465439.1674   23465437.4684
        47.000          41.000
 104738159.50947  81614152.35247  19931007.4604   19931006.3714   19931007.6984
        57.000          51.000
 139708834.11047  91071804.56147  24682780.8164   24682784.2524   24682781.0094
        42.000          37.000
 137757577.19647  89551357.07347  24311459.7124   24311461.1554   24311459.0824
        42.000          36.000
 130339171.98847  83770767.16047  22899795.8684   22899798.4884   22899796.4764
        46.000          41.000
 120379723.71347  76010170.35347  21004566.4504   21004567.6244   21004566.1844
        54.000          47.000
 119425057.56947  75266277.15247  20822897.0144   20822897.8514   20822897.7134
        53.000          49.000
 128821162.34847  82587914.18747  22610918.6684   22610920.5504   22610918.9704
        48.000          42.000
 09  1 29  8 18  0.0000000  0 12G17G 3G 7G11G25G23G 6G28G32G13G19G20
 132035764.02247 102885003.53147  25125578.0414   25125579.2204   25125578.6864
        41.000          35.000
 130362344.39347  83788829.30447  22904199.7484   22904202.1704   22904199.8424
        46.000          40.000
 127209306.39347  99124129.85847  24207128.8434   24207129.8244   24207128.5394
        44.000          39.000
 124614730.86247  79310173.79847  21810463.8204   21810465.0644   21810463.9034
        52.000          45.000
 123251074.12247  96039783.52247  23453911.6644   23453913.1734   23453911.7374
        47.000          41.000
 104729581.15747  81607467.92147  19929374.8324   19929374.0644   19929374.8994
        57.000          51.000
 139810975.85047  91151395.51747  24702218.1924   24702221.2234   24702218.1944
        42.000          37.000
 137751429.58247  89546566.74847  24310288.8684   24310290.5264   24310290.3404
        43.000          37.000
 130401377.37247  83819238.87847  22911632.8514   22911635.5544   22911633.1804
        46.000          40.000
 120315167.27647  75959866.64347  20992281.6934   20992282.8794   20992281.5584
        54.000          47.000
 119477901.37047  75307454.14447  20832953.0604   20832953.5204   20832953.7864
        54.000          49.000
 128865419.66647  82622400.39647  22619340.7214   22619342.5194   22619341.2874
        49.000          42.000
 09  1 29  8 18 30.0000000  0 12G17G 3G 7G11G25G23G 6G28G32G13G19G20
 131933795.65047 102805547.65547  25106174.9034   25106176.4404   25106175.0164
        42.000          36.000
 130462575.22247  83866931.25647  22923272.9844   22923275.8104   22923273.0294
        47.000          40.000
 127151500.13847  99079086.04547  24196129.0144   24196129.9044   24196128.6024
        43.000          38.000
 124561398.14347  79268615.83447  21800315.0484   21800316.1524   21800315.1554
        52.000          45.000
 123190356.50147  95992471.10747  23442356.9074   23442359.2694   23442356.9884
        46.000          40.000
 104721610.08347  81601256.69247  19927857.9224   19927857.1454   19927858.0674
        57.000          51.000
 139913195.18947  91231046.94747  24721669.7094   24721673.3924   24721669.6344
        43.000          37.000
 137745549.81247  89541985.09947  24309170.8944   24309171.9424   24309171.3144
        43.000          37.000
 130463500.13947  83867646.23847  22923454.5344   22923457.1464   22923454.8524
        45.000          40.000
 120251067.15147  75909918.49147  20980083.9124   20980085.0674   20980083.6944
        54.000          47.000
 119531251.92447  75349026.00747  20843105.3864   20843105.9134   20843106.2754
        53.000          49.000
 128909634.46747  82656853.49847  22627754.6484   22627756.3124   22627755.1944
        49.000          42.000
 09  1 29  8 19  0.0000000  0 12G17G 3G 7G11G25G23G 6G28G32G13G19G20
 131831895.64847 102726145.07047  25086783.2674   25086783.5204   25086783.8434
        41.000          36.000
 130563008.81047  83945191.20047  22942384.8994   22942387.4614   22942384.9434
        47.000          40.000
 127093475.97647  99033872.42247  24185086.4554   24185088.1614   24185086.3794
        42.000          38.000
 124508164.17747  79227134.81647  21790184.7774   21790185.9864   21790184.8124
        52.000          45.000
 123129489.86647  95945042.56747  23430774.4594   23430776.5724   23430774.2084
        46.000          40.000
 104714244.90647  81595517.59347  19926456.2914   19926455.7524   19926456.4734
        56.000          51.000
 140015487.91247  91310755.55347  24741135.8034   24741138.1284   24741135.3144
        42.000          37.000
 137739934.47647  89537609.51847  24308102.8334   24308103.9964   24308103.0334
        42.000          37.000
 130525536.89147  83915986.55547  22935259.6734   22935262.0794   22935259.5774
        46.000          40.000
 120187424.06047  75860326.48047  20967972.8764   20967974.2084   20967972.6684
        54.000          47.000
 119585106.23247  75390990.40347  20853353.5674   20853354.1634   20853354.3644
        54.000          49.000
 128953803.08847  82691270.61847  22636159.2344   22636161.2964   22636160.1124
        49.000          42.000
 09  1 29  8 19 30.0000000  0 12G17G 3G 7G11G25G23G 6G28G32G13G19G20
 131730068.35547 102646799.14547  25067406.7064   25067406.8274   25067406.5824
        41.000          36.000
 130663644.19847  84023608.39147  22961534.9214   22961538.0784   22961535.2754
        46.000          40.000
 127035236.71647  98988491.15847  24174003.6984   24174004.8554   24174003.5524
        42.000          38.000
 124455033.19347  79185734.05447  21780074.3024   21780075.5904   21780074.6664
        52.000          45.000
 123068477.87847  95897500.75247  23419164.3244   23419166.5104   23419164.4054
        46.000          41.000
 104707487.80047  81590252.31247  19925170.5164   19925169.9264   19925170.6484
        57.000          51.000
 140117853.55147  91390520.96647  24760615.3724   24760617.8644   24760615.0854
        43.000          37.000
 137734584.44847  89533440.67947  24307084.1984   24307084.8584   24307084.7984
        41.000          36.000
 130587487.77047  83964259.97347  22947048.6484   22947051.4284   22947048.8984
        46.000          40.000
 120124241.68747  75811093.45747  20955949.8804   20955950.9464   20955949.5574
        54.000          47.000
 119639463.85047  75433346.99647  20863697.4934   20863698.0714   20863698.3434
        53.000          49.000
 128997925.83547  82725651.98647  22644555.5494   22644557.7434   22644556.1724
        48.000          42.000
 09  1 29  8 20  0.0000000  0 12G17G 3G 7G11G25G23G 6G28G32G13G19G20
 131628314.69447 102567510.59147  25048043.7744   25048043.4734   25048042.9044
        42.000          35.000
 130764476.94347  84102179.34347  22980722.9034   22980725.6474   22980722.9414
        45.000          39.000
 126976781.99147  98942942.02947  24162880.7144   24162881.7334   24162880.4094
        43.000          38.000
 124402006.74247  79144414.73247  21769983.7494   21769984.9514   21769983.6874
        52.000          45.000
 123007320.72347  95849845.83347  23407526.9714   23407528.6454   23407527.2414
        47.000          41.000
 104701337.71047  81585460.03147  19924000.2464   19923999.5604   19924000.4084
        57.000          51.000
 140220288.33347  91470340.27447  24780107.9464   24780110.5474   24780107.9244
        44.000          37.000
 137729496.31847  89529475.92847  24306116.4534   24306117.7494   24306116.3514
        43.000          37.000
 130649349.82947  84012464.16547  22958820.7174   22958823.0274   22958820.9164
        45.000          40.000
 120061521.21247  75762220.36447  20944014.4044   20944015.7674   20944014.2554
        54.000          47.000
 119694321.91547  75476093.53747  20874136.5064   20874137.3534   20874137.3854
        54.000          49.000
 129041999.29947  82759994.95047  22652942.3164   22652944.4734   22652942.8074
        48.000          42.000
 09  1 29  8 20 30.0000000  0 12G17G 3G 7G11G25G23G 6G28G32G13G19G20
 131526637.86747 102488281.87547  25028694.9424   25028695.4664   25028694.3854
        42.000          36.000
 130865505.60647  84180902.96247  22999948.0274   22999950.8004   22999948.3284
        45.000          39.000
 126918113.60747  98897226.40147  24151716.5934   24151717.7494   24151716.6404
        43.000          39.000
 124349087.63947  79103179.07347  21759913.4684   21759914.4134   21759913.8344
        52.000          45.000
 122946020.84747  95802079.70447  23395861.6904   23395863.2354   23395861.8044
        46.000          41.000
 104695795.91947  81581141.74647  19922945.6804   19922944.8794   19922945.8784
        57.000          51.000
 140322790.73047  91550212.24347  24799613.5874   24799616.0274   24799613.5234
        43.000          37.000
 137724669.30447  89525714.61747  24305197.1074   24305198.1174   24305197.5784
        42.000          37.000
 130711122.03847  84060598.34547  22970575.3524   22970577.7374   22970575.6094
        45.000          40.000
 119999265.93647  75713709.76247  20932167.5624   20932168.7944   20932167.3534
        54.000          47.000
 119749679.42947  75519229.26647  20884670.6574   20884671.3444   20884671.5524
        54.000          49.000
 129086022.08747  82794298.42547  22661319.7104   22661322.0004   22661320.0874
        48.000          42.000
 09  1 29  8 21  0.0000000  0 12G17G 3G 7G11G25G23G 6G28G32G13G19G20
 131425045.60647 102409119.05147  25009362.6414   25009363.2504   25009361.3894
        40.000          35.000
 130966732.29847  84259780.88747  23019210.9694   23019213.6654   23019211.2394
        46.000          40.000
 126859237.77147  98851349.14147  24140512.4214   24140514.5024   24140512.4224
        43.000          38.000
 124296283.70647  79062033.14847  21749865.3134   21749866.2124   21749865.4684
        52.000          45.000
 122884585.43747  95754207.94847  23384170.9424   23384172.8054   23384171.1954
        47.000          41.000
 104690867.66547  81577301.54547  19922007.8274   19922007.0354   19922007.9624
        57.000          51.000
 140425363.63847  91630139.18047  24819132.1664   24819134.8204   24819132.3914
        42.000          37.000
 137720106.43047  89522159.13747  24304329.6844   24304329.6554   24304330.2234
        44.000          37.000
 130772808.10247  84108665.39547  22982313.5064   22982316.3274   22982314.1634
        46.000          40.000
 119937483.43047  75665567.54347  20920410.7004   20920411.6984   20920410.3214
        54.000          47.000
 119805539.86047  75562756.87347  20895300.6264   20895301.2654   20895301.4084
        54.000          49.000
 129129998.16247  82828565.49747  22669687.8454   22669690.2974   22669688.8384
        48.000          42.000
 09  1 29  8 21 30.0000000  0 12G17G 3G 7G11G25G23G 6G28G32G13G19G20
 131323528.32047 102330014.67247  24990044.2654   24990044.5624   24990043.6454
        41.000          36.000
 131068142.17447  84338801.57347  23038508.7964   23038511.5534   23038509.0184
        46.000          40.000
 126800143.50747  98805301.65347  24129267.7284   24129268.7004   24129267.2854
        42.000          39.000
 124243585.13147  79020969.31847  21739837.0724   21739838.0624   21739836.9594
        52.000          45.000
 122823003.96647  95706222.37647  23372452.3244   23372454.3354   23372452.3004
        46.000          41.000
 104686540.91347  81573930.05047  19921184.3814   19921183.8394   19921184.5314
        57.000          51.000
 140527992.81847  91710109.97147  24838662.3364   24838664.7214   24838662.1374
        43.000          36.000
 117715792.34657 109518798.07457  24303508.5915   24303509.8995   24303508.8385
        43.000          37.000
 130834394.22247  84156654.59447  22994033.1744   22994036.2964   22994033.3694
        45.000          40.000
 119876163.43547  75617785.73247  20908741.9574   20908743.0274   20908741.6864
        54.000          47.000
 119861889.11847  75606665.38747  20906023.7514   20906024.1994   20906024.6114
        54.000          49.000
 129173913.11447  82862784.93747  22678044.9154   22678047.2014   22678045.8164
        49.000          42.000
 09  1 29  8 22  0.0000000  0 12G17G 3G 7G11G25G23G 6G28G32G13G19G20
 131222094.48047 102250975.32447  24970742.3184   24970742.6984   24970742.7224
        43.000          37.000
 131169738.94047  84417967.87547  23057842.0584   23057844.3384   23057842.4574
        46.000          40.000
 126740838.05347  98759089.62047  24117982.1384   24117983.2374   24117981.8004
        43.000          39.000
 124191000.91247  78979994.60947  21729830.5874   21729832.0684   21729830.7204
        52.000          45.000
 122761284.58847  95658129.34747  23360707.1904   23360709.8464   23360707.1954
        47.000          41.000
 104682822.72447  81571032.75947  19920476.8884   19920476.2964   19920477.0524
        57.000          51.000
 140630682.00647  91790127.52847  24858203.0484   24858205.9944   24858203.2744
        42.000          36.000
 117711735.95947 109515637.27047  24302736.3724   24302737.6364   24302736.7144
        43.000          37.000
 130895885.12547  84204569.57947  23005734.6464   23005737.3804   23005734.4834
        45.000          40.000
 119815315.17347  75570371.49847  20897163.2034   20897164.1214   20897163.0514
        54.000          47.000
 119918732.01547  75650958.55247  20916840.4114   20916841.0324   20916841.2504
        53.000          48.000
 129217771.60347  82896960.38047  22686391.1204   22686393.1614   22686392.0474
        49.000          42.000
 09  1 29  8 22 30.0000000  0 12G17G 3G 7G11G25G23G 6G28G32G13G19G20
 131120748.23847 102172004.22947  24951457.0654   24951456.8844   24951457.8704
        43.000          36.000
 131271520.86847  84497278.46447  23077210.4164   23077212.6404   23077210.7084
        45.000          39.000
 126681323.40247  98712714.60647  24106656.3564   24106657.7744   24106655.8684
        43.000          38.000
 124138534.63747  78939111.79847  21719846.2944   21719848.0194   21719846.5274
        52.000          45.000
 122699430.42147  95609931.29747  23348937.2274   23348938.8434   23348937.2204
        47.000          41.000
 104679714.09247  81568610.44847  19919885.3284   19919884.6814   19919885.4564
        57.000          51.000
 140733430.35947  91870191.17547  24877755.3134   24877758.6454   24877755.5534
        42.000          35.000
 117707934.65647 109512675.23747  24302013.6924   24302014.2194   24302013.7334
        43.000          37.000
 130957280.54647  84252410.17347  23017417.5124   23017420.8494   23017417.7634
        46.000          40.000
 119754941.97547  75523327.44947  20885674.3154   20885675.4124   20885674.0624
        54.000          47.000
 119976068.04647  75695635.98147  20927751.0314   20927751.6254   20927751.6534
        54.000          48.000
 129261573.21947  82931091.51447  22694726.1644   22694728.3304   22694726.8834
        48.000          42.000
 09  1 29  8 23  0.0000000  0 12G17G 3G 7G11G25G23G 6G28G32G13G19G20
 131019492.63247 102093103.75947  24932189.0814   24932187.9914   24932189.4244
        43.000          36.000
 131373485.76547  84576731.61347  23096613.4484   23096616.3324   23096613.9894
        46.000          39.000
 126621601.74147  98666178.24847  24095291.0734   24095293.0914   24095291.0154
        43.000          38.000
 124086189.07647  78898323.04747  21709885.3314   21709886.8444   21709885.2734
        52.000          45.000
 122637443.61047  95561629.89947  23337141.6004   23337143.0404   23337141.6724
        46.000          41.000
 104677215.72547  81566663.66447  19919409.9364   19919409.2574   19919410.0964
        56.000          51.000
 140836235.97247  91950299.44847  24897319.2614   24897321.1684   24897318.5964
        42.000          35.000
 117704386.83047 109509910.70047  24301337.8914   24301339.0754   24301338.2064
        43.000          36.000
 131018579.26347  84300175.40047  23029082.7284   23029085.6944   23029083.1714
        46.000          40.000
 119695046.88747  75476655.95147  20874276.8554   20874277.8734   20874276.6004
        54.000          48.000
 120033895.42147  75740696.28047  20938755.2684   20938755.8474   20938756.0844
        53.000          48.000
 129305316.46847  82965177.18347  22703050.1934   22703052.5794   22703050.4804
        48.000          42.000
 09  1 29  8 23 30.0000000  0 12G17G 3G 7G11G25G23G 6G28G32G13G19G20
 130918325.12147 102014271.92347  24912937.5044   24912936.8954   24912937.3154
        43.000          37.000
 131475626.37847  84656321.69947  23116050.2694   23116053.0074   23116050.5434
        46.000          39.000
 126561669.03447  98619477.45447  24083886.6364   24083888.4844   24083886.3864
        43.000          38.000
 124033962.19147  78857626.77447  21699947.1054   21699948.3154   21699947.3294
        52.000          45.000
 122575321.19647  95513222.82047  23325319.9954   23325321.8464   23325320.1034
        47.000          41.000
 104675323.04647  81565188.84947  19919049.6414   19919049.0774   19919049.7474
        57.000          51.000
 140939091.82047  92030446.86447  24916890.4714   24916894.5154   24916891.4504
        42.000          35.000
 117701086.61047 109507339.11747  24300709.9644   24300710.6814   24300710.7724
        43.000          36.000
 131079774.96347  84347860.36847  23040727.9814   23040730.6964   23040728.3474
        46.000          40.000
 119635627.20747  75430354.91247  20862969.6054   20862970.6734   20862969.3554
        54.000          47.000
 120092207.70747  75786134.42447  20949851.6484   20949852.5734   20949852.4614
        53.000          48.000
 129348994.64847  82999212.13247  22711361.5384   22711364.3394   22711362.2164
        48.000          42.000
 09  1 29  8 24  0.0000000  0 12G17G 3G 7G11G25G23G 6G28G32G13G19G20
 130817253.04647 101935514.44247  24893704.0844   24893703.4774   24893703.5164
        42.000          37.000
 131577944.17347  84736049.85547  23135520.5764   23135523.3444   23135520.7614
        45.000          39.000
 126501531.36147  98572616.96047  24072443.2574   24072444.3264   24072442.8814
        45.000          38.000
 123981861.42047  78817028.77547  21690032.5614   21690033.8814   21690032.6064
        52.000          45.000
 122513070.14847  95464715.50747  23313473.8734   23313475.5284   23313473.9514
        48.000          41.000
 104674040.86747  81564189.74447  19918805.8254   19918805.1514   19918805.9544
        56.000          51.000
 141042000.37847  92110635.35347  24936474.8494   24936476.4414   24936474.3974
        41.000          34.000
 117698036.75047 109504962.59947  24300129.2914   24300131.1454   24300129.3344
        42.000          36.000
 131140871.09547  84395467.74147  23052353.8914   23052356.5274   23052354.6454
        46.000          40.000
 119576690.03347  75384429.83547  20851754.1414   20851755.0264   20851753.9204
        54.000          47.000
 120151007.79547  75831952.68147  20961040.9814   20961041.5934   20961041.9094
        53.000          48.000
 129392610.95647  83033198.88147  22719661.4524   22719663.8954   22719661.7864
        48.000          42.000
 09  1 29  8 24 30.0000000  0 12G17G 3G 7G11G25G23G 6G28G32G13G19G20
 130716277.02547 101856831.83247  24874488.4054   24874488.5504   24874487.5084
        42.000          37.000
 131680434.80647  84815912.67847  23155024.1064   23155026.6654   23155024.1824
        45.000          39.000
 126441187.53747  98525595.80947  24060960.2724   24060960.9944   24060960.2624
        44.000          38.000
 123929887.03547  78776529.25847  21680142.2394   21680143.5094   21680142.2674
        52.000          45.000
 122450690.00647  95416107.60647  23301603.1284   23301605.0904   23301603.0724
        46.000          41.000
 104673367.38347  81563664.95247  19918677.6654   19918676.9724   19918677.7644
        57.000          51.000
 141144957.40447  92190861.62847  24956067.8614   24956069.5574   24956066.9114
        41.000          34.000
 117695233.44247 109502778.20747  24299595.5704   24299596.9224   24299596.0834
        42.000          36.000
 131201863.94847  84442994.65347  23063960.1054   23063963.2314   23063960.9464
        45.000          40.000
 119518235.51847  75338880.86347  20840630.4734   20840631.6274   20840630.1904
        54.000          47.000
 120210291.90547  75878148.09347  20972322.2844   20972323.4604   20972323.0904
        54.000          48.000
 129436161.56747  83067134.43647  22727949.1234   22727951.4044   22727949.6684
        48.000          42.000
 09  1 29  8 25  0.0000000  0 11G17G 3G 7G11G25G23G28G32G13G19G20
 130615397.78847 101778224.63447  24855291.6144   24855292.6634   24855290.8064
        42.000          37.000
 131783094.09447  84895906.91547  23174559.3764   23174562.1314   23174559.7814
        45.000          39.000
 126380637.46347  98478413.93747  24049438.0184   24049438.5944   24049437.7354
        44.000          38.000
 123878040.11647  78736129.06747  21670276.1244   21670277.4084   21670276.1604
        52.000          45.000
 122388181.21447  95367399.45047  23289708.1254   23289710.1654   23289708.1874
        48.000          42.000
 104673301.18347  81563613.36747  19918665.1494   19918664.3804   19918665.3694
        57.000          51.000
 117692673.39847 109500783.36147  24299108.5404   24299109.7984   24299108.9184
        43.000          37.000
 131262750.47247  84490438.70147  23075546.4584   23075549.5694   23075546.9584
        45.000          39.000
 119460264.49947  75293708.63647  20829599.0454   20829600.0544   20829598.8624
        54.000          47.000
 120270056.70247  75924718.06747  20983695.1654   20983695.7934   20983696.0194
        53.000          48.000
 129479643.29947  83101016.32647  22736223.3024   22736225.5854   22736223.7764
        48.000          42.000
 09  1 29  8 25 30.0000000  0 12G17G 3G 7G11G25G23G 6G28G32G13G19G20
 130514622.01747 101699698.05847  24836114.5824   24836115.5684   24836114.3084
        42.000          37.000
 131885923.18747  84976033.47247  23194127.3284   23194130.0854   23194127.6784
        45.000          39.000
 126319886.59347  98431075.61747  24037877.9704   24037878.5684   24037877.1904
        45.000          39.000
 123826327.55447  78695833.55647  21660435.6554   21660436.9074   21660435.9574
        52.000          46.000
 122325549.71447  95318595.68847  23277789.9544   23277791.8374   23277790.1704
        47.000          42.000
 104673846.43947  81564038.23547  19918768.9554   19918768.2064   19918769.1044
        57.000          51.000
 121350953.37157 112351367.03357  24995277.1265   24995279.0715   24995277.2175
        39.000          33.000
 117690359.23847 109498980.14147  24298668.4044   24298670.0054   24298669.0854
        41.000          36.000
 131323533.35047  84537801.97247  23087113.4924   23087116.0344   23087114.2024
        46.000          40.000
 119402783.41647  75248918.18347  20818660.5244   20818661.9444   20818660.3094
        53.000          47.000
 120330304.26847  75971664.21347  20995159.8414   20995160.9534   20995160.6614
        53.000          48.000
 129523058.52047  83134846.37647  22744485.1784   22744487.0944   22744485.2904
        48.000          41.000
 09  1 29  8 26  0.0000000  0 12G17G 3G 7G11G25G23G 6G28G32G13G19G20
 130413948.47147 101621251.14647  24816956.4224   24816957.9344   24816956.6844
        42.000          36.000
 131988915.58647  85056287.28147  23213726.0734   23213728.7134   23213726.4154
        45.000          39.000
 126258931.69147  98383578.30647  24026278.5324   24026279.3034   24026278.2024
        44.000          39.000
 123774747.60647  78655641.38547  21650620.4464   21650621.5824   21650620.5744
        52.000          46.000
 122262793.45547  95269694.71947  23265847.9394   23265849.7814   23265848.0184
        48.000          42.000
 104674998.97247  81564936.30947  19918988.2134   19918987.6284   19918988.4114
        57.000          51.000
 141454210.82857  92431861.67057  25014897.3105   25014896.3165   25014894.3265
        38.000          33.000
 117688285.10147 109497363.91647  24298272.9924   24298275.0124   24298273.6994
        41.000          36.000
 131384207.08147  84585080.19647  23098659.4484   23098661.8184   23098659.7164
        46.000          40.000
 119345790.30847  75204507.96547  20807815.2214   20807816.4404   20807814.9334
        54.000          47.000
 120391028.36647  76018981.70147  21006715.4084   21006715.8464   21006716.3034
        53.000          48.000
 129566401.35647  83168620.03747  22752732.8654   22752734.7064   22752733.0964
        48.000          42.000
 09  1 29  8 26 30.0000000  0 12G17G 3G 7G11G25G23G 6G28G32G13G19G20
 130313380.53847 101542886.52247  24797819.9224   24797820.2544   24797819.8024
        41.000          36.000
 132092069.91347  85136667.27247  23233355.5874   23233358.1544   23233355.9634
        45.000          39.000
 126197775.51147  98335924.13047  24014640.6854   24014641.4684   24014640.2284
        43.000          38.000
 123723304.05147  78615555.49547  21640830.9064   21640831.9304   21640831.1364
        52.000          46.000
 122199915.75947  95220699.12447  23253882.4684   23253884.6774   23253882.4074
        47.000          42.000
 104676760.09747  81566308.60747  19919323.3284   19919322.7334   19919323.5084
        56.000          51.000
 121557253.77257 112512138.07457  25034519.1925   25034520.4285   25034519.0755
        39.000          33.000
 117686451.19247 109495934.89747  24297925.1614   24297926.6154   24297925.3754
        42.000          36.000
 131444771.66447  84632273.37147  23110184.2594   23110186.8644   23110184.8704
        46.000          39.000
 119289288.75247  75160480.78047  20797063.5494   20797064.5064   20797063.3614
        54.000          48.000
 120452229.08247  76066670.56947  21018361.4994   21018362.4134   21018362.3314
        53.000          48.000
 129609671.65147  83202337.15747  22760967.3014   22760968.7654   22760967.1624
        48.000          42.000
 09  1 29  8 27  0.0000000  0 12G17G 3G 7G11G25G23G 6G28G32G13G19G20
 130212919.65847 101464605.31347  24778702.2324   24778702.7754   24778702.2734
        41.000          37.000
 132195381.62247  85217169.89147  23253015.3984   23253017.6154   23253015.3774
        46.000          39.000
 126136417.85647  98288112.95947  24002964.3974   24002965.3364   24002964.1884
        42.000          38.000
 123671998.14647  78575576.86547  21631067.5394   21631068.7494   21631067.6424
        52.000          46.000
 122136917.11547  95171609.27847  23241893.8344   23241896.3284   23241894.0354
        47.000          41.000
 104679128.18347  81568153.87047  19919773.8974   19919773.3394   19919774.0724
        57.000          51.000
 141660306.46657  92592414.36657  25054148.0825   25054156.1145   25054149.5465
        37.000          33.000
 117684853.77547 109494690.14047  24297620.3544   24297622.2704   24297621.1944
        42.000          36.000
 131505224.27347  84679379.28547  23121688.4384   23121690.4224   23121689.0974
        45.000          39.000
 119233279.49047  75116837.19847  20786405.4174   20786406.3974   20786405.2414
        54.000          48.000
 120513902.48247  76114727.77047  21030097.6024   21030098.0174   21030098.4354
        53.000          48.000
 129652866.09747  83235995.16347  22769186.8054   22769188.4474   22769187.0854
        48.000          42.000
 09  1 29  8 27 30.0000000  0 11G17G 3G 7G11G25G23G28G32G13G19G20
 130112571.78247 101386412.17447  24759606.9394   24759607.7664   24759605.9934
        41.000          37.000
 132298851.21147  85297795.54147  23272705.1594   23272707.2254   23272705.0804
        46.000          39.000
 126074863.02547  98240148.18947  23991250.9854   23991251.5234   23991250.4574
        43.000          39.000
 123620835.59347  78535709.94147  21621331.9204   21621333.0334   21621331.9594
        53.000          46.000
 122073802.62747  95122429.15747  23229883.9504   23229885.8884   23229883.7574
        47.000          41.000
 104682106.64747  81570474.75247  19920340.6974   19920340.0034   19920340.8304
        57.000          51.000
 117683494.68747 109493631.12047  24297362.6484   24297363.2274   24297362.5064
        41.000          36.000
 131565566.46147  84726399.17047  23133171.2764   23133173.2314   23133171.8734
        45.000          39.000
 119177767.86347  75073581.38847  20775841.7764   20775842.8024   20775841.6294
        54.000          48.000
 120576049.98047  76163154.38347  21041923.7744   21041924.7674   21041924.4674
        53.000          48.000
 129695986.10247  83269595.18147  22777392.1074   22777393.6194   22777392.6434
        48.000          41.000
 09  1 29  8 28  0.0000000  0 12G17G 3G 7G11G25G23G 6G28G32G13G19G20
 130012336.31747 101308306.61647  24740532.6944   24740533.7274   24740532.4294
        41.000          36.000
 132402473.41347  85378540.09747  23292423.6724   23292425.9704   23292423.4734
        45.000          38.000
 126013109.87347  98192028.87347  23979499.3544   23979500.8694   23979499.0374
        43.000          39.000
 123569816.26947  78495954.62147  21611623.1504   21611624.4124   21611623.2814
        52.000          46.000
 122010571.35647  95073158.04247  23217851.6354   23217853.6024   23217851.4474
        47.000          41.000
 104685692.63247  81573269.02347  19921023.0674   19921022.3594   19921023.2154
        57.000          51.000
 121866828.06057 112753362.90357  25093430.1555   25093432.4555   25093432.5095
        37.000          33.000
 117682369.13347 109492754.05347  24297148.2144   24297149.6464   24297148.6064
        42.000          36.000
 131625793.93347  84773329.63047  23144631.8784   23144634.1304   23144632.4324
        46.000          39.000
 119122753.37047  75030712.94647  20765373.0804   20765373.8724   20765372.8684
        54.000          48.000
 120638666.65847  76211946.60147  21053839.4344   21053840.1024   21053840.1434
        53.000          48.000
 129739027.74547  83303134.13347  22785582.6994   22785584.0014   22785583.6324
        49.000          41.000
 09  1 29  8 28 30.0000000  0 11G17G 3G 7G11G25G23G28G32G13G19G20
 129912216.02147 101230290.78647  24721480.3914   24721481.2874   24721480.3924
        41.000          36.000
 132506246.04847  85459401.88147  23312170.4524   23312173.4994   23312170.9914
        45.000          39.000
 125951159.73447  98143756.04447  23967710.6644   23967712.2064   23967710.1504
        44.000          39.000
 123518943.22547  78456313.28147  21601942.3814   21601943.4384   21601942.3854
        52.000          46.000
 121947225.76047  95023797.82747  23205797.4554   23205799.1684   23205797.5674
        48.000          41.000
 104689886.32347  81576536.83747  19921821.0934   19921820.4934   19921821.2284
        57.000          51.000
 117681475.14147 109492057.43747  24296977.5484   24296978.7664   24296978.2834
        41.000          36.000
 131685905.85647  84820170.09147  23156070.8384   23156073.3634   23156071.2154
        45.000          39.000
 119068238.45847  74988233.79047  20754999.0354   20755000.1264   20754998.8094
        54.000          48.000
 120701750.87547  76261103.12947  21065843.9094   21065844.8364   21065844.6474
        53.000          48.000
 129781989.47447  83336610.79847  22793758.0424   22793759.7384   22793759.1274
        49.000          41.000
 09  1 29  8 29  0.0000000  0 12G17G 3G 7G11G25G23G 6G28G32G13G19G20
 129812214.38147 101152367.43247  24702450.6674   24702451.5874   24702451.0674
        41.000          36.000
 132610167.04247  85540379.26747  23331945.9404   23331948.8274   23331946.6564
        45.000          39.000
 125889014.69047  98095331.32247  23955885.1654   23955885.9754   23955885.0654
        45.000          39.000
 123468219.51047  78416788.30247  21592290.0604   21592291.0344   21592290.2514
        53.000          46.000
 121883768.58647  94974350.67047  23193721.8494   23193723.6424   23193722.0324
        48.000          41.000
 104694688.26247  81580278.60447  19922734.9564   19922734.3254   19922735.1174
        57.000          51.000
 142073325.50557  92914253.83257  25132738.2655   25132743.5375   25132738.8025
        39.000          33.000
 117680813.28147 109491541.72047  24296852.5544   24296852.2494   24296852.3824
        43.000          36.000
 131745901.74547  84866920.12747  23167487.7484   23167489.7654   23167488.0904
        45.000          39.000
 119014226.01747  74946146.16547  20744720.9224   20744721.8704   20744720.6314
        54.000          48.000
 120765301.65847  76310623.22747  21077937.3504   21077937.7504   21077938.1364
        54.000          48.000
 129824870.38647  83370024.50847  22801917.9404   22801919.6564   22801918.7824
        48.000          41.000
 09  1 29  8 29 30.0000000  0 12G17G 3G 7G11G25G23G 6G28G32G13G19G20
 129712327.39047 101074533.42047  24683442.7504   24683443.5094   24683442.9074
        41.000          36.000
 132714227.06647  85621464.99047  23351748.3174   23351750.8134   23351748.6694
        45.000          39.000
 125826669.37547  98046750.57847  23944021.1884   23944022.4344   23944020.9364
        45.000          39.000
 123417641.10147  78377376.54847  21582665.1184   21582666.6464   21582665.1094
        52.000          46.000
 121820195.19347  94924812.97247  23181624.1874   23181625.8114   23181624.2204
        47.000          41.000
 104700091.42947  81584488.86147  19923762.9684   19923762.5134   19923763.0504
        57.000          51.000
 122176709.52157 112994832.12157  25152396.6755   25152398.3645   25152396.9565
        38.000          33.000
 117680374.31147 109491199.66347  24296768.1474   24296769.7864   24296768.8474
        42.000          36.000
 131805773.41147  84913573.38647  23178880.9024   23178883.2684   23178880.7444
        44.000          39.000
 118960711.36847  74904446.43047  20734537.2764   20734538.5144   20734536.9694
        54.000          48.000
 120829310.19747  76360500.00647  21090117.6144   21090118.3164   21090118.4094
        53.000          48.000
 129867662.28047  83403368.85247  22810060.7394   22810062.7444   22810060.6764
        48.000          41.000
 09  1 29  8 30  0.0000000  0 11G17G 3G 7G11G25G23G28G32G13G19G20
 129612569.04247 100996799.65647  24664459.2554   24664460.1534   24664459.1494
        40.000          36.000
 132818434.80047  85702665.81947  23371578.5574   23371580.9704   23371578.9494
        46.000          39.000
 125764136.55247  97998023.70347  23932121.7564   23932122.8884   23932120.9284
        45.000          40.000
 123367222.24347  78338089.12547  21573070.7164   21573072.2504   21573070.7624
        53.000          46.000
 121756519.13447  94875195.25647  23169506.6884   23169508.6764   23169506.6324
        47.000          41.000
 104706107.38547  81589176.61347  19924907.9274   19924907.2204   19924908.0474
        57.000          51.000
 117680168.11847 109491038.97447  24296729.7254   24296730.3274   24296730.2134
        42.000          37.000
 131865531.06647  84960137.81047  23190251.7004   23190254.6674   23190252.0394
        44.000          39.000
 118907708.06947  74863145.15447  20724451.2324   20724452.2904   20724450.9934
        54.000          48.000
 120893785.76447  76410740.71047  21102387.0124   21102387.4824   21102387.7314
        53.000          48.000
 129910375.04547  83436651.52647  22818188.4294   22818190.6604   22818188.8484
        48.000          41.000
 09  1 29  8 30 30.0000000  0 11G17G 3G 7G11G25G23G28G32G13G19G20
 129512935.63547 100919163.25047  24645500.6184   24645500.6424   24645499.3084
        40.000          36.000
 132922781.50147  85783974.93947  23391435.0234   23391437.5474   23391435.3764
        45.000          39.000
 125701411.25347  97949146.84147  23920185.6624   23920186.9404   23920185.2034
        46.000          39.000
 123316959.32147  78298923.20947  21563506.0354   21563507.5554   21563506.2494
        52.000          46.000
 121692736.13147  94825494.20247  23157369.4024   23157371.1434   23157369.4404
        47.000          41.000
 104712729.57147  81594336.75047  19926168.1774   19926167.4424   19926168.3654
        57.000          51.000
 117680185.51947 109491052.52447  24296732.5884   24296733.8064   24296733.4204
        43.000          37.000
 131925167.03547  85006607.38047  23201600.3554   23201603.2254   23201600.6854
        44.000          39.000
 118855212.23247  74822239.30347  20714461.4534   20714462.5894   20714461.3124
        54.000          48.000
 120958720.22847  76461339.00047  21114743.5054   21114744.4634   21114744.3174
        53.000          48.000
 129953000.70947  83469866.32247  22826300.2724   22826301.8974   22826300.3854
        47.000          41.000
 09  1 29  8 31  0.0000000  0 11G17G 3G 7G11G25G23G28G32G13G19G20
 129413431.53547 100841627.60847  24626564.7454   24626565.2644   24626564.5914
        42.000          37.000
 133027266.34647  85865391.70547  23411317.5534   23411320.0104   23411317.8724
        46.000          39.000
 125638497.00847  97900122.74447  23908213.1274   23908214.3584   23908213.2704
        45.000          39.000
 123266856.48947  78259882.03947  21553971.8554   21553973.2594   21553971.9944
        53.000          46.000
 121628850.12047  94775712.88447  23145212.1874   23145214.1484   23145212.2804
        47.000          41.000
 104719959.75847  81599970.65947  19927543.9374   19927543.1974   19927544.0834
        57.000          51.000
 117680427.19847 109491240.83947  24296779.2344   24296779.6324   24296779.1854
        43.000          37.000
 131984681.96947  85052982.65647  23212925.4654   23212928.6744   23212925.4864
        44.000          39.000
 118803227.51547  74781731.72647  20704569.2304   20704570.3824   20704568.9794
        54.000          48.000
 121024113.43147  76512294.74347  21127187.3224   21127188.2254   21127188.1354
        53.000          48.000
 129995539.51747  83503013.44247  22834395.2434   22834396.9974   22834395.7514
        48.000          41.000
 09  1 29  8 31 30.0000000  0 11G17G 3G 7G11G25G23G28G32G13G19G20
 129314056.15447 100764192.24147  24607654.6844   24607655.1924   24607654.7474
        42.000          37.000
 133131883.76847  85946911.79947  23431226.0164   23431227.8904   23431226.0634
        45.000          38.000
 125575391.71547  97850949.81447  23896204.7624   23896205.7894   23896204.5084
        45.000          39.000
 123216913.31247  78220965.28247  21544467.8744   21544469.2494   21544468.0214
        53.000          46.000
 121564859.99747  94725850.44347  23133035.6414   23133037.2104   23133035.6974
        47.000          41.000
 104727794.13447  81606075.36447  19929034.6364   19929034.0924   19929034.7464
        56.000          51.000
 117680888.76847 109491600.51947  24296866.7444   24296867.7714   24296866.9104
        42.000          37.000
 132044071.19647  85099259.98047  23224227.0644   23224229.7534   23224227.2934
        45.000          39.000
 118751752.65747  74741621.45447  20694773.5004   20694774.9814   20694773.2924
        54.000          48.000
 121089959.81947  76563603.61947  21139717.3404   21139718.5464   21139718.0154
        53.000          48.000
 130037986.74947  83536089.19147  22842472.5034   22842474.7184   22842473.1024
        48.000          41.000
 09  1 29  8 32  0.0000000  0 11G17G 3G 7G11G25G23G28G32G13G19G20
 129214815.77647 100686862.07947  24588769.7774   24588769.9774   24588769.4554
        42.000          37.000
 133236634.64147  86028535.86747  23451159.2114   23451161.3394   23451159.4554
        45.000          38.000
 125512100.40147  97801631.90747  23884160.4814   23884161.9384   23884160.1024
        45.000          39.000
 123167135.99247  78182177.77147  21534995.5554   21534996.9394   21534995.5724
        53.000          46.000
 121500771.37647  94675911.27447  23120839.4864   23120841.6604   23120839.4944
        47.000          41.000
 104736236.03547  81612653.46447  19930641.0934   19930640.5264   19930641.2844
        57.000          51.000
 117681572.26947 109492133.10047  24296997.0734   24296997.6444   24296996.4134
        44.000          37.000
 132103337.15547  85145441.26947  23235505.0044   23235508.1484   23235505.3294
        45.000          39.000
 118700793.61447  74701913.10747  20685076.4804   20685077.8344   20685076.2854
        54.000          48.000
 121156261.00147  76615266.89547  21152334.1014   21152335.0484   21152334.9504
        53.000          48.000
 130080344.44447  83569095.18647  22850532.9894   22850535.1044   22850533.3354
        48.000          41.000
 09  1 29  8 32 30.0000000  0 11G17G 3G 7G11G25G23G28G32G13G19G20
 129115707.78647 100609635.07647  24569909.6824   24569909.9914   24569909.8924
        43.000          37.000
 133341511.22647  86110257.87147  23471116.4334   23471119.0614   23471117.0274
        45.000          38.000
 125448619.40547  97752166.20547  23872080.6134   23872081.9874   23872080.1984
        44.000          39.000
 123117522.23647  78143517.70747  21525554.3704   21525555.7294   21525554.4424
        53.000          46.000
 121436581.45947  94625893.14447  23108624.7914   23108626.6074   23108624.6434
        48.000          42.000
 104745280.02847  81619700.72847  19932362.2224   19932361.5934   19932362.3574
        57.000          51.000
 117682469.89047 109492832.55947  24297168.0324   24297168.3104   24297168.2274
        42.000          37.000
 132162473.75147  85191521.72947  23246758.9524   23246761.7224   23246759.0664
        45.000          39.000
 118650347.43547  74662604.39647  20675476.8344   20675478.1594   20675476.6004
        54.000          48.000
 121223010.18247  76667279.25347  21165036.1094   21165037.0584   21165036.8984
        53.000          48.000
 130122606.18047  83602026.39447  22858575.4274   22858577.1224   22858575.9074
        49.000          41.000
 09  1 29  8 33  0.0000000  0 11G17G 3G 7G11G25G23G28G32G13G19G20
 129016739.68247 100532517.07547  24551076.6594   24551077.7094   24551076.5634
        43.000          38.000
 133446515.25947  86192079.20647  23491098.2474   23491100.6594   23491098.3514
        45.000          38.000
 125384955.05147  97702557.65047  23859965.8874   23859967.3474   23859965.4804
        46.000          40.000
 123068079.45747  78104990.87147  21516145.9284   21516146.9774   21516145.8434
        53.000          46.000
 121372296.95247  94575801.32047  23096391.9954   23096393.9934   23096391.8474
        49.000          42.000
 104754930.41447  81627220.51047  19934198.7174   19934197.9914   19934198.9094
        57.000          51.000
 117683585.04347 109493701.51047  24297380.1484   24297380.5064   24297380.1274
        43.000          37.000
 132221484.13347  85237503.85247  23257987.5804   23257991.3214   23257987.9314
        45.000          39.000
 118600420.43347  74623700.23947  20665976.2474   20665977.4084   20665976.1524
        54.000          48.000
 121290209.34347  76719642.24947  21177823.7794   21177824.6574   21177824.5064
        53.000          48.000
 130164775.37647  83634885.50147  22866599.6214   22866601.4974   22866600.0204
        48.000          41.000
 09  1 29  8 33 30.0000000  0 11G17G 3G 7G11G25G23G28G32G13G19G20
 128917909.98447 100455506.90047  24532270.6074   24532271.2024   24532270.2094
        43.000          38.000
 133551640.26847  86273994.79147  23511102.6994   23511105.5844   23511103.0394
        45.000          38.000
 125321104.91547  97652804.26947  23847816.1404   23847817.0274   23847816.2024
        46.000          40.000
 123018806.19147  78066596.11347  21506769.5854   21506770.6304   21506769.7374
        53.000          46.000
 121307916.09547  94525634.41347  23084140.7004   23084142.3594   23084140.5434
        48.000          42.000
 104765183.30947  81635209.77547  19936149.7784   19936148.9984   19936149.9974
        57.000          51.000
 117684912.31047 109494735.77347  24297632.3074   24297632.7524   24297633.0524
        42.000          36.000
 132280363.16147  85283383.60747  23269191.9664   23269195.5184   23269191.8894
        44.000          39.000
 118551011.00347  74585199.38547  20656573.9864   20656575.3684   20656573.7284
        54.000          48.000
 121357852.86147  76772351.49647  21190695.7194   21190696.5304   21190696.5824
        53.000          48.000
 130206846.31247  83667668.05747  22874605.4754   22874607.1664   22874605.7724
        48.000          41.000
 09  1 29  8 34  0.0000000  0 11G17G 3G 7G11G25G23G28G32G13G19G20
 128819224.61247 100378609.19347  24513491.4404   24513491.9824   24513490.9334
        43.000          38.000
 133656887.11047  86356005.30347  23531130.9484   23531133.2174   23531130.8394
        45.000          38.000
 125257073.59047  97602909.76347  23835631.1774   23835632.2154   23835630.8474
        44.000          40.000
 122969708.29747  78028338.02347  21497426.4414   21497427.7484   21497426.6204
        53.000          46.000
 121243444.51847  94475396.80747  23071872.1324   23071874.1414   23071871.9484
        48.000          42.000
 104776041.92747  81643671.03647  19938215.8914   19938215.2934   19938216.0984
        57.000          51.000
 117686453.35647 109495936.58347  24297924.8934   24297927.1964   24297925.4394
        42.000          37.000
 132339113.23147  85329162.86847  23280371.7054   23280375.4874   23280371.5134
        44.000          39.000
 118502124.35347  74547105.88847  20647271.1614   20647272.2594   20647270.9764
        54.000          48.000
 121425942.07647  76825408.04447  21203652.9244   21203653.5864   21203653.7764
        53.000          48.000
 130248821.26847  83700375.81647  22882593.3114   22882595.2814   22882593.5994
        48.000          41.000
 09  1 29  8 34 30.0000000  0 11G17G 3G 7G11G25G23G28G32G13G19G20
 128720681.42847 100301822.28747  24494739.2604   24494740.0144   24494738.1804
        43.000          38.000
 133762248.44147  86438105.05047  23551180.4254   23551182.4534   23551180.3354
        45.000          38.000
 125192857.69947  97552871.41647  23823410.5694   23823412.0704   23823410.1644
        44.000          39.000
 122920784.01247  77990215.21247  21488116.5344   21488117.5844   21488116.6674
        53.000          46.000
 121178879.33547  94425086.27447  23059585.9234   23059587.7194   23059585.8234
        48.000          42.000
 104787500.15747  81652599.52447  19940396.4604   19940395.7924   19940396.7124
        56.000          51.000
 117688200.83747 109497298.25147  24298257.9854   24298259.8264   24298257.8074
        43.000          37.000
 132397728.17347  85374836.83847  23291525.6204   23291529.3754   23291525.5204
        43.000          39.000
 118453757.33747  74509417.31147  20638067.1224   20638068.3034   20638066.9324
        54.000          48.000
 121494469.94047  76878806.39247  21216692.9284   21216693.9774   21216693.7674
        53.000          48.000
 130290693.52247  83733003.52847  22890561.4404   22890563.3974   22890562.0544
        48.000          41.000
 09  1 29  8 35  0.0000000  0 11G17G 3G 7G11G25G23G28G32G13G19G20
 128622288.11547 100225152.18647  24476015.3184   24476016.1484   24476014.5794
        42.000          38.000
 133867726.74447  86520295.92547  23571252.0294   23571254.6004   23571252.3554
        45.000          38.000
 125128463.61247  97502694.23747  23811156.9234   23811157.9764   23811156.3364
        44.000          40.000
 122872040.71647  77952233.42747  21478840.8834   21478842.2464   21478841.0004
        53.000          46.000
 121114227.75747  94374708.41747  23047283.1094   23047285.1824   23047283.2224
        48.000          42.000
 104799562.63247  81661998.85347  19942691.7984   19942691.2574   19942691.9414
        57.000          51.000
 117690158.10147 109498823.37647  24298629.5994   24298631.5374   24298630.4414
        41.000          37.000
 132456211.74347  85420408.46047  23302654.9824   23302658.2784   23302655.2284
        45.000          39.000
 118405916.78947  74472138.96147  20628963.5294   20628964.6914   20628963.3754
        54.000          48.000
 121563438.97047  76932548.50247  21229817.5074   21229818.3484   21229818.2834
        53.000          48.000
 130332466.49247  83765553.89447  22898510.5754   22898512.4434   22898511.1294
        48.000          41.000
 09  1 29  8 35 30.0000000  0 11G17G 3G 7G11G25G23G28G32G13G19G20
 128524044.66547 100148598.86447  24457320.3854   24457321.2714   24457320.0434
        43.000          38.000
 133973317.02147  86602574.06747  23591345.0004   23591348.0444   23591345.6264
        44.000          38.000
 125063891.02247  97452377.99147  23798869.3514   23798870.2524   23798869.0654
        45.000          40.000
 122823478.90147  77914393.05247  21469599.8784   21469601.0954   21469599.9314
        53.000          46.000
 121049489.81147  94324263.25447  23034963.8044   23034966.0554   23034964.0344
        48.000          42.000
 104812226.86647  81671867.08947  19945101.6754   19945101.1304   19945101.7774
        56.000          51.000
 117692321.44847 109500509.10647  24299041.9874   24299043.6554   24299041.9924
        43.000          37.000
 132514560.71847  85465875.20647  23313758.5944   23313761.5824   23313758.8084
        44.000          39.000
 118358602.62947  74435270.78647  20619959.7364   20619960.9584   20619959.5554
        54.000          48.000
 121632844.97647  76986631.11347  21243025.0614   21243025.7604   21243025.8864
        53.000          48.000
 130374136.83747  83798024.28647  22906440.4894   22906441.9444   22906441.0094
        47.000          41.000
 09  1 29  8 36  0.0000000  0 11G17G 3G 7G11G25G23G28G32G13G19G20
 128425953.94447 100072164.54347  24438654.1454   24438654.5504   24438654.3684
        43.000          38.000
 134079016.14647  86684937.00947  23611459.1864   23611461.9894   23611459.4874
        44.000          38.000
 124999141.18547  97401923.59147  23786547.8044   23786548.7614   23786547.2934
        44.000          40.000
 122775101.12347  77876696.08647  21460393.9364   21460394.8344   21460394.0384
        53.000          46.000
 120984667.57747  94273752.42347  23022628.5874   23022630.4744   23022628.5784
        48.000          42.000
 104825492.21347  81682203.71647  19947626.2304   19947625.4224   19947626.5494
        57.000          51.000
 117694688.73947 109502353.72947  24299492.3034   24299493.7324   24299493.1154
        42.000          37.000
 132572773.70947  85511235.98747  23324835.9324   23324839.0334   23324836.1494
        44.000          39.000
 118311816.70447  74398814.21547  20611056.9034   20611057.9164   20611056.6094
        54.000          48.000
 121702685.56947  77041052.35447  21256315.5154   21256316.1044   21256316.2254
        53.000          48.000
 130415702.92947  83830413.45747  22914349.7574   22914351.7624   22914350.0094
        48.000          41.000
 09  1 29  8 36 30.0000000  0 11G17G 3G 7G11G25G23G28G32G13G19G20
 128328017.55947  99995850.48047  24420017.7914   24420017.9944   24420017.5624
        44.000          38.000
 134184820.89347  86767382.22747  23631593.4954   23631596.1124   23631593.8074
        44.000          38.000
 124934214.64447  97351331.50547  23774192.4104   23774193.6914   23774192.0754
        45.000          40.000
 122726909.03447  77839143.80347  21451223.2034   21451224.1604   21451223.3834
        53.000          46.000
 120919762.29547  94223176.88247  23010277.6804   23010279.4354   23010277.6554
        48.000          42.000
 104839357.20447  81693007.61047  19950264.4444   19950263.8034   19950264.4484
        57.000          51.000
 117697257.10747 109504355.03547  24299981.4134   24299982.8184   24299981.8374
        42.000          37.000
 132630848.64747  85556489.19147  23335887.0274   23335890.3874   23335887.5894
        45.000          39.000
 118265559.80247  74362769.87647  20602254.3834   20602255.5464   20602254.1144
        54.000          48.000
 121772957.66947  77095809.84647  21269687.8084   21269688.2184   21269688.6384
        53.000          48.000
 130457162.37147  83862719.52447  22922238.8454   22922241.4514   22922239.3754
        47.000          41.000
 09  1 29  8 37  0.0000000  0 11G17G 3G 7G11G25G23G28G32G13G19G20
 128230238.35247  99919658.87447  24401411.0584   24401411.8234   24401411.0464
        43.000          38.000
 134290729.42847  86849908.35947  23651747.3194   23651749.5884   23651747.4674
        44.000          37.000
 124869113.41447  97300603.31047  23761804.5384   23761805.0694   23761804.1394
        45.000          40.000
 122678905.68447  77801738.59347  21442088.3724   21442089.6114   21442088.5604
        53.000          46.000
 120854776.70047  94172538.75947  22997911.0054   22997912.9774   22997911.1924
        47.000          42.000
 104853821.67847  81704278.62147  19953017.1434   19953016.3674   19953017.3884
        56.000          51.000
 117700025.26047 109506512.02547  24300508.1694   24300509.4884   24300508.4044
        43.000          37.000
 132688784.80447  85601634.26347  23346912.2364   23346914.9414   23346912.7674
        45.000          39.000
 118219834.25847  74327139.58547  20593553.0424   20593554.1104   20593552.8464
        54.000          48.000
 121843659.48747  77150902.17347  21283141.6084   21283142.4944   21283142.3984
        52.000          48.000
 130498514.17847  83894941.70747  22930107.9044   22930110.1554   22930108.2164
        47.000          41.000
 09  1 29  8 37 30.0000000  0 11G17G 3G 7G11G25G23G28G32G13G19G20
 128132619.75847  99843592.44747  24382834.6054   24382835.2734   24382834.0554
        44.000          38.000
 134396739.79847  86932513.83547  23671920.3274   23671922.8284   23671920.5114
        43.000          37.000
 124803839.68447  97249740.70747  23749383.6544   23749383.9634   23749383.2034
        46.000          40.000
 122631094.77247  77764483.33347  21432990.5024   21432991.5474   21432990.5514
        53.000          46.000
 120789713.69947  94121840.31347  22985530.0334   22985532.3274   22985529.9894
        48.000          42.000
 104868885.93447  81716017.00147  19955883.5264   19955883.0114   19955883.6214
        57.000          51.000
 117702992.43847 109508824.10247  24301072.6084   24301073.5864   24301073.1894
        43.000          37.000
 132746581.88547  85646670.96147  23357910.4464   23357913.6534   23357911.0944
        45.000          39.000
 118174642.52447  74291925.24347  20584953.3764   20584954.4814   20584953.1334
        54.000          48.000
