     2.11           OBSERVATION DATA    G (GPS)             RINEX VERSION / TYPE
teqc  2013Mar15     gpsops              20140506 00:24:09UTCPGM / RUN BY / DATE
Linux 2.4.21-27.ELsmp|Opteron|gcc -static|Linux x86_64|=+   COMMENT
BIT 2 OF LLI FLAGS DATA COLLECTED UNDER A/S CONDITION       COMMENT
GLPS                                                        MARKER NAME
42005M002                                                   MARKER NUMBER
GGN                 JPL                                     OBSERVER / AGENCY
ZR220013847         ASHTECH UZ-12       CQ00                REC # / TYPE / VERS
CR519992104         ASH701945B_M    SCIT                    ANT # / TYPE
   -33801.4662 -6377516.5323   -82154.3508                  APPROX POSITION XYZ
        0.0083        0.0000        0.0000                  ANTENNA: DELTA H/E/N
     1     1                                                WAVELENGTH FACT L1/2
     7    L1    L2    P1    P2    C1    S1    S2            # / TYPES OF OBSERV
    30.0000                                                 INTERVAL
                                                            COMMENT
This data is provided as a public service by NASA/JPL.      COMMENT
No warranty is expressed or implied regarding suitability   COMMENT
for use.  For further information, contact:                 COMMENT
Dave Stowers, NASA/JPL m/s 238-600                          COMMENT
4800 Oak Grove Drive, Pasadena CA 91109 USA                 COMMENT
                                                            COMMENT
Forced Modulo Decimation to 30 seconds                      COMMENT
 SNR is mapped to RINEX snr flag value [0-9]                COMMENT
  L1 & L2: min(max(int(snr_dBHz/6), 0), 9)                  COMMENT
pseudorange smoothing corrections not applied               COMMENT
  2014     5     5     0     0    0.0000000     GPS         TIME OF FIRST OBS
                                                            END OF HEADER
 14  5  5  0  0  0.0000000  0 12G10G08G13G04G20G23G09G17G01G28G07G11
  -5565413.65746  -4325961.82146  24817447.4054   24817459.1394   24817446.876
        41.0004         36.0004
 -20799328.83048 -16151557.04348  20805373.1044   20805379.7924   20805373.265
        53.0004         48.0004
   8126162.65247   6325126.26146  22757257.5284   22757262.8824   22757256.866
        45.0004         41.0004
 -16029032.44047 -12435701.24047  22765509.8954   22765518.0304   22765508.130
        46.0004         42.0004
  -2140738.46547  -1590568.61646  23644548.0094   23644555.3464   23644547.864
        44.0004         39.0004
   6056663.97146   4743153.53445  25006650.6384   25006658.9024   25006650.413
        39.0004         35.0004
 -16792772.04448 -13020393.44847  20839801.7734   20839808.7854   20839801.654
        52.0004         47.0004
 -17132721.68648 -13287323.64047  21991966.3674   21991974.4554   21991966.712
        51.0004         46.0004
 -11861309.84748  -9218504.36447  22317933.5604   22317942.7184   22317932.841
        48.0004         43.0004
  -2131741.57647  -1626194.71046  24279411.0034   24279416.9144   24279410.669
        42.0004         37.0004
 -24996908.37049 -19441843.75148  20128974.7704   20128979.8914   20128974.104
        54.0004         50.0004
  -6441342.36947  -4995392.18946  23858566.9064   23858573.4724   23858567.910
        42.0004         38.0004
 14  5  5  0  0 30.0000000  0 12G10G08G13G04G20G23G09G17G01G28G07G11
  -5600194.05646  -4353063.27646  24810830.4564   24810840.0684   24810828.931
        41.0004         36.0004
 -20870898.30248 -16207325.40748  20791753.7784   20791760.8074   20791753.924
        53.0004         48.0004
   8208456.10747   6389251.05746  22772917.4854   22772925.8114   22772917.009
        45.0004         41.0004
 -16125787.26747 -12511094.47847  22747096.6294   22747105.6334   22747096.750
        46.0004         42.0004
  -2144779.32047  -1593717.23746  23643779.3454   23643787.4624   23643780.191
        44.0004         39.0004
   6139826.62846   4807955.62345  25022476.8884   25022482.6194   25022476.149
        39.0004         35.0004
 -16861059.12048 -13073604.10247  20826807.3064   20826813.9494   20826807.244
        52.0004         47.0004
 -17106418.45848 -13266827.58747  21996972.4174   21996979.5084   21996972.226
        51.0004         46.0004
 -11788338.53348  -9161643.56947  22331819.5094   22331829.1534   22331818.879
        48.0004         43.0004
  -2158043.70647  -1646689.73746  24274406.2214   24274412.4454   24274405.782
        42.0004         37.0004
 -25004406.77549 -19447686.63448  20127547.9204   20127552.8504   20127546.930
        54.0004         50.0004
  -6340186.57347  -4916569.48946  23877817.9804   23877824.4474   23877817.388
        42.0004         38.0004
 14  5  5  0  1  0.0000000  0 12G10G08G13G04G20G23G09G17G01G28G07G11
  -5635223.25746  -4380358.59746  24804160.7474   24804173.1584   24804162.573
        41.0004         36.0004
 -20942061.59648 -16262777.27048  20778211.5364   20778218.4244   20778211.906
        52.0004         48.0004
   8290740.40147   6453368.71946  22788575.3234   22788582.3244   22788575.558
        45.0004         41.0004
 -16222384.68447 -12586365.05947  22728715.0544   22728723.0204   22728714.474
        47.0004         42.0004
  -2148739.57547  -1596803.04846  23643025.5224   23643033.2604   23643025.179
        44.0004         39.0004
   6222776.57546   4872591.95145  25038259.9364   25038267.7544   25038259.807
        39.0004         35.0004
 -16928919.00948 -13126481.87147  20813894.0424   20813900.7764   20813893.749
        52.0004         47.0004
 -17079835.63448 -13246113.67347  22002031.1344   22002037.5924   22002030.429
        51.0004         46.0004
 -11714963.84748  -9104468.46147  22345782.0454   22345790.8594   22345781.543
        48.0004         43.0004
  -2184628.46747  -1667405.01846  24269346.9454   24269353.5204   24269346.553
        42.0004         38.0004
 -25011319.53649 -19453073.17048  20126231.7974   20126237.0574   20126231.646
        54.0004         50.0004
  -6238880.52747  -4837629.71346  23897095.8614   23897101.6774   23897095.100
        42.0004         38.0004
 14  5  5  0  1 30.0000000  0 12G10G08G13G04G20G23G09G17G01G28G07G11
  -5670500.20546  -4407846.97246  24797447.6744   24797460.5944   24797449.765
        41.0004         36.0004
 -21012814.42548 -16317909.28548  20764747.5784   20764755.0104   20764747.989
        52.0004         48.0004
   8373013.80447   6517477.89346  22804230.9594   22804237.9954   22804231.465
        45.0004         41.0004
 -16318820.71347 -12661509.88047  22710363.8544   22710372.0284   22710363.540
        47.0004         42.0004
  -2152616.42247  -1599823.85946  23642288.1484   23642295.5664   23642287.750
        44.0004         39.0004
   6305513.68446   4937062.45245  25054003.8174   25054011.4724   25054003.966
        39.0004         34.0004
 -16996347.93348 -13179023.83147  20801062.7564   20801069.1284   20801062.593
        52.0004         47.0004
 -17052974.74848 -13225183.08847  22007142.5204   22007149.4584   22007142.515
        51.0004         46.0004
 -11641186.71548  -9046979.76347  22359821.3824   22359831.4624   22359821.009
        48.0004         43.0004
  -2211493.93347  -1688339.02546  24264233.5594   24264242.0394   24264234.319
        42.0004         38.0004
 -25017644.45349 -19458001.65048  20125028.4934   20125033.5024   20125027.906
        54.0004         50.0004
  -6137426.11247  -4758574.31146  23916402.3644   23916407.6274   23916401.112
        42.0004         38.0004
 14  5  5  0  2  0.0000000  0 12G10G08G13G04G20G23G09G17G01G28G07G11
  -5706025.69946  -4435529.03246  24790689.5614   24790700.7364   24790689.063
        41.0004         36.0004
 -21083154.73348 -16372719.86348  20751362.5504   20751369.4674   20751363.024
        53.0004         48.0004
   8455272.84447   6581575.88346  22819884.8434   22819891.5934   22819884.733
        45.0004         41.0004
 -16415093.54047 -12736527.52447  22692042.8554   22692052.2264   22692042.570
        47.0004         42.0004
  -2156408.72447  -1602778.80946  23641565.2934   23641573.7984   23641565.354
        43.0004         39.0004
   6388035.84246   5001365.44945  25069707.9134   25069715.8474   25069708.229
        39.0004         35.0004
 -17063343.91248 -13231228.43847  20788313.4644   20788320.3454   20788313.664
        52.0004         47.0004
 -17025839.20348 -13204038.48347  22012305.8334   22012313.2314   22012305.471
        51.0004         46.0004
 -11567009.94448  -8989179.65647  22373937.4414   22373945.6344   22373936.292
        48.0004         43.0004
  -2238641.18747  -1709492.59446  24259069.2074   24259075.9534   24259068.550
        42.0004         37.0004
 -25023381.77849 -19462472.26548  20123936.7134   20123941.8024   20123936.205
        54.0004         50.0004
  -6035826.52147  -4679405.79146  23935734.4844   23935741.1744   23935735.212
        42.0004         38.0004
 14  5  5  0  2 30.0000000  0 12G10G08G13G04G20G23G09G17G01G28G07G11
  -5741799.12546  -4463404.27246  24783881.0644   24783893.6314   24783880.866
        41.0004         36.0004
 -21153077.90848 -16427205.39948  20738056.4794   20738063.4754   20738056.900
        53.0004         48.0004
   8537516.76547   6645662.07946  22835535.8374   22835543.7964   22835535.855
        45.0004         41.0004
 -16511199.16047 -12811414.88547  22673755.7104   22673765.3414   22673754.750
        47.0004         42.0004
  -2160113.43747  -1605665.51546  23640860.6774   23640867.7874   23640860.745
        43.0004         39.0004
   6470342.76746   5065500.70445  25085370.8214   25085377.8254   25085371.426
        39.0004         35.0004
 -17129903.19848 -13283092.75747  20775647.6614   20775654.7864   20775647.633
        52.0004         47.0004
 -16998429.57348 -13182680.29747  22017522.2234   22017529.5524   22017521.758
        51.0004         46.0004
 -11492434.41748  -8931068.82647  22388128.1184   22388138.3124   22388127.764
        48.0004         43.0004
  -2266068.26647  -1730864.22046  24253847.3864   24253856.3594   24253849.083
        42.0004         37.0004
 -25028529.19949 -19466483.21648  20122957.0394   20122962.2584   20122956.552
        54.0004         50.0004
  -5934082.97947  -4600125.09946  23955095.0804   23955103.3554   23955096.541
        42.0004         38.0004
 14  5  5  0  3  0.0000000  0 12G10G08G13G04G20G23G09G17G01G28G07G11
  -5777821.20146  -4491473.28046  24777025.8744   24777038.1084   24777027.211
        40.0004         36.0004
 -21222581.56948 -16481364.04348  20724830.1154   20724836.8714   20724830.688
        53.0004         48.0004
   8619741.56747   6709733.38346  22851184.0534   22851188.6624   22851182.749
        45.0004         41.0004
 -16607135.89147 -12886170.65347  22655499.4944   22655506.8564   22655498.597
        47.0004         42.0004
  -2163729.52047  -1608483.15346  23640171.8054   23640180.2004   23640172.158
        43.0004         39.0004
   6552432.50146   5129466.73345  25100994.1544   25100998.0044   25100992.614
        40.0004         35.0004
 -17196023.74748 -13334615.20247  20763065.4924   20763072.5164   20763065.458
        52.0004         47.0004
 -16970749.76948 -13161111.59847  22022789.2734   22022797.5294   22022789.066
        51.0004         46.0004
 -11417462.90148  -8872649.44347  22402393.4424   22402403.3584   22402393.864
        48.0004         43.0004
  -2293776.11547  -1752454.61246  24248575.2194   24248582.8734   24248575.898
        42.0004         37.0004
 -25033086.49449 -19470034.32948  20122089.8644   20122095.1724   20122089.291
        54.0004         50.0004
  -5832199.39247  -4520735.27546  23974484.6064   23974491.5214   23974484.600
        42.0004         38.0004
 14  5  5  0  3 30.0000000  0 12G10G08G13G04G20G23G09G17G01G28G07G11
  -5814092.73546  -4519736.66546  24770124.6414   24770137.4614   24770124.344
        41.0004         36.0004
 -21291663.28048 -16535193.90348  20711684.6254   20711691.4064   20711684.735
        53.0004         48.0004
   8701944.24747   6773787.44146  22866825.1994   22866832.1464   22866825.072
        45.0004         41.0004
 -16702901.35447 -12960792.94947  22637275.8774   22637283.3884   22637275.145
        47.0004         42.0004
  -2167255.55147  -1611230.62446  23639501.0934   23639508.8394   23639501.790
        43.0004         39.0004
   6634303.53046   5193262.33445  25116570.6014   25116576.6464   25116572.227
        40.0004         35.0004
 -17261703.41048 -13385794.11147  20750567.1064   20750573.4454   20750566.728
        52.0004         47.0004
 -16942802.64448 -13139334.59547  22028107.5244   22028114.5124   22028107.042
        51.0004         46.0004
 -11342097.93848  -8813923.45647  22416736.6244   22416744.7704   22416736.059
        48.0004         43.0004
  -2321764.68147  -1774263.76346  24243250.4594   24243257.0374   24243249.785
        42.0004         37.0004
 -25037053.93849 -19473125.82148  20121334.9554   20121339.8764   20121334.612
        54.0004         50.0004
  -5730178.80147  -4441238.69546  23993897.9444   23993904.5774   23993898.322
        42.0004         38.0004
 14  5  5  0  4  0.0000000  0 12G10G08G13G04G20G23G09G17G01G28G07G11
  -5850611.84846  -4548192.96046  24763174.0504   24763185.9954   24763174.717
        41.0004         36.0004
 -21360317.87748 -16588690.94248  20698620.2144   20698626.5354   20698620.374
        53.0004         48.0004
   8784124.42547   6837823.99646  22882462.7164   22882470.9004   22882462.793
        45.0004         40.0004
 -16798491.04247 -13035278.29047  22619086.0354   22619092.4454   22619084.978
        47.0004         42.0004
  -2170687.58747  -1613904.84446  23638846.9834   23638854.8064   23638847.885
        43.0004         38.0004
   6715956.15846   5256887.75545  25132110.1284   25132116.1224   25132108.811
        40.0004         35.0004
 -17326937.62348 -13436625.91247  20738153.2384   20738159.3874   20738153.135
        52.0004         47.0004
 -16914588.68148 -13117349.66747  22033476.1964   22033483.2994   22033475.843
        51.0004         46.0004
 -11266339.74748  -8754891.07147  22431153.0314   22431161.8194   22431151.872
        48.0004         43.0004
  -2350031.95047  -1796290.08946  24237871.1694   24237876.4894   24237871.014
        42.0004         38.0004
 -25040428.77949 -19475755.54048  20120692.4724   20120697.4764   20120692.178
        54.0004         50.0004
  -5628021.85147  -4361635.87046  24013338.4394   24013343.6354   24013338.243
        42.0004         37.0004
 14  5  5  0  4 30.0000000  0 12G10G08G13G04G20G23G09G17G01G28G07G11
  -5887381.47746  -4576844.48146  24756178.3284   24756189.1324   24756177.949
        41.0004         36.0004
 -21428544.52248 -16641854.51548  20685637.0614   20685643.8494   20685637.417
        53.0004         48.0004
   8866277.01847   6901839.05246  22898095.7814   22898102.4764   22898096.377
        45.0004         40.0004
 -16893904.83947 -13109626.57347  22600928.4084   22600935.6594   22600928.084
        47.0004         42.0004
  -2174026.38047  -1616506.40846  23638213.1394   23638221.4794   23638213.193
        43.0004         39.0004
   6797386.83746   5320340.24945  25147605.3674   25147613.2784   25147605.662
        40.0004         35.0004
 -17391726.27148 -13487110.51948  20725824.3144   20725830.8994   20725824.467
        52.0004         48.0004
 -16886113.05948 -13095160.84847  22038894.9894   22038903.2954   22038894.682
        51.0004         46.0004
 -11190192.87847  -8695555.82847  22445643.3564   22445652.5304   22445641.734
        47.0004         43.0004
  -2378579.79147  -1818535.04646  24232437.4334   24232445.3064   24232438.344
        42.0004         38.0004
 -25043212.76849 -19477924.85748  20120162.7214   20120167.5494   20120162.480
        54.0004         50.0004
  -5525733.56547  -4281930.69046  24032804.6574   24032810.2364   24032803.075
        42.0004         37.0004
 14  5  5  0  5  0.0000000  0 12G10G08G13G04G20G23G09G17G01G28G07G11
  -5924398.10846  -4605688.45246  24749131.7074   24749145.5304   24749133.091
        41.0004         36.0004
 -21496336.44048 -16694679.33248  20672736.7394   20672743.3104   20672736.862
        53.0004         48.0004
   8948403.08047   6965833.43346  22913724.6634   22913731.6534   22913724.494
        45.0004         41.0004
 -16989136.01647 -13183832.54847  22582806.7664   22582813.8194   22582806.202
        47.0004         42.0004
  -2177266.42647  -1619031.04646  23637595.9094   23637602.5534   23637596.406
        43.0004         38.0004
   6878597.83746   5383621.55245  25163058.8484   25163067.5944   25163058.846
        40.0004         35.0004
 -17456063.04748 -13537243.01448  20713581.3574   20713588.2914   20713581.277
        52.0004         48.0004
 -16857374.31248 -13072766.99547  22044363.7844   22044371.4844   22044363.373
        51.0004         46.0004
 -11113655.71948  -8635916.45347  22460208.3884   22460217.0434   22460207.113
        48.0004         43.0004
  -2407404.39247  -1840995.62946  24226951.9064   24226958.2174   24226953.367
        42.0004         38.0004
 -25045401.57549 -19479630.39448  20119746.3384   20119751.1654   20119745.911
        54.0004         50.0004
  -5423312.95547  -4202122.40846  24052293.2884   24052299.1864   24052292.425
        42.0004         37.0004
 14  5  5  0  5 30.0000000  0 12G10G08G13G04G20G23G09G17G01G28G07G11
  -5961664.98446  -4634727.42846  24742041.3624   24742053.3354   24742042.426
        41.0004         36.0004
 -21563693.88848 -16747165.60348  20659918.8904   20659925.3714   20659919.239
        53.0004         48.0004
   9030496.70047   7029802.53346  22929345.3554   22929352.4464   22929346.143
        45.0004         40.0004
 -17084185.44547 -13257896.90847  22564719.6824   22564725.9834   22564718.707
        47.0004         43.0004
  -2180409.12347  -1621479.81746  23636997.2054   23637005.6814   23636998.222
        43.0004         38.0004
   6959584.83046   5446728.26545  25178467.0254   25178476.9574   25178470.228
        40.0004         35.0004
 -17519948.58548 -13587023.89047  20701423.9904   20701430.7384   20701424.180
        52.0004         47.0004
 -16828378.33748 -13050172.71047  22049881.9074   22049888.3564   22049881.364
        51.0004         46.0004
 -11036733.75748  -8575977.23547  22474844.9174   22474854.3384   22474844.574
        48.0004         43.0004
  -2436508.75947  -1863674.23646  24221414.8614   24221420.6404   24221414.818
        42.0004         38.0004
 -25046997.91549 -19480874.26948  20119442.5684   20119447.3204   20119441.971
        54.0004         50.0004
  -5320765.85447  -4122215.55546  24071806.4764   24071814.3754   24071806.642
        42.0004         37.0004
 14  5  5  0  6  0.0000000  0 12G10G08G13G04G20G23G09G17G01G28G07G11
  -5999181.78146  -4663961.13146  24734903.0784   24734913.3984   24734903.132
        41.0004         36.0004
 -21630612.91748 -16799310.25148  20647184.4934   20647191.3174   20647184.766
        53.0004         48.0004
   9112556.17647   7093745.02546  22944961.5634   22944967.5884   22944961.444
        45.0004         41.0004
 -17179049.72147 -13331816.99847  22546667.4804   22546675.7324   22546666.907
        47.0004         43.0004
  -2183451.98547  -1623850.78246  23636418.5954   23636426.5504   23636418.928
        43.0004         38.0004
   7040347.34246   5509660.07745  25193838.5284   25193848.3284   25193839.368
        40.0004         35.0004
 -17583379.76548 -13636450.72848  20689353.6624   20689360.4364   20689353.697
        52.0004         48.0004
 -16799126.72048 -13027379.21547  22055448.3844   22055455.2914   22055447.757
        51.0004         46.0004
 -10959428.43247  -8515739.29047  22489554.9364   22489564.5124   22489554.988
        47.0004         43.0004
  -2465891.68147  -1886569.90146  24215823.1014   24215830.6754   24215822.692
        42.0004         38.0004
 -25048000.25749 -19481655.29348  20119251.6994   20119256.7604   20119251.266
        54.0004         50.0004
  -5218094.46746  -4042211.85746  24091343.8194   24091352.7384   24091344.527
        41.0004         37.0004
 14  5  5  0  6 30.0000000  0 12G10G08G13G04G20G23G09G17G01G28G07G11
  -6036946.92846  -4693388.38046  24727714.6454   24727727.4574   24727716.186
        41.0004         36.0004
 -21697088.72448 -16851109.53848  20634534.4784   20634541.0824   20634535.041
        53.0004         48.0004
   9194580.42647   7157660.08146  22960570.1944   22960577.4614   22960569.808
        45.0004         41.0004
 -17273724.57347 -13405589.47847  22528650.4184   22528657.8334   22528650.129
        47.0004         43.0004
  -2186391.52347  -1626141.25246  23635859.8864   23635866.9294   23635860.088
        43.0004         38.0004
   7120885.57546   5572417.11246  25209165.0734   25209171.3174   25209164.881
        40.0004         36.0004
 -17646352.34148 -13685520.21248  20677370.1484   20677376.7404   20677370.427
        52.0004         48.0004
 -16769621.30748 -13004387.96047  22061062.5454   22061069.8454   22061062.208
        51.0004         46.0004
 -10881740.30547  -8455203.06047  22504340.1004   22504347.3314   22504338.880
        47.0004         43.0004
  -2495551.50547  -1909681.32646  24210178.2374   24210186.0954   24210179.072
        42.0004         38.0004
 -25048406.64149 -19481971.93348  20119173.9674   20119179.2454   20119173.888
        54.0004         49.0004
  -5115299.95346  -3962112.21846  24110904.6344   24110911.9654   24110905.952
        41.0004         36.0004
 14  5  5  0  7  0.0000000  0 12G10G08G13G04G20G23G09G17G01G28G07G11
  -6074961.07046  -4723009.63646  24720482.1844   24720492.2094   24720482.993
        41.0004         36.0004
 -21763118.94848 -16902561.61848  20621969.6984   20621975.8964   20621969.646
        53.0004         48.0004
   9276566.97947   7221545.75946  22976172.8884   22976179.5124   22976171.114
        45.0004         40.0004
 -17368207.56247 -13479212.44947  22510672.1824   22510678.3124   22510671.140
        47.0004         43.0004
  -2189226.17547  -1628349.99846  23635319.9124   23635328.3284   23635320.473
        43.0004         39.0004
   7201197.90946   5634998.11646  25224449.0404   25224454.6094   25224447.861
        41.0004         36.0004
 -17708864.21548 -13734230.70948  20665474.6394   20665481.2974   20665474.559
        52.0004         48.0004
 -16739864.29248 -12981200.65047  22066724.8154   22066732.5314   22066724.622
        51.0004         46.0004
 -10803671.95747  -8394370.55447  22519195.6604   22519203.0224   22519194.409
        47.0004         43.0004
  -2525487.96047  -1933008.30546  24204482.2894   24204488.9884   24204482.267
        43.0004         38.0004
 -25048217.05049 -19481824.18148  20119210.3414   20119215.3354   20119209.789
        54.0004         49.0004
  -5012385.01346  -3881918.74446  24130490.2554   24130496.9954   24130489.934
        41.0004         36.0004
 14  5  5  0  7 30.0000000  0 12G10G08G13G04G20G23G09G17G01G28G07G11
  -6113224.68646  -4752825.28446  24713200.6054   24713209.9594   24713200.839
        41.0004         36.0004
 -21828700.85048 -16953664.35448  20609489.4834   20609495.9534   20609489.869
        53.0004         48.0004
   9358512.90147   7285399.77846  22991766.7454   22991771.9084   22991765.388
        45.0004         40.0004
 -17462496.29147 -13552684.04847  22492728.1794   22492735.5594   22492728.184
        47.0004         43.0004
  -2191954.56647  -1630475.93746  23634800.6774   23634807.7484   23634800.900
        43.0004         38.0004
   7281282.81046   5697401.88746  25239687.4474   25239695.2014   25239687.793
        41.0004         36.0004
 -17770913.04048 -13782580.38848  20653667.2604   20653673.6654   20653667.233
        52.0004         48.0004
 -16709858.26248 -12957819.29747  22072434.5244   22072442.5074   22072434.945
        51.0004         46.0004
 -10725225.84947  -8333243.69147  22534122.6614   22534131.7504   22534122.331
        47.0004         43.0004
  -2555700.84347  -1956550.68746  24198732.0984   24198739.1654   24198732.580
        42.0004         38.0004
 -25047430.95549 -19481211.61748  20119359.8474   20119365.0714   20119359.387
        54.0004         49.0004
  -4909352.64346  -3801633.75746  24150097.2644   24150104.1374   24150096.238
        41.0004         36.0004
 14  5  5  0  8  0.0000000  0 12G10G08G13G04G20G23G09G17G01G28G07G11
  -6151737.94846  -4782835.46546  24705873.0604   24705881.9414   24705871.625
        41.0004         36.0004
 -21893831.37248 -17004415.37148  20597095.9924   20597102.0244   20597096.009
        53.0004         48.0004
   9440415.26047   7349219.84046  23007352.0914   23007358.5534   23007351.015
        45.0004         40.0004
 -17556588.30347 -13626002.36747  22474823.5944   22474831.2894   22474822.932
        47.0004         43.0004
  -2194574.85547  -1632517.64046  23634302.3644   23634309.9794   23634301.898
        43.0004         39.0004
   7361139.02946   5759627.47946  25254882.9604   25254890.5024   25254883.654
        41.0004         36.0004
 -17832496.73548 -13830567.62548  20641947.9124   20641954.5044   20641948.366
        52.0004         48.0004
 -16679606.68148 -12934246.61447  22078192.1744   22078199.0194   22078191.575
        51.0004         46.0004
 -10646404.35747  -8271824.32447  22549121.9034   22549130.1754   22549121.234
        47.0004         42.0004
  -2586190.02447  -1980308.35746  24192930.5954   24192938.3864   24192930.794
        42.0004         38.0004
 -25046047.37149 -19480133.47748  20119623.1084   20119628.2054   20119622.559
        54.0004         50.0004
  -4806205.72946  -3721259.52246  24169723.5664   24169729.0684   24169724.225
        41.0004         36.0004
 14  5  5  0  8 30.0000000  0 12G10G08G13G04G20G23G09G17G01G28G07G11
  -6190499.58446  -4813039.17046  24698494.8774   24698505.8944   24698495.428
        41.0004         36.0004
 -21958506.09348 -17054811.20848  20584788.2274   20584795.3114   20584788.505
        53.0004         48.0004
   9522273.40747   7413005.45746  23022927.9294   23022935.5734   23022927.886
        45.0004         40.0004
 -17650479.67847 -13699164.35547  22456956.3434   22456965.0414   22456955.862
        47.0004         43.0004
  -2197083.92047  -1634472.67946  23633824.9694   23633832.0134   23633824.699
        43.0004         38.0004
   7440766.99946   5821675.20146  25270037.3574   25270044.1164   25270036.939
        40.0004         36.0004
 -17893611.24348 -13878189.26948  20630318.5584   20630324.7624   20630318.339
        52.0004         48.0004
 -16649110.37048 -12910483.23347  22083995.4814   22084002.4774   22083994.824
        51.0004         46.0004
 -10567208.27347  -8210113.07247  22564192.8774   22564202.3184   22564192.040
        47.0004         42.0004
  -2616953.75347  -2004279.96746  24187076.3044   24187083.1494   24187076.367
        42.0004         38.0004
 -25044065.77149 -19478589.35348  20120000.3524   20120005.3344   20119999.899
        54.0004         50.0004
  -4702945.36446  -3640796.90746  24189372.6524   24189379.7024   24189373.894
        41.0004         36.0004
 14  5  5  0  9  0.0000000  0 12G10G08G13G04G20G23G09G17G01G28G07G11
  -6229511.45646  -4843437.88146  24691072.4304   24691084.2114   24691071.850
        41.0004         36.0004
 -22022724.04548 -17104851.12548  20572567.7934   20572575.0054   20572568.226
        53.0004         48.0004
   9604082.19947   7476752.63346  23038495.8164   23038503.7984   23038495.209
        44.0004         40.0004
 -17744169.45747 -13772169.24847  22439126.9324   22439136.4324   22439127.364
        47.0004         43.0004
  -2199481.66947  -1636341.00746  23633367.6254   23633374.9084   23633368.055
        43.0004         38.0004
   7520163.56146   5883542.59045  25285144.7064   25285152.0794   25285145.116
        40.0004         35.0004
 -17954256.14748 -13925444.98748  20618777.9734   20618784.3144   20618777.998
        52.0004         48.0004
 -16618373.40148 -12886532.32447  22089844.1464   22089851.3954   22089843.900
        51.0004         46.0004
 -10487641.81047  -8148113.20147  22579333.7964   22579341.8754   22579332.745
        47.0004         42.0004
  -2647993.62347  -2028466.75446  24181168.7264   24181175.6874   24181168.798
        42.0004         38.0004
 -25041487.47749 -19476580.26848  20120490.8874   20120495.8184   20120490.612
        54.0004         50.0004
  -4599576.43046  -3560249.67246  24209044.2134   24209051.1904   24209044.494
        41.0004         36.0004
 14  5  5  0  9 30.0000000  0 12G10G08G13G04G20G23G09G17G01G28G07G11
  -6268772.47746  -4874030.73146  24683601.1264   24683610.3724   24683601.368
        41.0004         36.0004
 -22086480.92248 -17154531.75748  20560435.1654   20560441.9774   20560435.561
        53.0004         48.0004
   9685840.97847   7540460.82846  23054053.4574   23054060.8514   23054053.156
        44.0004         40.0004
 -17837653.99848 -13845014.22647  22421338.4254   22421345.0984   22421337.444
        48.0004         43.0004
  -2201765.27447  -1638120.35446  23632932.3984   23632941.3534   23632933.171
        43.0004         38.0004
   7599328.58346   5945229.57245  25300208.1684   25300217.0584   25300209.603
        40.0004         35.0004
 -18014427.68848 -13972331.85248  20607327.6714   20607334.3174   20607327.959
        53.0004         48.0004
 -16587398.05348 -12862395.66747  22095738.8474   22095745.7234   22095738.254
        51.0004         46.0004
 -10407706.03647  -8085825.55447  22594544.7794   22594553.1674   22594544.048
        47.0004         42.0004
  -2679308.08447  -2052867.50046  24175209.3504   24175217.9904   24175210.362
        43.0004         38.0004
 -25038310.66449 -19474104.80948  20121095.6204   20121100.7224   20121095.195
        54.0004         50.0004
  -4496100.21346  -3479618.83746  24228735.3334   24228739.6954   24228735.677
        41.0004         36.0004
 14  5  5  0 10  0.0000000  0 11G10G08G13G04G20G09G17G01G28G07G11
  -6308280.65746  -4904816.17446  24676082.3324   24676093.4874   24676082.784
        41.0004         36.0004
 -22149771.68148 -17203849.18548  20548391.4874   20548398.3584   20548391.855
        53.0004         48.0004
   9767548.86347   7604129.35946  23069602.4074   23069608.6174   23069601.682
        44.0004         39.0004
 -17930928.25248 -13917695.34047  22403588.8844   22403595.9514   22403587.826
        48.0004         43.0004
  -2203930.80247  -1639807.71546  23632521.6314   23632530.2134   23632521.768
        43.0004         39.0004
 -18074121.45648 -14018846.42248  20595968.4594   20595974.6854   20595968.298
        53.0004         48.0004
 -16556184.30548 -12838073.24447  22101678.3204   22101685.3414   22101678.067
        51.0004         46.0004
 -10327401.17347  -8023250.31947  22609826.2874   22609835.8654   22609825.796
        47.0004         42.0004
  -2710894.39547  -2077480.09246  24169199.8364   24169206.8564   24169199.332
        42.0004         38.0004
 -25034532.93849 -19471161.10248  20121814.5834   20121819.0714   20121813.848
        54.0004         50.0004
  -4392517.39146  -3398904.96746  24248446.6164   24248456.1004   24248446.337
        40.0004         36.0004
 14  5  5  0 10 30.0000000  0 11G10G08G13G04G20G09G17G01G28G07G11
  -6348040.37946  -4935797.60446  24668515.1874   24668525.6394   24668516.306
        41.0004         37.0004
 -22212597.46848 -17252804.30148  20536436.1994   20536442.3614   20536436.511
        53.0004         48.0004
   9849200.03647   7667753.70746  23085140.1424   23085145.7044   23085139.547
        44.0004         40.0004
 -18023993.84048 -13990213.86047  22385879.0454   22385885.9814   22385878.291
        48.0004         43.0004
  -2205980.40647  -1641404.73846  23632131.4944   23632139.6254   23632131.687
        43.0004         39.0004
 -18133338.87148 -14064989.81248  20584699.6214   20584705.5804   20584699.548
        53.0004         48.0004
 -16524738.92948 -12813570.32747  22107662.0414   22107669.3254   22107661.742
        51.0004         46.0004
 -10246733.50247  -7960392.37647  22625177.2914   22625185.8104   22625176.245
        47.0004         43.0004
  -2742756.12147  -2102307.28646  24163136.4114   24163143.7344   24163136.283
        42.0004         38.0004
 -25030157.71149 -19467751.82148  20122647.0694   20122652.0154   20122646.673
        54.0004         49.0004
  -4288834.44946  -3318113.06546  24268175.9194   24268183.6264   24268177.121
        40.0004         36.0004
 14  5  5  0 11  0.0000000  0 11G10G08G13G04G20G09G17G01G28G07G11
  -6388047.19646  -4966971.56546  24660902.5324   24660914.2814   24660902.765
        41.0004         37.0004
 -22274951.08448 -17301391.49348  20524570.7364   20524577.1934   20524571.161
        53.0004         49.0004
   9930795.80747   7731334.88346  23100667.1584   23100673.6384   23100666.907
        44.0004         40.0004
 -18116843.62948 -14062564.22647  22368209.8544   22368216.4594   22368209.089
        48.0004         43.0004
  -2207908.19447  -1642906.84146  23631765.1674   23631772.1664   23631764.723
        43.0004         38.0004
 -18192073.44348 -14110756.95348  20573522.6624   20573528.9664   20573522.804
        53.0004         48.0004
 -16493059.87648 -12788885.33147  22113689.6964   22113697.8694   22113689.835
        51.0004         46.0004
 -10165701.01047  -7897250.14447  22640596.4054   22640605.0134   22640596.232
        47.0004         43.0004
  -2774888.78647  -2127345.59946  24157021.4774   24157028.3754   24157021.716
        43.0004         38.0004
 -25025180.80249 -19463873.68448  20123594.1384   20123599.0454   20123593.432
        54.0004         49.0004
  -4185049.82146  -3237241.92346  24287927.4454   24287933.4984   24287926.169
        40.0004         36.0004
 14  5  5  0 11 30.0000000  0 11G10G08G13G04G20G09G17G01G28G07G11
  -6428303.86746  -4998340.22946  24653242.0904   24653254.4614   24653242.284
        41.0004         37.0004
 -22336831.93948 -17349610.29748  20512795.1224   20512801.8424   20512795.671
        53.0004         49.0004
  10012331.42247   7794869.17946  23116182.4274   23116189.5114   23116182.806
        44.0004         39.0004
 -18209477.73548 -14134746.53347  22350582.3264   22350589.1864   22350581.720
        48.0004         43.0004
  -2209714.63547  -1644314.38646  23631420.4204   23631428.9074   23631421.564
        43.0004         38.0004
 -18250325.46248 -14156148.08248  20562437.4174   20562444.4314   20562437.551
        53.0004         48.0004
 -16461152.70248 -12764022.57947  22119761.6424   22119769.3534   22119761.804
        51.0004         46.0004
 -10084308.62347  -7833827.49047  22656084.8264   22656093.4174   22656084.344
        47.0004         42.0004
  -2807294.28847  -2152596.53646  24150855.3554   24150860.5754   24150855.641
        43.0004         38.0004
 -25019604.24049 -19459528.29648  20124655.1624   20124660.0804   20124654.512
        54.0004         49.0004
  -4081168.83846  -3156295.68646  24307692.8844   24307700.5474   24307694.087
        40.0004         36.0004
 14  5  5  0 12  0.0000000  0 11G10G08G13G04G20G09G17G01G28G07G11
  -6468808.50446  -5029902.11946  24645534.4214   24645545.2204   24645533.961
        41.0004         37.0004
 -22398235.33348 -17397457.05348  20501110.5324   20501117.1344   20501110.731
        53.0004         49.0004
  10093806.31147   7858356.16246  23131685.8634   23131692.4094   23131686.630
        44.0004         39.0004
 -18301891.24148 -14206756.92547  22332997.0654   22333003.7834   22332996.083
        48.0004         43.0004
  -2211396.16547  -1645624.60246  23631101.4674   23631107.9174   23631101.568
        43.0004         38.0004
 -18308090.66048 -14201159.86848  20551445.2494   20551451.8894   20551445.274
        53.0004         48.0004
 -16429018.06948 -12738982.58447  22125877.0704   22125884.1544   22125876.919
        51.0004         46.0004
 -10002556.69147  -7770124.66247  22671641.7644   22671651.3154   22671641.120
        47.0004         42.0004
  -2839970.47147  -2178058.37546  24144637.2634   24144643.5384   24144636.794
        43.0004         38.0004
 -25013426.46149 -19454714.41748  20125830.5524   20125836.0254   20125829.975
        54.0004         49.0004
  -3977192.21246  -3075274.91346  24327478.7164   24327486.4514   24327479.799
        40.0004         36.0004
 14  5  5  0 12 30.0000000  0 11G10G08G13G04G20G09G17G01G28G07G11
  -6509563.57446  -5061659.14346  24637777.1304   24637789.3814   24637778.797
        41.0004         37.0004
 -22459160.65848 -17444931.28948  20489516.4564   20489523.2824   20489517.004
        53.0004         49.0004
  10175215.74847   7921792.15146  23147179.3114   23147185.4834   23147178.195
        44.0004         39.0004
 -18394084.00148 -14278595.32647  22315452.5464   22315458.5004   22315451.341
        48.0004         43.0004
  -2212953.40947  -1646837.98646  23630804.7884   23630811.8044   23630804.556
        43.0004         38.0004
 -18365369.08848 -14245792.34748  20540545.7074   20540552.0534   20540545.557
        53.0004         48.0004
 -16396660.92748 -12713769.20547  22132033.7894   22132042.1094   22132034.020
        51.0004         46.0004
  -9920449.93347  -7706145.35047  22687266.8544   22687275.7044   22687265.860
        47.0004         42.0004
  -2872918.78047  -2203732.29546  24138366.6174   24138373.5914   24138367.349
        43.0004         38.0004
 -25006649.21549 -19449433.42748  20127120.2104   20127125.3014   20127119.543
        54.0004         49.0004
  -3873124.72146  -2994183.32246  24347281.0704   24347289.7934   24347282.994
        40.0004         36.0004
 14  5  5  0 13  0.0000000  0 11G10G08G13G04G20G09G17G01G28G07G11
  -6550565.93347  -5093608.85246  24629976.9464   24629986.7944   24629976.010
        42.0004         37.0004
 -22519602.25948 -17492028.59348  20478015.1564   20478021.3974   20478015.470
        53.0004         49.0004
  10256560.02347   7985177.35046  23162657.0154   23162663.1134   23162657.325
        44.0004         39.0004
 -18486050.52748 -14350257.42947  22297951.3114   22297958.4364   22297951.204
        48.0004         43.0004
  -2214381.56147  -1647950.77046  23630531.8854   23630540.1564   23630532.274
        43.0004         38.0004
 -18422155.50148 -14290041.45048  20529739.6124   20529745.4984   20529739.685
        53.0004         48.0004
 -16364080.95248 -12688382.18547  22138234.1794   22138240.8404   22138233.652
        51.0004         46.0004
  -9837987.83547  -7641889.14847  22702958.9024   22702966.6364   22702957.884
        47.0004         42.0004
  -2906136.02147  -2229615.74346  24132045.7424   24132053.0414   24132045.791
        43.0004         38.0004
 -24999269.33649 -19443682.85048  20128524.4014   20128529.6894   20128524.305
        54.0004         49.0004
  -3768966.30246  -2913020.89746  24367102.6504   24367109.9554   24367103.607
        40.0004         36.0004
 14  5  5  0 13 30.0000000  0 11G10G08G13G04G20G09G17G01G28G07G11
  -6591817.84147  -5125753.02446  24622124.6844   24622135.8044   24622126.621
        42.0004         37.0004
 -22579559.39848 -17538748.40248  20466605.9204   20466611.9094   20466605.920
        53.0004         49.0004
  10337835.11347   8048508.66546  23178123.2394   23178130.4134   23178123.474
        44.0004         39.0004
 -18577790.03548 -14421742.64347  22280494.2274   22280501.0584   22280493.713
        48.0004         43.0004
  -2215680.57447  -1648962.91946  23630285.7044   23630292.4414   23630285.508
        43.0004         38.0004
 -18478449.53248 -14333906.87648  20519026.9144   20519033.2314   20519026.855
        53.0004         48.0004
 -16331282.73648 -12662825.11847  22144475.8844   22144482.7194   22144475.174
        51.0004         46.0004
  -9755174.75947  -7577359.46047  22718717.1644   22718725.1454   22718716.883
        47.0004         42.0004
  -2939623.81947  -2255710.02246  24125673.4604   24125680.9394   24125673.561
        43.0004         39.0004
 -24991288.83949 -19437464.25848  20130042.9724   20130048.1474   20130042.752
        54.0004         49.0004
  -3664721.35146  -2831791.00846  24386940.0394   24386945.4104   24386941.025
        40.0004         36.0004
 14  5  5  0 14  0.0000000  0 11G10G08G13G04G20G09G17G01G28G07G11
  -6633319.03847  -5158091.41946  24614227.6254   24614239.0714   24614228.258
        42.0004         37.0004
 -22639028.97348 -17585088.29048  20455288.4484   20455295.3064   20455288.721
        53.0004         49.0004
  10419038.49147   8111784.07046  23193576.3174   23193583.8834   23193575.896
        44.0004         39.0004
 -18669300.09848 -14493049.05847  22263079.9084   22263087.7324   22263079.403
        48.0004         43.0004
  -2216848.82647  -1649873.18346  23630062.3184   23630068.9494   23630063.633
        43.0004         38.0004
 -18534248.98548 -14377386.91648  20508408.9784   20508415.4554   20508408.736
        53.0004         48.0004
 -16298269.03948 -12637100.13747  22150757.7124   22150765.1164   22150757.296
        51.0004         46.0004
  -9672013.03347  -7512558.08247  22734542.8744   22734551.3234   22734541.645
        47.0004         42.0004
  -2973381.57347  -2282014.66246  24119247.8634   24119255.1224   24119249.193
        43.0004         38.0004
 -24982707.68149 -19430777.62448  20131676.2744   20131681.2684   20131675.587
        54.0004         49.0004
  -3560392.62246  -2750495.86246  24406794.1654   24406800.0954   24406794.047
        40.0004         36.0004
 14  5  5  0 14 30.0000000  0 11G10G08G13G04G20G09G17G01G28G07G11
  -6675066.36047  -5190621.61446  24606282.2364   24606295.3954   24606283.719
        42.0004         37.0004
 -22698004.85748 -17631043.49148  20444065.8444   20444072.5614   20444066.106
        53.0004         49.0004
  10500170.97147   8175004.24846  23209015.7084   23209022.8004   23209014.252
        44.0004         39.0004
 -18760574.61748 -14564171.93947  22245711.2324   22245718.6384   22245711.220
        48.0004         43.0004
  -2217881.41747  -1650677.73846  23629868.1414   23629875.0654   23629866.733
        43.0004         38.0004
 -18589548.33648 -14420477.26848  20497885.3354   20497891.9594   20497885.652
        53.0004         48.0004
 -16265039.35748 -12611206.84347  22157080.6374   22157088.0214   22157080.641
        50.0004         46.0004
  -9588501.92847  -7447484.48547  22750433.7954   22750442.5624   22750433.092
        46.0004         42.0004
  -3007405.34547  -2308526.59846  24112775.1934   24112781.8904   24112774.718
        43.0004         38.0004
 -24973522.79249 -19423620.55248  20133424.1564   20133429.0054   20133423.557
        54.0004         49.0004
  -3455979.67946  -2669135.11146  24426663.5004   24426667.3474   24426662.705
        40.0004         36.0004
 14  5  5  0 15  0.0000000  0 11G10G08G13G04G20G09G17G01G28G07G11
  -6717055.46547  -5223340.20946  24598292.8614   24598304.5004   24598293.034
        42.0004         37.0004
 -22756480.32748 -17676608.75548  20432938.2764   20432944.7364   20432938.706
        53.0004         49.0004
  10581234.40247   8238170.61546  23224441.4234   23224447.9784   23224440.670
        44.0004         39.0004
 -18851606.81548 -14635105.99047  22228387.8274   22228394.7484   22228387.533
        48.0004         43.0004
  -2218772.26147  -1651371.83946  23629697.8424   23629704.0374   23629697.749
        43.0004         38.0004
 -18644340.97048 -14463172.77548  20487458.3894   20487465.3444   20487458.746
        53.0004         48.0004
 -16231591.79148 -12585143.78347  22163446.6174   22163453.0044   22163445.600
        50.0004         46.0004
  -9504639.38847  -7382137.02147  22766392.0394   22766401.2004   22766392.013
        46.0004         42.0004
  -3041690.54047  -2335242.22746  24106251.7004   24106257.4414   24106250.269
        43.0004         38.0004
 -24963729.85649 -19415989.67548  20135287.7514   20135292.3424   20135287.254
        54.0004         49.0004
  -3351480.84146  -2587707.40345  24446548.1324   24446555.1974   24446548.688
        40.0004         35.0004
 14  5  5  0 15 30.0000000  0 11G10G08G13G04G20G09G17G01G28G07G11
  -6759300.95647  -5256258.56746  24590252.8654   24590266.0564   24590254.510
        42.0004         37.0004
 -22814467.12648 -17721793.24048  20421904.1474   20421910.6504   20421904.785
        53.0004         49.0004
  10662212.22247   8301270.27146  23239851.1284   23239858.7074   23239850.059
        44.0004         39.0004
 -18942408.30248 -14705860.26547  22211109.3934   22211116.3254   22211108.613
        48.0004         44.0004
  -2219533.97447  -1651965.31446  23629551.8784   23629558.7704   23629551.642
        43.0004         38.0004
 -18698639.17948 -14505483.02248  20477126.1514   20477132.9514   20477126.032
        53.0004         48.0004
 -16197943.52948 -12558924.32947  22169849.5424   22169856.1554   22169848.933
        50.0004         46.0004
  -9420442.54647  -7316529.06746  22782413.4184   22782422.1144   22782413.891
        46.0004         41.0004
  -3076250.85747  -2362172.25046  24099674.0244   24099678.8164   24099674.043
        43.0004         39.0004
 -24953342.94949 -19407895.96448  20137264.1094   20137268.8014   20137263.519
        54.0004         49.0004
  -3246913.09046  -2506225.99845  24466448.0344   24466454.1044   24466446.404
        40.0004         35.0004
 14  5  5  0 16  0.0000000  0 11G10G08G13G04G20G09G17G01G28G07G11
  -6801792.04547  -5289368.29046  24582168.4684   24582180.0614   24582168.611
        42.0004         37.0004
 -22871951.51148 -17766586.22348  20410964.8174   20410971.2214   20410965.717
        53.0004         49.0004
  10743112.12747   8364309.20646  23255245.8914   23255252.1154   23255244.770
        44.0004         39.0004
 -19032965.98448 -14776424.56347  22193876.4064   22193883.6944   22193876.197
        48.0004         44.0004
  -2220154.15047  -1652448.52746  23629434.2814   23629440.1564   23629434.923
        43.0004         38.0004
 -18752430.35848 -14547398.17248  20466889.9714   20466896.4604   20466889.777
        53.0004         48.0004
 -16164086.81148 -12532542.45147  22176291.9004   22176298.7184   22176291.435
        50.0004         46.0004
  -9335903.07647  -7250654.12346  22798502.0384   22798509.9164   22798500.804
        46.0004         41.0004
  -3111075.31747  -2389308.09346  24093047.1174   24093053.9404   24093047.165
        43.0004         38.0004
 -24942351.77449 -19399331.39848  20139355.8084   20139360.6274   20139355.211
        54.0004         49.0004
  -3142268.35646  -2424684.61845  24486360.2314   24486368.7614   24486360.626
        39.0004         34.0004
 14  5  5  0 16 30.0000000  0 11G10G08G13G04G20G09G17G01G28G07G11
  -6844530.35547  -5322670.67746  24574035.6394   24574045.8474   24574036.022
        42.0004         37.0004
 -22928932.44748 -17810986.90748  20400122.1674   20400128.3594   20400122.609
        53.0004         49.0004
  10823930.50747   8427284.63146  23270625.5144   23270630.7374   23270624.344
        44.0004         39.0004
 -19123278.89548 -14846798.13547  22176689.5784   22176698.1234   22176689.547
        48.0004         44.0004
  -2220632.77747  -1652821.42346  23629343.1304   23629351.0034   23629342.341
        43.0004         38.0004
 -18805713.86548 -14588917.73848  20456750.6274   20456756.8794   20456750.512
        53.0004         48.0004
 -16130025.50448 -12506001.14547  22182773.6954   22182780.5154   22182773.234
        50.0004         46.0004
  -9251025.11847  -7184515.43946  22814653.6514   22814662.2084   22814652.885
        46.0004         41.0004
  -3146165.02547  -2416650.61446  24086368.7234   24086375.6814   24086369.640
        43.0004         38.0004
 -24930758.10849 -19390297.35748  20141561.7564   20141566.9494   20141561.103
        54.0004         49.0004
  -3037551.31846  -2343086.88445  24506287.2214   24506291.3094   24506286.701
        39.0004         34.0004
 14  5  5  0 17  0.0000000  0 11G10G08G13G04G20G09G17G01G28G07G11
  -6887516.14747  -5356165.89446  24565855.1384   24565865.7714   24565855.987
        42.0004         37.0004
 -22985407.39648 -17854993.32148  20389374.9264   20389381.4364   20389375.325
        53.0004         49.0004
  10904664.75647   8490194.49546  23285987.3564   23285994.2934   23285988.008
        44.0004         39.0004
 -19213344.57748 -14916979.04547  22159551.4014   22159558.1444   22159551.285
        48.0004         44.0004
  -2220968.26947  -1653082.78746  23629279.1564   23629286.4144   23629279.559
        43.0004         38.0004
 -18858487.89848 -14630040.31948  20446707.9864   20446713.7184   20446707.976
        53.0004         48.0004
 -16095763.01048 -12479303.07047  22189293.3604   22189300.4294   22189292.817
        50.0004         46.0004
  -9165811.34847  -7118115.09346  22830869.0944   22830878.0144   22830868.935
        46.0004         41.0004
  -3181519.39347  -2444199.37246  24079640.3574   24079647.9644   24079641.471
        43.0004         38.0004
 -24918562.33349 -19380794.14248  20143882.5154   20143887.4114   20143882.116
        54.0004         49.0004
  -2932764.48646  -2261434.75945  24526225.4614   24526233.8284   24526227.483
        39.0004         34.0004
 14  5  5  0 17 30.0000000  0 11G10G08G13G04G20G09G17G01G28G07G11
  -6930749.54046  -5389854.02546  24557628.9534   24557637.2474   24557628.764
        41.0004         37.0004
 -23041373.62348 -17898603.33448  20378725.0324   20378731.3774   20378725.547
        53.0004         49.0004
  10985312.72747   8553037.13246  23301334.1094   23301341.3304   23301334.206
        43.0004         39.0004
 -19303160.18248 -14986965.10047  22142459.9454   22142467.2764   22142459.768
        48.0004         44.0004
  -2221158.80147  -1653231.19546  23629243.1864   23629249.8334   23629242.508
        43.0004         38.0004
 -18910750.07648 -14670764.05748  20436763.2204   20436768.8104   20436762.753
        53.0004         48.0004
 -16061301.84148 -12452450.18147  22195850.9344   22195858.0074   22195850.680
        50.0004         46.0004
  -9080264.11647  -7051454.89946  22847147.8184   22847157.6214   22847147.955
        46.0004         41.0004
  -3217137.95847  -2471953.99946  24072863.6434   24072869.7934   24072863.591
        43.0004         39.0004
 -24905764.40849 -19370821.71548  20146317.9094   20146322.8304   20146317.658
        54.0004         49.0004
  -2827910.46946  -2179730.31945  24546182.5704   24546188.9004   24546180.723
        38.0004         34.0004
 14  5  5  0 18  0.0000000  0 11G10G08G13G04G20G09G17G01G28G07G11
  -6974230.17846  -5423734.83546  24549353.0334   24549365.4844   24549354.522
        41.0004         37.0004
 -23096828.96249 -17941815.25648  20368172.1734   20368178.5974   20368172.518
        54.0004         49.0004
  11065871.57447   8615810.32346  23316664.5554   23316668.8784   23316664.278
        43.0004         39.0004
 -19392723.50648 -15056754.57947  22125416.3054   22125424.2964   22125416.097
        49.0004         44.0004
  -2221202.80447  -1653265.41446  23629234.4424   23629242.1774   23629234.218
        43.0004         38.0004
 -18962498.84348 -14711087.73148  20426915.1674   20426921.5564   20426915.357
        53.0004         49.0004
 -16026644.73448 -12425444.61447  22202446.7784   22202453.3144   22202445.625
        50.0004         46.0004
  -8994386.26747  -6984537.08046  22863489.9894   22863498.3864   22863489.888
        46.0004         41.0004
  -3253020.32847  -2499914.18446  24066034.4384   24066042.0434   24066035.315
        43.0004         39.0004
 -24892364.51949 -19360380.22848  20148867.8454   20148872.5324   20148867.274
        54.0004         49.0004
  -2722992.23046  -2097975.82545  24566144.1614   24566152.5044   24566145.676
        38.0004         33.0004
 14  5  5  0 18 30.0000000  0 11G10G08G13G04G20G09G17G01G28G07G11
  -7017956.94847  -5457807.44746  24541032.7634   24541044.2054   24541033.460
        42.0004         37.0004
 -23151769.17949 -17984625.77448  20357717.2574   20357723.6714   20357717.568
        54.0004         49.0004
  11146340.73147   8678513.61446  23331975.9544   23331984.5704   23331976.603
        43.0004         39.0004
 -19482030.55948 -15126344.35747  22108422.1904   22108430.0764   22108422.048
        49.0004         44.0004
  -2221097.31947  -1653183.16246  23629253.7274   23629261.8204   23629254.897
        43.0004         38.0004
 -19013730.79648 -14751008.68648  20417166.1044   20417172.2274   20417165.899
        53.0004         48.0004
 -15991793.16348 -12398287.51647  22209078.2124   22209084.7154   22209077.650
        50.0004         46.0004
  -8908178.86547  -6917362.46146  22879894.7404   22879903.2384   22879894.121
        46.0004         41.0004
  -3289164.31847  -2528078.24146  24059157.4794   24059162.8114   24059157.305
        43.0004         38.0004
 -24878362.01149 -19349469.16648  20151532.3484   20151537.2264   20151531.767
        54.0004         49.0004
                  -2016172.27845                  24586129.7594   24586122.994
                        32.0004
 14  5  5  0 19  0.0000000  0 11G10G08G13G04G20G09G17G01G28G07G11
  -7061929.64146  -5492071.63946  24532665.4484   24532674.8564   24532665.701
        41.0004         37.0004
 -23206191.33249 -18027032.61548  20347360.8124   20347367.9004   20347361.326
        54.0004         49.0004
  11226717.84447   8741145.19646  23347271.9454   23347279.1124   23347271.187
        43.0004         39.0004
 -19571078.60548 -15195732.31747  22091476.7554   22091483.5094   22091476.447
        49.0004         44.0004
  -2220840.39047  -1652982.90246  23629302.6274   23629310.5144   23629303.019
        43.0004         38.0004
 -19064443.69448 -14790525.19048  20407515.4504   20407521.9424   20407515.553
        53.0004         48.0004
 -15956749.67548 -12370980.86647  22215746.7054   22215753.6304   22215746.548
        51.0004         46.0004
  -8821644.29947  -6849932.91046  22896361.1164   22896370.4474   22896361.171
        46.0004         41.0004
  -3325569.68047  -2556445.94746  24052228.3674   24052236.1784   24052229.572
        43.0004         38.0004
 -24863756.94749 -19338088.57848  20154311.6944   20154316.7644   20154311.184
        54.0004         49.0004
                  -1934321.55145                  24606123.3024   24606111.925
                        32.0004
 14  5  5  0 19 30.0000000  0 11G10G08G13G04G20G09G17G01G28G07G11
  -7106147.59647  -5526526.96746  24524249.2874   24524260.7374   24524249.669
        42.0004         37.0004
 -23260092.43949 -18069033.43948  20337104.3924   20337110.2834   20337104.561
        54.0004         49.0004
  11307000.68647   8803703.31046  23362549.3464   23362555.9054   23362548.612
        43.0004         39.0004
 -19659864.35648 -15264915.89147  22074580.6654   22074588.5134   22074580.784
        49.0004         44.0004
  -2220429.76047  -1652662.88446  23629380.7784   23629388.3684   23629381.691
        43.0004         38.0004
 -19114634.89848 -14829635.17548  20397964.4504   20397970.9724   20397964.568
        53.0004         49.0004
 -15921516.66048 -12343526.54347  22222451.8414   22222458.3224   22222451.012
        50.0004         46.0004
  -8734784.55847  -6782249.97346  22912891.1954   22912899.8304   22912890.322
        46.0004         41.0004
  -3362234.80847  -2585016.07646  24045251.8914   24045258.5534   24045252.382
        43.0004         38.0004
 -24848548.79049 -19326238.04848  20157205.1004   20157210.5354   20157205.035
        54.0004         49.0004
                                                                  24626111.344

 14  5  5  0 20  0.0000000  0 11G10G08G13G04G20G09G17G01G28G07G11
  -7150613.26847  -5561175.32346  24515788.7664   24515799.2074   24515788.585
        42.0004         37.0004
 -23313472.41949 -18110628.19648  20326946.4244   20326952.3114   20326946.610
        54.0004         49.0004
  11387185.39847   8866184.95346  23377808.0414   23377813.4024   23377808.044
        43.0004         39.0004
 -19748388.12348 -15333895.31547  22057735.5474   22057743.6224   22057735.173
        49.0004         44.0004
  -2219866.30547  -1652223.76846  23629487.2784   23629496.4084   23629488.020
        43.0004         38.0004
 -19164305.03648 -14868339.13748  20388512.2014   20388518.9674   20388512.529
        53.0004         49.0004
 -15886098.53248 -12315927.97647  22229191.2244   22229197.8924   22229190.729
        50.0004         46.0004
  -8647604.84547  -6714317.72246  22929480.1094   22929489.5124   22929479.524
        46.0004         41.0004
  -3399161.58247  -2613790.08446  24038224.7944   24038231.4834   24038225.090
        43.0004         38.0004
 -24832740.47649 -19313919.86648  20160213.5054   20160218.7274   20160213.485
        54.0004         49.0004
                                                                  24646121.406

 14  5  5  0 20 30.0000000  0 11G10G08G13G04G20G09G17G01G28G07G11
  -7195322.33847  -5596013.32346  24507280.8924   24507291.1364   24507280.597
        42.0004         37.0004
 -23366324.45749 -18151811.56248  20316888.8934   20316894.8674   20316889.287
        54.0004         49.0004
  11467273.35847   8928591.20646  23393048.5754   23393055.5814   23393048.332
        44.0004         39.0004
 -19836642.76548 -15402665.04047  22040940.5224   22040948.6054   22040940.554
        49.0004         44.0004
  -2219143.90047  -1651660.80646  23629626.1154   23629633.2694   23629626.286
        43.0004         38.0004
 -19213447.96448 -14906632.28348  20379160.9264   20379166.9654   20379160.842
        53.0004         49.0004
 -15850494.62848 -12288184.64647  22235966.1164   22235974.3844   22235965.720
        50.0004         46.0004
  -8560103.43547  -6646134.79846  22946131.0644   22946139.4004   22946131.027
        46.0004         41.0004
  -3436344.97847  -2642764.04046  24031149.3924   24031155.6624   24031149.654
        43.0004         38.0004
 -24816328.31149 -19301131.14948  20163336.8204   20163341.7024   20163336.695
        54.0004         49.0004
                                                                  24666141.572

 14  5  5  0 21  0.0000000  0 11G10G08G13G04G20G09G17G01G28G07G11
  -7240278.11347  -5631043.56546  24498724.7274   24498736.6694   24498725.530
        42.0004         37.0004
 -23418649.37749 -18192584.19248  20306931.4804   20306938.1694   20306931.913
        54.0004         49.0004
  11547258.93247   8990917.66646  23408268.5194   23408275.3824   23408268.946
        44.0004         39.0004
 -19924629.29748 -15471225.84847  22024197.5944   22024204.5644   22024197.579
        49.0004         44.0004
  -2218264.37247  -1650975.40946  23629792.2514   23629800.3984   23629793.080
        43.0004         38.0004
 -19262064.79748 -14944515.49148  20369909.4624   20369915.6724   20369909.517
        53.0004         49.0004
 -15814711.14448 -12260301.38547  22242775.7484   22242782.0754   22242774.985
        50.0004         46.0004
  -8472286.23847  -6577705.79446  22962842.2014   22962850.6444   22962842.008
        46.0004         41.0004
  -3473788.12147  -2671940.41746  24024023.9164   24024030.1694   24024023.955
        43.0004         38.0004
 -24799315.43449 -19287874.34648  20166574.3314   20166579.1494   20166574.002
        54.0004         49.0004
                                                                  24686171.992

 14  5  5  0 21 30.0000000  0 11G10G08G13G04G20G09G17G01G28G07G11
  -7285478.39047  -5666264.34446  24490123.5614   24490133.2984   24490124.537
        42.0004         37.0004
 -23470442.49449 -18232942.42748  20297075.8774   20297081.8464   20297076.055
        54.0004         49.0004
  11627142.26047   9053164.46046  23423471.0414   23423476.2324   23423470.574
        44.0004         39.0004
 -20012342.78148 -15539573.89047  22007506.8534   22007513.1564   22007505.586
        49.0004         44.0004
