     2.11           OBSERVATION DATA    G (GPS)             RINEX VERSION / TYPE
teqc  2013Mar15     gpsops              20140515 00:23:19UTCPGM / RUN BY / DATE
Linux 2.4.21-27.ELsmp|Opteron|gcc -static|Linux x86_64|=+   COMMENT
BIT 2 OF LLI FLAGS DATA COLLECTED UNDER A/S CONDITION       COMMENT
GLPS                                                        MARKER NAME
42005M002                                                   MARKER NUMBER
GGN                 JPL                                     OBSERVER / AGENCY
ZR220013847         ASHTECH UZ-12       CQ00                REC # / TYPE / VERS
CR519992104         ASH701945B_M    SCIT                    ANT # / TYPE
   -33801.4662 -6377516.5323   -82154.3508                  APPROX POSITION XYZ
        0.0083        0.0000        0.0000                  ANTENNA: DELTA H/E/N
     1     1                                                WAVELENGTH FACT L1/2
     7    L1    L2    P1    P2    C1    S1    S2            # / TYPES OF OBSERV
    30.0000                                                 INTERVAL
                                                            COMMENT
This data is provided as a public service by NASA/JPL.      COMMENT
No warranty is expressed or implied regarding suitability   COMMENT
for use.  For further information, contact:                 COMMENT
Dave Stowers, NASA/JPL m/s 238-600                          COMMENT
4800 Oak Grove Drive, Pasadena CA 91109 USA                 COMMENT
                                                            COMMENT
Forced Modulo Decimation to 30 seconds                      COMMENT
 SNR is mapped to RINEX snr flag value [0-9]                COMMENT
  L1 & L2: min(max(int(snr_dBHz/6), 0), 9)                  COMMENT
pseudorange smoothing corrections not applied               COMMENT
  2014     5    14     0     0    0.0000000     GPS         TIME OF FIRST OBS
                                                            END OF HEADER
 14  5 14  0  0  0.0000000  0 11G09G08G20G10G07G28G17G26G04G01G13
 -13691926.03049 -10662070.55748  20130244.7574   20130252.4604   20130244.748
        54.0004         49.0004
 -19526782.99449 -15210298.41848  20033200.8994   20033208.8674   20033201.321
        54.0004         49.0004
  -4995568.48147  -3841553.08346  23624379.4384   23624391.4534   23624380.329
        42.0004         37.0004
  -8036044.75547  -6250981.13446  24217577.6664   24217591.8634   24217579.529
        42.0004         38.0004
 -23537751.37848 -18311441.25748  20331854.5044   20331861.1154   20331854.015
        53.0004         49.0004
  -1897730.06847  -1479180.18446  23775155.8994   23775169.0384   23775157.253
        43.0004         38.0004
 -13902169.05948 -10778562.99447  22475144.6944   22475154.6134   22475144.262
        50.0004         45.0004
   -953527.84146   -717921.09246  24151402.6064   24151420.5184   24151404.015
        41.0004         37.0004
 -20124871.53448 -15619661.30747  21539455.1874   21539462.9104   21539454.413
        50.0004         46.0004
  -6834814.42147  -5294721.43546  23517670.1814   23517685.2194   23517669.515
        44.0004         39.0004
  -3498269.11547  -2670940.10246  23899022.9034   23899030.9194   23899022.894
        42.0004         37.0004
 14  5 14  0  0 30.0000000  0 11G09G08G20G10G07G28G17G26G04G01G13
 -13722459.44649 -10685862.75548  20124434.1624   20124442.3294   20124434.167
        54.0004         49.0004
 -19558704.79749 -15235172.48948  20027126.2274   20027134.3654   20027126.310
        54.0004         49.0004
  -4988948.10847  -3836394.33546  23625640.7314   23625651.0004   23625640.856
        42.0004         37.0004
  -8088748.18647  -6292048.55246  24207550.1184   24207562.2434   24207550.731
        42.0004         38.0004
 -23501082.97248 -18282868.43548  20338832.5514   20338838.3844   20338831.494
        53.0004         49.0004
  -1943031.40447  -1514479.76446  23766536.7534   23766549.2314   23766536.113
        43.0004         38.0004
 -13861502.96848 -10746875.17547  22482882.8384   22482893.7954   22482882.961
        50.0004         45.0004
   -972462.97446   -732675.49346  24147801.5314   24147817.0144   24147800.597
        41.0004         37.0004
 -20202819.10148 -15680399.57447  21524621.0074   21524629.5484   21524620.823
        50.0004         46.0004
  -6737992.85047  -5219276.10746  23536094.8974   23536108.7774   23536094.187
        44.0004         39.0004
  -3422601.33747  -2611978.09246  23913423.0934   23913431.2094   23913422.340
        42.0004         37.0004
 14  5 14  0  1  0.0000000  0 11G09G08G20G10G07G28G17G26G04G01G13
 -13752407.34849 -10709198.70948  20118735.4074   20118743.3214   20118735.308
        54.0004         49.0004
 -19590014.49549 -15259569.58248  20021168.2804   20021176.3804   20021168.643
        54.0004         49.0004
  -4982108.75347  -3831064.94546  23626941.6864   23626953.6834   23626941.615
        42.0004         37.0004
  -8141679.13747  -6333293.23746  24197476.9914   24197488.6574   24197477.759
        43.0004         38.0004
 -23463836.67548 -18253845.31148  20345920.2034   20345926.1174   20345919.580
        53.0004         49.0004
  -1988554.48147  -1549952.11146  23757873.4444   23757885.1224   23757873.853
        43.0004         39.0004
 -13820742.06748 -10715113.47847  22490639.7944   22490650.2944   22490639.243
        50.0004         45.0004
   -991041.77146   -747152.23446  24144264.1714   24144283.2854   24144265.080
        41.0004         37.0004
 -20280407.93648 -15740858.31747  21509856.7994   21509865.3254   21509856.517
        50.0004         46.0004
  -6640937.27247  -5143648.44846  23554564.7134   23554579.0034   23554563.632
        44.0004         39.0004
  -3347097.96747  -2553144.18546  23927790.7414   23927798.0584   23927790.069
        42.0004         37.0004
 14  5 14  0  1 30.0000000  0 11G09G08G20G10G07G28G17G26G04G01G13
 -13781769.25249 -10732078.04148  20113147.8494   20113155.2724   20113147.745
        54.0004         49.0004
 -19620710.79249 -15283488.70948  20015326.6514   20015334.9374   20015326.942
        54.0004         49.0004
  -4975049.49047  -3825564.20646  23628284.2704   23628293.6684   23628284.829
        42.0004         37.0004
  -8194837.54747  -6374715.17346  24187360.6984   24187371.8464   24187361.715
        43.0004         38.0004
 -23426014.32948 -18224373.31448  20353117.3514   20353123.5664   20353116.727
        53.0004         49.0004
  -2034298.48047  -1585596.62946  23749168.8854   23749180.2694   23749169.191
        43.0004         39.0004
 -13779889.48748 -10683280.32647  22498413.9044   22498424.1174   22498413.173
        50.0004         45.0004
  -1009266.08546   -761352.74346  24140797.4974   24140813.7544   24140796.050
        41.0004         36.0004
 -20357635.70148 -15801035.69647  21495160.9534   21495169.2464   21495160.321
        51.0004         46.0004
  -6543650.96247  -5067840.99546  23573077.4244   23573091.4784   23573076.846
        44.0004         39.0004
  -3271761.55347  -2494440.39146  23942124.7984   23942134.1934   23942126.092
        42.0004         37.0004
 14  5 14  0  2  0.0000000  0 11G09G08G20G10G07G28G17G26G04G01G13
 -13810547.99449 -10754502.96648  20107671.4344   20107678.8534   20107671.461
        54.0004         49.0004
 -19650795.71949 -15306931.44048  20009601.5414   20009610.0114   20009602.039
        54.0004         49.0004
  -4967772.83047  -3819894.04846  23629667.6604   23629679.7894   23629669.510
        42.0004         37.0004
  -8248226.79047  -6416316.97646  24177202.1964   24177214.0074   24177202.735
        43.0004         38.0004
 -23387621.36148 -18194456.67448  20360422.9804   20360429.6174   20360422.717
        53.0004         49.0004
  -2080265.57047  -1621414.98546  23740421.9774   23740433.9664   23740421.688
        43.0004         39.0004
 -13738951.24348 -10651380.43747  22506204.1404   22506215.2034   22506203.709
        50.0004         45.0004
  -1027140.93146   -775280.94446  24137395.5174   24137411.4704   24137395.327
        41.0004         36.0004
 -20434504.18048 -15860933.12247  21480532.9824   21480540.9524   21480532.800
        51.0004         46.0004
  -6446140.62947  -4991858.97346  23591632.5104   23591647.0274   23591632.256
        44.0004         40.0004
  -3196597.54347  -2435870.92946  23956428.0064   23956436.2874   23956429.501
        42.0004         37.0004
 14  5 14  0  2 30.0000000  0 11G09G08G20G10G07G28G17G26G04G01G13
 -13838735.17249 -10776466.92748  20102307.3374   20102315.3424   20102307.498
        54.0004         49.0004
 -19680260.53749 -15329890.96848  20003995.1324   20004002.5694   20003994.941
        54.0004         49.0004
  -4960269.53947  -3814047.32346  23631098.0964   23631107.7334   23631097.968
        42.0004         37.0004
  -8301838.76947  -6458092.36146  24166999.4864   24167010.1204   24167000.300
        43.0004         38.0004
 -23348651.54448 -18164090.54148  20367838.5694   20367844.7904   20367838.405
        53.0004         48.0004
  -2126447.89147  -1657401.07646  23731632.6514   23731645.8824   23731632.983
        43.0004         39.0004
 -13697923.34048 -10619410.67947  22514011.8844   22514022.1184   22514011.098
        50.0004         45.0004
  -1044660.27046   -788932.15046  24134061.9094   24134076.5914   24134060.459
        41.0004         36.0004
 -20511003.47148 -15920542.87347  21465975.8484   21465984.1284   21465975.267
        51.0004         46.0004
  -6348401.63547  -4915698.79846  23610232.0554   23610246.7054   23610231.545
        44.0004         40.0004
  -3121600.34947  -2377431.43846  23970701.5094   23970708.0204   23970700.208
        42.0004         37.0004
 14  5 14  0  3  0.0000000  0 11G09G08G20G10G07G28G17G26G04G01G13
 -13866330.61449 -10797969.79148  20097056.2164   20097063.9064   20097056.190
        54.0004         49.0004
 -19709104.68849 -15352366.86148  19998505.9944   19998513.7614   19998506.119
        54.0004         49.0004
  -4952539.39447  -3808023.82746  23632568.6004   23632579.1554   23632568.450
        42.0004         37.0004
  -8355673.83647  -6500041.54146  24156754.2974   24156765.8854   24156755.704
        43.0004         38.0004
 -23309107.40948 -18133276.88448  20375363.8094   20375370.2424   20375363.267
        53.0004         49.0004
  -2172845.35747  -1693554.80646  23722802.2184   23722814.8014   23722804.036
        44.0004         39.0004
 -13656809.20348 -10587373.73847  22521834.8064   22521846.0064   22521834.589
        50.0004         45.0004
  -1061826.36946   -802308.08446  24130795.1794   24130810.2304   24130794.327
        41.0004         37.0004
 -20587132.19448 -15979863.87447  21451488.6164   21451496.9804   21451488.051
        50.0004         46.0004
  -6250437.67747  -4839363.31446  23628873.4984   23628888.5394   23628873.206
        44.0004         40.0004
  -3046772.95347  -2319124.24846  23984940.0074   23984946.6724   23984939.001
        42.0004         37.0004
 14  5 14  0  3 30.0000000  0 11G09G08G20G10G07G28G17G26G04G01G13
 -13893336.38349 -10819013.17148  20091917.0794   20091924.7704   20091917.083
        54.0004         49.0004
 -19737329.35549 -15374360.03748  19993134.7494   19993142.9834   19993134.973
        54.0004         49.0004
  -4944583.60046  -3801824.48746  23634082.7524   23634091.7284   23634082.467
        41.0004         37.0004
  -8409734.32247  -6542166.41046  24146468.0044   24146478.9894   24146468.513
        43.0004         38.0004
 -23268993.49548 -18102019.24748  20382997.3694   20383003.3814   20382996.964
        53.0004         49.0004
  -2219459.17347  -1729877.12346  23713933.3944   23713944.7924   23713933.778
        44.0004         39.0004
 -13615614.44948 -10555273.97247  22529674.6624   22529683.7974   22529673.818
        49.0004         45.0004
  -1078643.60047   -815412.18646  24127593.6724   24127611.2584   24127593.320
        42.0004         37.0004
 -20662890.95348 -16038896.57947  21437071.6854   21437080.0734   21437072.233
        50.0004         46.0004
  -6152254.50347  -4762857.01746  23647558.1464   23647572.6794   23647557.104
        44.0004         40.0004
  -2972119.88547  -2260952.90446  23999145.7674   23999153.3294   23999145.298
        42.0004         37.0004
 14  5 14  0  4  0.0000000  0 11G09G08G20G10G07G28G17G26G04G01G13
 -13919748.71749 -10839594.12848  20086890.8624   20086898.8734   20086891.001
        54.0004         49.0004
 -19764930.32649 -15395867.21848  19987882.3274   19987890.1764   19987882.699
        54.0004         49.0004
  -4936397.89146  -3795446.00846  23635640.1294   23635651.2154   23635640.094
        41.0004         37.0004
  -8464016.75147  -6584464.20646  24136137.8184   24136148.3724   24136138.492
        43.0004         38.0004
 -23228308.69148 -18070316.75648  20390739.1114   20390745.4084   20390738.676
        53.0004         49.0004
  -2266285.57447  -1766365.06646  23705022.3054   23705033.6874   23705022.463
        44.0004         39.0004
 -13574338.99048 -10523111.31447  22537528.7594   22537538.6284   22537528.199
        49.0004         45.0004
  -1095110.44246   -828243.24646  24124459.1904   24124476.5444   24124459.759
        41.0004         37.0004
 -20738274.71648 -16097637.08547  21422727.1404   21422734.4274   21422726.377
        50.0004         46.0004
  -6053852.13047  -4686179.90646  23666283.2074   23666297.5454   23666282.974
        44.0004         40.0004
  -2897640.33347  -2202916.74846  24013318.8964   24013325.8664   24013318.320
        42.0004         37.0004
 14  5 14  0  4 30.0000000  0 11G09G08G20G10G07G28G17G26G04G01G13
 -13945570.60149 -10859714.99848  20081977.2094   20081985.0734   20081977.136
        54.0004         49.0004
 -19791910.06149 -15416890.31848  19982748.2844   19982756.4314   19982748.558
        54.0004         49.0004
  -4927984.71246  -3788890.26346  23637242.6794   23637250.8704   23637241.828
        41.0004         37.0004
  -8518524.46547  -6626937.57046  24125764.0374   24125776.5084   24125765.712
        43.0004         38.0004
 -23187058.11148 -18038173.40648  20398589.0664   20398595.0524   20398588.473
        53.0004         49.0004
  -2313327.36147  -1803020.86246  23696071.0904   23696083.4034   23696070.978
        44.0004         39.0004
 -13532989.21848 -10490890.74447  22545396.6854   22545408.5804   22545397.180
        49.0004         45.0004
  -1111232.18247   -840805.41246  24121392.4444   24121410.8684   24121392.155
        42.0004         37.0004
 -20813285.01948 -16156086.58247  21408453.4844   21408461.2024   21408452.960
        51.0004         46.0004
  -5955237.32247  -4609337.26846  23685048.8164   23685062.7664   23685048.630
        44.0004         40.0004
  -2823339.54447  -2145019.90446  24027458.2574   24027465.2624   24027457.057
        42.0004         37.0004
 14  5 14  0  5  0.0000000  0 11G09G08G20G10G07G28G17G26G04G01G13
 -13970795.00349 -10879370.29148  20077177.3984   20077184.5724   20077177.149
        54.0004         49.0004
 -19818261.11749 -15437423.53848  19977734.2544   19977741.8744   19977734.367
        54.0004         49.0004
  -4919336.58046  -3782151.43846  23638886.8824   23638896.3634   23638886.985
        41.0004         37.0004
  -8573250.92747  -6669581.37946  24115351.8004   24115362.5274   24115351.421
        43.0004         38.0004
 -23145237.35748 -18005585.76248  20406546.7444   20406553.2194   20406546.625
        53.0004         49.0004
  -2360577.20747  -1839838.77546  23687079.0264   23687089.1134   23687079.387
        44.0004         39.0004
 -13491561.62648 -10458609.53847  22553280.5514   22553291.2554   22553280.165
        49.0004         44.0004
  -1127004.14247   -853094.99346  24118390.5644   24118406.6524   24118390.561
        42.0004         37.0004
 -20887913.47248 -16214238.53547  21394251.6694   21394259.6854   21394251.176
        51.0004         46.0004
  -5856406.71847  -4532326.47146  23703856.2304   23703870.7694   23703855.296
        44.0004         39.0004
  -2749213.42847  -2087259.14746  24041563.9254   24041571.5954   24041562.708
        42.0004         37.0004
 14  5 14  0  5 30.0000000  0 11G09G08G20G10G07G28G17G26G04G01G13
 -13995426.20949 -10898563.36348  20072489.7624   20072497.3004   20072489.924
        54.0004         49.0004
 -19843987.14549 -15457469.72148  19972838.1614   19972846.1514   19972838.467
        54.0004         49.0004
  -4910457.08447  -3775232.34746  23640576.9984   23640585.3464   23640578.068
        42.0004         37.0004
  -8628200.47347  -6712399.01146  24104893.3614   24104905.7334   24104894.656
        43.0004         38.0004
 -23102852.98748 -17972558.93548  20414612.4394   20414619.1384   20414612.098
        53.0004         49.0004
  -2408038.81147  -1876821.70246  23678047.3084   23678058.7584   23678047.430
        43.0004         39.0004
 -13450064.13048 -10426273.85447  22561177.4474   22561187.7814   22561177.247
        49.0004         44.0004
  -1142432.67147   -865116.98246  24115454.4814   24115470.2994   24115454.102
        42.0004         37.0004
 -20962162.63448 -16272094.93047  21380122.3104   21380130.6834   21380122.392
        51.0004         46.0004
  -5757368.06247  -4455153.55146  23722702.6404   23722717.0094   23722701.520
        44.0004         40.0004
  -2675268.64846  -2029639.71746  24055634.1894   24055640.1934   24055633.736
        41.0004         37.0004
 14  5 14  0  6  0.0000000  0 11G09G08G20G10G07G28G17G26G04G01G13
 -14019459.77449 -10917290.73648  20067916.2084   20067924.0604   20067916.382
        54.0004         49.0004
 -19869082.90949 -15477024.79248  19968063.0424   19968070.7154   19968063.172
        54.0004         49.0004
  -4901341.00447  -3768128.88746  23642311.5094   23642321.4234   23642311.794
        42.0004         37.0004
  -8683368.83647  -6755387.15046  24094396.0184   24094407.1774   24094396.834
        43.0004         38.0004
 -23059903.50448 -17939091.76448  20422785.3694   20422791.9434   20422784.960
        53.0004         48.0004
  -2455707.46547  -1913965.96246  23668976.2924   23668987.9674   23668976.558
        43.0004         39.0004
 -13408495.76748 -10393882.94947  22569087.6444   22569098.1534   22569087.353
        49.0004         44.0004
  -1157515.76747   -876869.78546  24112585.2254   24112600.4594   24112584.421
        42.0004         38.0004
 -21036026.66148 -16329651.22447  21366066.5794   21366074.5494   21366066.198
        51.0004         46.0004
  -5658120.77147  -4377818.07046  23741589.0664   23741603.0624   23741587.781
        44.0004         39.0004
  -2601503.50446  -1972160.25346  24069671.6134   24069677.9744   24069670.447
        41.0004         36.0004
 14  5 14  0  6 30.0000000  0 11G09G08G20G10G07G28G17G26G04G01G13
 -14042895.49349 -10935552.24848  20063456.7584   20063464.2994   20063456.609
        54.0004         49.0004
 -19893547.84549 -15496088.30548  19963407.2574   19963415.2174   19963407.377
        54.0004         49.0004
  -4891987.60547  -3760840.50446  23644092.5564   23644099.7274   23644091.638
        42.0004         37.0004
  -8738755.80547  -6798545.63046  24083855.9014   24083867.1824   24083856.882
        43.0004         38.0004
 -23016390.74848 -17905185.67048  20431065.5594   20431071.8164   20431065.172
        53.0004         49.0004
  -2503582.64347  -1951271.14646  23659866.7554   23659877.5734   23659865.864
        43.0004         38.0004
 -13366859.91048 -10361439.45347  22577010.7174   22577021.7274   22577010.437
        49.0004         44.0004
  -1172255.51147   -888355.04146  24109779.2254   24109794.9234   24109778.535
        42.0004         37.0004
 -21109504.02148 -16386906.21947  21352084.8644   21352092.1354   21352084.291
        51.0004         46.0004
  -5558668.19347  -4300322.61546  23760513.8474   23760529.0554   23760512.927
        44.0004         40.0004
  -2527920.20346  -1914822.46446  24083674.0664   24083680.2624   24083672.610
        41.0004         37.0004
 14  5 14  0  7  0.0000000  0 11G09G08G20G10G07G28G17G26G04G01G13
 -14065735.00949 -10953349.19348  20059110.3654   20059117.9944   20059110.262
        54.0004         49.0004
 -19917383.33749 -15514661.34548  19958871.3954   19958879.2704   19958871.772
        54.0004         49.0004
  -4882398.35647  -3753368.35246  23645915.9164   23645924.5594   23645916.147
        42.0004         37.0004
  -8794363.16047  -6841875.85046  24073273.5694   24073286.0814   24073275.084
        43.0004         38.0004
 -22972319.08348 -17870844.07448  20439452.3134   20439458.5944   20439451.774
        53.0004         49.0004
  -2551665.29847  -1988738.00246  23650717.3824   23650727.5604   23650716.217
        43.0004         39.0004
 -13325161.23248 -10328947.00947  22584946.9194   22584956.9814   22584945.432
        49.0004         44.0004
  -1186655.67247   -899575.71046  24107037.9034   24107053.0864   24107037.369
        42.0004         37.0004
 -21182594.94248 -16443860.08847  21338175.1034   21338183.2434   21338174.688
        51.0004         46.0004
  -5459015.57347  -4222671.29546  23779476.4164   23779492.2184   23779475.411
        44.0004         40.0004
  -2454522.69646  -1857629.46846  24097640.4304   24097648.0954   24097639.730
        41.0004         37.0004
 14  5 14  0  7 30.0000000  0 11G09G08G20G10G07G28G17G26G04G01G13
 -14087973.64849 -10970677.92748  20054878.0854   20054885.8464   20054878.167
        54.0004         49.0004
 -19940583.59849 -15532739.40048  19954456.4714   19954464.0364   19954456.829
        54.0004         49.0004
  -4872567.29646  -3745707.76746  23647787.1044   23647796.4704   23647787.477
        41.0004         37.0004
  -8850186.32147  -6885374.21646  24062650.2094   24062662.4924   24062652.353
        43.0004         38.0004
 -22927685.94848 -17836064.96848  20447945.5384   20447951.9674   20447945.038
        53.0004         48.0004
  -2599950.01747  -2026362.29846  23641528.8234   23641538.2174   23641527.853
        44.0004         39.0004
 -13283398.47148 -10296404.63247  22592893.6024   22592904.4364   22592892.794
        49.0004         45.0004
  -1200713.54947   -910529.67346  24104362.7124   24104378.3234   24104363.301
        42.0004         38.0004
 -21255292.60648 -16500507.52447  21324340.9944   21324348.5934   21324340.951
        51.0004         46.0004
  -5359161.46247  -4144862.96246  23798477.8034   23798493.0714   23798476.960
        44.0004         39.0004
  -2381308.81246  -1800579.54646  24111572.2684   24111579.8794   24111571.951
        41.0004         37.0004
 14  5 14  0  8  0.0000000  0 11G09G08G20G10G07G28G17G26G04G01G13
 -14109612.86649 -10987539.57648  20050760.2994   20050767.9264   20050760.443
        54.0004         49.0004
 -19963149.91049 -15550323.47348  19950162.1834   19950169.6594   19950162.478
        54.0004         49.0004
  -4862495.34346  -3737859.48746  23649703.0574   23649712.7374   23649704.615
        41.0004         37.0004
  -8906226.96847  -6929042.07146  24051986.7654   24051997.6614   24051987.458
        43.0004         38.0004
 -22882495.38848 -17800851.50548  20456544.9794   20456551.2364   20456544.620
        53.0004         48.0004
  -2648438.50647  -2064145.38246  23632300.0874   23632312.1114   23632300.883
        44.0004         39.0004
 -13241576.63248 -10263816.21247  22600851.3664   22600862.3814   22600851.185
        49.0004         44.0004
  -1214433.18247   -921220.04446  24101751.8674   24101767.6634   24101751.530
        42.0004         37.0004
 -21327597.56848 -16556848.95347  21310581.9454   21310590.6184   21310581.508
        51.0004         46.0004
  -5259111.31947  -4066901.89046  23817517.1294   23817531.9264   23817516.960
        44.0004         39.0004
  -2308282.43346  -1743675.73946  24125468.1444   24125475.4764   24125468.084
        41.0004         37.0004
 14  5 14  0  8 30.0000000  0 11G09G08G20G10G07G28G17G26G04G01G13
 -14130650.41449 -11003932.39748  20046757.0824   20046764.9094   20046757.163
        54.0004         49.0004
 -19985079.50749 -15567411.40248  19945989.2744   19945996.7654   19945989.445
        54.0004         49.0004
  -4852179.69146  -3729821.29746  23651667.1434   23651674.8684   23651666.974
        41.0004         36.0004
  -8962482.57447  -6972877.40746  24041281.8234   24041291.5654   24041282.895
        42.0004         38.0004
 -22836747.50748 -17765203.76348  20465250.7984   20465256.3094   20465250.146
        53.0004         48.0004
  -2697127.17447  -2102084.44746  23623034.5924   23623045.9884   23623035.002
        44.0004         39.0004
 -13199696.61348 -10231182.45247  22608820.7124   22608831.6084   22608820.585
        49.0004         44.0004
  -1227814.33647   -931646.66046  24099205.8924   24099221.1904   24099205.613
        42.0004         37.0004
 -21399505.71948 -16612881.18547  21296898.5984   21296906.2354   21296898.136
        51.0004         46.0004
  -5158866.15947  -3988788.82446  23836593.2574   23836608.7224   23836592.589
        44.0004         39.0004
  -2235443.24846  -1686917.79646  24139329.5484   24139336.8844   24139328.586
        41.0004         37.0004
 14  5 14  0  9  0.0000000  0 12G09G08G20G10G07G28G17G26G02G04G01G13
 -14151086.81649 -11019856.78748  20042868.1174   20042875.5884   20042868.023
        54.0004         49.0004
 -20006371.86849 -15584002.78848  19941937.3194   19941944.8514   19941937.627
        54.0004         49.0004
  -4841619.91446  -3721592.88746  23653675.4294   23653685.8284   23653676.611
        41.0004         37.0004
  -9018953.37947  -7016880.42546  24030534.3354   24030545.5964   24030536.448
        42.0004         38.0004
 -22790445.19148 -17729123.99648  20474061.5464   20474067.9114   20474060.899
        53.0004         48.0004
  -2746015.88347  -2140179.39446  23613730.6944   23613743.0694   23613731.845
        44.0004         39.0004
 -13157762.37748 -10198506.45447  22616800.1724   22616812.3624   22616800.077
        49.0004         44.0004
  -1240859.57946   -941811.54546  24096723.1274   24096739.8104   24096721.565
        41.0004         37.0004
   -533490.16447   -399933.91546  24045404.7854   24045414.9274   24045406.092
        45.0004         38.0004
 -21471016.03648 -16668603.41847  21283290.5734   21283298.2704   21283290.013
        51.0004         46.0004
  -5058429.86047  -3910526.84246  23855705.7834   23855721.0494   23855705.196
        44.0004         39.0004
  -2162794.66146  -1630308.34846  24153155.1714   24153160.6554   24153153.190
        41.0004         36.0004
 14  5 14  0  9 30.0000000  0 12G09G08G20G10G07G28G17G26G02G04G01G13
 -14170920.92749 -11035311.86148  20039094.0114   20039101.4124   20039093.789
        54.0004         49.0004
 -20027025.50149 -15600096.45848  19938007.1434   19938014.4424   19938007.204
        54.0004         49.0004
  -4830814.12746  -3713172.79846  23655732.0984   23655742.1014   23655732.493
        41.0004         37.0004
  -9075638.00047  -7061050.06146  24019747.8424   24019757.9914   24019748.830
        42.0004         38.0004
 -22743589.98648 -17692613.40748  20482977.4994   20482984.2284   20482977.165
        53.0004         48.0004
  -2795103.04847  -2178428.97046  23604391.0774   23604402.4954   23604390.775
        44.0004         39.0004
 -13115775.90748 -10165789.75247  22624790.9394   22624800.6934   22624790.164
        49.0004         44.0004
  -1253569.99446   -951715.50846  24094303.3214   24094321.0864   24094304.336
        41.0004         37.0004
   -626956.97647   -472764.93746  24027620.0484   24027629.8104   24027619.782
        43.0004         38.0004
 -21542125.59148 -16724013.37047  21269758.7664   21269766.4724   21269758.229
        51.0004         46.0004
  -4957804.75047  -3832117.72246  23874853.8604   23874869.3714   23874853.203
        44.0004         39.0004
  -2090337.23846  -1573847.87546  24166941.9894   24166948.6544   24166941.543
        41.0004         36.0004
 14  5 14  0 10  0.0000000  0 12G09G08G20G10G07G28G17G26G02G04G01G13
 -14190151.59449 -11050296.72048  20035434.4054   20035441.5124   20035434.155
        54.0004         49.0004
 -20047038.87449 -15615691.22848  19934198.6424   19934206.0584   19934198.673
        54.0004         49.0004
  -4819760.29746  -3704559.41046  23657837.1364   23657847.9134   23657836.021
        41.0004         36.0004
  -9132535.40847  -7105385.51646  24008921.0884   24008931.6224   24008921.649
        42.0004         38.0004
 -22696183.19548 -17655673.00948  20491999.0044   20492005.1604   20491998.500
        53.0004         48.0004
  -2844386.19247  -2216831.25446  23595012.4774   23595022.8664   23595011.985
        44.0004         39.0004
 -13073738.80048 -10133033.59247  22632790.3104   22632801.1054   22632789.682
        49.0004         44.0004
  -1265946.56646   -961359.33146  24091948.5144   24091962.7124   24091947.116
        41.0004         36.0004
   -720261.16147   -545469.21746  24009864.3154   24009872.7004   24009864.819
        43.0004         38.0004
 -21612831.90248 -16779109.10547  21256303.9894   21256311.6154   21256303.189
        51.0004         47.0004
  -4856993.07347  -3753563.22346  23894039.2524   23894053.7804   23894037.505
        44.0004         39.0004
  -2018071.46546  -1517536.73146  24180692.9594   24180701.0064   24180693.180
        41.0004         36.0004
 14  5 14  0 10 30.0000000  0 12G09G08G20G10G07G28G17G26G02G04G01G13
 -14208777.59349 -11064810.40448  20031889.8604   20031897.1734   20031889.595
        54.0004         49.0004
 -20066410.20849 -15630785.70248  19930512.0914   19930519.9154   19930512.578
        54.0004         49.0004
  -4808456.48446  -3695751.25446  23659986.7244   23659995.9094   23659985.995
        41.0004         37.0004
  -9189644.05447  -7149885.55346  23998053.4074   23998063.8874   23998054.038
        43.0004         38.0004
 -22648226.00848 -17618303.73448  20501124.9514   20501130.7874   20501124.320
        53.0004         48.0004
  -2893863.67047  -2255384.97046  23585597.3394   23585608.1074   23585597.078
        44.0004         39.0004
 -13031653.17448 -10100239.62747  22640798.8364   22640810.6554   22640798.098
        49.0004         44.0004
  -1277990.30146   -970743.80246  24089657.0534   24089670.7774   24089657.519
        41.0004         37.0004
   -813400.52447   -618045.09646  23992139.3234   23992148.2244   23992141.421
        42.0004         38.0004
 -21683131.87848 -16833888.20847  21242925.3134   21242933.2084   21242925.474
        51.0004         47.0004
  -4755997.20447  -3674865.19146  23913257.7274   23913272.2784   23913256.833
        44.0004         39.0004
  -1945999.66446  -1461376.73646  24194407.4824   24194416.6264   24194407.606
        41.0004         36.0004
 14  5 14  0 11  0.0000000  0 12G09G08G20G10G07G28G17G26G02G04G01G13
 -14226798.82149 -11078852.84548  20028460.5034   20028467.5164   20028460.500
        54.0004         49.0004
 -20085138.67649 -15645379.24548  19926948.1634   19926955.4464   19926948.282
        54.0004         49.0004
  -4796901.82846  -3686747.63346  23662185.3494   23662193.6034   23662185.044
        41.0004         36.0004
  -9246963.36447  -7194549.74246  23987145.7914   23987156.2384   23987146.424
        43.0004         38.0004
 -22599720.55348 -17580507.23548  20510355.0094   20510360.8584   20510354.619
        53.0004         48.0004
  -2943534.91747  -2294089.66546  23576144.2744   23576155.7484   23576144.877
        44.0004         39.0004
 -12989522.49048 -10067410.55747  22648816.5324   22648826.1464   22648814.981
        49.0004         44.0004
  -1289703.13446   -979870.43446  24087428.5134   24087443.3584   24087426.921
        41.0004         36.0004
   -906372.72147   -690490.70746  23974448.0044   23974456.5194   23974448.267
        42.0004         38.0004
 -21753023.96348 -16888349.47847  21229626.1184   21229633.7244   21229625.643
        51.0004         47.0004
  -4654820.20247  -3596026.01646  23932510.9704   23932524.6594   23932510.044
        44.0004         39.0004
  -1874123.31146  -1405369.01746  24208085.8324   24208093.8814   24208085.217
        41.0004         36.0004
 14  5 14  0 11 30.0000000  0 12G09G08G20G10G07G28G17G26G02G04G01G13
 -14244214.98649 -11092423.81248  20025146.1974   20025154.1174   20025146.127
        54.0004         49.0004
 -20103223.52749 -15659471.27248  19923506.7014   19923514.3314   19923507.132
        54.0004         49.0004
  -4785095.03746  -3677547.53646  23664431.9584   23664441.4944   23664431.404
        41.0004         36.0004
  -9304493.06647  -7239377.87646  23976199.0254   23976208.4264   23976199.370
        43.0004         38.0004
 -22550668.77348 -17542285.02848  20519689.4474   20519695.3534   20519688.800
        53.0004         48.0004
  -2993398.30247  -2332944.08746  23566655.7274   23566666.0044   23566655.737
        44.0004         39.0004
 -12947349.30648 -10034548.37147  22656842.0224   22656850.8634   22656840.876
        49.0004         44.0004
  -1301086.70946   -988740.49946  24085260.6194   24085277.9474   24085260.084
        41.0004         36.0004
   -999175.97047   -762804.69846  23956787.7524   23956795.3564   23956788.384
        42.0004         38.0004
 -21822506.08148 -16942491.29547  21216403.6864   21216411.2124   21216403.365
        51.0004         47.0004
  -4553465.06247  -3517048.03546  23951797.7954   23951812.7704   23951797.117
        44.0004         39.0004
  -1802444.00746  -1349514.87646  24221725.7214   24221733.0004   24221725.298
        41.0004         36.0004
 14  5 14  0 12  0.0000000  0 12G09G08G20G10G07G28G17G26G02G04G01G13
 -14261023.00849 -11105520.90048  20021947.5774   20021955.0774   20021947.721
        54.0004         49.0004
 -20120661.41249 -15673059.16648  19920188.4184   19920195.8684   19920188.665
        54.0004         49.0004
  -4773032.48946  -3668148.15046  23666726.5864   23666737.4064   23666727.208
        41.0004         36.0004
  -9362229.73447  -7284367.27946  23965210.9934   23965222.0524   23965211.760
        43.0004         38.0004
 -22501070.45048 -17503636.94748  20529127.5834   20529133.4424   20529127.139
        53.0004         48.0004
  -3043450.20747  -2371945.41746  23557130.4594   23557142.1464   23557131.224
        44.0004         39.0004
 -12905133.76848 -10001653.17047  22664874.3744   22664885.4464   22664874.473
        49.0004         44.0004
  -1312140.32446   -997353.45946  24083158.6054   24083172.5054   24083157.097
        41.0004         37.0004
  -1091805.72147   -834983.48546  23939160.6764   23939169.3924   23939160.892
        42.0004         38.0004
 -21891573.46748 -16996309.94547  21203260.9124   21203268.4684   21203260.437
        51.0004         47.0004
  -4451932.17247  -3437931.54446  23971118.3714   23971133.6754   23971118.412
        44.0004         39.0004
  -1730960.87046  -1293813.56545  24235326.8334   24235334.1044   24235327.944
        40.0004         35.0004
 14  5 14  0 12 30.0000000  0 12G09G08G20G10G07G28G17G26G02G04G01G13
 -14277225.38249 -11118146.05548  20018864.4364   20018871.8594   20018864.443
        54.0004         49.0004
 -20137453.70549 -15686144.00548  19916992.8324   19917000.1684   19916993.189
        54.0004         49.0004
  -4760715.64846  -3658550.61546  23669071.1184   23669082.2034   23669071.530
        41.0004         36.0004
  -9420175.43847  -7329519.57146  23954183.6694   23954193.8044   23954184.515
        43.0004         38.0004
 -22450930.06748 -17464566.47748  20538669.2364   20538675.2424   20538668.421
        53.0004         48.0004
  -3093691.74647  -2411094.50546  23547569.6514   23547580.7814   23547570.196
        44.0004         39.0004
 -12862881.09948  -9968729.03947  22672915.0424   22672925.2564   22672914.325
        49.0004         44.0004
  -1322868.29946  -1005712.66946  24081117.1994   24081131.2434   24081116.341
        41.0004         37.0004
  -1184262.59047   -907027.54046  23921567.2104   23921576.3274   23921567.723
        42.0004         38.0004
 -21960226.90548 -17049806.03447  21190196.1614   21190204.3134   21190195.921
        51.0004         47.0004
  -4350227.12747  -3358680.88946  23990472.3964   23990487.3854   23990472.008
        43.0004         39.0004
  -1659678.10646  -1238268.38545  24248891.3164   24248899.2954   24248892.016
        40.0004         35.0004
 14  5 14  0 13  0.0000000  0 12G09G08G20G10G07G28G17G26G02G04G01G13
 -14292819.84449 -11130297.50948  20015896.6164   20015904.0584   20015896.577
        54.0004         49.0004
 -20153597.74049 -15698723.70348  19913920.6134   19913927.9884   19913920.902
        54.0004         49.0004
  -4748141.21746  -3648752.36546  23671464.8054   23671475.0914   23671464.983
        41.0004         36.0004
  -9478327.34647  -7374832.53946  23943117.5574   23943127.7984   23943118.082
        43.0004         38.0004
 -22400247.84148 -17425073.79948  20548312.9934   20548319.6154   20548312.750
        53.0004         48.0004
  -3144119.90747  -2450389.03146  23537973.6294   23537985.4894   23537973.880
        44.0004         40.0004
 -12820592.07848  -9935776.58647  22680961.5624   22680973.1824   22680961.580
        49.0004         44.0004
  -1333270.37547  -1013817.91746  24079136.5244   24079151.4194   24079135.681
        42.0004         37.0004
  -1276542.59047   -978933.81046  23904007.7094   23904015.3304   23904006.438
        42.0004         38.0004
 -22028462.15948 -17102976.27047  21177211.6704   21177219.0114   21177211.146
        51.0004         47.0004
  -4248350.82447  -3279296.80346  24009859.1954   24009874.9534   24009858.684
        43.0004         39.0004
  -1588595.26146  -1182879.01446  24262419.1334   24262427.0154   24262418.472
        40.0004         36.0004
 14  5 14  0 13 30.0000000  0 12G09G08G20G10G07G28G17G26G02G04G01G13
 -14307806.44949 -11141975.30748  20013045.1104   20013052.1344   20013045.087
        54.0004         50.0004
 -20169093.26249 -15710798.06948  19910971.8924   19910979.3064   19910972.249
        54.0004         49.0004
  -4735308.25946  -3638752.66046  23673907.1444   23673916.5044   23673906.195
        41.0004         36.0004
  -9536685.03147  -7420305.86246  23932012.3904   23932023.2554   23932013.282
        43.0004         39.0004
 -22349026.26248 -17385160.83448  20558060.3074   20558066.5794   20558060.036
        53.0004         48.0004
  -3194733.37747  -2489827.94046  23528343.2904   23528353.0854   23528342.945
        44.0004         40.0004
 -12778269.66848  -9902798.11347  22689015.9594   22689026.9124   22689015.558
        49.0004         44.0004
  -1343348.81246  -1021670.98146  24077217.5264   24077232.4604   24077217.319
        41.0004         37.0004
  -1368643.67547  -1050700.65346  23886480.7674   23886488.1924   23886479.422
        43.0004         38.0004
 -22096277.87448 -17155819.59047  21164306.3684   21164314.0144   21164306.026
        51.0004         47.0004
  -4146306.66647  -3199781.92746  24029277.7584   24029292.4694   24029277.192
        43.0004         39.0004
  -1517714.30946  -1127646.93246  24275909.0764   24275913.8364   24275907.359
        40.0004         36.0004
 14  5 14  0 14  0.0000000  0 12G09G08G20G10G07G28G17G26G02G04G01G13
 -14322184.98549 -11153179.28648  20010308.7554   20010316.0094   20010308.657
        54.0004         50.0004
 -20183939.74749 -15722366.68748  19908146.7764   19908154.1324   19908146.964
        54.0004         49.0004
  -4722215.95746  -3628550.86846  23676397.1634   23676407.6414   23676397.619
        41.0004         36.0004
  -9595247.91547  -7465939.07146  23920867.8624   23920879.0104   23920868.807
        43.0004         39.0004
 -22297267.26348 -17344829.11048  20567909.5834   20567916.2224   20567909.089
        53.0004         48.0004
  -3245531.12947  -2529410.44946  23518676.3344   23518686.7904   23518676.258
        44.0004         40.0004
 -12735916.32048  -9869795.52347  22697075.4294   22697086.7114   22697075.036
        49.0004         44.0004
  -1353105.39846  -1029273.30446  24075361.7654   24075376.3584   24075361.434
        41.0004         37.0004
  -1460564.15647  -1122326.75946  23868987.4654   23868997.3304   23868988.195
        43.0004         38.0004
 -22163671.94148 -17208334.35547  21151481.5164   21151489.1014   21151481.574
        51.0004         47.0004
  -4044097.70447  -3120138.64446  24048727.8334   24048742.0564   24048727.016
        43.0004         39.0004
  -1447037.52246  -1072573.96646  24289358.9474   24289363.2384   24289356.209
        40.0004         36.0004
 14  5 14  0 14 30.0000000  0 12G09G08G20G10G07G28G17G26G02G04G01G13
 -14335952.86849 -11163907.43248  20007688.7164   20007696.0704   20007688.697
        54.0004         50.0004
 -20198133.87349 -15733426.97648  19905445.4834   19905452.8764   19905445.717
        54.0004         49.0004
  -4708860.86446  -3618144.31346  23678940.1534   23678947.8984   23678938.383
        41.0004         36.0004
  -9654012.61547  -7511729.54646  23909685.2774   23909695.7884   23909685.787
        43.0004         39.0004
 -22244971.10548 -17304078.81548  20577861.4644   20577867.4244   20577860.965
        53.0004         48.0004
  -3296509.38747  -2569133.62146  23508974.9534   23508985.6324   23508974.982
        45.0004         40.0004
 -12693532.98948  -9836769.58747  22705140.6324   22705152.3024   22705140.583
        49.0004         44.0004
  -1362539.52546  -1036624.31146  24073566.6624   24073580.5794   24073565.515
        41.0004         37.0004
  -1552299.72247  -1193808.77546  23851531.5724   23851538.7684   23851531.696
        43.0004         38.0004
 -22230640.08748 -17260517.23847  21138738.2184   21138745.4424   21138737.662
        51.0004         47.0004
  -3941724.37547  -3040367.26246  24068207.6334   24068224.2454   24068208.166
        44.0004         39.0004
  -1376563.64946  -1017659.09346  24302766.7824   24302772.3314   24302766.585
        40.0004         36.0004
 14  5 14  0 15  0.0000000  0 12G09G08G20G10G07G28G17G26G02G04G01G13
 -14349112.79849 -11174161.84648  20005184.1564   20005191.5404   20005184.216
        54.0004         49.0004
 -20211677.83149 -15743980.64248  19902868.3084   19902875.4254   19902868.639
        54.0004         49.0004
  -4695243.98746  -3607533.77846  23681530.2894   23681540.0654   23681531.098
        41.0004         37.0004
  -9712981.29547  -7557678.96646  23898464.9224   23898474.9234   23898464.704
        43.0004         39.0004
 -22192142.62748 -17262913.72448  20587914.2474   20587920.8194   20587913.764
        53.0004         48.0004
  -3347669.88547  -2608998.80446  23499239.8504   23499249.3854   23499239.727
        45.0004         40.0004
 -12651124.85348  -9803724.30947  22713211.1304   22713221.1344   22713210.993
        49.0004         44.0004
  -1371655.87946  -1043727.71246  24071829.7674   24071845.8564   24071830.540
        41.0004         36.0004
  -1643851.24247  -1265147.39846  23834109.3094   23834117.1004   23834109.917
        43.0004         38.0004
 -22297183.36948 -17312369.05547  21126075.5924   21126082.7754   21126075.033
        52.0004         47.0004
  -3839192.53847  -2960472.36146  24087720.1874   24087735.0954   24087719.233
        44.0004         39.0004
  -1306297.21946   -962905.91346  24316137.2754   24316145.2184   24316137.855
        40.0004         36.0004
 14  5 14  0 15 30.0000000  0 12G09G08G20G10G07G28G17G26G02G04G01G13
 -14361662.51549 -11183940.77348  20002796.0854   20002803.1594   20002796.061
        54.0004         49.0004
 -20224568.88149 -15754025.54948  19900414.8694   19900422.4194   19900415.250
        54.0004         49.0004
  -4681362.52046  -3596717.05046  23684171.1034   23684182.0464   23684171.230
        41.0004         37.0004
  -9772151.11247  -7603785.11946  23887204.0274   23887213.8434   23887204.933
        43.0004         39.0004
 -22138782.04248 -17221334.00848  20598068.2824   20598074.6964   20598068.409
        53.0004         48.0004
  -3399009.21847  -2649003.34446  23489469.7534   23489479.5354   23489469.978
        45.0004         40.0004
 -12608692.49848  -9770660.15547  22721285.5304   22721296.1334   22721285.359
        49.0004         44.0004
  -1380454.22746  -1050583.32346  24070155.9824   24070172.1654   24070155.978
        41.0004         37.0004
  -1735214.70147  -1336339.47246  23816723.3254   23816730.2614   23816724.184
        43.0004         38.0004
 -22363297.44448 -17363886.41447  21113494.0364   21113501.4664   21113493.839
        52.0004         47.0004
  -3736503.06347  -2880454.63946  24107261.2584   24107276.2434   24107260.679
        44.0004         39.0004
  -1236237.55446   -908313.78945  24329469.4554   24329476.9744   24329469.275
        40.0004         35.0004
 14  5 14  0 16  0.0000000  0 12G09G08G20G10G07G28G17G26G02G04G01G13
 -14373601.16749 -11193243.54048  20000524.1454   20000531.4974   20000524.138
        54.0004         49.0004
 -20236805.57249 -15763560.56848  19898086.3894   19898094.0404   19898087.113
        54.0004         49.0004
  -4667214.63646  -3585692.74746  23686861.7314   23686873.2484   23686864.743
        41.0004         37.0004
  -9831520.66847  -7650046.92046  23875906.5404   23875915.8384   23875906.700
        43.0004         39.0004
 -22084890.74148 -17179340.74648  20608323.5954   20608329.9464   20608322.985
        53.0004         48.0004
  -3450525.15247  -2689145.48546  23479666.7084   23479677.4134   23479666.366
        45.0004         40.0004
 -12566237.80448  -9737578.60447  22729364.5334   22729376.3014   22729364.190
        49.0004         44.0004
  -1388935.64147  -1057191.99046  24068541.8114   24068556.6334   24068542.289
        42.0004         37.0004
  -1826386.71647  -1407382.36946  23799373.2734   23799381.6654   23799373.881
        43.0004         38.0004
 -22428979.88848 -17415067.44747  21100995.0914   21101002.5524   21100994.463
        52.0004         47.0004
  -3633658.15847  -2800315.81046  24126831.9094   24126847.0454   24126831.083
        44.0004         39.0004
  -1166385.96246   -853883.79545  24342762.3114   24342768.1044   24342761.855
        40.0004         35.0004
 14  5 14  0 16 30.0000000  0 12G09G08G20G10G07G28G17G26G02G04G01G13
 -14384928.46149 -11202069.92648  19998368.7274   19998375.6234   19998368.508
        54.0004         50.0004
 -20248386.99449 -15772584.98548  19895882.3974   19895890.1814   19895882.872
        54.0004         49.0004
  -4652799.03146  -3574459.81946  23689606.2794   23689616.1164   23689607.736
        41.0004         36.0004
  -9891088.64847  -7696463.31946  23864570.7524   23864581.2414   23864571.988
        44.0004         39.0004
 -22030470.25748 -17136935.13848  20618679.5394   20618685.6784   20618679.016
        53.0004         48.0004
  -3502215.64147  -2729423.65046  23469830.7994   23469841.1344   23469830.246
        45.0004         40.0004
 -12523763.04948  -9704481.41247  22737447.4404   22737457.7454   22737446.914
        49.0004         44.0004
  -1397101.62347  -1063554.83346  24066988.1414   24067001.8384   24066988.566
        42.0004         37.0004
  -1917365.26947  -1478274.49446  23782060.1694   23782068.2634   23782060.612
        43.0004         38.0004
 -22494228.26048 -17465910.23947  21088578.6654   21088585.8164   21088578.207
        52.0004         47.0004
  -3530660.42547  -2720057.88346  24146431.1284   24146446.6384   24146430.908
        44.0004         39.0004
  -1096743.31646   -799616.63746  24356017.0164   24356019.7274   24356014.867
        40.0004         36.0004
 14  5 14  0 17  0.0000000  0 12G09G08G20G10G07G28G17G26G02G04G01G13
 -14395645.48649 -11210420.77948  19996329.0114   19996336.6044   19996329.219
        54.0004         50.0004
 -20259314.13349 -15781099.57348  19893803.4054   19893810.5834   19893803.295
        54.0004         49.0004
  -4638115.54246  -3563018.15846  23692400.9594   23692409.5144   23692402.651
        41.0004         36.0004
  -9950855.50747  -7743034.68946  23853198.7924   23853206.8964   23853198.765
        44.0004         39.0004
 -21975524.44348 -17094120.17748  20629135.1814   20629141.3714   20629134.667
        53.0004         48.0004
  -3554080.82447  -2769837.94046  23459959.6814   23459970.2764   23459960.511
        45.0004         40.0004
 -12481272.23848  -9671371.70647  22745533.2394   22745543.3834   22745532.352
        49.0004         44.0004
  -1404955.42747  -1069674.43746  24065493.3534   24065507.0384   24065493.073
        42.0004         37.0004
  -2008149.57247  -1549015.27246  23764784.3114   23764793.0244   23764785.182
        43.0004         38.0004
 -22559041.95148 -17516414.32847  21076245.2564   21076252.1394   21076244.461
        52.0004         47.0004
  -3427514.04847  -2639684.13446  24166059.0624   24166074.4594   24166058.908
        44.0004         39.0004
  -1027312.18746   -745514.28945  24369228.4404   24369233.9404   24369227.163
        40.0004         35.0004
 14  5 14  0 17 30.0000000  0 12G09G08G20G10G07G28G17G26G02G04G01G13
 -14405750.73449 -11218294.92548  19994406.3034   19994413.1074   19994405.993
        54.0004         50.0004
 -20269584.64249 -15789102.50548  19891848.6584   19891856.2324   19891849.077
        54.0004         49.0004
  -4623161.61546  -3551365.76746  23695247.4644   23695257.0134   23695247.494
        41.0004         36.0004
 -10010818.83947  -7789759.15646  23841787.1674   23841797.1464   23841788.041
        44.0004         39.0004
 -21920054.53348 -17050896.84048  20639690.8024   20639696.5604   20639690.421
        53.0004         48.0004
  -3606117.71947  -2810386.03346  23450058.4844   23450069.0994   23450058.474
        45.0004         40.0004
 -12438766.39848  -9638250.29647  22753621.5084   22753631.7624   22753621.422
        49.0004         44.0004
  -1412497.20647  -1075550.90446  24064057.5584   24064072.1884   24064057.619
        42.0004         37.0004
  -2098735.94447  -1619601.81846  23747547.0014   23747555.6874   23747547.158
        43.0004         38.0004
 -22623417.58748 -17566577.07147  21063994.3344   21064001.7914   21063993.987
        52.0004         47.0004
  -3324220.39447  -2559195.61046  24185715.6364   24185730.8944   24185714.868
        43.0004         38.0004
   -958092.93246   -691577.01845  24382397.0594   24382404.2614   24382398.288
        40.0004         35.0004
 14  5 14  0 18  0.0000000  0 12G09G08G20G10G07G28G17G26G02G04G01G13
 -14415243.67049 -11225691.94448  19992599.7594   19992607.1294   19992599.838
        54.0004         50.0004
 -20279197.41349 -15796592.90848  19890019.5564   19890026.5194   19890019.732
        54.0004         49.0004
  -4607935.58446  -3539501.34846  23698143.7724   23698155.0014   23698144.398
        41.0004         36.0004
 -10070977.50547  -7836635.84946  23830338.9584   23830348.8634   23830340.302
        44.0004         39.0004
 -21864061.90748 -17007266.18348  20650346.4414   20650351.7804   20650345.447
        52.0004         48.0004
  -3658324.38147  -2851066.41546  23440123.7054   23440133.8064   23440123.447
        45.0004         41.0004
 -12396247.62548  -9605118.80647  22761712.7994   22761723.5954   22761712.238
        49.0004         44.0004
  -1419728.41847  -1081185.36246  24062681.2794   24062696.8324   24062681.478
        42.0004         37.0004
  -2189122.08447  -1690032.32946  23730346.5024   23730353.4074   23730346.425
        43.0004         38.0004
 -22687352.67148 -17616396.53247  21051827.5324   21051835.4294   21051827.485
        52.0004         47.0004
  -3220781.86347  -2478594.20046  24205399.0894   24205415.8344   24205398.588
        43.0004         38.0004
   -889086.29446   -637805.41845  24395529.6384   24395537.5844   24395530.161
        40.0004         35.0004
 14  5 14  0 18 30.0000000  0 12G09G08G20G10G07G28G17G26G02G04G01G13
 -14424125.24849 -11232612.57648  19990909.5854   19990916.5794   19990909.301
        54.0004         49.0004
 -20288153.34949 -15803571.49648  19888315.1294   19888322.5984   19888315.414
        54.0004         49.0004
  -4592437.43946  -3527424.86546  23701093.8584   23701102.4864   23701093.998
        41.0004         36.0004
 -10131331.62547  -7883664.84846  23818854.8244   23818862.9684   23818854.606
        44.0004         39.0004
 -21807549.96948 -16963230.86948  20661099.9744   20661105.5304   20661098.921
        53.0004         48.0004
  -3710700.48847  -2891878.83946  23430156.7044   23430166.9844   23430156.586
        45.0004         41.0004
 -12353719.57048  -9571980.07447  22769805.7554   22769817.3344   22769805.133
        49.0004         44.0004
  -1426651.99747  -1086580.12346  24061363.5594   24061379.4524   24061363.934
        42.0004         38.0004
  -2279307.05047  -1760306.08746  23713185.0004   23713192.6764   23713184.293
        43.0004         38.0004
 -22750846.37448 -17665872.05247  21039745.3164   21039752.9514   21039745.642
        52.0004         47.0004
  -3117202.52747  -2397883.06446  24225111.3474   24225125.1824   24225109.267
        43.0004         38.0004
   -820294.94446   -584201.57545  24408619.7864   24408626.6054   24408620.061
        40.0004         35.0004
 14  5 14  0 19  0.0000000  0 12G09G08G20G10G07G28G17G26G02G04G01G13
 -14432394.00949 -11239055.68648  19989335.9174   19989343.4014   19989335.698
        54.0004         49.0004
 -20296450.16149 -15810036.49448  19886736.1074   19886743.3304   19886736.634
        54.0004         49.0004
  -4576664.55446  -3515134.33546  23704094.8954   23704104.1204   23704096.080
        40.0004         36.0004
 -10191878.38047  -7930843.94546  23807332.1134   23807341.1514   23807332.322
        43.0004         39.0004
 -21750519.36148 -16918791.39348  20671952.3164   20671958.0474   20671951.801
        53.0004         48.0004
  -3763242.77847  -2932820.77546  23420158.6524   23420167.6784   23420158.198
        45.0004         41.0004
 -12311183.35048  -9538834.98047  22777900.0074   22777910.7224   22777899.519
        49.0004         44.0004
  -1433268.15947  -1091735.34446  24060105.1154   24060119.7874   24060105.412
        42.0004         37.0004
  -2369287.30247  -1830420.32146  23696061.8924   23696070.1714   23696062.135
        43.0004         38.0004
 -22813895.41148 -17715001.09547  21027747.2744   21027755.0024   21027747.060
        52.0004         47.0004
  -3013483.61147  -2317063.15946  24244847.9214   24244863.2104   24244846.504
        42.0004         38.0004
   -751718.78046   -530765.44345  24421670.8354   24421678.6544   24421669.670
        40.0004         35.0004
 14  5 14  0 19 30.0000000  0 12G09G08G20G10G07G28G17G26G02G04G01G13
 -14440049.85249 -11245021.21448  19987878.9394   19987885.6964   19987879.062
        54.0004         49.0004
 -20304087.30749 -15815987.45348  19885282.8454   19885290.3594   19885283.089
        54.0004         49.0004
  -4560615.69346  -3502628.71846  23707150.1804   23707158.2294   23707149.474
        40.0004         36.0004
 -10252616.54347  -7978172.19246  23795773.4404   23795783.7554   23795774.724
        43.0004         39.0004
 -21692972.22248 -16873949.42848  20682902.9784   20682908.8334   20682902.292
        53.0004         48.0004
  -3815949.61447  -2973890.92946  23410127.5244   23410138.1124   23410128.094
        45.0004         41.0004
 -12268641.16448  -9505685.24547  22785995.1044   22786006.1924   22785995.223
        49.0004         44.0004
  -1439578.65447  -1096652.37746  24058903.7594   24058918.8874   24058903.646
        42.0004         38.0004
  -2459060.11447  -1900372.93146  23678979.0074   23678985.5344   23678978.715
        43.0004         38.0004
 -22876497.39448 -17763781.78047  21015834.3464   21015842.1814   21015834.485
        52.0004         47.0004
  -2909627.81047  -2236136.58146  24264609.2494   24264626.0614   24264609.372
        42.0004         38.0004
   -683358.91946   -477497.83745  24434679.7804   24434684.3664   24434678.108
        40.0004         35.0004
 14  5 14  0 20  0.0000000  0 12G09G08G20G10G07G28G17G26G02G04G01G13
 -14447092.47149 -11250508.89948  19986538.6884   19986546.1074   19986538.697
        54.0004         49.0004
 -20311063.88949 -15821423.69148  19883955.2674   19883962.2024   19883955.603
        54.0004         49.0004
  -4544289.16246  -3489906.74646  23710256.4614   23710266.7444   23710257.179
        40.0004         36.0004
 -10313545.06147  -8025648.76446  23784179.2674   23784188.0454   23784180.100
        43.0004         39.0004
 -21634910.56148 -16828706.54348  20693951.7124   20693957.5934   20693951.622
        53.0004         48.0004
  -3868819.09947  -3015087.82846  23400067.8354   23400079.0094   23400067.576
        45.0004         40.0004
 -12226095.21348  -9472532.57547  22794091.7154   22794102.8884   22794091.108
        49.0004         44.0004
  -1445584.96147  -1101332.38746  24057761.8904   24057775.9894   24057761.330
        42.0004         38.0004
  -2548623.36747  -1970162.24246  23661935.2494   23661942.8624   23661935.677
        43.0004         38.0004
 -22938650.19248 -17812212.46047  21004007.1914   21004015.1984   21004006.925
        52.0004         47.0004
  -2805637.64347  -2155105.32546  24284399.2304   24284414.5234   24284398.352
        42.0004         37.0004
   -615216.44546   -424399.66545  24447646.0164   24447649.5154   24447644.146
        40.0004         35.0004
 14  5 14  0 20 30.0000000  0 12G09G08G20G10G07G28G17G26G02G04G01G13
 -14453524.00549 -11255520.41748  19985314.8894   19985321.7944   19985314.839
        54.0004         49.0004
 -20317381.74749 -15826346.63948  19882752.9984   19882760.5414   19882753.341
        54.0004         49.0004
  -4527685.99946  -3476969.25046  23713415.8264   23713424.6824   23713416.091
        40.0004         36.0004
 -10374664.95847  -8073274.46446  23772547.7824   23772557.5354   23772549.162
        43.0004         39.0004
 -21576338.98748 -16783066.31248  20705097.5034   20705103.5324   20705096.876
        53.0004         48.0004
  -3921851.42847  -3056411.61846  23389975.5944   23389986.0964   23389975.726
        45.0004         40.0004
 -12183550.03048  -9439380.49147  22802188.0594   22802199.2434   22802187.650
        49.0004         44.0004
  -1451291.01647  -1105778.42146  24056675.5054   24056688.9454   24056674.894
        43.0004         38.0004
  -2637976.78247  -2039788.02246  23644931.8574   23644938.7424   23644931.967
        43.0004         39.0004
 -23000354.11348 -17860293.36347  20992265.6714   20992273.0504   20992265.090
        52.0004         47.0004
  -2701517.98547  -2073973.14746  24304212.0954   24304227.3084   24304211.231
        42.0004         37.0004
   -547294.66646   -371473.46645  24460569.3834   24460578.7614   24460569.494
        40.0004         35.0004
 14  5 14  0 21  0.0000000  0 12G09G08G20G10G07G28G17G26G02G04G01G13
 -14459341.26749 -11260053.28048  19984208.0854   19984215.2974   19984207.874
        54.0004         50.0004
 -20323036.97449 -15830753.25648  19881676.7434   19881683.7534   19881676.909
        54.0004         49.0004
  -4510802.15246  -3463813.02746  23716630.0434   23716639.7324   23716628.445
        40.0004         36.0004
 -10435971.95947  -8121045.96146  23760881.9264   23760891.5714   23760881.984
        43.0004         39.0004
 -21517256.11648 -16737027.67948  20716340.7504   20716347.0954   20716340.224
        53.0004         48.0004
  -3975042.26347  -3097858.90346  23379853.1134   23379865.1354   23379853.845
        45.0004         40.0004
 -12141004.68748  -9406228.27647  22810283.5904   22810294.2804   22810283.390
        49.0004         44.0004
  -1456695.54547  -1109989.51946  24055646.5554   24055661.0574   24055646.454
        43.0004         38.0004
  -2727115.06647  -2109246.18646  23627969.1984   23627975.4764   23627969.306
        43.0004         39.0004
 -23061603.86048 -17908020.37547  20980610.3464   20980617.1054   20980609.383
        52.0004         47.0004
