     2.11           OBSERVATION DATA    G (GPS)             RINEX VERSION / TYPE
teqc  2013Mar15     gpsops              20140516 00:23:18UTCPGM / RUN BY / DATE
Linux 2.4.21-27.ELsmp|Opteron|gcc -static|Linux x86_64|=+   COMMENT
BIT 2 OF LLI FLAGS DATA COLLECTED UNDER A/S CONDITION       COMMENT
GLPS                                                        MARKER NAME
42005M002                                                   MARKER NUMBER
GGN                 JPL                                     OBSERVER / AGENCY
ZR220013847         ASHTECH UZ-12       CQ00                REC # / TYPE / VERS
CR519992104         ASH701945B_M    SCIT                    ANT # / TYPE
   -33801.4662 -6377516.5323   -82154.3508                  APPROX POSITION XYZ
        0.0083        0.0000        0.0000                  ANTENNA: DELTA H/E/N
     1     1                                                WAVELENGTH FACT L1/2
     7    L1    L2    P1    P2    C1    S1    S2            # / TYPES OF OBSERV
    30.0000                                                 INTERVAL
                                                            COMMENT
This data is provided as a public service by NASA/JPL.      COMMENT
No warranty is expressed or implied regarding suitability   COMMENT
for use.  For further information, contact:                 COMMENT
Dave Stowers, NASA/JPL m/s 238-600                          COMMENT
4800 Oak Grove Drive, Pasadena CA 91109 USA                 COMMENT
                                                            COMMENT
Forced Modulo Decimation to 30 seconds                      COMMENT
 SNR is mapped to RINEX snr flag value [0-9]                COMMENT
  L1 & L2: min(max(int(snr_dBHz/6), 0), 9)                  COMMENT
pseudorange smoothing corrections not applied               COMMENT
  2014     5    15     0     0    0.0000000     GPS         TIME OF FIRST OBS
                                                            END OF HEADER
 14  5 15  0  0  0.0000000  0 11G26G13G07G09G04G01G10G08G28G17G20
   -639436.42847   -477367.71746  24124845.7474   24124860.1824   24124845.405
        42.0004         37.0004
  14579282.18147  11354447.02646  24018329.0114   24018338.2884   24018328.600
        42.0004         37.0004
 -22537511.45148 -17547395.48648  20392906.4864   20392913.3834   20392906.497
        53.0004         48.0004
 -20779147.34149 -16178430.83048  20085756.8314   20085764.7064   20085756.859
        54.0004         49.0004
 -23181095.77848 -17579645.69047  21421481.7294   21421489.8374   21421481.303
        50.0004         46.0004
  -5397516.58047  -4173732.84846  23670039.4764   23670053.9214   23670039.399
        44.0004         40.0004
  -8276962.96847  -6437225.57046  24135537.8324   24135550.0894   24135538.714
        43.0004         38.0004
 -25914163.94249 -20151711.34048  19985856.5544   19985864.5394   19985857.022
        54.0004         49.0004
  -4322511.29647  -3332090.05546  23703440.9704   23703452.7524   23703440.427
        44.0004         39.0004
 -13296332.92648 -10300970.17347  22539334.5874   22539343.5564   22539333.460
        49.0004         45.0004
  -4683800.04346  -3586409.93346  23632776.7144   23632789.1824   23632777.478
        41.0004         36.0004
 14  5 15  0  0 30.0000000  0 11G26G13G07G09G04G01G10G08G28G17G20
   -655510.86847   -489893.03046  24121786.1444   24121800.4774   24121785.518
        42.0004         37.0004
  14653557.09547  11412323.71446  24032461.7864   24032471.0424   24032462.819
        42.0004         37.0004
 -22496113.66348 -17515137.43448  20400784.5194   20400790.9514   20400784.098
        53.0004         49.0004
 -20804866.66249 -16198471.76748  20080862.6834   20080870.1954   20080862.597
        54.0004         49.0004
 -23256056.05048 -17638056.18247  21407217.4194   21407225.4994   21407217.325
        51.0004         46.0004
  -5298859.74747  -4096857.44946  23688813.8044   23688827.9804   23688813.479
        44.0004         40.0004
  -8331507.60147  -6479727.70046  24125159.4654   24125171.7494   24125159.365
        43.0004         38.0004
 -25940813.22349 -20172476.92448  19980785.2444   19980793.0004   19980785.549
        54.0004         49.0004
  -4369585.55447  -3368771.08946  23694482.7504   23694493.9764   23694482.687
        44.0004         39.0004
 -13254925.62748 -10268704.72847  22547213.4844   22547223.3744   22547212.960
        49.0004         45.0004
  -4675390.30146  -3579856.81846  23634378.0214   23634386.5924   23634378.150
        41.0004         37.0004
 14  5 15  0  1  0.0000000  0 11G26G13G07G09G04G01G10G08G28G17G20
   -671237.55447   -502147.34746  24118792.7214   24118810.0274   24118793.247
        42.0004         37.0004
  14727655.25946  11470062.69546  24046561.4994   24046569.9654   24046562.563
        41.0004         37.0004
 -22454147.71848 -17482436.68448  20408770.2674   20408776.9984   20408769.740
        53.0004         48.0004
 -20829990.17049 -16218048.43148  20076081.7364   20076089.6164   20076081.674
        54.0004         49.0004
 -23330635.90348 -17696170.23747  21393025.2724   21393033.7974   21393024.832
        51.0004         46.0004
  -5199989.49747  -4019815.75046  23707627.9194   23707643.3664   23707627.573
        44.0004         40.0004
  -8386272.41347  -6522401.37846  24114736.6094   24114748.6534   24114737.713
        43.0004         38.0004
 -25966835.04449 -20192753.58448  19975833.6274   19975841.6294   19975833.733
        54.0004         49.0004
  -4416869.33247  -3405615.39346  23685484.8214   23685496.1764   23685484.424
        44.0004         39.0004
 -13213443.27948 -10236380.79347  22555106.9494   22555116.9654   22555106.685
        49.0004         44.0004
  -4666747.48546  -3573122.08346  23636021.7554   23636032.5624   23636022.450
        41.0004         37.0004
 14  5 15  0  1 30.0000000  0 11G26G13G07G09G04G01G10G08G28G17G20
   -686619.05547   -514132.72646  24115865.6964   24115881.1404   24115865.728
        42.0004         37.0004
  14801573.59546  11527661.53046  24060628.2484   24060637.7674   24060628.407
        41.0004         36.0004
 -22411616.90348 -17449295.74648  20416863.7924   20416870.0954   20416863.176
        53.0004         48.0004
 -20854518.39649 -16237161.24048  20071413.9734   20071421.5454   20071413.947
        54.0004         49.0004
 -23404834.43848 -17753987.15747  21378905.9464   21378914.0884   21378905.560
        51.0004         46.0004
  -5100909.89047  -3942610.90746  23726482.2454   23726496.3974   23726481.519
        44.0004         40.0004
  -8441258.10947  -6565247.16246  24104273.6974   24104284.5734   24104274.437
        43.0004         38.0004
 -25992229.22649 -20212541.17048  19971001.3414   19971008.7934   19971001.481
        54.0004         49.0004
  -4464363.02247  -3442623.26546  23676446.4644   23676457.8014   23676446.564
        43.0004         39.0004
 -13171889.85148 -10204001.48047  22563014.8764   22563023.6714   22563014.176
        49.0004         44.0004
  -4657871.36546  -3566205.57846  23637711.6864   23637720.0014   23637712.444
        41.0004         37.0004
 14  5 15  0  2  0.0000000  0 11G26G13G07G09G04G01G10G08G28G17G20
   -701656.95847   -525850.34746  24113005.4814   24113018.6364   24113004.872
        42.0004         38.0004
  14875310.30946  11585118.84346  24074660.1734   24074669.1164   24074660.142
        41.0004         36.0004
 -22368522.91048 -17415715.97148  20425064.1414   20425070.6964   20425063.543
        53.0004         48.0004
 -20878450.20049 -16255809.30348  20066859.9504   20066867.3964   20066859.694
        54.0004         49.0004
 -23478649.14448 -17811504.99747  21364858.8444   21364868.0474   21364858.723
        51.0004         46.0004
  -5001623.71547  -3865245.10646  23745375.0494   23745390.6394   23745375.290
        44.0004         40.0004
  -8496464.18647  -6608264.69146  24093768.0084   24093781.3994   24093768.635
        43.0004         38.0004
 -26016993.88449 -20231838.22548  19966288.6324   19966296.3904   19966288.768
        54.0004         49.0004
  -4512064.92947  -3479793.38346  23667370.2394   23667380.0794   23667369.091
        43.0004         38.0004
 -13130267.71548 -10171568.63047  22570934.6344   22570944.4864   22570934.750
        49.0004         44.0004
  -4648760.10446  -3559105.83346  23639444.5684   23639455.5024   23639445.943
        41.0004         37.0004
 14  5 15  0  2 30.0000000  0 11G26G13G07G09G04G01G10G08G28G17G20
   -716350.86347   -537299.93346  24110207.6474   24110223.2564   24110207.502
        42.0004         37.0004
  14948865.54446  11642434.75346  24088657.4394   24088666.4454   24088657.009
        41.0004         37.0004
 -22324865.38648 -17381697.08448  20433372.1264   20433378.3214   20433371.647
        53.0004         49.0004
 -20901783.27549 -16273990.82348  20062419.7204   20062426.8164   20062419.661
        54.0004         49.0004
 -23552076.09448 -17868720.69047  21350886.8564   21350894.5514   21350886.374
        51.0004         46.0004
  -4902131.95447  -3787719.10546  23764307.9404   23764323.2664   23764307.652
        44.0004         40.0004
  -8551888.29147  -6651452.10646  24083221.0834   24083233.1164   24083221.810
        43.0004         38.0004
 -26041126.31949 -20250642.63248  19961696.2264   19961703.8304   19961696.469
        54.0004         49.0004
  -4559971.93747  -3517123.32846  23658252.6564   23658263.5154   23658252.474
        43.0004         39.0004
 -13088577.21948 -10139082.51347  22578868.1634   22578877.5824   22578868.260
        49.0004         44.0004
  -4639410.67846  -3551820.51946  23641223.3974   23641233.7644   23641224.985
        41.0004         37.0004
 14  5 15  0  3  0.0000000  0 11G26G13G07G09G04G01G10G08G28G17G20
   -730704.32247   -548484.24446  24107477.0374   24107491.0844   24107476.458
        42.0004         37.0004
  15022235.49846  11699606.29446  24102618.5754   24102626.8704   24102618.744
        41.0004         36.0004
 -22280647.98048 -17347241.91848  20441786.1834   20441793.1064   20441785.643
        53.0004         49.0004
 -20924519.00449 -16291706.88148  20058092.9784   20058100.4864   20058093.020
        54.0004         49.0004
 -23625114.97048 -17925633.98847  21336987.6854   21336995.8604   21336986.915
        51.0004         46.0004
  -4802439.61047  -3710036.81746  23783278.4934   23783294.5264   23783277.981
        44.0004         40.0004
  -8607531.54047  -6694810.27746  24072632.5994   24072644.2754   24072633.049
        43.0004         38.0004
 -26064627.30549 -20268955.00548  19957224.1114   19957231.6604   19957224.263
        54.0004         49.0004
  -4608085.18247  -3554613.96946  23649095.4624   23649108.7374   23649096.627
        43.0004         38.0004
 -13046824.00948 -10106547.51847  22586813.7314   22586823.5734   22586813.757
        49.0004         45.0004
  -4629823.52446  -3544349.94246  23643049.3244   23643059.0384   23643049.273
        41.0004         37.0004
 14  5 15  0  3 30.0000000  0 11G26G13G07G09G04G01G10G08G28G17G20
   -744717.79247   -559403.64346  24104810.9334   24104825.6774   24104809.738
        42.0004         37.0004
  15095419.49746  11756632.93646  24116544.7464   24116553.9284   24116545.646
        41.0004         37.0004
 -22235871.33748 -17312350.99148  20450306.9274   20450313.2664   20450306.306
        53.0004         48.0004
 -20946655.66449 -16308956.13648  20053880.2474   20053887.7734   20053880.257
        54.0004         49.0004
 -23697762.64948 -17982242.45547  21323162.9064   21323171.2544   21323162.541
        51.0004         46.0004
  -4702548.34747  -3632199.53246  23802287.5604   23802302.9844   23802286.684
        44.0004         40.0004
  -8663392.36447  -6738337.97946  24062003.0924   24062013.3054   24062003.553
        43.0004         38.0004
 -26087494.45949 -20286773.48348  19952872.5294   19952880.3884   19952872.809
        54.0004         49.0004
  -4656402.43647  -3592263.58746  23639902.6274   23639913.3284   23639902.386
        43.0004         39.0004
 -13005009.31648 -10073964.61347  22594770.0834   22594780.9874   22594770.594
        49.0004         45.0004
  -4619996.53847  -3536692.49446  23644918.3014   23644929.5084   23644919.242
        42.0004         37.0004
 14  5 15  0  4  0.0000000  0 12G26G02G13G07G09G04G01G10G08G28G17G20
   -758394.07847   -570060.28346  24102206.6194   24102221.0604   24102206.350
        42.0004         37.0004
  -1515424.40148  -1123036.17846  24073794.0994   24073805.5424   24073795.060
        50.0004         38.0004
  15168414.60146  11813512.38846  24130434.8404   24130443.9824   24130435.541
        41.0004         36.0004
 -22190538.92148 -17277026.98848  20458933.3404   20458939.5164   20458932.821
        53.0004         48.0004
 -20968193.68949 -16325738.92048  20049781.8584   20049789.1794   20049782.024
        54.0004         49.0004
 -23770018.18748 -18038545.36347  21309413.3684   21309421.4884   21309412.523
        51.0004         46.0004
  -4602462.48547  -3554210.60846  23821334.2474   23821348.3034   23821333.317
        44.0004         39.0004
  -8719471.32647  -6782035.66546  24051330.2104   24051343.4414   24051331.421
        43.0004         38.0004
 -26109727.97249 -20304098.21948  19948641.4994   19948649.1244   19948641.776
        54.0004         49.0004
  -4704923.75247  -3630072.22246  23630668.4674   23630679.0624   23630668.862
        44.0004         39.0004
 -12963137.32348 -10041337.07147  22602738.9914   22602747.4554   22602738.423
        49.0004         44.0004
  -4609929.73246  -3528848.18246  23646835.1564   23646843.9574   23646834.782
        41.0004         37.0004
 14  5 15  0  4 30.0000000  0 12G26G02G13G07G09G04G01G10G08G28G17G20
   -771731.23947   -580452.69246  24099670.8364   24099684.1664   24099669.098
        42.0004         37.0004
  -1609157.30247  -1196074.52746  24055957.6914   24055967.5794   24055957.231
        45.0004         38.0004
  15241222.45946  11870245.93246  24144290.7194   24144300.7854   24144290.413
        41.0004         36.0004
 -22144648.84648 -17241268.44748  20467665.9084   20467671.9454   20467665.517
        53.0004         48.0004
 -20989129.18749 -16342052.20248  20045797.8024   20045805.5484   20045797.899
        54.0004         49.0004
 -23841875.84248 -18094538.23247  21295738.4324   21295746.9374   21295738.859
        51.0004         46.0004
  -4502181.37447  -3476069.55246  23840416.1774   23840430.9394   23840415.610
        44.0004         39.0004
  -8775764.30047  -6825900.09846  24040616.4644   24040630.3954   24040619.158
        42.0004         38.0004
 -26131323.39549 -20320925.74248  19944532.0244   19944539.5404   19944532.265
        54.0004         49.0004
  -4753644.57447  -3668036.30446  23621395.6504   23621408.1434   23621397.032
        44.0004         39.0004
 -12921207.13248 -10008664.16847  22610718.2294   22610727.1614   22610717.683
        49.0004         44.0004
  -4599618.15946  -3520813.13846  23648797.9694   23648806.7514   23648796.508
        41.0004         36.0004
 14  5 15  0  5  0.0000000  0 12G26G02G13G07G09G04G01G10G08G28G17G20
   -784732.12746   -590583.08746  24097195.0254   24097209.2814   24097193.390
        41.0004         37.0004
  -1702731.68147  -1268989.37946  24038150.8514   24038162.6154   24038150.086
        43.0004         38.0004
  15313840.48046  11926831.54846  24158110.1614   24158116.5134   24158109.766
        41.0004         36.0004
 -22098204.05248 -17205077.66348  20476504.1074   20476510.6674   20476503.568
        53.0004         48.0004
 -21009462.61249 -16357896.33748  20041928.3924   20041935.9644   20041928.392
        54.0004         49.0004
 -23913334.65348 -18150220.32247  21282140.7754   21282148.3174   21282140.156
        51.0004         46.0004
  -4401709.00647  -3397779.45146  23859536.0034   23859550.9514   23859535.467
        44.0004         39.0004
  -8832271.60347  -6869931.56146  24029864.4404   24029875.9684   24029865.856
        42.0004         38.0004
 -26152280.58849 -20337255.94148  19940543.8274   19940551.9114   19940544.244
        54.0004         49.0004
  -4802564.44947  -3706155.49546  23612087.8404   23612099.9564   23612087.526
        44.0004         39.0004
 -12879222.45648  -9975948.81947  22618706.8714   22618716.7874   22618706.667
        49.0004         44.0004
  -4589061.46346  -3512587.08946  23650804.6304   23650815.6184   23650805.927
        41.0004         36.0004
 14  5 15  0  5 30.0000000  0 12G26G02G13G07G09G04G01G10G08G28G17G20
   -797397.88046   -600452.32846  24094784.9534   24094800.0994   24094784.868
        41.0004         37.0004
  -1796145.21047  -1341778.88146  24020373.8604   24020383.6884   24020374.785
        43.0004         38.0004
  15386267.26446  11983268.16846  24171891.3834   24171901.4104   24171891.751
        41.0004         36.0004
 -22051206.49948 -17168456.14848  20485447.2994   20485453.5894   20485446.783
        53.0004         48.0004
 -21029192.80649 -16373270.42648  20038174.1204   20038181.4334   20038174.003
        54.0004         49.0004
 -23984391.99748 -18205589.57747  21268619.0424   21268626.7524   21268618.474
        51.0004         46.0004
  -4301047.90847  -3319342.29546  23878690.6184   23878705.8864   23878690.512
        44.0004         39.0004
  -8888992.37047  -6914129.33746  24019071.5584   24019082.1894   24019071.489
        42.0004         38.0004
 -26172598.01649 -20353087.62448  19936677.5784   19936685.0374   19936677.957
        54.0004         49.0004
  -4851682.11447  -3744428.79846  23602740.5964   23602752.7334   23602741.013
        44.0004         39.0004
 -12837185.70148  -9943192.89247  22626707.2114   22626716.7714   22626706.405
        49.0004         44.0004
  -4578258.20146  -3504168.91146  23652860.3894   23652870.7514   23652860.807
        41.0004         36.0004
 14  5 15  0  6  0.0000000  0 12G26G02G13G07G09G04G01G10G08G28G17G20
   -809728.30446   -610060.27046  24092436.1174   24092453.9514   24092436.616
        41.0004         37.0004
  -1889394.00647  -1414440.01546  24002630.0124   24002640.1364   24002630.686
        42.0004         38.0004
  15458502.66346  12039555.64246  24185637.4814   24185645.8764   24185636.434
        41.0004         36.0004
 -22003656.12348 -17131403.86748  20494496.1774   20494502.4584   20494495.303
        53.0004         48.0004
 -21048317.57949 -16388172.75748  20034534.5184   20034541.6304   20034534.541
        54.0004         49.0004
 -24055043.96648 -18260642.96147  21255173.7494   21255182.2534   21255173.900
        51.0004         46.0004
  -4200199.16847  -3240758.92746  23897882.1594   23897898.0134   23897881.133
        44.0004         39.0004
  -8945924.15347  -6958491.54946  24008236.9114   24008249.4864   24008237.414
        42.0004         38.0004
 -26192273.02149 -20368418.71948  19932933.7074   19932941.0824   19932933.878
        54.0004         49.0004
  -4900994.18447  -3782853.58746  23593356.7984   23593369.2754   23593356.701
        44.0004         39.0004
 -12795097.72748  -9910397.05447  22634715.6174   22634724.6644   22634715.271
        49.0004         44.0004
  -4567205.58146  -3495556.41146  23654964.7864   23654974.9104   23654964.322
        41.0004         36.0004
 14  5 15  0  6 30.0000000  0 12G26G02G13G07G09G04G01G10G08G28G17G20
   -821728.82046   -619411.15446  24090153.5434   24090168.8384   24090154.278
        41.0004         37.0004
  -1982479.37447  -1486973.82546  23984916.6364   23984925.7914   23984916.558
        42.0004         38.0004
  15530541.72546  12095690.11746  24199348.3784   24199353.0994   24199345.475
        41.0004         36.0004
 -21955558.40348 -17093925.07548  20503648.5914   20503654.8144   20503647.989
        53.0004         48.0004
 -21066840.39549 -16402606.03348  20031009.6544   20031016.7944   20031009.600
        54.0004         49.0004
 -24125292.32748 -18315381.84347  21241806.1934   21241814.8894   21241805.792
        51.0004         47.0004
  -4099169.36747  -3162034.47946  23917107.4734   23917122.3144   23917106.602
        44.0004         39.0004
  -9003069.89647  -7003020.47846  23997362.1604   23997374.1264   23997363.279
        43.0004         38.0004
 -26211308.12749 -20383251.18948  19929311.2394   19929318.5784   19929311.442
        54.0004         49.0004
  -4950503.04347  -3821431.69746  23583934.9104   23583947.5144   23583935.552
        44.0004         39.0004
 -12752964.96148  -9877566.31047  22642734.1884   22642743.6274   22642732.348
        49.0004         44.0004
  -4555905.23346  -3486750.90446  23657114.1954   23657125.9474   23657114.108
        41.0004         36.0004
 14  5 15  0  7  0.0000000  0 12G26G02G13G07G09G04G01G10G08G28G17G20
   -833397.37246   -628503.36946  24087933.1074   24087950.0084   24087932.753
        41.0004         36.0004
  -2075395.96647  -1559376.11746  23967234.2654   23967243.4514   23967234.764
        42.0004         38.0004
  15602386.26346  12151673.02946  24213017.1034   24213026.5074   24213016.888
        41.0004         36.0004
 -21906911.63148 -17056018.45548  20512905.2674   20512911.8014   20512905.115
        53.0004         48.0004
 -21084757.13149 -16416567.04548  20027600.4454   20027607.4974   20027600.248
        54.0004         49.0004
 -24195131.15348 -18369801.61147  21228516.0674   21228524.3344   21228516.083
        51.0004         46.0004
  -3997957.72747  -3083168.34446  23936367.3884   23936382.7074   23936367.002
        44.0004         39.0004
  -9060424.95147  -7047712.51446  23986446.7694   23986459.3984   23986448.893
        43.0004         38.0004
 -26229698.78949 -20397581.49948  19925811.5734   19925819.0844   19925811.776
        54.0004         49.0004
  -5000203.92947  -3860159.45146  23574476.7204   23574488.2324   23574478.006
        44.0004         39.0004
 -12710786.23148  -9844699.74547  22650759.7444   22650768.3994   22650758.760
        49.0004         44.0004
  -4544352.57046  -3477748.76246  23659311.0194   23659321.5034   23659312.657
        41.0004         36.0004
 14  5 15  0  7 30.0000000  0 12G26G02G13G07G09G04G01G10G08G28G17G20
   -844735.93846   -637338.44846  24085775.7634   24085790.7894   24085775.600
        41.0004         36.0004
  -2168141.88547  -1631645.42246  23949584.7364   23949594.3974   23949584.691
        42.0004         38.0004
  15674034.31846  12207502.82346  24226652.0414   24226659.0034   24226651.167
        40.0004         36.0004
 -21857718.06948 -17017685.76248  20522266.7904   20522273.3034   20522266.385
        53.0004         48.0004
 -21102067.79649 -16430055.79148  20024305.8814   20024313.1554   20024305.899
        54.0004         49.0004
 -24264558.76448 -18423900.95747  21215304.4944   21215312.4834   21215304.085
        51.0004         46.0004
  -3896567.57747  -3004163.09546  23955661.7234   23955676.2364   23955661.041
        44.0004         39.0004
  -9117989.16447  -7092567.53846  23975493.0164   23975505.6584   23975494.664
        43.0004         38.0004
 -26247444.60149 -20411409.32948  19922434.4714   19922442.1284   19922435.023
        54.0004         49.0004
  -5050095.96747  -3899036.16046  23564983.5364   23564994.9544   23564983.487
        44.0004         39.0004
 -12668564.73848  -9811799.85747  22658794.8374   22658803.4864   22658793.711
        49.0004         44.0004
  -4532546.93146  -3468549.50446  23661557.4744   23661568.3804   23661558.556
        41.0004         36.0004
 14  5 15  0  8  0.0000000  0 12G26G02G13G07G09G04G01G10G08G28G17G20
   -855748.47446   -645919.49346  24083681.1504   24083695.3214   24083679.507
        41.0004         37.0004
  -2260717.28747  -1703781.85846  23931968.6784   23931979.0114   23931968.771
        42.0004         38.0004
  15745482.12746  12263176.59545  24240247.0504   24240254.8704   24240247.162
        40.0004         35.0004
 -21807982.03348 -16978930.34948  20531731.2504   20531737.5734   20531730.633
        53.0004         48.0004
 -21118773.88849 -16443073.44548  20021126.9054   20021134.0794   20021126.813
        54.0004         49.0004
 -24333575.24048 -18477679.93747  21202170.9744   21202179.4514   21202170.773
        51.0004         46.0004
  -3795003.85247  -2925022.59646  23974987.7464   23975002.7304   23974987.886
        43.0004         39.0004
  -9175764.24647  -7137586.85946  23964499.9654   23964510.9394   23964499.765
        43.0004         38.0004
 -26264546.57449 -20424735.47348  19919180.0294   19919187.5354   19919180.294
        54.0004         49.0004
  -5100179.73347  -3938062.24846  23555453.6874   23555463.7924   23555452.733
        44.0004         39.0004
 -12626305.08548  -9778870.22947  22666835.9684   22666845.3794   22666835.490
        49.0004         44.0004
  -4520489.02346  -3459153.66846  23663852.8514   23663863.4474   23663853.762
        41.0004         36.0004
 14  5 15  0  8 30.0000000  0 12G26G02G13G07G09G04G01G10G08G28G17G20
   -866431.84346   -654244.05046  24081647.9924   24081661.1614   24081646.461
        41.0004         37.0004
  -2353115.29347  -1775780.06146  23914385.3284   23914395.1604   23914386.629
        42.0004         38.0004
  15816732.77446  12318696.74245  24253804.1554   24253814.1694   24253805.353
        40.0004         35.0004
 -21757700.90248 -16939750.20148  20541299.4414   20541306.2294   20541298.917
        53.0004         48.0004
 -21134870.33949 -16455616.05548  20018063.6604   20018070.9284   20018063.743
        54.0004         49.0004
 -24402173.66548 -18531133.15647  21189117.1264   21189125.3514   21189116.991
        51.0004         47.0004
  -3693264.87647  -2845745.53346  23994349.0154   23994363.0544   23994348.337
        43.0004         39.0004
  -9233744.33847  -7182765.93446  23953464.9064   23953477.8714   23953466.361
        43.0004         38.0004
 -26280999.02849 -20437555.49348  19916049.4254   19916056.7144   19916049.501
        54.0004         49.0004
  -5150449.30547  -3977233.13646  23545886.6764   23545898.4854   23545885.748
        44.0004         39.0004
 -12584005.35648  -9745909.37047  22674884.3564   22674894.0724   22674884.139
        49.0004         44.0004
  -4508172.77646  -3449556.52046  23666196.1414   23666208.7994   23666198.100
        41.0004         36.0004
 14  5 15  0  9  0.0000000  0 12G26G02G13G07G09G04G01G10G08G28G17G20
   -876791.52746   -662316.36446  24079675.4394   24079690.6464   24079674.769
        41.0004         37.0004
  -2445337.29047  -1847641.11146  23896835.5954   23896846.3514   23896835.878
        42.0004         38.0004
  15887781.09846  12374059.20645  24267326.4544   24267335.1414   24267325.219
        40.0004         35.0004
 -21706880.48348 -16900149.82648  20550970.1274   20550976.8454   20550969.416
        53.0004         48.0004
 -21150360.53149 -16467686.25548  20015115.9094   20015123.1534   20015115.809
        54.0004         49.0004
 -24470355.92448 -18584262.09847  21176142.6504   21176150.3554   21176142.353
        51.0004         47.0004
  -3591357.15547  -2766337.00546  24013741.4294   24013756.2684   24013741.030
        43.0004         39.0004
  -9291932.32947  -7228107.01146  23942392.9524   23942404.9474   23942393.285
        43.0004         39.0004
 -26296804.79049 -20449871.60048  19913041.3184   19913048.8744   19913041.758
        54.0004         49.0004
  -5200906.81547  -4016550.46246  23536284.1504   23536295.3244   23536284.365
        44.0004         40.0004
 -12541671.77048  -9712922.13747  22682940.0664   22682950.1714   22682940.237
        49.0004         44.0004
  -4495600.73646  -3439760.08046  23668590.1484   23668599.9404   23668590.509
        41.0004         36.0004
 14  5 15  0  9 30.0000000  0 12G26G02G13G07G09G04G01G10G08G28G17G20
   -886826.30746   -670135.52846  24077764.3894   24077782.1254   24077765.523
        41.0004         37.0004
  -2537378.75347  -1919361.47846  23879320.3534   23879331.8644   23879319.963
        43.0004         38.0004
  15958628.14646  12429264.83846  24280808.6904   24280814.7524   24280807.511
        40.0004         36.0004
 -21655519.72948 -16860128.41148  20560743.8914   20560749.8854   20560743.259
        53.0004         48.0004
 -21165241.27749 -16479281.56748  20012284.6634   20012291.3974   20012284.568
        54.0004         49.0004
 -24538116.63548 -18637062.55247  21163247.8044   21163256.2394   21163247.626
        51.0004         47.0004
  -3489280.67047  -2686796.96646  24033166.6694   24033179.8874   24033165.569
        44.0004         39.0004
  -9350324.56747  -7273607.24346  23931280.9434   23931291.8284   23931281.566
        43.0004         39.0004
 -26311960.29849 -20461681.01348  19910157.1874   19910164.8134   19910157.530
        54.0004         49.0004
  -5251548.29147  -4056011.14346  23526647.5034   23526657.7574   23526647.917
        44.0004         40.0004
 -12499304.10948  -9679908.34647  22691003.4274   22691012.8194   22691002.755
        49.0004         44.0004
  -4482768.65646  -3429760.99346  23671031.1734   23671041.9904   23671031.024
        41.0004         36.0004
 14  5 15  0 10  0.0000000  0 12G26G02G13G07G09G04G01G10G08G28G17G20
   -896541.10846   -677705.36146  24075916.8334   24075932.6774   24075916.044
        41.0004         36.0004
  -2629240.46247  -1990941.78946  23861840.2814   23861850.0434   23861840.552
        43.0004         38.0004
  16029269.13446  12484309.87645  24294250.9774   24294256.7454   24294249.561
        40.0004         35.0004
 -21603623.85048 -16819690.01348  20570618.8934   20570625.1304   20570618.216
        53.0004         48.0004
 -21179515.53649 -16490404.28648  20009567.9524   20009575.1794   20009567.835
        54.0004         50.0004
 -24605457.33648 -18689535.72947  21150433.5604   21150441.0314   21150433.448
        51.0004         47.0004
  -3387041.51947  -2607130.17546  24052620.6754   24052636.7034   24052621.318
        43.0004         39.0004
  -9408923.52447  -7319268.55446  23920130.4464   23920142.1064   23920130.255
        43.0004         39.0004
 -26326467.85849 -20472985.53548  19907396.8864   19907404.0884   19907396.966
        54.0004         49.0004
  -5302375.41847  -4095616.47146  23516974.9044   23516986.5964   23516975.397
        45.0004         40.0004
 -12456908.15548  -9646872.50747  22699070.1654   22699081.0534   22699070.084
        49.0004         44.0004
  -4469678.64846  -3419560.91846  23673520.0894   23673531.5934   23673521.994
        41.0004         36.0004
 14  5 15  0 10 30.0000000  0 12G26G02G13G07G09G04G01G10G08G28G17G20
   -905932.11246   -685022.87646  24074127.7094   24074145.1344   24074129.600
        41.0004         36.0004
  -2720914.79247  -2062376.07946  23844395.3174   23844404.6874   23844395.556
        43.0004         38.0004
  16099708.19846  12539197.58446  24307654.7474   24307660.7804   24307653.750
        40.0004         36.0004
 -21551189.36548 -16778831.92548  20580597.2954   20580603.1594   20580596.670
        53.0004         48.0004
 -21193177.56749 -16501049.95348  20006968.0614   20006975.1244   20006968.017
        54.0004         49.0004
 -24672370.22248 -18741675.54047  21137700.3154   21137708.1344   21137700.026
        51.0004         47.0004
  -3284637.00947  -2527334.51746  24072108.7654   24072123.8654   24072108.424
        43.0004         39.0004
  -9467722.80247  -7365085.94846  23908940.6844   23908951.9724   23908941.024
        43.0004         39.0004
 -26340321.08349 -20483780.18248  19904760.3864   19904767.5024   19904760.666
        54.0004         49.0004
  -5353381.48147  -4135361.24146  23507269.2584   23507278.9954   23507268.963
        45.0004         40.0004
 -12414481.17148  -9613812.50347  22707143.8194   22707153.2064   22707144.110
        49.0004         44.0004
  -4456323.62146  -3409154.36146  23676063.1934   23676075.1574   23676062.909
        41.0004         36.0004
 14  5 15  0 11  0.0000000  0 12G26G02G13G07G09G04G01G10G08G28G17G20
   -915005.73046   -692093.07646  24072402.0084   24072417.6594   24072402.360
        41.0004         36.0004
  -2812404.37947  -2133666.41546  23826985.4554   23826995.8614   23826985.784
        43.0004         38.0004
  16169939.35346  12593923.28846  24321017.5214   24321026.1154   24321017.935
        40.0004         36.0004
 -21498223.33848 -16737559.64948  20590676.0854   20590682.4354   20590675.546
        53.0004         48.0004
 -21206231.74849 -16511221.96948  20004483.6414   20004491.0504   20004483.802
        54.0004         49.0004
 -24738858.14648 -18793484.20547  21125048.3174   21125055.6854   21125047.817
        51.0004         47.0004
  -3182074.70647  -2447415.90746  24091625.7574   24091639.8644   24091625.199
        44.0004         39.0004
  -9526726.38847  -7411062.54746  23897713.2114   23897724.8944   23897712.799
        43.0004         39.0004
 -26353523.85749 -20494067.98648  19902248.1904   19902255.1814   19902248.417
        54.0004         49.0004
  -5404569.35747  -4175247.68946  23497527.5214   23497539.5924   23497528.405
        45.0004         40.0004
 -12372030.28048  -9580733.85847  22715222.6254   22715231.9814   22715222.345
        49.0004         44.0004
  -4442707.42846  -3398544.28146  23678655.9954   23678664.2794   23678655.124
        41.0004         37.0004
 14  5 15  0 11 30.0000000  0 12G26G02G13G07G09G04G01G10G08G28G17G20
   -923760.88346   -698915.13246  24070736.4314   24070752.5424   24070737.640
        41.0004         36.0004
  -2903704.17547  -2204808.86546  23809610.6454   23809620.8554   23809611.596
        43.0004         39.0004
  16239963.99446  12648488.06245  24334343.8674   24334351.0924   24334342.950
        40.0004         35.0004
 -21444725.12248 -16695872.68148  20600856.7164   20600862.2534   20600856.147
        53.0004         48.0004
 -21218674.98949 -16520917.92548  20002115.8234   20002122.8074   20002115.616
        54.0004         49.0004
 -24804915.77948 -18844957.57947  21112477.5564   21112485.7264   21112477.196
        52.0004         47.0004
  -3079354.58547  -2367374.32546  24111172.7194   24111188.2124   24111172.230
        44.0004         39.0004
  -9585930.26247  -7457195.21446  23886446.7914   23886458.2554   23886446.908
        43.0004         39.0004
 -26366072.79849 -20503846.31148  19899860.2074   19899867.4494   19899860.271
        54.0004         49.0004
  -5455934.88647  -4215272.57146  23487753.0384   23487764.7054   23487753.346
        45.0004         40.0004
 -12329555.09648  -9547636.28547  22723305.8604   22723315.3284   22723304.722
        49.0004         44.0004
  -4428825.83446  -3387727.39446  23681296.6834   23681308.0264   23681295.757
        41.0004         36.0004
 14  5 15  0 12  0.0000000  0 12G26G02G13G07G09G04G01G10G08G28G17G20
   -932201.07346   -705491.74046  24069130.6864   24069144.8244   24069129.754
        41.0004         37.0004
  -2994814.00047  -2275803.27846  23792273.1434   23792282.9154   23792273.101
        43.0004         38.0004
  16309778.77746  12702889.30645  24347628.8654   24347638.2984   24347628.415
        40.0004         35.0004
 -21390698.42148 -16653773.90248  20611137.2324   20611143.8864   20611136.764
        53.0004         48.0004
 -21230509.04449 -16530139.19348  19999863.8314   19999870.8014   19999863.818
        54.0004         50.0004
 -24870543.23748 -18896095.74547  21099988.8094   21099996.9964   21099988.569
        52.0004         47.0004
  -2976481.31147  -2287213.41146  24130748.6334   24130764.0144   24130748.201
        44.0004         39.0004
  -9645335.30147  -7503484.64046  23875142.9064   23875152.4034   23875142.565
        43.0004         39.0004
 -26377968.87149 -20513115.90448  19897595.9804   19897603.4154   19897596.495
        54.0004         49.0004
  -5507478.41447  -4255436.14146  23477944.5694   23477954.7984   23477944.702
        45.0004         40.0004
 -12287059.90448  -9514523.12047  22731391.9364   22731401.1114   22731391.623
        49.0004         44.0004
  -4414679.33346  -3376704.10346  23683987.0364   23683998.8134   23683989.057
        41.0004         37.0004
 14  5 15  0 12 30.0000000  0 12G26G02G13G07G09G04G01G10G08G28G17G20
   -940326.31446   -711822.92846  24067585.3214   24067598.6184   24067584.620
        41.0004         37.0004
  -3085729.93947  -2346646.61446  23774971.8264   23774980.6594   23774972.084
        43.0004         39.0004
  16379383.84646  12757127.13646  24360874.6244   24360884.6164   24360874.088
        40.0004         36.0004
 -21336143.74148 -16611263.71448  20621518.7974   20621525.3774   20621518.150
        53.0004         48.0004
 -21241731.60949 -16538883.97448  19997728.2104   19997735.4784   19997728.061
        54.0004         49.0004
 -24935736.80448 -18946895.80547  21087583.3234   21087590.9054   21087582.573
        52.0004         47.0004
  -2873455.97647  -2206934.01246  24150353.5064   24150368.2984   24150352.986
        44.0004         39.0004
  -9704938.95347  -7549928.81946  23863799.5804   23863810.1144   23863800.526
        43.0004         39.0004
 -26389209.79149 -20521874.99348  19895456.7834   19895464.2604   19895457.524
        54.0004         49.0004
  -5559196.81747  -4295735.98446  23468102.8714   23468113.9884   23468103.110
        45.0004         40.0004
 -12244545.66948  -9481395.10247  22739482.1044   22739492.2124   22739481.801
        49.0004         44.0004
  -4400265.20546  -3365472.27246  23686731.9984   23686739.9604   23686731.511
        41.0004         36.0004
 14  5 15  0 13  0.0000000  0 12G26G02G13G07G09G04G01G10G08G28G17G20
   -948138.39247   -717910.11446  24066098.4034   24066112.8304   24066097.176
        42.0004         37.0004
  -3176449.58347  -2417336.99346  23757707.8444   23757717.2364   23757708.982
        43.0004         38.0004
  16448777.98946  12811200.59946  24374080.3224   24374088.3704   24374079.437
        40.0004         36.0004
 -21281063.25848 -16568343.81148  20631999.9544   20632006.2984   20631999.539
        53.0004         48.0004
 -21252342.60249 -16547152.20448  19995708.8874   19995716.0014   19995708.863
        54.0004         49.0004
 -25000494.10348 -18997355.91847  21075260.0214   21075267.5654   21075259.857
        52.0004         47.0004
  -2770281.42947  -2126538.34346  24169987.6214   24170001.8094   24169986.407
        43.0004         39.0004
  -9764740.22547  -7596526.99046  23852419.4514   23852431.5744   23852420.697
        44.0004         39.0004
 -26399794.76349 -20530122.95348  19893443.0164   19893450.1454   19893443.165
        54.0004         49.0004
  -5611088.44447  -4336170.81146  23458228.1254   23458238.3814   23458228.399
        45.0004         40.0004
 -12202014.99748  -9448254.28247  22747575.7844   22747583.7634   22747574.712
        49.0004         44.0004
  -4385582.00546  -3354030.76746  23689525.1674   23689535.4544   23689526.201
        41.0004         36.0004
 14  5 15  0 13 30.0000000  0 12G26G02G13G07G09G04G01G10G08G28G17G20
   -955639.02847   -723754.58246  24064670.5704   24064684.5534   24064669.824
        42.0004         37.0004
  -3266971.04147  -2487872.93046  23740482.9024   23740492.9084   23740483.380
        43.0004         39.0004
  16517959.63646  12865108.46846  24387245.5584   24387250.1104   24387243.381
        40.0004         36.0004
 -21225459.09848 -16525015.84748  20642580.9684   20642587.3334   20642580.856
        53.0004         48.0004
 -21262341.77849 -16554943.68848  19993806.0454   19993813.4684   19993806.122
        54.0004         49.0004
 -25064813.36248 -19047474.70147  21063020.1164   21063027.7324   21063019.653
        52.0004         47.0004
  -2666960.42647  -2046028.54546  24189648.4954   24189664.1594   24189647.839
        43.0004         38.0004
  -9824738.21047  -7643278.44946  23841001.1854   23841013.2144   23841003.036
        44.0004         39.0004
 -26409723.00949 -20537859.17848  19891553.4694   19891560.6974   19891553.647
        54.0004         49.0004
  -5663151.91447  -4376739.55346  23448320.8244   23448331.3264   23448321.057
        45.0004         41.0004
 -12159470.19448  -9415102.46247  22755671.3174   22755680.4284   22755670.894
        49.0004         44.0004
  -4370628.44246  -3342378.59446  23692371.8254   23692378.7084   23692371.571
        41.0004         36.0004
 14  5 15  0 14  0.0000000  0 12G26G02G13G07G09G04G01G10G08G28G17G20
   -962830.23147   -729357.96746  24063301.5024   24063315.8004   24063301.045
        42.0004         37.0004
  -3357292.35447  -2558252.92846  23723294.6694   23723303.8314   23723295.409
        43.0004         38.0004
  16586927.12646  12918849.46045  24400366.5834   24400376.2764   24400367.848
        40.0004         35.0004
 -21169333.49448 -16481281.55848  20653261.4684   20653267.3634   20653261.294
        53.0004         48.0004
 -21271729.52549 -16562258.73848  19992019.5254   19992026.9674   19992019.738
        54.0004         49.0004
 -25128692.71148 -19097250.69547  21050864.4254   21050871.7664   21050863.747
        52.0004         47.0004
  -2563496.08047  -1965407.06646  24209336.9384   24209352.8014   24209336.384
        43.0004         38.0004
  -9884932.05347  -7690182.52346  23829547.8754   23829558.2524   23829548.153
        44.0004         39.0004
 -26418994.30449 -20545083.49548  19889788.9444   19889796.5574   19889789.439
        54.0004         49.0004
  -5715385.67347  -4417440.99046  23438380.6504   23438390.3244   23438380.958
        45.0004         41.0004
 -12116913.98148  -9381941.73847  22763770.3204   22763779.3264   22763768.888
        49.0004         44.0004
  -4355403.74646  -3330515.17246  23695267.2964   23695278.0964   23695267.688
        40.0004         36.0004
 14  5 15  0 14 30.0000000  0 12G26G02G13G07G09G04G01G10G08G28G17G20
   -969711.14447   -734719.54246  24061992.3014   24062005.9864   24061991.950
        42.0004         37.0004
  -3447408.67747  -2628473.18846  23706146.7984   23706154.6464   23706146.286
        43.0004         38.0004
  16655682.02146  12972424.79245  24413451.2794   24413460.2114   24413451.747
        40.0004         35.0004
 -21112686.04448 -16437140.64148  20664040.8704   20664047.3014   20664040.276
        53.0004         48.0004
 -21280503.31649 -16569095.38348  19990350.1374   19990356.8844   19990349.851
        54.0004         49.0004
 -25192127.85848 -19146680.55547  21038793.2744   21038800.7454   21038792.890
        52.0004         47.0004
  -2459888.49047  -1884673.94946  24229053.7074   24229067.9914   24229052.598
        43.0004         38.0004
  -9945318.24447  -7737236.47846  23818056.7504   23818066.8264   23818056.621
        43.0004         39.0004
 -26427605.39949 -20551793.36648  19888150.5344   19888157.5744   19888150.701
        54.0004         49.0004
  -5767785.51447  -4458271.84546  23428409.1604   23428419.8044   23428409.668
        45.0004         41.0004
 -12074346.35848  -9348772.12947  22771869.9794   22771879.7094   22771869.156
        49.0004         44.0004
  -4339904.01746  -3318437.42746  23698217.6404   23698226.3674   23698218.050
        40.0004         36.0004
 14  5 15  0 15  0.0000000  0 12G26G02G13G07G09G04G01G10G08G28G17G20
   -976287.33147   -739843.69946  24060740.8824   24060755.2344   24060740.854
        42.0004         38.0004
  -3537321.86147  -2698535.16546  23689035.4254   23689044.8934   23689036.283
        43.0004         39.0004
  16724219.17146  13025830.46145  24426495.6784   24426501.3774   24426493.981
        40.0004         35.0004
 -21055523.13648 -16392598.06948  20674919.0574   20674924.9944   20674918.621
        53.0004         48.0004
 -21288666.75849 -16575456.42948  19988796.3054   19988803.7004   19988796.336
        54.0004         49.0004
 -25255120.26048 -19195765.43147  21026805.5264   21026813.5004   21026805.378
        52.0004         47.0004
  -2356144.34147  -1803834.42746  24248794.4194   24248810.7924   24248794.631
        42.0004         38.0004
 -10005899.48147  -7784442.41546  23806527.2264   23806538.6264   23806528.503
        43.0004         39.0004
 -26435559.62349 -20557991.40048  19886636.7704   19886643.7254   19886637.025
        54.0004         49.0004
  -5820353.91247  -4499234.05346  23418404.2604   23418416.4564   23418406.607
        45.0004         41.0004
 -12031773.65448  -9315598.56047  22779970.6574   22779982.0064   22779970.446
        49.0004         44.0004
  -4324131.94646  -3306147.47146  23701219.6154   23701226.8854   23701219.040
        40.0004         36.0004
 14  5 15  0 15 30.0000000  0 12G26G02G13G07G09G04G01G10G08G28G17G20
   -982558.94047   -744730.51046  24059546.9174   24059560.7684   24059546.876
        42.0004         38.0004
  -3627027.76247  -2768435.61446  23671965.1954   23671974.2854   23671966.316
        43.0004         39.0004
  16792538.49446  13079066.38246  24439494.1264   24439502.6484   24439493.679
        40.0004         36.0004
 -20997845.21748 -16347654.19148  20685894.3384   20685900.3804   20685893.904
        53.0004         48.0004
 -21296217.87349 -16581340.34748  19987359.3984   19987365.9924   19987359.508
        54.0004         49.0004
 -25317666.29548 -19244502.49247  21014903.4114   21014911.1304   21014903.244
        52.0004         47.0004
  -2252264.65547  -1722889.27646  24268562.0124   24268578.3124   24268562.325
        42.0004         37.0004
 -10066672.98447  -7831798.17946  23794962.1044   23794972.7554   23794963.384
        43.0004         39.0004
 -26442854.65749 -20563675.77148  19885248.3844   19885255.4844   19885248.770
        54.0004         49.0004
  -5873087.49447  -4540324.97246  23408370.8374   23408380.5874   23408370.969
        45.0004         40.0004
 -11989196.47248  -9282421.49847  22788073.3204   22788083.3144   22788072.543
        49.0004         44.0004
  -4308084.37246  -3293642.83346  23704271.9294   23704282.3084   23704272.970
        40.0004         36.0004
 14  5 15  0 16  0.0000000  0 12G26G02G13G07G09G04G01G10G08G28G17G20
   -988523.91347   -749378.37646  24058412.5494   24058425.9234   24058411.889
        43.0004         38.0004
  -3716520.66847  -2838170.09746  23654934.6334   23654944.1194   23654936.220
        43.0004         39.0004
  16860642.68946  13132134.68245  24452453.7504   24452462.5214   24452453.094
        40.0004         35.0004
 -20939650.72448 -16302307.78648  20696968.8254   20696974.8044   20696968.342
        53.0004         48.0004
 -21303152.88549 -16586744.17648  19986039.6044   19986046.5824   19986039.738
        54.0004         49.0004
 -25379760.41148 -19292887.40947  21003087.0714   21003095.3654   21003087.000
        52.0004         47.0004
  -2148248.47547  -1641837.77846  24288357.7314   24288371.0714   24288356.067
        42.0004         37.0004
 -10127634.16947  -7879300.16146  23783362.0674   23783373.1324   23783362.859
        43.0004         39.0004
 -26449486.15249 -20568843.10248  19883986.6304   19883993.3154   19883986.798
        54.0004         49.0004
  -5925980.67247  -4581540.24546  23398305.8724   23398315.6414   23398305.645
        45.0004         40.0004
 -11946613.33548  -9249239.80047  22796176.4734   22796186.0024   22796176.174
        49.0004         44.0004
  -4291756.26846  -3280919.59546  23707378.3074   23707388.8694   23707380.141
        40.0004         36.0004
 14  5 15  0 16 30.0000000  0 12G26G02G13G07G09G04G01G10G08G28G17G20
   -994189.69447   -753793.10746  24057334.1074   24057347.0354   24057333.057
        43.0004         38.0004
  -3805803.88347  -2907741.18846  23637945.1074   23637953.0884   23637945.616
        43.0004         39.0004
  16928524.87646  13185029.96445  24465370.5014   24465378.5064   24465370.832
        40.0004         35.0004
 -20880947.64248 -16256565.07248  20708138.8574   20708145.8524   20708138.590
        53.0004         48.0004
 -21309477.57249 -16591672.43148  19984836.1614   19984842.9254   19984836.125
        54.0004         49.0004
 -25441406.15648 -19340922.95047  20991356.4914   20991364.3844   20991356.065
        52.0004         47.0004
  -2044104.20746  -1560686.46846  24308174.0324   24308189.9914   24308173.565
        41.0004         37.0004
 -10188787.30347  -7926951.73546  23771724.5994   23771734.4994   23771725.316
        43.0004         39.0004
 -26455459.50949 -20573497.60248  19882849.5784   19882856.5594   19882850.176
        54.0004         49.0004
  -5979037.50547  -4622883.03846  23388208.4354   23388219.6074   23388209.198
        45.0004         40.0004
 -11904032.57848  -9216059.94947  22804280.1784   22804288.2164   22804279.028
        49.0004         44.0004
  -4275152.14646  -3267981.30046  23710538.4014   23710548.4494   23710540.206
        40.0004         36.0004
 14  5 15  0 17  0.0000000  0 12G26G02G13G07G09G04G01G10G08G28G17G20
   -999556.92647   -757975.21146  24056313.3114   24056327.4374   24056312.401
        43.0004         38.0004
  -3894874.31447  -2977146.46846  23620995.4604   23621003.9514   23620996.422
        44.0004         39.0004
  16996185.11846  13237752.31845  24478244.9684   24478255.5084   24478245.910
        40.0004         35.0004
 -20821736.76848 -16210426.69148  20719406.8344   20719413.1794   20719406.398
        53.0004         48.0004
 -21315190.68449 -16596124.13548  19983749.0724   19983756.0464   19983749.009
        54.0004         50.0004
 -25502600.41248 -19388606.69347  20979711.7784   20979719.1144   20979710.945
        52.0004         47.0004
  -1939833.45046  -1479436.59646  24328015.7344   24328032.6844   24328016.087
        41.0004         36.0004
 -10250130.05747  -7974751.06646  23760050.9914   23760062.1214   23760051.786
        43.0004         39.0004
 -26460772.89049 -20577637.83248  19881838.3674   19881845.6864   19881838.851
        54.0004         49.0004
  -6032255.00147  -4664351.03046  23378081.9624   23378092.1664   23378082.043
        45.0004         40.0004
 -11861455.36248  -9182882.86047  22812382.0094   22812390.1104   22812380.851
        49.0004         44.0004
  -4258269.86246  -3254826.24745  23713751.5664   23713761.3744   23713751.695
        40.0004         35.0004
 14  5 15  0 17 30.0000000  0 12G26G02G13G07G09G04G01G10G08G28G17G20
  -1004623.80747   -761923.24946  24055347.9634   24055362.3774   24055347.732
        43.0004         38.0004
  -3983725.99647  -3046381.29946  23604087.7034   23604095.0554   23604087.256
        44.0004         39.0004
  17063625.96046  13290303.69745  24491081.3194   24491088.3714   24491079.532
        40.0004         35.0004
 -20762016.76848 -16163891.57748  20730770.9804   20730777.4824   20730770.331
        52.0004         48.0004
 -21320288.72949 -16600096.56448  19982778.7024   19982785.4184   19982778.698
        54.0004         49.0004
 -25563337.25048 -19435934.00647  20968153.4924   20968161.3904   20968153.531
        52.0004         47.0004
  -1835435.18946  -1398087.36346  24347883.8914   24347899.2934   24347882.701
        41.0004         37.0004
 -10311657.69847  -8022694.46646  23748342.9924   23748352.2634   23748343.160
        44.0004         39.0004
 -26465422.50049 -20581260.83848  19880953.6924   19880960.9264   19880953.975
        54.0004         49.0004
  -6085628.04747  -4705940.23046  23367925.1224   23367934.5874   23367925.267
        45.0004         40.0004
 -11818880.31548  -9149707.45947  22820483.1824   22820491.6364   22820482.409
        49.0004         44.0004
  -4241104.61546  -3241450.71346  23717018.6474   23717028.9024   23717018.742
        40.0004         36.0004
 14  5 15  0 18  0.0000000  0 12G26G02G13G07G09G04G01G10G08G28G17G20
  -1009393.50747   -765639.73246  24054440.8674   24054453.6124   24054440.095
        43.0004         38.0004
  -4072358.08447  -3115445.02546  23587220.4304   23587229.7064   23587221.428
        44.0004         39.0004
  17130844.52346  13342681.89245  24503871.3904   24503880.0234   24503871.019
        40.0004         35.0004
 -20701791.58048 -16116962.81748  20742231.6564   20742237.7944   20742231.074
        52.0004         48.0004
 -21324773.31049 -16603590.97148  19981925.2514   19981932.2844   19981925.182
        54.0004         49.0004
 -25623616.51048 -19482904.76947  20956683.0854   20956690.4754   20956682.668
        52.0004         47.0004
  -1730913.70546  -1316642.11946  24367773.1674   24367789.0274   24367772.533
        41.0004         36.0004
 -10373370.62047  -8070782.22046  23736599.9394   23736610.2084   23736599.730
        44.0004         39.0004
 -26469409.20949 -20584367.30248  19880194.9214   19880202.1364   19880195.372
        54.0004         49.0004
  -6139156.30547  -4747650.37046  23357739.3394   23357748.2444   23357739.212
        45.0004         40.0004
 -11776311.24748  -9116536.72147  22828583.5384   22828593.9984   22828583.429
        49.0004         44.0004
  -4223656.44346  -3227854.71946  23720338.6314   23720346.6164   23720339.290
        40.0004         36.0004
 14  5 15  0 18 30.0000000  0 12G26G02G13G07G09G04G01G10G08G28G17G20
  -1013869.27347   -769127.16446  24053587.3104   24053602.2274   24053587.808
        42.0004         38.0004
  -4160769.83447  -3184337.04646  23570395.4574   23570405.0724   23570397.111
        44.0004         39.0004
  17197838.19046  13394884.81445  24516618.7664   24516624.9984   24516619.764
        40.0004         35.0004
 -20641064.87448 -16069643.25548  20753787.3954   20753793.3214   20753787.027
        52.0004         48.0004
 -21328645.78449 -16606608.40748  19981188.3924   19981194.9254   19981188.510
        54.0004         49.0004
 -25683437.68548 -19529518.58647  20945299.5104   20945306.8244   20945298.948
        52.0004         47.0004
  -1626273.09046  -1235104.04246  24387685.5404   24387698.7024   24387684.698
        41.0004         36.0004
 -10435268.87647  -8119014.40746  23724819.8344   23724830.3114   23724820.324
        44.0004         39.0004
 -26472734.06849 -20586958.03948  19879562.3234   19879569.2994   19879562.554
        54.0004         49.0004
  -6192839.48747  -4789481.23446  23347522.6764   23347533.5874   23347523.101
        44.0004         40.0004
 -11733751.92948  -9083373.58047  22836683.0414   22836692.0544   22836682.282
        49.0004         44.0004
  -4205925.34146  -3214038.24646  23723713.0664   23723721.7434   23723713.507
        40.0004         36.0004
 14  5 15  0 19  0.0000000  0 12G26G02G13G07G09G04G01G10G08G28G17G20
  -1018049.31547   -772384.18946  24052792.4954   24052806.4834   24052792.792
        42.0004         37.0004
  -4248955.50047  -3253052.89646  23553615.3124   23553623.7684   23553616.057
        44.0004         39.0004
  17264609.25946  13446914.30645  24529326.9024   24529333.3114   24529326.244
        40.0004         35.0004
 -20579835.18248 -16021931.75948  20765438.7914   20765444.6474   20765438.191
        52.0004         48.0004
 -21331902.64749 -16609146.14948  19980568.4714   19980575.4994   19980568.543
        54.0004         49.0004
 -25742795.26048 -19575771.15647  20934004.0804   20934010.9904   20934003.277
        52.0004         47.0004
  -1521512.52746  -1153472.50446  24407619.5814   24407635.0504   24407619.742
        41.0004         36.0004
 -10497347.79747  -8167387.36746  23713006.6904   23713017.4924   23713007.326
        44.0004         39.0004
 -26475392.93649 -20589029.82148  19879056.2544   19879063.3774   19879056.558
        54.0004         49.0004
  -6246671.88947  -4831428.37146  23337280.6104   23337287.4414   23337278.806
        44.0004         40.0004
 -11691201.09448  -9050217.04747  22844779.7234   22844788.5454   22844779.487
        49.0004         44.0004
  -4187907.08746  -3199998.03646  23727139.5364   23727149.9144   23727142.047
        41.0004         36.0004
 14  5 15  0 19 30.0000000  0 12G26G02G13G07G09G04G01G10G08G28G17G20
  -1021940.04247   -775415.76746  24052050.9014   24052065.5914   24052051.441
        42.0004         38.0004
  -4336917.78147  -3321594.69146  23536876.8164   23536884.0404   23536876.336
        44.0004         39.0004
  17331152.27046  13498766.07745  24541987.1224   24541999.3904   24541988.237
        40.0004         35.0004
 -20518109.63648 -15973833.88648  20777184.9064   20777190.7354   20777184.405
        52.0004         48.0004
 -21334548.64349 -16611207.89048  19980064.8944   19980071.6274   19980064.676
        54.0004         49.0004
 -25801691.75648 -19621664.44847  20922796.4574   20922803.6034   20922795.757
        52.0004         47.0004
  -1416639.23146  -1071753.13146  24427577.4394   24427593.7184   24427576.240
        41.0004         36.0004
 -10559611.09747  -8215904.00746  23701158.7174   23701168.4654   23701159.274
        44.0004         39.0004
 -26477390.33049 -20590586.16948  19878675.9284   19878683.1654   19878676.348
        54.0004         49.0004
  -6300656.67347  -4873494.24846  23327005.3074   23327015.2174   23327005.847
        44.0004         40.0004
 -11648665.77348  -9017072.59947  22852873.6124   22852883.7024   22852873.701
        49.0004         44.0004
  -4169604.50246  -3185736.24946  23730624.1384   23730631.1814   23730624.168
        40.0004         36.0004
 14  5 15  0 20  0.0000000  0 12G26G02G13G07G09G04G01G10G08G28G17G20
  -1025540.64147   -778221.27846  24051365.7114   24051380.9854   24051366.762
        42.0004         38.0004
  -4424651.55347  -3389958.43046  23520180.4274   23520189.4414   23520180.910
        44.0004         39.0004
  17397468.86846  13550441.41445  24554606.5114   24554615.1954   24554608.481
        40.0004         35.0004
 -20455888.01348 -15925349.45848  20789025.4174   20789031.1764   20789024.623
        52.0004         48.0004
 -21336581.41049 -16612791.79948  19979677.8324   19979685.3554   19979677.928
        54.0004         49.0004
 -25860122.69348 -19667194.96447  20911677.0274   20911684.2884   20911676.568
        52.0004         47.0004
  -1311653.34146   -989945.99946  24447554.6874   24447569.9384   24447554.670
        41.0004         36.0004
 -10622054.64047  -8264561.10946  23689275.8504   23689285.7374   23689275.615
        44.0004         39.0004
 -26478723.42149 -20591624.87748  19878422.0414   19878429.4324   19878422.593
        54.0004         49.0004
  -6354789.37147  -4915675.38846  23316703.8554   23316713.6034   23316704.906
        44.0004         40.0004
 -11606145.66648  -8983940.00447  22860965.5524   22860974.9854   22860964.723
        49.0004         44.0004
  -4151014.07246  -3171250.18345  23734162.2094   23734174.0054   23734162.651
        40.0004         35.0004
 14  5 15  0 20 30.0000000  0 12G26G02G13G07G09G04G01G10G08G28G17G20
  -1028851.12647   -780800.73146  24050736.6374   24050751.1084   24050736.084
        42.0004         38.0004
  -4512152.48947  -3458140.72846  23503530.3224   23503537.1754   23503530.653
        44.0004         39.0004
  17463559.41846  13601940.62245  24567186.8694   24567194.0554   24567184.612
        40.0004         35.0004
 -20393170.74448 -15876478.81248  20800959.8734   20800965.6384   20800959.706
        52.0004         48.0004
 -21337999.19149 -16613896.49448  19979408.0804   19979414.9554   19979408.286
        54.0004         50.0004
 -25918084.33448 -19712359.78747  20900646.9354   20900654.4294   20900646.447
        52.0004         47.0004
  -1206555.69346   -908051.79346  24467554.1464   24467570.5834   24467554.309
        41.0004         36.0004
 -10684675.20947  -8313356.12946  23677358.5994   23677369.1214   23677359.385
        44.0004         39.0004
 -26479389.93849 -20592144.18248  19878295.4724   19878302.4754   19878295.804
        54.0004         49.0004
  -6409066.29747  -4957968.89846  23306375.8964   23306385.3014   23306375.843
        44.0004         40.0004
 -11563641.13748  -8950819.54647  22869053.9774   22869062.4954   22869053.000
        49.0004         44.0004
  -4132132.80346  -3156537.49046  23737752.9104   23737764.2754   23737754.513
        40.0004         36.0004
 14  5 15  0 21  0.0000000  0 12G26G02G13G07G09G04G01G10G08G28G17G20
