     2.11           OBSERVATION DATA    G (GPS)             RINEX VERSION / TYPE
teqc  2008Oct2      gpsops              20090126 00:10:00UTCPGM / RUN BY / DATE
    30.0000                                                 INTERVAL
     1     1                                                WAVELENGTH FACT L1/2
     7    L1    L2    P1    P2    C1    S1    S2            # / TYPES OF OBSERV
Linux 2.4.20-8|Pentium IV|gcc -static|Linux|486/DX+         COMMENT
     2.10           OBSERVATION DATA    GPS                 COMMENT
soc2rnx ver 1.20    gpsops              26-Jan-2009 00:09:56COMMENT
S1, if present, is the SNR for the C/A data stream on L1.   COMMENT
 SNR is mapped to RINEX snr flag value [1,4-9]              COMMENT
    SNR:   >316  >100  >31.6  >10  >3.2    >0 bad=0         COMMENT
L1 & L2:      9     8     7     6     5     4     1         COMMENT
                                                            COMMENT
This data is provided as a public service by NASA/JPL.      COMMENT
No warranty is expressed or implied regarding suitability   COMMENT
for use.  For further information, contact:                 COMMENT
Dave Stowers, NASA/JPL m/s 238-600                          COMMENT
4800 Oak Grove Drive, Pasadena CA 91109 USA                 COMMENT
                                                            COMMENT
Forced Modulo Decimation to 30 seconds                      COMMENT
  2009     1    25     0     0    0.0000000     GPS         TIME OF FIRST OBS
GGN                 JPL                                     OBSERVER / AGENCY
CR519992104         ASH701945B_M    SCIT                    ANT # / TYPE
   -33801.4662 -6377516.5323   -82154.3508                  APPROX POSITION XYZ
        0.0083        0.0000        0.0000                  ANTENNA: DELTA H/E/N
ZR220013847         ASHTECH UZ-12       CQ00                REC # / TYPE / VERS
GLPS                                                        MARKER NAME
42005M002                                                   MARKER NUMBER
                                                            END OF HEADER
 09  1 25  0  0  0.0000000  0 12G14G 5G 6G30G 9G18G24G22G31G29G21G12
 116537505.73747  90808435.11547  22176358.0854   22176361.0564   22176358.6484
        50.000          44.000
 123827524.27247  96488962.36947  23563605.5194   23563611.2094   23563607.1504
        45.000          39.000
 127017586.67347  98974727.74847  24170653.2884   24170658.3664   24170653.1414
        43.000          37.000
 120966431.95247  94259545.02047  23019155.6124   23019159.4364   23019155.1874
        49.000          42.000
 122337598.80247  95327972.02547  23280094.4304   23280096.7164   23280094.2064
        46.000          39.000
 121781072.74947  94894343.57047  23174166.3344   23174168.0744   23174165.4424
        48.000          41.000
 116721867.51247  90952091.85047  22211440.8744   22211445.7994   22211441.1014
        50.000          44.000
 125173578.13947  97537856.68447  23819734.9754   23819735.3204   23819735.3624
        46.000          39.000
 116945621.90547  91126439.45147  22254027.9054   22254029.9474   22254027.3914
        51.000          45.000
 122595314.28247  95528801.52147  23329124.0904   23329127.9004   23329123.5604
        46.000          41.000
 104896066.01347  81737187.71347  19961062.2254   19961064.1054   19961062.5284
        54.000          49.000
 128250802.90547  99935673.58147  24405329.3964   24405333.5134   24405328.5204
        43.000          38.000
 09  1 25  0  0 30.0000000  0 12G14G 5G 6G30G 9G18G24G22G31G29G21G12
 116568201.14747  90832353.65147  22182199.4604   22182202.1284   22182199.4124
        50.000          44.000
 123818274.73947  96481754.99847  23561846.8604   23561851.2654   23561847.4444
        45.000          39.000
 126985992.19247  98950108.66347  24164640.8704   24164646.7644   24164641.2884
        43.000          37.000
 120939032.39647  94238194.72347  23013941.1764   23013945.3644   23013940.7414
        49.000          42.000
 122430757.85647  95400563.51547  23297821.3834   23297824.3004   23297821.5574
        45.000          39.000
 121747042.08547  94867826.20147  23167689.2654   23167691.1044   23167689.4874
        47.000          40.000
 116785792.09447  91001903.19447  22223605.5964   22223610.3844   22223605.6934
        50.000          43.000
 125137155.72147  97509475.59447  23812804.1934   23812805.2854   23812804.3924
        46.000          39.000
 116854273.98147  91055259.30447  22236644.7704   22236647.3424   22236644.7704
        51.000          45.000
 122668185.90747  95585584.56447  23342990.7204   23342994.6844   23342990.6784
        46.000          41.000
 104886992.88847  81730117.74647  19959335.5614   19959337.5844   19959336.0024
        54.000          49.000
 128255756.17347  99939533.31747  24406271.5684   24406275.6864   24406271.3794
        43.000          38.000
 09  1 25  0  1  0.0000000  0 12G14G 5G 6G30G 9G18G24G22G31G29G21G12
 116599133.80547  90856457.05647  22188085.7554   22188088.6314   22188086.0774
        50.000          44.000
 123809170.69747  96474660.97147  23560113.9704   23560118.9644   23560114.1974
        45.000          39.000
 126954684.21547  98925712.82447  24158683.4744   24158688.2664   24158682.9174
        42.000          37.000
 120911625.53847  94216838.74647  23008726.0454   23008729.9974   23008725.7984
        48.000          42.000
 122524235.56947  95473403.31947  23315609.6504   23315612.6004   23315609.7314
        45.000          39.000
 121712894.21147  94841217.50247  23161190.4394   23161192.6534   23161190.6354
        47.000          40.000
 116850121.65547  91052030.10347  22235847.0534   22235851.7514   22235847.1244
        50.000          43.000
 125100517.42147  97480926.29647  23805832.1654   23805833.1114   23805832.1214
        46.000          39.000
 116763198.39347  90984291.37147  22219313.4584   22219316.1574   22219313.3864
        51.000          45.000
 122740956.96447  95642289.21747  23356838.8924   23356842.8344   23356838.8374
        46.000          41.000
 104878526.20647  81723520.32947  19957724.4184   19957726.4104   19957724.8844
        54.000          49.000
 128260840.44347  99943495.13747  24407238.7834   24407242.5594   24407238.6034
        42.000          38.000
 09  1 25  0  1 30.0000000  0 12G14G 5G 6G30G 9G18G24G22G31G29G21G12
 116630298.66447  90880741.39447  22194016.3194   22194019.0074   22194016.6444
        50.000          44.000
 123800211.26947  96467679.64647  23558409.5254   23558413.7344   23558410.4374
        45.000          39.000
 126923659.08647  98901537.36747  24152780.2724   24152785.0304   24152779.6904
        42.000          37.000
 120884210.82647  94195476.62847  23003509.0344   23003513.1784   23003508.7204
        49.000          42.000
 122618026.46647  95546487.16047  23333457.4434   23333461.0094   23333457.9204
        46.000          40.000
 121678627.85147  94814516.45347  23154670.2894   23154672.0614   23154670.6204
        47.000          40.000
 116914851.61347  91102469.01247  22248164.6194   22248169.3364   22248164.9604
        50.000          43.000
 125063661.93747  97452207.74747  23798818.3994   23798819.5144   23798818.5134
        45.000          39.000
 116672395.39747  90913535.82947  22202034.4024   22202036.8274   22202033.6494
        51.000          45.000
 122813622.79247  95698911.87247  23370666.6404   23370670.7914   23370666.6644
        46.000          41.000
 104870664.08747  81717393.99947  19956228.2374   19956230.3264   19956228.6724
        54.000          49.000
 128266054.80147  99947558.30147  24408231.6734   24408234.8344   24408231.1534
        44.000          38.000
 09  1 25  0  2  0.0000000  0 12G14G 5G 6G30G 9G18G24G22G31G29G21G12
 116661693.72947  90905205.12647  22199990.3504   22199993.0374   22199990.5784
        50.000          44.000
 123791399.60247  96460813.43647  23556732.5074   23556737.3054   23556732.6194
        45.000          39.000
 126892916.98347  98877582.47347  24146928.8794   24146935.0624   24146929.0604
        42.000          37.000
 120856791.06047  94174110.57447  22998290.9314   22998295.2264   22998290.6874
        48.000          42.000
 122712128.64947  95619813.55947  23351365.0364   23351368.2974   23351365.2344
        46.000          40.000
 121644245.19347  94787724.80447  23148127.0114   23148128.9804   23148127.5464
        47.000          40.000
 116979981.27647  91153219.37847  22260558.4464   22260563.2504   22260558.4734
        50.000          43.000
 125026590.32347  97423320.78747  23791763.9984   23791765.1054   23791763.8684
        46.000          39.000
 116581868.66147  90842995.56547  22184807.3964   22184809.9344   22184807.2734
        50.000          45.000
 122886182.63647  95755451.98747  23384474.4824   23384478.1454   23384474.2304
        46.000          41.000
 104863408.05447  81711739.94147  19954847.5324   19954849.4844   19954847.9244
        54.000          49.000
 128271401.96747  99951724.97647  24409249.2534   24409252.6024   24409249.2654
        43.000          38.000
 09  1 25  0  2 30.0000000  0 12G14G 5G 6G30G 9G18G24G22G31G29G21G12
 116693319.46447  90929848.58847  22206008.5234   22206011.4544   22206008.9064
        49.000          44.000
 123782740.93147  96454066.47047  23555084.7804   23555089.6774   23555085.3164
        45.000          39.000
 126862460.12547  98853849.83047  24141133.7214   24141138.3754   24141134.0694
        42.000          37.000
 120829371.62947  94152744.78447  22993073.2974   22993077.5084   22993073.3294
        48.000          42.000
 122806542.75147  95693383.00647  23369331.0964   23369334.4454   23369331.3214
        45.000          40.000
 121609751.67747  94760846.76547  23141562.9524   23141565.4294   23141563.4844
        47.000          40.000
 117045512.20147  91204282.41447  22273028.4414   22273033.5874   22273028.7264
        49.000          43.000
 124989305.35647  97394267.60247  23784669.0554   23784670.1844   23784669.1484
        46.000          40.000
 116491624.13947  90772675.20647  22167634.1684   22167636.8904   22167633.5474
        50.000          45.000
 122958637.77747  95811910.48447  23398262.3194   23398265.7564   23398261.9364
        47.000          41.000
 104856762.24447  81706561.37847  19953583.0894   19953584.8424   19953583.4384
        54.000          49.000
 128276886.82747  99955998.95147  24410292.5394   24410296.2814   24410292.3194
        43.000          38.000
 09  1 25  0  3  0.0000000  0 12G14G 5G 6G30G 9G18G24G22G31G29G21G12
 116725167.93747  90954665.61247  22212068.9204   22212071.9784   22212069.0264
        50.000          44.000
 123774231.77147  96447435.98947  23553465.6204   23553470.2964   23553466.1734
        45.000          39.000
 126832282.19647  98830334.55247  24135391.3174   24135396.1444   24135391.2174
        42.000          37.000
 120801949.05447  94131376.54347  22987854.8834   22987859.3394   22987854.5284
        48.000          42.000
 122901260.28847  95767188.89747  23387355.1134   23387359.1174   23387355.2614
        44.000          39.000
 121575143.33147  94733879.24347  23134977.4984   23134979.5104   23134977.7754
        48.000          40.000
 117111437.10947  91255652.46047  22285573.4374   22285578.6204   22285573.4824
        49.000          43.000
 124951802.89847  97365044.94747  23777532.9544   23777533.7044   23777532.6624
        46.000          40.000
 116401659.46547  90702572.91047  22150514.4644   22150517.0574   22150513.8984
        50.000          45.000
 123030980.76847  95868281.61047  23412028.8914   23412032.4904   23412028.5594
        46.000          41.000
 104850721.87147  81701854.59047  19952433.5004   19952435.3704   19952433.9814
        54.000          49.000
 128282505.84147  99960377.47147  24411362.0214   24411365.4584   24411362.0344
        43.000          38.000
 09  1 25  0  3 30.0000000  0 12G14G 5G 6G30G 9G18G24G22G31G29G21G12
 116757240.61947  90979657.34947  22218172.3654   22218175.1034   22218172.7914
        50.000          44.000
 123765878.20747  96440926.73247  23551875.9214   23551880.4424   23551876.6624
        45.000          39.000
 126802386.27947  98807039.02147  24129702.2364   24129706.9194   24129702.0844
        41.000          37.000
 120774529.31847  94110010.52047  22982637.2184   22982641.5074   22982636.9284
        49.000          42.000
 122996282.52647  95841232.20947  23405437.0484   23405441.1374   23405436.9354
        44.000          38.000
 121540425.40847  94706826.34847  23128370.7024   23128373.0804   23128371.1204
        48.000          41.000
 117177758.36147  91307331.33647  22298194.0824   22298199.2034   22298194.3104
        49.000          43.000
 124914087.53547  97335656.38047  23770355.3884   23770356.8364   23770355.5274
        45.000          40.000
 116311981.46947  90632694.00347  22133449.3644   22133451.9014   22133448.9664
        51.000          45.000
 123103213.98847  95924567.18047  23425774.4344   23425777.9384   23425774.2544
        46.000          41.000
 104845291.41147  81697623.05947  19951399.9864   19951402.0534   19951400.3524
        54.000          49.000
 128288264.64647  99964864.90247  24412457.4584   24412461.0474   24412457.5074
        43.000          38.000
 09  1 25  0  4  0.0000000  0 12G14G 5G 6G30G 9G18G24G22G31G29G21G12
 116789533.82147  91004820.90747  22224317.3664   22224320.5414   22224317.7024
        49.000          44.000
 123757681.26147  96434539.53947  23550315.8914   23550319.9504   23550316.5854
        45.000          39.000
 126772770.47547  98783961.75347  24124066.8054   24124071.4654   24124066.9234
        43.000          37.000
 120747113.37247  94088647.43447  22977420.0724   22977424.3874   22977419.9674
        49.000          42.000
 123091605.86747  95915510.16347  23423576.4954   23423579.7964   23423576.4204
        44.000          38.000
 121505598.19847  94679688.28447  23121743.6324   23121745.6264   23121744.0354
        48.000          41.000
 117244472.90047  91359316.67047  22310889.2274   22310894.2774   22310889.3614
        49.000          43.000
 124876158.33747  97306101.21147  23763137.5254   23763138.9444   23763137.7084
        46.000          39.000
 116222591.85747  90563039.80147  22116439.1004   22116441.7984   22116438.5914
        51.000          45.000
 123175334.25747  95980764.74047  23439498.3414   23439502.2274   23439498.0214
        46.000          41.000
 104840470.53547  81693866.52747  19950482.5574   19950484.8494   19950482.9424
        54.000          49.000
 128294164.09847  99969461.91847  24413580.5174   24413584.1354   24413580.4524
        43.000          38.000
 09  1 25  0  4 30.0000000  0 12G14G 5G 6G30G 9G18G24G22G31G29G21G12
 116822043.88347  91030153.45747  22230504.0134   22230506.7854   22230504.3034
        50.000          44.000
 123749642.24047  96428275.41447  23548785.5914   23548791.1784   23548786.0844
        45.000          39.000
 126743432.99447  98761101.38147  24118484.1284   24118489.3064   24118483.7004
        43.000          37.000
 120719702.89747  94067288.63547  22972204.1054   22972208.1904   22972203.7584
        49.000          42.000
 123187226.91547  95990020.08747  23441772.1974   23441776.5094   23441772.3884
        44.000          38.000
 121470662.77747  94652465.88547  23115095.5324   23115097.5344   23115096.0304
        48.000          41.000
 117311578.22747  91411606.50947  22323659.1824   22323664.1114   22323659.1504
        49.000          43.000
 124838015.03847  97276379.20547  23755879.1974   23755880.5624   23755879.6794
        46.000          39.000
 116133492.78347  90493611.99147  22099484.0264   22099486.6254   22099483.7374
        51.000          45.000
 123247339.11847  96036872.37247  23453200.0614   23453204.3774   23453199.9904
        46.000          41.000
 104836259.04047  81690584.83747  19949681.2984   19949683.4984   19949681.6234
        54.000          50.000
 128300205.43647  99974169.49447  24414729.8604   24414733.5414   24414729.7564
        43.000          38.000
 09  1 25  0  5  0.0000000  0 12G14G 5G 6G30G 9G18G24G22G31G29G21G12
 116854771.04647  91055655.17347  22236731.8204   22236734.4974   22236732.0024
        50.000          44.000
 123741765.83547  96422137.99047  23547287.0324   23547292.3444   23547287.5484
        45.000          39.000
 126714375.69247  98738459.29547  24112954.7014   24112959.7214   24112955.0764
        43.000          38.000
 120692302.24247  94045937.47647  22966990.0194   22966993.9524   22966989.8074
        49.000          42.000
 123283145.17047  96064761.61447  23460024.9044   23460029.3194   23460024.8684
        45.000          38.000
 121435623.57147  94625162.61447  23108428.0674   23108430.1324   23108428.5704
        48.000          41.000
 117379075.24147  91464201.56247  22336503.6764   22336508.6844   22336503.8194
        50.000          43.000
 124799661.08447  97246493.06047  23748580.6244   23748582.2474   23748580.8174
        45.000          39.000
 116044689.40947  90424414.60547  22082585.5704   22082587.9024   22082585.1914
        51.000          45.000
 123319229.31747  96092890.66747  23466880.2964   23466884.6994   23466880.0564
        46.000          41.000
 104832660.26347  81687780.59147  19948996.4804   19948998.7264   19948996.8924
        54.000          50.000
 128306392.85547  99978990.92647  24415907.6024   24415911.2444   24415907.5734
        44.000          38.000
 09  1 25  0  5 30.0000000  0 12G14G 5G 6G30G 9G18G24G22G31G29G21G12
 116887709.49847  91081321.52447  22242999.6614   22243002.7064   22242999.8634
        50.000          44.000
 123734050.96247  96416126.42547  23545819.1754   23545823.8514   23545819.5984
        46.000          40.000
 126685594.52147  98716032.39847  24107477.2704   24107482.9354   24107476.8414
        43.000          38.000
 120664910.44947  94024593.23647  22961777.3254   22961781.3524   22961777.1174
        49.000          42.000
 123379354.67347  96139730.10647  23478333.1484   23478336.4284   23478333.0344
        44.000          38.000
 121400479.11047  94597777.32947  23101740.1134   23101742.2024   23101740.4474
        48.000          41.000
 117446959.13947  91517098.08647  22349421.6864   22349426.7864   22349421.5354
        49.000          43.000
 124761093.97847  97216440.80447  23741241.5914   23741242.9764   23741241.4344
        46.000          39.000
 115956181.96347  90355447.80447  22065742.8754   22065745.2704   22065742.4734
        51.000          45.000
 123391000.12947  96148815.93347  23480537.8804   23480542.5054   23480537.2394
        45.000          41.000
 104829671.83747  81685451.93747  19948427.7704   19948430.0484   19948428.0944
        54.000          50.000
 128312725.17347  99983925.23947  24417112.5394   24417116.0664   24417111.9814
        43.000          38.000
 09  1 25  0  6  0.0000000  0 12G14G 5G 6G30G 9G18G24G22G31G29G21G12
 116920858.74047  91107152.12547  22249308.0094   22249310.4654   22249308.1234
        50.000          44.000
 123726501.85547  96410244.04147  23544382.8084   23544387.2514   23544383.2664
        45.000          40.000
 126657090.63247  98693821.55747  24102053.9374   24102058.9324   24102054.1994
        44.000          38.000
 120637532.02247  94003259.41647  22956567.2724   22956571.5554   22956567.1254
        49.000          42.000
 123475854.98747  96214925.20547  23496696.4534   23496700.1834   23496696.4544
        45.000          39.000
 121365233.09047  94570312.92847  23095032.7564   23095034.8964   23095033.3064
        48.000          41.000
 117515230.20747  91570296.29347  22362413.0974   22362418.3344   22362413.2524
        49.000          43.000
 124722316.34247  97186224.49347  23733862.7934   23733863.7444   23733862.9124
        46.000          40.000
 115867975.01947  90286715.15747  22048957.6564   22048960.1944   22048957.1054
        51.000          46.000
 123462651.91847  96204648.44447  23494172.6984   23494177.7444   23494172.7694
        46.000          41.000
 104827296.46947  81683600.99247  19947975.8114   19947977.9394   19947976.2234
        54.000          49.000
 128319206.09447  99988975.36547  24418345.0184   24418349.2374   24418345.0914
        43.000          38.000
 09  1 25  0  6 30.0000000  0 12G14G 5G 6G30G 9G18G24G22G31G29G21G12
 116954214.87847  91133143.93647  22255655.0314   22255657.9954   22255655.0414
        50.000          44.000
 123719119.50247  96404491.59647  23542977.6134   23542982.5524   23542977.8964
        45.000          39.000
 126628861.90747  98671825.15547  24096681.7284   24096687.2554   24096681.3464
        43.000          38.000
 120610167.75947  93981936.63547  22951360.4404   22951364.0214   22951359.9454
        49.000          42.000
 123572642.16047  96290343.83147  23515114.6794   23515118.3944   23515114.7504
        45.000          39.000
 121329886.20447  94542769.89547  23088306.6724   23088308.5964   23088307.0694
        48.000          41.000
 117583885.78847  91623794.12047  22375477.8624   22375482.8284   22375477.6964
        49.000          43.000
 124683328.02047  97155844.03947  23726443.6264   23726444.6304   23726443.9404
        47.000          40.000
 115780070.66947  90218218.29447  22032229.9734   22032232.4834   22032229.5434
        51.000          45.000
 123534181.82847  96260385.99247  23507784.8064   23507789.3334   23507784.6904
        45.000          41.000
 104825533.14347  81682226.96547  19947640.2184   19947642.2944   19947640.5854
        54.000          49.000
 128325836.52047  99994141.96447  24419607.2554   24419610.7024   24419606.8484
        44.000          38.000
 09  1 25  0  7  0.0000000  0 12G14G 5G 6G30G 9G18G24G22G31G29G21G12
 116987775.24647  91159294.89447  22262041.3464   22262044.1574   22262041.4844
        50.000          44.000
 123711905.87847  96398870.61947  23541605.2984   23541609.6824   23541605.8204
        45.000          40.000
 126600907.48547  98650042.48247  24091362.0354   24091367.5554   24091362.5434
        43.000          38.000
 120582820.00847  93960626.72347  22946156.1974   22946160.1644   22946155.7974
        50.000          42.000
 123669713.44047  96365983.83247  23533586.7224   23533589.9964   23533586.7784
        45.000          39.000
 121294439.81047  94515149.35547  23081560.9074   23081563.3914   23081561.5434
        47.000          41.000
 117652923.85447  91677589.98947  22388615.4954   22388620.2814   22388615.7414
        49.000          43.000
 124644129.21347  97125299.56847  23718984.0544   23718985.3054   23718984.0734
        46.000          40.000
 115692471.75547  90149959.43447  22015560.3484   22015563.0824   22015559.9324
        51.000          46.000
 123605588.10947  96316027.19747  23521372.7954   23521377.5974   23521373.0754
        46.000          41.000
 104824382.75847  81681330.56047  19947421.2364   19947423.2924   19947421.6584
        54.000          49.000
 128332617.93047  99999426.24647  24420897.7924   24420901.2514   24420897.4264
        43.000          38.000
 09  1 25  0  7 30.0000000  0 12G14G 5G 6G30G 9G18G24G22G31G29G21G12
 117021539.82947  91185604.96047  22268466.3454   22268469.1944   22268466.9484
        50.000          44.000
 123704865.46447  96393384.62447  23540265.2844   23540270.0834   23540265.9864
        45.000          40.000
 126573228.85647  98628474.72347  24086094.7474   24086100.6684   24086094.6894
        43.000          38.000
 120555493.23347  93939333.15047  22940956.0174   22940959.7444   22940955.9404
        49.000          42.000
 123767068.43847  96441844.92547  23552112.7584   23552116.4074   23552113.1564
        45.000          38.000
 121258898.27947  94487454.66647  23074797.8404   23074800.0834   23074798.1984
        48.000          41.000
 117722344.94447  91731684.33047  22401825.5244   22401830.7124   22401825.7904
        49.000          43.000
 124604722.94547  97094593.42147  23711484.8414   23711486.6844   23711485.1414
        46.000          40.000
 115605183.45547  90081942.60347  21998949.9164   21998952.8934   21998949.0224
        51.000          46.000
 123676871.48947  96371572.63947  23534937.5724   23534942.4424   23534937.7164
        45.000          41.000
 104823847.95147  81680913.82447  19947319.5824   19947321.5424   19947319.9744
        54.000          49.000
 128339554.57847 100004831.47847  24422218.0254   24422220.6854   24422217.7464
        44.000          38.000
 09  1 25  0  8  0.0000000  0 12G14G 5G 6G30G 9G18G24G22G31G29G21G12
 117055502.59947  91212069.46847  22274929.4694   22274932.2914   22274929.8134
        50.000          44.000
 123697996.85047  96388032.51847  23538958.3024   23538963.0194   23538958.8184
        45.000          40.000
 126545821.12947  98607118.06047  24080879.4614   24080884.4074   24080880.0404
        43.000          38.000
 120528185.95747  93918054.76347  22935759.5584   22935763.3734   22935759.6164
        49.000          42.000
 123864700.99047  96517922.27047  23570691.6034   23570695.4774   23570691.7194
        44.000          38.000
 121223259.79847  94459684.43547  23068016.0664   23068018.2834   23068016.4814
        48.000          41.000
 117792143.60147  91786072.85747  22415107.6604   22415113.1844   22415107.8994
        49.000          43.000
 124565106.57547  97063723.57347  23703946.4504   23703947.6624   23703946.8844
        47.000          40.000
 115518204.96447  90014167.18647  21982398.5774   21982401.3474   21982398.3064
        51.000          46.000
 123748026.54647  96427018.09747  23548477.9334   23548482.7084   23548477.7514
        45.000          40.000
 104823925.93847  81680974.58947  19947334.4024   19947336.4224   19947334.7264
        54.000          49.000
 128346645.20847 100010356.68747  24423567.1984   24423569.6554   24423566.7544
        43.000          38.000
 09  1 25  0  8 30.0000000  0 12G14G 5G 6G30G 9G18G24G22G31G29G21G12
 117089663.03447  91238687.99347  22281430.0174   22281432.8324   22281430.2464
        50.000          44.000
 123691304.43947  96382817.68747  23537684.9284   23537689.0544   23537685.5184
        45.000          40.000
 126518686.00247  98585973.82247  24075716.4094   24075721.3724   24075715.5804
        43.000          38.000
 120500902.89347  93896795.25647  22930567.9414   22930571.5894   22930567.3194
        49.000          42.000
 123962610.25747  96594215.24947  23589322.6184   23589326.3244   23589323.0734
        44.000          38.000
 121187528.38547  94431841.77447  23061216.5054   23061218.7444   23061216.9874
        47.000          41.000
 117862320.40947  91840756.05647  22428462.2354   22428467.0964   22428462.4374
        49.000          43.000
 124525283.16347  97032692.39347  23696368.1964   23696369.4604   23696368.2824
        47.000          40.000
 115431541.61447  89946637.33747  21965907.0234   21965909.7424   21965906.7134
        51.000          46.000
 123819054.16747  96482364.23747  23561993.8834   23561998.8514   23561993.6554
        46.000          40.000
 104824619.27547  81681514.84547  19947466.2854   19947468.4024   19947466.6134
        54.000          49.000
 128353893.54547 100016004.80447  24424946.2294   24424949.4904   24424945.6984
        44.000          39.000
 09  1 25  0  9  0.0000000  0 12G14G 5G 6G30G 9G18G24G22G31G29G21G12
 117124019.27947  91265459.09847  22287967.7134   22287970.5174   22287968.3254
        50.000          44.000
 123684790.81147  96377742.18447  23536445.5544   23536449.8144   23536446.2534
        45.000          40.000
 126491823.10547  98565041.70347  24070603.7764   24070609.0814   24070603.5804
        44.000          38.000
 120473646.52747  93875556.56247  22925380.8094   22925385.1894   22925380.7414
        49.000          42.000
 124060794.07847  96670722.15747  23608006.8074   23608010.0824   23608006.5034
        44.000          38.000
 121151706.42447  94403928.54647  23054399.5264   23054401.8584   23054399.9964
        47.000          41.000
 117932873.84547  91895732.74047  22441888.1714   22441893.2394   22441888.4714
        49.000          43.000
 124485253.74647  97001500.67847  23688750.5804   23688751.9964   23688750.4084
        46.000          40.000
 115345196.39147  89879355.38047  21949476.1374   21949478.5024   21949475.9424
        52.000          46.000
 123889952.85147  96537609.91647  23575486.0534   23575490.3434   23575485.4684
        45.000          41.000
 104825928.91747  81682535.33847  19947715.6164   19947717.6774   19947715.9834
        54.000          49.000
 128361301.95947 100021777.63747  24426355.8994   24426359.3514   24426355.6964
        44.000          39.000
 09  1 25  0  9 30.0000000  0 12G14G 5G 6G30G 9G18G24G22G31G29G21G12
 117158566.73947  91292379.20247  22294542.1214   22294544.8454   22294542.4644
        49.000          44.000
 123678456.27047  96372806.20747  23535239.7914   23535244.1214   23535240.3014
        45.000          39.000
 126465229.60347  98544319.48947  24065543.6264   24065548.0684   24065543.2814
        43.000          37.000
 120446417.38347  93854339.07247  22920199.6594   22920203.5134   22920199.3184
        49.000          42.000
 124159248.25647  96747439.72447  23626741.8554   23626745.6104   23626741.9714
        44.000          39.000
 121115794.20547  94375945.00547  23047566.0034   23047568.3374   23047566.2794
        47.000          41.000
 118003800.32847  91951000.10347  22455385.1734   22455389.7324   22455385.2594
        49.000          43.000
 124445017.12647  96970147.52047  23681094.2564   23681095.2524   23681094.2804
        47.000          40.000
 115259170.73047  89812322.43047  21933105.9594   21933108.3064   21933105.8414
        52.000          46.000
 123960719.42147  96592752.66347  23588952.5914   23588956.8804   23588952.3294
        46.000          41.000
 104827853.40147  81684034.93647  19948081.7704   19948083.8344   19948082.2774
        54.000          49.000
 128368870.37747 100027675.14047  24427796.2094   24427799.7734   24427795.4334
        43.000          39.000
 09  1 25  0 10  0.0000000  0 12G14G 5G 6G30G 9G18G24G22G31G29G21G12
 117193301.68947  91319445.40247  22301151.6894   22301154.5634   22301151.9724
        49.000          43.000
 123672301.68347  96368010.49047  23534068.6214   23534073.0464   23534069.4394
        45.000          40.000
 126438902.83647  98523805.14947  24060533.2594   24060538.4344   24060533.5604
        43.000          37.000
 120419216.56847  93833143.66447  22915023.6384   22915026.8474   22915023.2444
        49.000          42.000
 124257968.80947  96824364.86247  23645527.7184   23645531.3134   23645528.0664
        44.000          38.000
 121079791.83647  94347891.21547  23040715.0464   23040717.3204   23040715.1814
        48.000          41.000
 118075096.90247  92006555.84347  22468952.2264   22468957.4574   22468952.3854
        49.000          43.000
 124404572.92047  96938632.61647  23673398.2334   23673398.5684   23673398.2934
        47.000          40.000
 115173466.41147  89745539.86947  21916797.1474   21916799.2534   21916796.5194
        52.000          46.000
 124031351.01947  96647790.22047  23602393.2574   23602397.9774   23602393.1174
        46.000          41.000
 104830392.13047  81686013.16947  19948564.8454   19948566.8674   19948565.1774
        54.000          49.000
 128376600.01747 100033698.27047  24429266.9904   24429270.2234   24429266.6024
        43.000          39.000
 09  1 25  0 10 30.0000000  0 12G14G 5G 6G30G 9G18G24G22G31G29G21G12
 117228226.31547  91346659.40947  22307797.4274   22307800.4234   22307797.6444
        49.000          44.000
 123666334.19447  96363360.54247  23532932.9484   23532937.8144   23532933.2454
        45.000          40.000
 126412847.50147  98503502.30147  24055575.1024   24055580.5664   24055575.7964
        44.000          37.000
 120392051.03147  93811975.73447  22909853.8284   22909857.5754   22909853.5644
        49.000          42.000
 124356957.64247  96901499.05147  23664364.8204   23664368.0964   23664364.9574
        44.000          38.000
 121043706.21147  94319772.56947  23033848.2564   23033850.5314   23033848.6834
        48.000          41.000
 118146766.73347  92062402.43847  22482590.3904   22482595.7974   22482590.5694
        49.000          42.000
 124363927.15447  96906960.64047  23665662.8534   23665664.0594   23665662.8084
        46.000          40.000
 115088091.25147  89679013.80447  21900550.6474   21900552.9694   21900550.2464
        52.000          46.000
 124101851.13047  96702725.32447  23615809.2164   23615813.5064   23615809.0604
        45.000          40.000
 104833550.37547  81688474.13647  19949165.7414   19949167.8094   19949166.1034
        54.000          49.000
 128384496.92047 100039851.73347  24430769.6384   24430773.3374   24430769.1494
        45.000          39.000
 09  1 25  0 11  0.0000000  0 12G14G 5G 6G30G 9G18G24G22G31G29G21G12
 117263332.99247  91374015.26947  22314478.2744   22314481.0104   22314478.3394
        50.000          44.000
 123660550.82947  96358854.06747  23531832.1484   23531836.6904   23531832.6254
        45.000          39.000
 126387057.21547  98483406.00047  24050667.6354   24050672.5164   24050667.7204
        43.000          38.000
 120364918.15947  93790833.25447  22904690.6254   22904694.6224   22904690.5224
        48.000          42.000
 124456206.89147  96978836.16247  23683251.0374   23683253.9364   23683251.4994
        44.000          38.000
 121007534.20747  94291586.59747  23026964.6854   23026967.2964   23026965.3264
        48.000          41.000
 118218802.82847  92118534.42447  22496298.3344   22496303.9164   22496298.3884
        49.000          42.000
 124323075.29347  96875128.06747  23657889.2544   23657889.8364   23657888.7684
        45.000          39.000
 115003042.75047  89612742.27547  21884366.2074   21884368.7444   21884365.9724
        52.000          46.000
 124172213.11547  96757552.80447  23629198.4994   23629202.6994   23629198.3114
        45.000          40.000
 104837323.16047  81691413.96547  19949883.7994   19949885.8044   19949884.2054
        54.000          49.000
 128392557.92147 100046133.05547  24432303.7674   24432306.7854   24432303.5884
        44.000          39.000
 09  1 25  0 11 30.0000000  0 12G14G 5G 6G30G 9G18G24G22G31G29G21G12
 117298623.73447  91401514.56047  22321193.9024   22321196.7614   22321194.1694
        50.000          44.000
 123654957.74347  96354495.86147  23530767.8594   23530772.2874   23530768.2974
        45.000          40.000
 126361535.20547  98463518.74447  24045810.9834   24045816.0934   24045811.3434
        43.000          37.000
 120337824.39347  93769721.23547  22899534.8994   22899539.0604   22899534.4534
        49.000          42.000
 124555717.83247  97056377.18847  23702187.5524   23702190.8264   23702187.3134
        44.000          38.000
 120971281.63547  94263337.86447  23020066.2214   23020068.1874   23020066.2544
        48.000          41.000
 118291207.59147  92174953.69247  22510076.4264   22510082.0604   22510076.4934
        48.000          42.000
 124282022.11847  96843138.63247  23650076.9734   23650077.8814   23650077.0504
        46.000          39.000
 114918328.21647  89546730.97747  21868245.6494   21868248.1424   21868244.8204
        52.000          46.000
 124242439.59247  96812274.70047  23642562.1614   23642566.4684   23642561.9434
        45.000          40.000
 104841714.98547  81694836.16147  19950719.6504   19950721.4664   19950720.0184
        54.000          49.000
 128400789.22747 100052547.08647  24433869.8194   24433873.7854   24433869.2544
        44.000          39.000
 09  1 25  0 12  0.0000000  0 12G14G 5G 6G30G 9G18G24G22G31G29G21G12
 117334091.58647  91429151.86147  22327943.2534   22327946.0534   22327943.2864
        49.000          44.000
 123649552.90747  96350284.32147  23529739.2874   23529743.8284   23529739.8694
        45.000          40.000
 126336276.01147  98443836.28447  24041004.3064   24041009.2454   24041004.4144
        44.000          38.000
 120310767.76647  93748638.16547  22894386.0324   22894390.1204   22894385.8364
        48.000          42.000
 124655483.82647  97134116.94547  23721172.1684   23721175.5634   23721172.1114
        44.000          38.000
 120934946.55147  94235024.83247  23013152.0424   23013154.1144   23013152.3734
        47.000          41.000
 118363974.93747  92231655.48547  22523923.7824   22523929.3914   22523924.0714
        49.000          42.000
 124240764.51847  96810989.91947  23642225.8414   23642226.5874   23642226.0414
        46.000          39.000
 114833946.06747  89480978.69047  21852188.2864   21852190.7774   21852188.1194
        52.000          46.000
 124312524.85147  96866886.55947  23655898.8454   23655903.5494   23655898.5394
        45.000          40.000
 104846722.03447  81698737.75347  19951672.5594   19951674.3164   19951672.9404
        54.000          49.000
 128409188.34247 100059091.87347  24435468.3564   24435471.5864   24435468.0664
        44.000          39.000
 09  1 25  0 12 30.0000000  0 12G14G 5G 6G30G 9G18G24G22G31G29G21G12
 117369736.73647  91456927.32147  22334725.9494   22334728.7434   22334726.3244
        49.000          44.000
 123644341.20547  96346223.27447  23528747.6284   23528751.9144   23528748.3164
        45.000          40.000
 126311281.90147  98424360.39147  24036248.3974   24036252.6624   24036248.2094
        44.000          38.000
 120283753.15147  93727587.83247  22889245.3904   22889249.6364   22889245.2484
        49.000          42.000
 124755504.88647  97212055.46647  23740205.4744   23740208.5154   23740205.5664
        44.000          38.000
 120898533.32847  94206650.91447  23006222.2474   23006224.8904   23006222.7524
        48.000          41.000
 118437105.85647  92288640.58647  22537840.3534   22537845.6914   22537840.1944
        48.000          42.000
 124199306.58347  96778685.10447  23634336.6074   23634337.4164   23634336.5504
        46.000          39.000
 114749902.26647  89415490.05447  21836195.1824   21836197.9594   21836194.8514
        52.000          46.000
 124382470.07747  96921389.28747  23669208.8884   23669213.6224   23669208.1264
        44.000          39.000
 104852347.34847  81703121.11247  19952742.8104   19952744.9674   19952743.2944
        54.000          49.000
 128417759.99947 100065771.12847  24437099.5334   24437102.8394   24437099.0774
        45.000          39.000
 09  1 25  0 13  0.0000000  0 12G14G 5G 6G30G 9G18G24G22G31G29G21G12
 117405555.05747  91484837.71547  22341542.3494   22341544.9304   22341542.8104
        50.000          44.000
 123639323.36347  96342313.29147  23527792.9254   23527797.1774   23527793.2784
        45.000          40.000
 126286550.23147  98405089.00647  24031541.6994   24031546.6914   24031541.4084
        42.000          38.000
 120256781.48847  93706570.97247  22884112.5644   22884116.9344   22884112.1324
        48.000          42.000
 124855776.70747  97290189.37147  23759286.2114   23759290.1004   23759286.6754
        44.000          38.000
 120862042.53947  94178216.56947  22999278.8394   22999280.6804   22999279.1384
        48.000          41.000
 118510596.72947  92345906.16047  22551825.2424   22551830.5294   22551825.2044
        48.000          42.000
 124157646.67747  96746222.88347  23626408.9324   23626410.0024   23626408.9634
        46.000          39.000
 114666198.20547  89350266.15247  21820266.7454   21820269.5804   21820266.3484
        52.000          46.000
 124452272.08947  96975780.42847  23682491.6244   23682496.5134   23682490.6974
        44.000          39.000
 104858589.70547  81707985.28347  19953930.7544   19953932.8144   19953931.1374
        54.000          49.000
 128426504.56447 100072585.11147  24438763.5814   24438766.9524   24438763.0044
        44.000          39.000
 09  1 25  0 13 30.0000000  0 12G14G 5G 6G30G 9G18G24G22G31G29G21G12
 117441546.20647  91512882.79447  22348391.2044   22348393.9064   22348391.5424
        50.000          44.000
 123634503.31647  96338557.44547  23526875.5754   23526879.6114   23526876.3554
        46.000          40.000
 126262081.44747  98386022.46647  24026885.1894   24026890.8004   24026885.8434
        44.000          38.000
 120229857.07547  93685590.93147  22878989.3554   22878993.3794   22878988.9564
        49.000          42.000
 124956298.46247  97368518.04047  23778415.0924   23778418.6124   23778415.4564
        44.000          38.000
 120825478.20247  94149724.90647  22992320.7174   22992322.5374   22992321.1004
        47.000          41.000
 118584447.42147  92403452.10847  22565878.6974   22565883.7854   22565878.8604
        48.000          42.000
 124115788.36547  96713606.06047  23618443.1574   23618444.4404   23618442.9984
        46.000          40.000
 114582838.84947  89285310.84747  21804404.1654   21804406.7034   21804403.7274
        52.000          46.000
 124521931.73847  97030060.62947  23695747.6844   23695752.4374   23695746.7694
        44.000          39.000
 104865451.34847  81713332.02047  19955236.5974   19955238.5674   19955237.1264
        54.000          49.000
 128435425.87347 100079536.83047  24440460.7654   24440464.9734   24440460.4764
        43.000          39.000
 09  1 25  0 14  0.0000000  0 12G14G 5G 6G30G 9G18G24G22G31G29G21G12
 117477705.10547  91541058.58747  22355271.9974   22355274.9334   22355272.1894
        50.000          44.000
 123629880.97747  96334955.63647  23525995.9484   23526000.2424   23525996.1444
        46.000          40.000
 126237872.97047  98367158.76147  24022278.9654   24022283.5364   24022279.1274
        43.000          38.000
 120202979.78447  93664647.60947  22873874.7284   22873879.1134   22873874.6284
        49.000          42.000
 125057065.22347  97447037.63147  23797590.7724   23797594.3924   23797590.7294
        44.000          37.000
 120788839.89647  94121175.60147  22985348.8514   22985350.4554   22985348.9914
        48.000          41.000
 118658654.11347  92461275.48147  22579999.6374   22580004.3734   22579999.8764
        49.000          42.000
 124073730.01547  96680833.37847  23610440.0194   23610441.2864   23610439.5834
        47.000          40.000
 114499824.32647  89220624.24147  21788607.2744   21788609.3214   21788606.8284
        52.000          46.000
 124591445.26547  97084226.99647  23708975.3504   23708980.4684   23708974.5864
        45.000          39.000
 104872930.04847  81719159.57547  19956659.6974   19956661.6784   19956660.1144
        54.000          49.000
 128444523.32047 100086625.82247  24442191.8754   24442195.6604   24442191.4584
        44.000          39.000
 09  1 25  0 14 30.0000000  0 12G14G 5G 6G30G 9G18G24G22G31G29G21G12
 117514029.56347  91569363.38347  22362184.4564   22362187.0034   22362184.5514
        50.000          44.000
 123625458.58747  96331509.65447  23525154.4664   23525158.3884   23525155.3284
        45.000          40.000
 126213923.66347  98348497.00547  24017721.4744   24017726.6444   24017721.4644
        44.000          38.000
 120176152.20147  93643743.02847  22868769.6244   22868773.6714   22868769.3544
        48.000          42.000
 125158074.24947  97525746.00247  23816811.7624   23816815.6844   23816812.2734
        44.000          37.000
 120752129.70747  94092570.27547  22978363.1224   22978365.2264   22978363.5564
        48.000          41.000
 118733214.99047  92519374.82847  22594188.2864   22594192.9484   22594188.7044
        48.000          42.000
 124031473.20247  96647906.04047  23602399.1304   23602399.5214   23602399.1254
        47.000          40.000
 114417157.71247  89156208.74447  21772875.9844   21772878.1274   21772875.7314
        52.000          46.000
 124660811.33847  97138278.45147  23722175.2294   23722180.3534   23722175.0444
        44.000          40.000
 104881026.25947  81725468.31247  19958200.1314   19958202.3654   19958200.5114
        54.000          49.000
 128453799.19147 100093853.82947  24443957.1314   24443960.6674   24443957.0374
        44.000          39.000
 09  1 25  0 15  0.0000000  0 12G14G 5G 6G30G 9G18G24G22G31G29G21G12
 117550518.81847  91597796.59047  22369128.0854   22369130.5494   22369128.1434
        49.000          44.000
 123621240.10547  96328222.52347  23524351.1504   23524356.0564   23524351.3024
        45.000          40.000
 126190234.02847  98330037.58447  24013213.4314   24013218.2154   24013213.9674
        44.000          38.000
 120149378.35547  93622880.31047  22863674.6284   22863678.5554   22863674.4784
        48.000          42.000
 125259324.62647  97604642.45047  23836079.2734   23836082.6244   23836079.1554
        44.000          37.000
 120715351.47547  94063911.92847  22971364.3004   22971366.0374   22971364.6924
        49.000          41.000
 118808129.93047  92577750.07347  22608444.1734   22608448.9774   22608444.2864
        48.000          42.000
 123989019.89247  96614825.58047  23594320.3754   23594321.0784   23594320.3454
        47.000          40.000
 114334844.07747  89092068.29147  21757212.0014   21757214.2664   21757211.6674
        52.000          46.000
 124730030.21747  97192215.21447  23735347.5694   23735352.3104   23735347.0894
        44.000          40.000
 104889741.46247  81732259.37447  19959858.7324   19959860.8374   19959859.1234
        54.000          49.000
 128463256.43947 100101223.15847  24445756.8114   24445760.0724   24445756.5364
        45.000          39.000
 09  1 25  0 15 30.0000000  0 12G14G 5G 6G30G 9G18G24G22G31G29G21G12
 117587166.96947  91626353.61647  22376101.5594   22376104.3604   22376101.9544
        49.000          43.000
 123617224.40847  96325093.43547  23523587.3094   23523591.8624   23523587.9714
        45.000          39.000
 126166800.14147  98311777.46147  24008754.0824   24008758.9654   24008754.0824
        43.000          38.000
 120122657.81947  93602059.12947  22858589.7294   22858593.6304   22858589.5814
        49.000          42.000
 125360810.49947  97683722.38547  23855391.4344   23855394.8604   23855391.3954
        44.000          37.000
 120678503.65147  94035199.35247  22964352.5694   22964354.5234   22964352.7834
        48.000          41.000
 118883393.70147  92636397.11747  22622766.2294   22622771.3024   22622766.5924
        48.000          42.000
 123946368.43347  96581590.72747  23586204.0714   23586204.6274   23586204.1114
        47.000          41.000
 114252882.81247  89028202.40347  21741615.3404   21741617.4274   21741614.7004
        52.000          46.000
 124799097.36847  97246033.74047  23748490.4774   23748495.3594   23748490.1314
        44.000          40.000
 104899073.00747  81739530.70647  19961634.3884   19961636.5554   19961634.7554
        54.000          49.000
 128472894.03547 100108733.04647  24447590.8074   24447594.0814   24447590.8934
        44.000          39.000
 09  1 25  0 16  0.0000000  0 12G14G 5G 6G30G 9G18G24G22G31G29G21G12
 117623975.17847  91655035.35847  22383105.9554   22383108.6744   22383106.2824
        49.000          43.000
 123613417.51847  96322127.02747  23522862.6614   23522867.2214   23522863.0014
        45.000          39.000
 126143624.58047  98293718.61347  24004343.7814   24004348.8244   24004344.0384
        44.000          38.000
 120095996.42747  93581284.03147  22853516.1554   22853520.2974   22853516.0844
        49.000          42.000
 125462533.02747  97762986.74447  23874748.1784   23874752.2914   23874748.6604
        43.000          37.000
 120641592.47147  94006437.40147  22957328.4174   22957330.5424   22957328.6524
        48.000          42.000
 118959008.33347  92695317.56747  22637155.5784   22637160.4014   22637155.5254
        48.000          42.000
 123903523.76247  96548205.31747  23578050.8124   23578051.5344   23578051.0154
        47.000          40.000
 114171280.60147  88964616.30647  21726086.9934   21726089.2064   21726086.8334
        52.000          46.000
 124868015.48347  97299736.14847  23761605.2954   23761609.9814   23761604.7894
        45.000          40.000
 104909024.88047  81747285.40847  19963528.2174   19963530.2714   19963528.5794
        54.000          49.000
 128482717.75047 100116387.95747  24449459.8214   24449463.3504   24449459.9244
        43.000          38.000
 09  1 25  0 16 30.0000000  0 12G14G 5G 6G30G 9G18G24G22G31G29G21G12
 117660938.49047  91683837.96147  22390139.7844   22390142.6394   22390140.1534
        49.000          43.000
 123609818.58047  96319322.68447  23522177.9854   23522182.7444   23522178.2714
        45.000          40.000
 126120703.52847  98275858.08347  23999982.3634   23999987.2554   23999982.4134
        43.000          38.000
 120069393.83647  93560554.75947  22848454.1004   22848457.8324   22848453.7564
        49.000          42.000
 125564486.22847  97842430.82947  23894149.9834   23894152.6904   23894149.6254
        43.000          37.000
 120604616.98747  93977625.35147  22950292.3924   22950294.3874   22950292.6394
        48.000          42.000
 119034968.77247  92754507.47747  22651610.5074   22651615.3144   22651610.4184
        48.000          42.000
 123860483.39347  96514667.42247  23569860.2734   23569861.5874   23569860.2274
        46.000          40.000
 114090037.50147  88901310.03247  21710626.8674   21710629.0904   21710626.4884
        52.000          46.000
 124936780.02947  97353318.88647  23774690.9024   23774695.5104   23774690.4934
        45.000          40.000
 104919593.89947  81755521.00547  19965539.3054   19965541.4744   19965539.6624
        54.000          49.000
 128492726.31647 100124186.89147  24451364.3314   24451368.0304   24451364.1324
        44.000          38.000
 09  1 25  0 17  0.0000000  0 12G14G 5G 6G30G 9G18G24G22G31G29G21G12
 117698054.25147  91712759.36047  22397202.6524   22397205.5934   22397203.0294
        49.000          43.000
 123606429.72247  96316682.02447  23521532.9874   23521537.9994   23521533.4574
        45.000          40.000
 126098035.72947  98258194.89947  23995668.3794   23995673.6224   23995668.2594
        43.000          37.000
 120042852.39247  93539873.12947  22843403.4514   22843407.2334   22843403.0624
        49.000          42.000
 125666667.69847  97922052.79247  23913594.5054   23913596.7284   23913594.5124
        43.000          37.000
 120567579.18947  93948764.72347  22943244.2404   22943246.4054   22943244.6424
        49.000          42.000
 119111273.37947  92813965.56647  22666130.4984   22666135.8264   22666130.7274
        48.000          42.000
 123817248.66647  96480978.08647  23561632.6394   23561633.7864   23561632.9024
        46.000          40.000
 114009156.49447  88838285.90547  21695235.7254   21695237.9414   21695235.2994
        52.000          46.000
 125005389.59947  97406780.86747  23787747.0004   23787751.2664   23787746.9334
        45.000          40.000
 104930780.01547  81764237.46047  19967668.0874   19967670.1384   19967668.5064
        54.000          49.000
 128502922.01947 100132131.66247  24453304.5334   24453307.5634   24453304.2684
        44.000          39.000
 09  1 25  0 17 30.0000000  0 12G14G 5G 6G30G 9G18G24G22G31G29G21G12
 117735320.29947  91741797.85347  22404294.2914   22404296.9794   22404294.5714
        49.000          43.000
 123603253.45547  96314207.03447  23520928.8084   23520933.6054   23520929.2874
        45.000          40.000
 126075620.66047  98240728.63847  23991403.0954   23991407.6584   23991403.0654
        43.000          37.000
 120016374.94347  93519241.37647  22838364.9134   22838368.7234   22838364.6924
        49.000          42.000
 125769074.82747  98001850.57447  23933081.6404   23933084.9514   23933081.7714
        43.000          37.000
 120530481.85647  93919857.71347  22936184.9994   22936186.6494   22936185.5194
        49.000          42.000
 119187920.36847  92873690.44947  22680716.1744   22680721.2174   22680716.0324
        48.000          42.000
 123773820.78847  96447138.22347  23553368.6274   23553369.7974   23553368.5694
        46.000          40.000
 113928640.63047  88775546.30247  21679914.2044   21679916.2824   21679913.6884
        52.000          46.000
 125073843.29447  97460121.38547  23800773.4844   23800777.4824   23800773.1694
        45.000          40.000
 104942583.88947  81773435.28247  19969914.3594   19969916.1384   19969914.8314
        54.000          49.000
 128513306.66347 100140223.66547  24455280.6974   24455284.0924   24455280.5904
        44.000          39.000
 09  1 25  0 18  0.0000000  0 12G14G 5G 6G30G 9G18G24G22G31G29G21G12
 117772735.87547  91770952.87047  22411414.1264   22411416.9824   22411414.4034
        49.000          43.000
 123600293.61047  96311900.68447  23520365.6854   23520370.1594   23520365.9184
        45.000          40.000
 126053459.08647  98223459.90747  23987185.7794   23987190.8374   23987185.9984
        42.000          37.000
 119989965.67947  93498662.75947  22833339.7634   22833343.3264   22833339.1574
        49.000          42.000
 125871706.80547  98081823.55747  23952611.2794   23952614.4254   23952611.7404
        42.000          37.000
 120493328.19047  93890906.81247  22929114.3284   22929116.6914   22929115.0364
        48.000          42.000
 119264909.72247  92933682.10847  22695366.6074   22695371.8284   22695366.6484
        48.000          42.000
 123730202.86347  96413150.29447  23545068.8284   23545069.5704   23545068.7704
        47.000          40.000
 113848494.66647  88713094.92847  21664662.8974   21664665.0564   21664662.3444
        52.000          46.000
 125142141.55447  97513340.77747  23813770.3544   23813774.5294   23813770.4144
        46.000          40.000
 104955007.34447  81783115.89447  19972278.4784   19972280.4514   19972278.8394
        54.000          49.000
 128523883.42147 100148465.35547  24457293.7154   24457296.9534   24457293.5284
        44.000          39.000
 09  1 25  0 18 30.0000000  0 12G14G 5G 6G30G 9G18G24G22G31G29G21G12
 117810294.98347  91800219.73447  22418561.2374   22418563.9794   22418561.4394
        49.000          43.000
 123597548.82247  96309761.91447  23519843.0924   23519847.8014   23519843.6124
        46.000          40.000
 126031546.53347  98206385.21247  23983015.8364   23983020.7324   23983016.3304
        42.000          37.000
 119963623.25047  93478136.20647  22828326.5394   22828330.6344   22828326.3554
        48.000          42.000
 125974557.25347  98161966.79347  23972183.3214   23972186.5964   23972183.4624
        41.000          36.000
 120456116.97347  93861911.06047  22922033.4444   22922035.1694   22922033.9204
        48.000          41.000
 119342235.73347  92993936.10947  22710081.1794   22710086.3124   22710081.3804
        48.000          42.000
 123686392.17847  96379012.14947  23536731.9494   23536732.7064   23536731.8514
        46.000          40.000
 113768717.74747  88650931.13947  21649481.5244   21649484.0914   21649481.3134
        52.000          46.000
 125210279.87347  97566435.54947  23826736.3114   23826740.7794   23826736.3464
        45.000          40.000
 104968046.69947  81793276.42747  19974759.7134   19974761.7324   19974760.0684
        54.000          49.000
 128534651.13547 100156855.83747  24459342.0754   24459345.5284   24459342.1994
        44.000          39.000
 09  1 25  0 19  0.0000000  0 12G14G 5G 6G30G 9G18G24G22G31G29G21G12
 117847997.82647  91829598.60047  22425736.1484   22425738.7574   22425736.3364
        49.000          43.000
 123595023.87147  96307794.44447  23519363.1444   23519367.6274   23519363.6964
        46.000          40.000
 126009884.42347  98189505.66947  23978893.8354   23978899.0714   23978893.8634
        44.000          38.000
 119937352.69547  93457665.67047  22823327.3314   22823331.3554   22823326.9994
        49.000          42.000
 126077626.38947  98242280.41547  23991796.7214   23991799.8474   23991796.1374
        41.000          37.000
 120418853.19747  93832874.36047  22914942.4364   22914944.7874   22914942.9134
        48.000          41.000
 119419899.22647  93054453.06747  22724860.3774   22724865.1964   22724860.5604
        48.000          42.000
 123642392.82247  96344726.99247  23528358.7204   23528359.7044   23528358.7094
        47.000          40.000
 113689315.41947  88589059.21647  21634371.5604   21634374.3274   21634370.8464
        52.000          46.000
 125278259.24747  97619406.46247  23839672.6414   23839676.3504   23839672.7834
        45.000          40.000
 104981704.51947  81803918.87347  19977358.7874   19977360.6014   19977359.1704
        54.000          49.000
 128545614.22047 100165398.55047  24461428.8554   24461432.0544   24461428.5704
        45.000          39.000
 09  1 25  0 19 30.0000000  0 12G14G 5G 6G30G 9G18G24G22G31G29G21G12
 117885840.34047  91859086.29947  22432937.3984   22432939.8424   22432937.7074
        49.000          43.000
 123592719.28247  96305998.68847  23518924.3194   23518928.8544   23518924.6834
        46.000          40.000
 125988469.86547  98172819.00647  23974819.3194   23974823.7414   23974819.0584
        42.000          38.000
 119911154.92747  93437251.84347  22818341.9744   22818346.2354   22818341.7104
        49.000          42.000
 126180909.96847  98322761.14547  24011449.9224   24011453.8394   24011450.3374
        41.000          37.000
 120381537.41347  93803797.13547  22907841.4364   22907843.7784   22907841.8174
        48.000          42.000
 119497896.85447  93115230.40747  22739702.5954   22739707.8824   22739702.4624
        48.000          42.000
 123598203.72647  96310293.98647  23519950.0534   23519950.6984   23519950.0494
        46.000          40.000
 113610289.25447  88527480.41547  21619333.3884   21619335.8244   21619333.3074
        52.000          47.000
 125346077.14647  97672251.56047  23852578.3174   23852581.5714   23852577.9864
        45.000          39.000
 104995978.88247  81815041.74647  19980075.0224   19980077.0024   19980075.4254
        54.000          49.000
 128556772.87947 100174093.66847  24463552.1554   24463555.3474   24463551.6194
        44.000          38.000
 09  1 25  0 20  0.0000000  0 12G14G 5G 6G30G 9G18G24G22G31G29G21G12
 117923819.50947  91888680.48447  22440164.4324   22440167.2694   22440164.7754
        49.000          44.000
 123590636.83047  96304376.03047  23518528.1894   23518532.1624   23518528.7064
        45.000          40.000
 125967301.63547  98156324.29847  23970790.4314   23970795.4274   23970790.4114
        42.000          38.000
 119885032.44947  93416896.68647  22813371.3834   22813375.1024   22813371.2454
        49.000          43.000
 126284404.59047  98403406.31547  24031144.8984   24031148.7974   24031145.2314
        42.000          37.000
 120344171.53547  93774680.87547  22900730.7784   22900733.1484   22900731.4024
        48.000          41.000
 119576226.06947  93176266.11347  22754608.1324   22754613.5294   22754608.5664
        48.000          41.000
 123553826.16447  96275714.12047  23511505.4654   23511505.7314   23511505.6044
        47.000          40.000
 113531641.47347  88466196.45547  21604367.2894   21604369.6274   21604366.6414
        52.000          47.000
 125413731.79547  97724969.44547  23865452.3334   23865455.8494   23865452.1174
        45.000          39.000
 105010869.62547  81826644.91247  19982908.6694   19982910.6414   19982909.0194
        54.000          49.000
 128568128.50447 100182942.28547  24465712.8514   24465715.4314   24465712.3004
        44.000          38.000
 09  1 25  0 20 30.0000000  0 12G14G 5G 6G30G 9G18G24G22G31G29G21G12
 117961933.98647  91918380.09247  22447417.3724   22447420.2844   22447417.7534
        49.000          43.000
 123588779.30847  96302928.63647  23518173.8214   23518178.7314   23518174.5754
        45.000          39.000
 125946379.48647  98140021.33947  23966808.8114   23966814.3844   23966808.8934
        43.000          37.000
