     2.11           OBSERVATION DATA    G (GPS)             RINEX VERSION / TYPE
teqc  2008Oct2      gpsops              20090102 00:09:56UTCPGM / RUN BY / DATE
    30.0000                                                 INTERVAL
     1     1                                                WAVELENGTH FACT L1/2
     7    L1    L2    P1    P2    C1    S1    S2            # / TYPES OF OBSERV
Linux 2.4.20-8|Pentium IV|gcc -static|Linux|486/DX+         COMMENT
     2.10           OBSERVATION DATA    GPS                 COMMENT
soc2rnx ver 1.20    gpsops               2-Jan-2009 00:09:43COMMENT
S1, if present, is the SNR for the C/A data stream on L1.   COMMENT
 SNR is mapped to RINEX snr flag value [1,4-9]              COMMENT
    SNR:   >316  >100  >31.6  >10  >3.2    >0 bad=0         COMMENT
L1 & L2:      9     8     7     6     5     4     1         COMMENT
                                                            COMMENT
This data is provided as a public service by NASA/JPL.      COMMENT
No warranty is expressed or implied regarding suitability   COMMENT
for use.  For further information, contact:                 COMMENT
Dave Stowers, NASA/JPL m/s 238-600                          COMMENT
4800 Oak Grove Drive, Pasadena CA 91109 USA                 COMMENT
                                                            COMMENT
Forced Modulo Decimation to 30 seconds                      COMMENT
  2009     1     1     0     0    0.0000000     GPS         TIME OF FIRST OBS
GGN                 JPL                                     OBSERVER / AGENCY
CR519992104         ASH701945B_M    SCIT                    ANT # / TYPE
   -33801.4662 -6377516.5323   -82154.3508                  APPROX POSITION XYZ
        0.0083        0.0000        0.0000                  ANTENNA: DELTA H/E/N
ZR220013847         ASHTECH UZ-12       CQ00                REC # / TYPE / VERS
GLPS                                                        MARKER NAME
42005M002                                                   MARKER NUMBER
                                                            END OF HEADER
 09  1  1  0  0  0.0000000  0 11G12G15G18G 9G22G14G 5G30G21G24G29
 127580679.37747  99413499.53947  24277808.9834   24277811.9304   24277808.1494
        43.000          38.000
 130289342.73147 101524161.59447  24793237.5694   24793244.5374   24793238.8184
        38.000          34.000
 124837682.07147  97276108.76747  23755827.1654   23755828.3284   23755825.9214
        45.000          38.000
 112620933.66747  87756554.59547  21431062.4244   21431065.5514   21431062.4414
        53.000          47.000
 128253585.96847  99937834.64147  24405865.9684   24405865.6514   24405865.9944
        43.000          37.000
 118103192.41647  92028447.59947  22474299.9064   22474301.8594   22474299.9354
        48.000          42.000
 125596071.04847  97867050.43447  23900151.6034   23900154.6634   23900152.8254
        45.000          39.000
 124069718.91647  96677693.42647  23609689.0094   23609693.2634   23609689.1114
        46.000          40.000
 115929440.21047  90334624.95947  22060642.6674   22060643.5804   22060642.8534
        51.000          44.000
 112851364.75847  87936104.45947  21474918.8584   21474922.7844   21474918.8494
        53.000          47.000
 109376000.33947  85228047.25647  20813563.4854   20813565.8684   20813563.1534
        53.000          49.000
 09  1  1  0  0 30.0000000  0 11G12G15G18G 9G22G14G 5G30G21G24G29
 127594802.68447  99424504.73547  24280496.2844   24280499.8974   24280496.1404
        44.000          38.000
 140387985.87957  91601016.24957  24812017.5755   24812020.3395   24812017.0435
        37.000          33.000
 124842470.29347  97279839.90047  23756736.2844   23756738.7844   23756736.8894
        45.000          38.000
 112620744.95047  87756407.56547  21431026.3214   21431029.6244   21431026.5044
        52.000          47.000
 128254434.72547  99938496.10447  24406027.8494   24406029.2344   24406027.1864
        44.000          37.000
 118051931.41547  91988504.00247  22464545.6724   22464548.7434   22464545.9144
        48.000          42.000
 125595956.07447  97866960.85747  23900129.7874   23900134.1004   23900130.4724
        45.000          39.000
 124072407.28047  96679788.31447  23610201.3744   23610204.7544   23610200.8524
        46.000          40.000
 115844719.30547  90268608.68847  22044520.4594   22044521.9544   22044520.9584
        51.000          44.000
 112829230.11547  87918856.68547  21470706.9434   21470711.0124   21470707.0494
        53.000          47.000
 109424002.60547  85265451.61747  20822697.5994   20822700.5204   20822697.2964
        53.000          49.000
 09  1  1  0  1  0.0000000  0 11G12G15G18G 9G22G14G 5G30G21G24G29
 127608741.95447  99435366.52347  24283149.3084   24283152.4664   24283149.0684
        44.000          38.000
 120486581.23257 111677842.89757  24830779.7995   24830782.1645   24830778.5845
        38.000          34.000
 124847062.61547  97283418.36247  23757610.9464   23757613.2644   23757611.4874
        46.000          38.000
 112621042.83447  87756639.70747  21431082.6474   21431086.3504   21431082.6994
        53.000          47.000
 128255190.98047  99939085.48547  24406170.9794   24406173.2164   24406171.1664
        43.000          38.000
 118001128.61147  91948917.43647  22454877.7784   22454881.3844   22454878.0464
        47.000          42.000
 125595649.23947  97866721.77547  23900070.8414   23900075.9654   23900070.8314
        44.000          39.000
 124074871.27047  96681708.34147  23610670.0084   23610673.5784   23610669.1454
        46.000          40.000
 115760093.55647  90202666.56847  22028416.3544   22028418.2874   22028416.9104
        51.000          45.000
 112807435.30847  87901873.72847  21466559.5604   21466563.4004   21466559.8604
        54.000          47.000
 109472389.75347  85303155.88447  20831905.4634   20831908.2604   20831905.1914
        53.000          49.000
 09  1  1  0  1 30.0000000  0 11G12G15G18G 9G22G14G 5G30G21G24G29
 127622500.34447  99446087.32647  24285767.4034   24285771.0224   24285767.3184
        44.000          39.000
 140585021.74457  91754539.57957  24849520.3895   24849525.8955   24849521.7955
        37.000          33.000
 124851460.14547  97286845.03247  23758447.9594   23758449.9494   23758447.9104
        45.000          38.000
 112621831.22947  87757254.06547  21431232.5934   21431236.2584   21431232.6384
        53.000          47.000
 128255855.25847  99939603.22047  24406297.5674   24406299.5314   24406297.8354
        43.000          38.000
 117950787.35847  91909690.51847  22445298.4164   22445301.5944   22445298.3624
        48.000          42.000
 125595153.45247  97866335.44647  23899976.8084   23899981.3164   23899976.8474
        44.000          39.000
 124077113.34747  96683455.38847  23611096.4504   23611100.2604   23611095.9294
        46.000          40.000
 115675567.84047  90136802.38047  22012331.7264   22012333.6784   22012331.9874
        51.000          44.000
 112785984.63847  87885158.93347  21462477.6204   21462481.5994   21462477.7144
        53.000          47.000
 109521161.42547  85341159.78047  20841186.3844   20841188.9214   20841186.1464
        53.000          49.000
 09  1  1  0  2  0.0000000  0 10G12G18G 9G22G14G 5G30G21G24G29
 127636078.28747  99456667.56347  24288350.7074   24288354.6884   24288350.4874
        43.000          38.000
 124855661.89347  97290119.16447  23759247.3634   23759249.3974   23759247.7314
        46.000          39.000
 112623111.14747  87758251.42347  21431476.3584   21431479.8804   21431476.4844
        53.000          47.000
 128256425.82047  99940047.89947  24406406.5004   24406407.5044   24406406.2034
        44.000          38.000
 117900908.05747  91870823.57247  22435806.4824   22435809.7734   22435807.0404
        47.000          42.000
 125594469.34047  97865802.37347  23899846.6964   23899850.9724   23899847.0744
        44.000          39.000
 124079133.21447  96685029.31047  23611480.9954   23611484.7174   23611480.8244
        46.000          40.000
 115591145.25447  90071018.55347  21996266.6624   21996268.5304   21996266.7984
        51.000          44.000
 112764879.72547  87868713.55247  21458461.2674   21458465.3844   21458461.4144
        53.000          47.000
 109570314.74447  85379461.05847  20850539.7994   20850542.4394   20850539.4714
        53.000          49.000
 09  1  1  0  2 30.0000000  0 11G12G15G18G 9G22G14G 5G30G21G24G29
 127649475.89147  99467107.27447  24290900.0554   24290904.0214   24290900.2034
        43.000          38.000
 120781793.34757 111907888.06057  24886949.4255   24886950.0035   24886949.0135
        37.000          33.000
 124859666.56847  97293239.72547  23760009.5324   23760011.0864   23760009.7254
        46.000          39.000
 112624882.62747  87759631.81747  21431813.2614   21431816.7514   21431813.4574
        53.000          47.000
 128256899.77547  99940417.32147  24406496.5624   24406497.9484   24406496.9674
        43.000          37.000
 117851490.77347  91832316.62647  22426402.6234   22426405.7904   22426402.8374
        48.000          42.000
 125593596.65647  97865122.36647  23899680.9384   23899684.6334   23899681.2404
        45.000          39.000
 124080929.47847  96686429.02147  23611822.7814   23611826.5434   23611822.5634
        46.000          40.000
 115506827.75847  90005316.62247  21980221.6774   21980223.4944   21980222.1384
        51.000          44.000
 112744121.65747  87852538.44747  21454511.1314   21454515.2364   21454511.1284
        53.000          47.000
 109619846.25147  85418057.03847  20859965.4654   20859968.1874   20859965.1794
        53.000          49.000
 09  1  1  0  3  0.0000000  0 10G12G18G 9G22G14G 5G30G21G24G29
 127662697.02647  99477409.47047  24293416.4824   24293420.3244   24293416.0984
        43.000          38.000
 124863475.95847  97296208.11447  23760734.5674   23760736.3384   23760734.8544
        46.000          39.000
 112627150.67447  87761399.14447  21432244.9544   21432248.3394   21432245.0814
        52.000          47.000
 128257278.76047  99940712.73947  24406567.4514   24406569.5594   24406567.6134
        42.000          37.000
 117802539.43147  91794172.77047  22417087.9594   22417090.8164   22417088.1614
        48.000          42.000
 125592539.47847  97864298.61447  23899479.8454   23899483.5464   23899480.5584
        45.000          39.000
 124082505.07747  96687656.75547  23612122.6304   23612126.6764   23612122.6924
        46.000          40.000
 115422621.36847  89939701.27247  21964197.5864   21964199.4114   21964197.9484
        51.000          44.000
 112723715.45747  87836637.52647  21450627.8544   21450632.1334   21450628.0624
        53.000          47.000
 109669756.91347  85456948.45747  20869463.2184   20869465.9424   20869463.0064
        54.000          49.000
 09  1  1  0  3 30.0000000  0 10G12G18G 9G22G14G 5G30G21G24G29
 127675738.15847  99487571.41847  24295897.8224   24295901.4014   24295897.9974
        42.000          38.000
 124867085.34847  97299020.64947  23761421.1594   23761423.5534   23761422.0074
        46.000          39.000
 112629912.39747  87763551.14847  21432770.5734   21432773.7694   21432770.5994
        53.000          47.000
 128257557.22647  99940929.83147  24406621.4104   24406622.4824   24406621.2464
        44.000          37.000
 117754050.71847  91756389.38947  22407860.4544   22407863.6324   22407860.5614
        48.000          42.000
 125591294.49847  97863328.52447  23899242.5874   23899246.8764   23899243.1454
        44.000          39.000
 124083855.82347  96688709.27547  23612379.8604   23612383.4774   23612379.6474
        46.000          40.000
 115338525.03447  89874171.67347  21948194.5864   21948196.2464   21948194.8454
        51.000          45.000
 112703659.19547  87821009.27447  21446811.4464   21446815.3714   21446811.5074
        53.000          47.000
 109720039.73447  85496129.87747  20879031.7164   20879034.4084   20879031.4224
        53.000          49.000
 09  1  1  0  4  0.0000000  0 10G12G18G 9G22G14G 5G30G21G24G29
 127688604.89747  99497597.46447  24298345.9564   24298350.5184   24298345.8714
        42.000          38.000
 124870498.66347  97301680.40047  23762070.8364   23762072.9794   23762071.6224
        46.000          39.000
 112633173.50847  87766092.29747  21433390.9084   21433394.3114   21433391.0424
        53.000          47.000
 128257737.96447  99941070.76847  24406655.2634   24406657.3294   24406655.8564
        43.000          37.000
 117706029.79447  91718970.51947  22398722.2934   22398725.7164   22398722.5784
        48.000          42.000
 125589866.90147  97862216.12847  23898971.2934   23898975.1644   23898970.8324
        44.000          39.000
 124084986.01347  96689589.93847  23612594.8134   23612598.2384   23612594.6634
        46.000          40.000
 115254546.00347  89808733.48647  21932213.7484   21932215.5924   21932214.2784
        51.000          45.000
 112683959.26147  87805658.67747  21443062.5754   21443066.9054   21443062.9194
        53.000          47.000
 109770696.70047  85535602.84547  20888671.2974   20888674.1914   20888670.8844
        53.000          49.000
 09  1  1  0  4 30.0000000  0 10G12G18G 9G22G14G 5G30G21G24G29
 127701294.16747  99507485.20847  24300760.7714   24300764.9584   24300760.2164
        43.000          38.000
 124873710.68347  97304183.32147  23762682.0164   23762684.2414   23762682.3384
        46.000          39.000
 112636931.25047  87769020.42447  21434106.0124   21434109.5674   21434106.0384
        52.000          46.000
 128257815.39447  99941131.19047  24406670.0464   24406671.4944   24406670.0164
        43.000          37.000
 117658473.13247  91681913.41047  22389672.4104   22389675.6774   22389672.5254
        48.000          42.000
 125588253.78147  97860959.15747  23898664.1924   23898668.6554   23898664.4864
        45.000          39.000
 124085892.38147  96690296.20947  23612766.7574   23612770.7834   23612767.1224
        45.000          40.000
 115170683.06847  89743385.74747  21916255.3324   21916256.9944   21916255.7434
        51.000          44.000
 112664613.75447  87790584.26047  21439381.4304   21439385.4284   21439381.4604
        53.000          47.000
 109821721.20247  85575362.20047  20898380.9714   20898383.8654   20898380.7604
        53.000          49.000
 09  1  1  0  5  0.0000000  0 10G12G18G 9G22G14G 5G30G21G24G29
 127713810.05347  99517237.87447  24303142.7004   24303146.3424   24303142.1944
        43.000          38.000
 124876724.05747  97306531.41947  23763255.4274   23763257.2884   23763255.9874
        46.000          39.000
 112641190.15947  87772339.07047  21434916.3774   21434920.0124   21434916.3664
        53.000          47.000
 128257790.81547  99941112.14547  24406665.1674   24406666.9254   24406665.5214
        42.000          37.000
 117611384.67047  91645221.13747  22380711.6624   22380715.0844   22380711.9404
        48.000          42.000
 125586458.90647  97859560.56747  23898322.2754   23898326.8384   23898323.0514
        45.000          39.000
 124086577.49747  96690830.09347  23612897.1724   23612901.5384   23612897.2274
        46.000          40.000
 115086942.65247  89678133.48147  21900319.9654   21900321.9224   21900320.4234
        51.000          45.000
 112645627.79447  87775790.00847  21435768.4094   21435772.6554   21435768.7064
        53.000          47.000
 109873113.70147  85615408.31447  20908160.7734   20908163.4474   20908160.5644
        53.000          49.000
 09  1  1  0  5 30.0000000  0 10G12G18G 9G22G14G 5G30G21G24G29
 127726150.59347  99526853.90547  24305491.4204   24305494.8044   24305491.7024
        43.000          38.000
 124879535.29647  97308722.03347  23763790.4354   23763792.5544   23763790.8294
        46.000          39.000
 112645948.52247  87776046.90247  21435821.9874   21435825.2614   21435821.9444
        53.000          47.000
 128257660.18747  99941010.42347  24406640.4604   24406642.1614   24406640.3064
        43.000          37.000
 117564762.85147  91608892.47947  22371840.1564   22371843.1744   22371840.2824
        48.000          42.000
 125584480.47047  97858018.95847  23897945.8494   23897950.2084   23897946.1364
        44.000          39.000
 124087038.56247  96691189.36147  23612985.0554   23612988.8704   23612984.6944
        46.000          40.000
 115003324.81747  89612976.74447  21884408.1314   21884410.0214   21884408.6214
        52.000          45.000
 112627000.57447  87761275.30447  21432223.5154   21432227.9864   21432223.6854
        53.000          47.000
 109924869.10747  85655737.20747  20918009.4424   20918012.2104   20918009.1004
        53.000          49.000
 09  1  1  0  6  0.0000000  0 10G12G18G 9G22G14G 5G30G21G24G29
 127738318.28147  99536335.25547  24307806.9364   24307810.0504   24307806.6694
        43.000          38.000
 124882145.27447  97310755.82247  23764286.8514   23764289.0354   23764287.1914
        45.000          39.000
 112651209.33747  87780146.24547  21436823.0614   21436826.5854   21436823.1734
        53.000          47.000
 128257423.40347  99940826.02047  24406595.0834   24406596.7054   24406595.2764
        41.000          37.000
 117518609.74347  91572929.05147  22363057.0074   22363060.4534   22363056.9874
        48.000          42.000
 125582321.08547  97856336.31647  23897534.9244   23897539.5114   23897535.1374
        45.000          39.000
 124087277.22947  96691375.33247  23613030.4164   23613034.2834   23613030.2984
        46.000          40.000
 114919834.32947  89547919.24347  21868520.3484   21868522.3454   21868520.7624
        51.000          45.000
 112608736.05947  87747043.21447  21428748.0584   21428752.2674   21428748.2364
        53.000          47.000
 109976986.55347  85696348.20247  20927927.0604   20927929.7594   20927926.9134
        53.000          49.000
 09  1  1  0  6 30.0000000  0 10G12G18G 9G22G14G 5G30G21G24G29
 127750314.07547  99545682.65147  24310089.5034   24310092.5834   24310089.2984
        43.000          38.000
 124884553.11447  97312632.09747  23764744.8194   23764747.3984   23764745.3244
        46.000          39.000
 112656973.60747  87784637.90747  21437920.0714   21437923.5664   21437920.2084
        53.000          47.000
 128257078.85647  99940557.62547  24406529.2174   24406531.2694   24406528.8214
        43.000          37.000
 117472925.50947  91537330.98147  22354364.1974   22354367.2564   22354364.1384
        48.000          42.000
 125579981.44847  97854513.23347  23897089.5824   23897094.2244   23897090.1024
        45.000          39.000
 124087293.46347  96691387.98747  23613033.6524   23613037.7604   23613033.3424
        46.000          40.000
 114836473.65647  89482962.88747  21852657.0404   21852659.1324   21852657.5274
        51.000          45.000
 112590835.34647  87733094.61447  21425341.6424   21425345.9004   21425341.7374
        53.000          47.000
 110029462.88247  85737238.84947  20937912.9174   20937915.6744   20937912.6124
        53.000          49.000
 09  1  1  0  7  0.0000000  0 10G12G18G 9G22G14G 5G30G21G24G29
 127762138.74547  99554896.73147  24312339.8804   24312342.8484   24312339.4574
        43.000          38.000
 124886757.77047  97314350.05147  23765164.5204   23765166.5814   23765164.7734
        45.000          39.000
 112663242.46447  87789522.75747  21439112.7094   21439116.4534   21439112.6504
        52.000          47.000
 128256624.80247  99940203.92747  24406442.9624   24406444.5794   24406443.2394
        41.000          37.000
 117427711.01247  91502098.93647  22345759.6774   22345763.2724   22345760.1364
        48.000          42.000
 125577462.60647  97852550.51947  23896610.3804   23896614.5014   23896610.1934
        45.000          39.000
 124087087.21047  96691227.30047  23612994.6604   23612998.2734   23612994.1994
        46.000          40.000
 114753246.15547  89418110.31247  21836819.4774   21836821.3984   21836819.7664
        51.000          45.000
 112573300.66347  87719431.23147  21422004.9694   21422009.0974   21422005.0694
        53.000          47.000
 110082295.70847  85778407.28747  20947966.5404   20947969.4234   20947966.2324
        53.000          49.000
 09  1  1  0  7 30.0000000  0 10G12G18G 9G22G14G 5G30G21G24G29
 127773792.71347  99563977.77547  24314557.0354   24314560.0354   24314557.1324
        44.000          38.000
 124888758.60347  97315909.15447  23765545.1734   23765547.2414   23765545.6954
        45.000          39.000
 112670016.65847  87794801.37547  21440401.9744   21440405.5124   21440402.1584
        52.000          47.000
 128256059.44047  99939763.47047  24406335.0074   24406337.3864   24406334.4824
        43.000          37.000
 117382966.48147  91467233.11147  22337245.0334   22337248.5354   22337245.1384
        48.000          42.000
 125574764.85647  97850448.38947  23896096.8684   23896101.2224   23896097.6654
        45.000          39.000
 124086658.27247  96690893.07247  23612912.8234   23612916.6834   23612912.9324
        46.000          40.000
 114670154.05547  89353363.23947  21821007.4614   21821009.5154   21821007.9334
        51.000          45.000
 112556133.45347  87706054.19047  21418738.2494   21418742.2284   21418738.3404
        54.000          47.000
 110135482.07447  85819851.20847  20958087.6964   20958090.5024   20958087.5364
        53.000          48.000
 09  1  1  0  8  0.0000000  0 10G12G18G 9G22G14G 5G30G21G24G29
 127785277.88247  99572927.27347  24316742.9054   24316745.6454   24316742.8744
        44.000          38.000
 124890555.53347  97317309.37947  23765887.2254   23765889.4214   23765887.5414
        45.000          39.000
 112677297.89447  87800475.08947  21441787.5004   21441790.8454   21441787.5024
        53.000          47.000
 128255381.81647  99939235.56447  24406206.6334   24406207.5624   24406206.7314
        44.000          38.000
 117338693.18847  91432734.47547  22328819.9764   22328823.9014   22328820.2544
        49.000          43.000
 125571889.97547  97848208.24147  23895549.4974   23895553.9524   23895550.2924
        46.000          39.000
 124086007.15947  96690385.73947  23612788.8294   23612792.6594   23612788.6994
        46.000          40.000
 114587201.22747  89288724.67347  21805222.0954   21805224.2014   21805222.4314
        51.000          45.000
 112539336.26547  87692965.48247  21415541.7024   21415545.8594   21415541.9294
        53.000          47.000
 110189020.06647  85861569.11847  20968275.8764   20968278.3714   20968275.7054
        53.000          48.000
 09  1  1  0  8 30.0000000  0 10G12G18G 9G22G14G 5G30G21G24G29
 127796594.22247  99581745.22147  24318895.8664   24318899.0964   24318896.3254
        42.000          38.000
 124892146.67147  97318549.26747  23766189.8164   23766192.0184   23766190.0004
        45.000          39.000
 112685086.15147  87806543.88947  21443269.4084   21443272.9144   21443269.6574
        53.000          47.000
 128254588.92647  99938617.82147  24406054.2374   24406056.7534   24406054.5634
        43.000          37.000
 117294890.30847  91398602.39747  22320484.8244   22320488.1494   22320485.2454
        48.000          43.000
 125568837.60347  97845829.78047  23894969.1684   23894973.6434   23894969.3064
        45.000          39.000
 124085132.82347  96689704.45747  23612622.3204   23612626.1744   23612622.3524
        46.000          40.000
 114504389.55447  89224196.09847  21789463.5154   21789465.5134   21789464.0234
        52.000          45.000
 112522909.90547  87680165.72847  21412415.9324   21412420.0464   21412416.0174
        53.000          47.000
 110242905.73447  85903557.96147  20978529.8354   20978532.4694   20978529.3554
        53.000          48.000
 09  1  1  0  9  0.0000000  0 10G12G18G 9G22G14G 5G30G21G24G29
 127807744.81347  99590434.01647  24321017.1594   24321020.7344   24321016.8674
        42.000          38.000
 124893533.53347  97319629.96147  23766453.7854   23766455.7184   23766454.4794
        46.000          39.000
 112693385.14047  87813010.66747  21444848.7664   21444852.2044   21444848.8514
        52.000          47.000
 128253682.32247  99937911.48347  24405882.2264   24405884.7254   24405882.5104
        43.000          37.000
 117251561.02747  91364839.35947  22312239.3604   22312242.7934   22312239.4864
        48.000          43.000
 125565611.34647  97843315.83747  23894355.4774   23894359.4694   23894355.7154
        45.000          39.000
 124084037.64747  96688851.10447  23612414.2934   23612417.4154   23612413.8854
        45.000          39.000
 114421724.65947  89159781.90547  21773733.1094   21773734.9004   21773733.4664
        51.000          45.000
 112506858.99647  87667658.53247  21409361.5004   21409365.6514   21409361.6124
        53.000          47.000
 110297139.33847  85945817.92747  20988850.0534   20988852.5054   20988849.8324
        53.000          48.000
 09  1  1  0  9 30.0000000  0 10G12G18G 9G22G14G 5G30G21G24G29
 127818727.98847  99598992.33847  24323108.0574   24323111.3054   24323107.3634
        43.000          38.000
 124894712.96047  97320549.03247  23766678.1734   23766680.2264   23766678.5094
        46.000          39.000
 112702193.12347  87819874.06447  21446524.6834   21446528.3404   21446524.7934
        52.000          47.000
 128252657.30447  99937112.85347  24405687.3844   24405689.2834   24405687.7674
        43.000          37.000
 117208703.15247  91331443.65347  22304083.8604   22304087.2904   22304084.2774
        49.000          43.000
 125562209.43647  97840665.01147  23893708.1614   23893712.1794   23893708.5244
        46.000          39.000
 124082718.87647  96687823.51647  23612163.1284   23612166.2994   23612163.1004
        46.000          39.000
 114339206.38447  89095481.97147  21758030.4624   21758032.0544   21758030.8544
        52.000          45.000
 112491182.56947  87655443.14247  21406378.3314   21406382.6214   21406378.4614
        53.000          47.000
 110351714.83947  85988344.30247  20999235.3714   20999237.9614   20999235.0944
        53.000          48.000
 09  1  1  0 10  0.0000000  0 10G12G18G 9G22G14G 5G30G21G24G29
 127829546.51447  99607422.39847  24325166.5684   24325170.1914   24325166.4464
        44.000          38.000
 124895686.07447  97321307.34747  23766863.1374   23766865.4744   23766863.4094
        45.000          39.000
 112711512.81847  87827136.19647  21448298.2974   21448301.7254   21448298.2534
        53.000          47.000
 128251514.64247  99936222.53047  24405470.4794   24405472.2264   24405470.6984
        43.000          37.000
 117166319.12347  91298417.17647  22296018.2944   22296021.5654   22296018.6584
        48.000          43.000
 125558634.48647  97837879.34947  23893027.5584   23893031.5514   23893028.3704
        45.000          39.000
 124081178.98547  96686623.62147  23611869.8214   23611873.5724   23611870.1774
        45.000          39.000
 114256839.94047  89031300.33847  21742356.6624   21742358.3474   21742357.0934
        52.000          45.000
 112475884.08347  87643522.25247  21403467.0974   21403471.3344   21403467.1694
        53.000          47.000
 110406631.64047  86031136.60447  21009685.5594   21009688.4644   21009685.3274
        53.000          48.000
 09  1  1  0 10 30.0000000  0 10G12G18G 9G22G14G 5G30G21G24G29
 127840200.44447  99615724.19047  24327193.6054   24327197.3264   24327193.3894
        44.000          39.000
 124896451.13947  97321903.52747  23767009.0004   23767010.7954   23767009.1374
        46.000          39.000
 112721344.07647  87834796.94547  21450168.8904   21450172.4584   21450169.0444
        53.000          46.000
 128250251.38047  99935238.25647  24405229.6394   24405231.4994   24405229.9764
        43.000          37.000
 117124407.99847  91265759.19047  22288043.0034   22288046.0754   22288043.1814
        48.000          43.000
 125554886.37647  97834958.73947  23892314.4024   23892318.8114   23892314.6864
        46.000          39.000
 124079416.69547  96685250.42947  23611534.6204   23611537.8064   23611534.6194
        46.000          39.000
 114174627.08747  88967238.38847  21726712.0514   21726713.7304   21726712.6214
        52.000          45.000
 112460964.19747  87631896.36647  21400628.0544   21400632.3234   21400628.1974
        54.000          47.000
 110461885.91147  86074191.86047  21020200.2594   21020202.9714   21020199.8914
        53.000          48.000
 09  1  1  0 11  0.0000000  0 10G12G18G 9G22G14G 5G30G21G24G29
 127850690.25947  99623898.12047  24329190.4014   24329193.2434   24329190.1974
        44.000          38.000
 124897006.60947  97322336.40047  23767114.2014   23767116.4364   23767114.5824
        45.000          39.000
 112731686.87647  87842856.29047  21452137.2244   21452140.7404   21452137.3564
        53.000          47.000
 128248865.40647  99934158.34247  24404966.0254   24404967.3034   24404965.5584
        43.000          37.000
 117082969.42747  91233469.42647  22280157.5344   22280160.9384   22280157.6494
        49.000          43.000
 125550965.45947  97831903.48747  23891568.3544   23891572.2184   23891568.9314
        45.000          39.000
 124077430.98747  96683703.14347  23611157.0724   23611160.3324   23611156.9174
        47.000          39.000
 114092569.98847  88903297.81947  21711096.9284   21711098.8804   21711097.3424
        52.000          45.000
 112446423.88147  87620566.25747  21397861.1534   21397865.2834   21397861.1734
        53.000          47.000
 110517474.16847  86117507.38347  21030778.4274   21030780.9834   21030778.3794
        53.000          48.000
 09  1  1  0 11 30.0000000  0 10G12G18G 9G22G14G 5G30G21G24G29
 127861019.28047  99631946.71547  24331155.5604   24331158.7244   24331155.0104
        43.000          38.000
 124897354.86847  97322607.80047  23767180.5424   23767183.0054   23767181.0734
        45.000          39.000
 112742545.21847  87851317.35947  21454203.6134   21454207.0564   21454203.8144
        53.000          47.000
 128247357.81347  99932983.67247  24404678.8034   24404680.1354   24404679.5934
        42.000          37.000
 117042006.63947  91201550.41047  22272362.5494   22272365.8014   22272362.8894
        49.000          43.000
 125546875.47247  97828716.50447  23890789.8874   23890794.1824   23890790.5944
        45.000          39.000
 124075225.14347  96681984.30547  23610737.1774   23610740.6674   23610736.7534
        46.000          39.000
 114010674.54547  88839483.21347  21695512.7054   21695514.5744   21695513.1324
        52.000          45.000
 112432267.83747  87609535.57847  21395167.3824   21395171.2464   21395167.4484
        54.000          47.000
 110573396.73247  86161083.42747  21041419.9804   21041422.8384   21041419.6254
        53.000          48.000
 09  1  1  0 12  0.0000000  0 10G12G18G 9G22G14G 5G30G21G24G29
 127871186.18547  99639868.98047  24333090.2604   24333093.6784   24333090.0694
        44.000          38.000
 124897493.01847  97322715.46747  23767207.3174   23767209.3394   23767207.9864
        46.000          39.000
 112753917.42747  87860178.84747  21456367.6194   21456371.1274   21456367.8814
        53.000          46.000
 128245724.76847  99931711.22447  24404367.9234   24404369.8094   24404368.1054
        43.000          37.000
 117001517.50847  91170000.46847  22264657.8154   22264660.8964   22264657.9154
        48.000          43.000
 125542615.00547  97825396.66847  23889979.5754   23889983.2784   23889979.8154
        45.000          39.000
 124072796.93647  96680092.22747  23610274.8034   23610278.3224   23610274.4994
        45.000          39.000
 113928941.37947  88775795.05247  21679959.4244   21679961.4824   21679959.7094
        52.000          45.000
 112418495.38047  87598803.78647  21392546.5634   21392550.4214   21392546.6794
        53.000          47.000
 110629648.29147  86204915.81047  21052124.1554   21052127.1154   21052123.9184
        53.000          48.000
 09  1  1  0 12 30.0000000  0 10G12G18G 9G22G14G 5G30G21G24G29
 127881193.85647  99647667.17447  24334994.1594   24334997.7724   24334994.1004
        42.000          38.000
 124897421.86347  97322660.05447  23767193.6374   23767195.4214   23767194.1284
        46.000          39.000
 112765806.30947  87869442.92247  21458629.9954   21458633.2564   21458629.9994
        53.000          46.000
 128243966.32747  99930341.09847  24404033.7104   24404035.2524   24404033.8454
        43.000          37.000
 116961504.32747  91138821.41147  22257043.3494   22257046.7784   22257043.6554
        48.000          43.000
 125538186.93547  97821946.25447  23889136.8054   23889140.7074   23889137.1134
        46.000          39.000
 124070147.97347  96678028.12847  23609770.8684   23609773.6494   23609771.0514
        47.000          40.000
 113847374.96647  88712236.80747  21664437.7544   21664439.7454   21664438.1264
        52.000          45.000
 112405110.01747  87588373.63647  21389999.2134   21390003.3544   21389999.3754
        53.000          47.000
 110686227.81247  86249003.76047  21062891.1074   21062893.7504   21062890.8674
        53.000          48.000
 09  1  1  0 13  0.0000000  0 10G12G18G 9G22G14G 5G30G21G24G29
 127891041.50747  99655340.70447  24336868.0354   24336871.1694   24336867.6124
        42.000          37.000
 124897138.81247  97322439.52847  23767139.4854   23767141.8794   23767140.1654
        45.000          39.000
 112778210.53747  87879108.58247  21460990.3264   21460993.5964   21460990.3324
        53.000          46.000
 128242079.03047  99928870.54247  24403674.2744   24403676.1144   24403674.6144
        44.000          38.000
 116921965.63447  91108012.07147  22249519.3614   22249522.5854   22249519.4844
        49.000          43.000
 125533590.11747  97818364.33847  23888261.7834   23888265.8864   23888261.8954
        45.000          39.000
 124067276.56547  96675790.69347  23609224.6304   23609227.5104   23609224.6574
        47.000          40.000
 113765976.81347  88648809.67447  21648948.2754   21648950.1664   21648948.7794
        52.000          45.000
 112392111.51547  87578244.93047  21387525.7764   21387529.8334   21387525.8414
        53.000          47.000
 110743130.69147  86293343.68447  21073719.2394   21073722.0784   21073718.9094
        53.000          48.000
 09  1  1  0 13 30.0000000  0 10G12G18G 9G22G14G 5G30G21G24G29
 127900732.33347  99662892.06247  24338711.6764   24338715.5174   24338711.4964
        42.000          38.000
 124896646.07047  97322055.59447  23767045.8954   23767047.8264   23767046.0324
        45.000          39.000
 112791133.23647  87889178.24047  21463449.3114   21463452.6914   21463449.4034
        53.000          46.000
 128240064.15147  99927300.56747  24403291.2184   24403292.5784   24403290.9914
        43.000          38.000
 116882903.66347  91077574.21247  22242086.0634   22242089.3874   22242086.5184
        49.000          43.000
 125528828.11047  97814653.67147  23887355.8644   23887359.6724   23887356.1364
        45.000          39.000
 124064185.15047  96673381.81947  23608635.8494   23608639.4904   23608636.0464
        47.000          40.000
 113684752.04447  88585517.65047  21633491.7314   21633493.5784   21633492.1334
        52.000          45.000
 112379504.11647  87568420.98847  21385126.6294   21385130.7514   21385126.7134
        53.000          47.000
 110800356.68147  86337935.37847  21084609.2244   21084611.8494   21084609.0034
        53.000          48.000
 09  1  1  0 14  0.0000000  0 10G12G18G 9G22G14G 5G30G21G24G29
 127910265.76747  99670320.77547  24340525.9564   24340530.2544   24340524.9734
        43.000          38.000
 124895941.12847  97321506.33047  23766911.4924   23766913.2594   23766912.2274
        46.000          39.000
 112804573.78047  87899651.41747  21466006.8754   21466010.3534   21466006.9794
        53.000          46.000
 128237917.98147  99925628.29647  24402882.5084   24402883.8854   24402881.8964
        44.000          37.000
 116844317.38147  91047507.02047  22234743.3854   22234746.6434   22234743.4414
        49.000          43.000
 125523900.22947  97810813.77247  23886417.8934   23886421.9784   23886418.3324
        45.000          39.000
 124060872.34747  96670800.43747  23608005.8984   23608009.0644   23608005.8514
        47.000          40.000
 113603702.12247  88522361.88647  21618068.4354   21618070.2544   21618068.8954
        52.000          46.000
 112367287.47447  87558901.53047  21382801.8394   21382806.1514   21382801.9724
        53.000          47.000
 110857901.10247  86382775.18247  21095559.3464   21095562.0744   21095558.9954
        53.000          48.000
 09  1  1  0 14 30.0000000  0 10G12G18G 9G22G14G 5G30G21G24G29
 127919644.43047  99677628.85547  24342310.4824   24342314.1854   24342310.7774
        42.000          38.000
 124895024.67347  97320792.25047  23766737.2344   23766739.2214   23766737.7214
        45.000          39.000
 112818534.31347  87910529.78647  21468663.7514   21468667.0804   21468663.9854
        53.000          47.000
 128235640.79947  99923853.93747  24402448.9944   24402451.0404   24402448.6634
        44.000          37.000
 116806208.09347  91017811.51347  22227491.3094   22227494.6234   22227491.6274
        49.000          43.000
 125518808.76347  97806846.41047  23885448.7264   23885453.1294   23885449.1914
        45.000          39.000
 124057339.38947  96668047.51347  23607333.8824   23607337.0014   23607333.4744
        47.000          40.000
 113522831.45647  88459345.80047  21602679.3304   21602681.0814   21602679.7294
        52.000          45.000
 112355464.70147  87549688.98047  21380551.8654   21380556.2644   21380552.0004
        53.000          47.000
 110915762.66947  86427862.10147  21106570.0134   21106572.7374   21106569.8154
        53.000          48.000
 09  1  1  0 15  0.0000000  0 10G12G18G 9G22G14G 5G30G21G24G29
 127928868.63747  99684816.58447  24344066.2354   24344069.8364   24344066.0634
        42.000          38.000
 124893895.88347  97319912.68847  23766522.1244   23766524.2064   23766522.1854
        46.000          39.000
 112833014.80447  87921813.32047  21471419.1584   21471422.4954   21471419.2644
        53.000          47.000
 128233230.77647  99921976.06547  24401990.2084   24401992.2104   24401990.4014
        44.000          37.000
 116768575.62447  90988487.53747  22220329.9344   22220333.2624   22220330.0404
        49.000          43.000
 125513554.52147  97802752.21747  23884449.2654   23884453.2304   23884449.6774
        45.000          39.000
 124053586.28647  96665123.05547  23606619.8394   23606622.4174   23606619.1614
        47.000          40.000
 113442142.47447  88396471.27047  21587324.7074   21587326.5194   21587325.0334
        52.000          45.000
 112344037.46147  87540784.63847  21378377.6084   21378381.5804   21378377.7094
        53.000          47.000
 110973938.19747  86473193.67147  21117640.4894   21117643.1364   21117640.1704
        53.000          48.000
 09  1  1  0 15 30.0000000  0 10G12G18G 9G22G14G 5G30G21G24G29
 127937939.02347  99691884.43947  24345791.9394   24345795.6314   24345791.3824
        43.000          38.000
 124892553.23647  97318866.49647  23766266.9924   23766268.5654   23766267.2374
        46.000          39.000
 112848015.48247  87933502.19347  21474273.6974   21474276.9354   21474273.8274
        53.000          46.000
 128230685.40647  99919992.70347  24401506.4424   24401507.6814   24401506.4794
        44.000          38.000
 116731419.64347  90959534.86747  22213259.7314   22213262.7894   22213259.8854
        49.000          43.000
 125508137.53047  97798531.20547  23883418.2874   23883422.6574   23883418.7684
        46.000          39.000
 124049612.34647  96662026.51447  23605863.7374   23605866.2364   23605863.2264
        47.000          40.000
 113361637.45047  88333740.08247  21572004.8684   21572006.9164   21572005.2244
        52.000          46.000
 112333006.18047  87532188.83447  21376278.5964   21376282.4174   21376278.7364
        53.000          47.000
 111032424.15347  86518767.14547  21128769.9424   21128772.6624   21128769.7084
        53.000          48.000
 09  1  1  0 16  0.0000000  0 10G12G18G 9G22G14G 5G30G21G24G29
 127946858.28947  99698834.52147  24347489.1354   24347493.6574   24347489.2924
        43.000          38.000
 124890998.48147  97317655.01847  23765971.3084   23765972.8114   23765971.8334
        46.000          39.000
 112863539.17847  87945598.59547  21477227.8174   21477231.0324   21477227.8204
        53.000          46.000
 128228005.34747  99917904.41147  24400995.5944   24400997.3694   24400995.7804
        43.000          37.000
 116694742.46547  90930955.27747  22206280.3414   22206283.1904   22206280.6864
        49.000          43.000
 125502561.39647  97794186.17447  23882357.1074   23882361.6884   23882357.4094
        44.000          39.000
 124045419.88847  96658759.68347  23605065.9234   23605068.5444   23605065.5224
        47.000          40.000
 113281321.55247  88271156.27547  21556721.4754   21556723.4434   21556721.9514
        52.000          46.000
 112322374.80847  87523904.64447  21374255.6064   21374259.5984   21374255.8144
        54.000          47.000
 111091219.86447  86564581.98647  21139958.4344   21139961.1694   21139958.1424
        53.000          48.000
 09  1  1  0 16 30.0000000  0 10G12G18G 9G22G14G 5G30G21G24G29
 127955624.53947  99705665.37347  24349158.1724   24349161.9074   24349157.9044
        43.000          38.000
 124889227.64247  97316275.17147  23765633.5674   23765635.9854   23765634.2254
        45.000          39.000
 112879583.14547  87958100.40847  21480280.8964   21480284.1644   21480280.9564
        53.000          46.000
 128225185.99147  99915707.57647  24400459.2384   24400460.5394   24400458.8514
        42.000          37.000
 116658540.38847  90902745.90147  22199391.3384   22199394.0584   22199391.5674
        50.000          43.000
 125496823.52147  97789715.11447  23881265.1184   23881269.7724   23881265.6674
        45.000          39.000
 124041005.89347  96655320.23747  23604225.2634   23604229.1274   23604224.9654
        46.000          40.000
 113201194.51747  88208719.64647  21541473.7994   21541475.5384   21541474.2124
        52.000          46.000
 112312141.37847  87515930.53747  21372307.9554   21372311.9734   21372308.1264
        53.000          47.000
 111150319.02247  86610633.28847  21151204.7634   21151207.1414   21151204.4284
        53.000          48.000
 09  1  1  0 17  0.0000000  0 10G12G18G 9G22G14G 5G30G21G24G29
 127964243.25047  99712381.27747  24350797.6084   24350801.5924   24350797.7264
        43.000          38.000
 124887244.36047  97314729.77347  23765256.4084   23765258.8664   23765256.6364
        46.000          39.000
 112896151.99947  87971011.22147  21483433.7374   21483437.0904   21483433.7234
        53.000          47.000
 128222230.30947  99913404.48147  24399896.3194   24399898.4704   24399896.4604
        43.000          37.000
 116622818.22147  90874910.49147  22192593.5854   22192596.3984   22192593.6644
        49.000          43.000
 125490929.41147  97785122.30847  23880143.9434   23880148.0634   23880144.6294
        45.000          39.000
 124036374.72647  96651711.55447  23603344.4254   23603347.4954   23603343.8414
        47.000          40.000
 113121263.45747  88146435.73047  21526263.4864   21526265.3394   21526263.9394
        52.000          46.000
 112302311.95947  87508271.25047  21370437.3974   21370441.6904   21370437.5344
        53.000          47.000
 111209723.25547  86656922.30447  21162508.9804   21162511.4204   21162508.7934
        53.000          48.000
 09  1  1  0 17 30.0000000  0 10G12G18G 9G22G14G 5G30G21G24G29
 127972711.46847  99718979.94347  24352409.3724   24352412.7384   24352408.9454
        44.000          38.000
 124885044.10247  97313015.30347  23764837.6444   23764840.0064   23764838.2554
        46.000          40.000
 112913242.41347  87984328.44047  21486685.7904   21486689.3504   21486685.9004
        53.000          47.000
 128219132.48647  99910990.65247  24399307.8034   24399308.8884   24399308.0934
        44.000          38.000
 116587572.31947  90847446.18447  22185886.2154   22185889.4574   22185886.3494
        49.000          43.000
 125484876.09647  97780405.44847  23878991.9064   23878996.5274   23878992.2294
        45.000          39.000
 124031522.87447  96647930.92247  23602421.1704   23602424.0084   23602420.7664
        46.000          40.000
 113041527.54647  88084303.86947  21511090.1574   21511092.1824   21511090.6584
        52.000          46.000
 112292883.81447  87500924.63947  21368643.2704   21368647.4204   21368643.3504
        53.000          47.000
 111269425.88547  86703443.84647  21173870.0544   21173872.5574   21173869.7304
        53.000          48.000
 09  1  1  0 18  0.0000000  0 10G12G18G 9G22G14G 5G30G21G24G29
 127981033.20047  99725464.45947  24353993.1634   24353995.8874   24353992.5954
        44.000          38.000
 124882629.81547  97311134.04047  23764378.2364   23764380.6534   23764378.7124
        46.000          40.000
 112930858.01947  87998054.91247  21490038.3354   21490041.4754   21490038.6694
        53.000          46.000
 128215894.27447  99908467.44447  24398690.8404   24398691.9684   24398691.0354
        43.000          37.000
 116552805.14847  90820354.92547  22179270.3984   22179273.5604   22179270.5064
        49.000          43.000
 125478667.76547  97775567.79647  23877809.8084   23877814.1754   23877810.2654
        45.000          39.000
 124026453.41047  96643980.71847  23601455.8164   23601459.4164   23601455.7294
        46.000          40.000
 112961992.89847  88022328.82547  21495955.2224   21495957.0284   21495955.6574
        52.000          46.000
 112283861.89947  87493894.56747  21366926.4614   21366930.5924   21366926.6764
        53.000          47.000
 111329427.06747  86750198.02547  21185287.8734   21185290.3594   21185287.6424
        53.000          48.000
 09  1  1  0 18 30.0000000  0 10G12G18G 9G22G14G 5G30G21G24G29
 127989206.76447  99731833.50947  24355548.4774   24355551.3334   24355547.9804
        43.000          38.000
 124879997.83147  97309083.15747  23763877.4364   23763879.6724   23763877.8804
        46.000          40.000
 112948996.91347  88012189.13547  21493489.8004   21493492.9314   21493489.7954
        53.000          46.000
 128212511.57847  99905831.61747  24398047.1774   24398048.4164   24398047.3784
        42.000          37.000
 116518514.40547  90793634.90147  22172744.6214   22172747.8164   22172744.7304
        49.000          43.000
 125472302.79947  97770608.10047  23876598.9054   23876603.2864   23876599.3844
        46.000          39.000
 124021164.13847  96639859.22547  23600449.4414   23600453.4134   23600449.1854
        46.000          40.000
 112882659.89547  87960510.91647  21480858.4424   21480860.4844   21480858.8984
        52.000          46.000
 112275244.67947  87487179.85547  21365286.7334   21365291.0594   21365286.8534
        53.000          47.000
 111389721.08147  86797180.37747  21196761.3914   21196763.9974   21196761.1804
        53.000          48.000
 09  1  1  0 19  0.0000000  0 10G12G18G 9G22G14G 5G30G21G24G29
 127997235.44847  99738089.64447  24357076.2984   24357079.0984   24357076.1854
        44.000          38.000
 124877150.10247  97306864.16447  23763335.5914   23763337.7814   23763336.0814
        46.000          39.000
 112967661.47047  88026732.96647  21497041.5484   21497044.5424   21497041.6174
        53.000          46.000
 128208984.75047  99903083.50647  24397375.8484   24397377.3924   24397375.5434
        43.000          37.000
 116484701.88347  90767287.51847  22166310.4894   22166313.6994   22166310.5874
        49.000          43.000
 125465784.30547  97765528.77847  23875358.1824   23875362.4614   23875358.8524
        45.000          39.000
 124015656.99447  96635567.98147  23599401.4774   23599404.9684   23599401.5124
        46.000          40.000
 112803533.45847  87898853.97547  21465801.4154   21465803.1684   21465801.6444
        52.000          46.000
 112267035.84947  87480783.37047  21363724.5504   21363728.8094   21363724.4554
        53.000          47.000
 111450307.32947  86844390.42347  21208290.6474   21208293.3074   21208290.3344
        53.000          48.000
 09  1  1  0 19 30.0000000  0 10G12G18G 9G22G14G 5G30G21G24G29
 128005122.28347  99744235.27047  24358577.4274   24358580.1244   24358576.7304
        43.000          38.000
 124874087.85347  97304478.01247  23762753.0034   23762754.8784   23762753.2044
        46.000          39.000
 112986853.82547  88041688.07047  21500693.4264   21500696.7834   21500693.5934
        52.000          46.000
 128205314.35747  99900223.50747  24396677.4634   24396678.9364   24396677.6924
        44.000          37.000
 116451369.52547  90741314.29047  22159967.4184   22159970.5974   22159967.8764
        49.000          43.000
 125459115.20747  97760332.07247  23874088.3544   23874094.1284   23874088.8924
        44.000          39.000
 124009933.97547  96631108.51547  23598312.4214   23598315.8614   23598312.6434
        46.000          40.000
 112724618.54247  87837361.84947  21450784.4404   21450786.2664   21450784.7984
        53.000          46.000
 112259238.78847  87474707.74247  21362240.8754   21362245.0834   21362240.9934
        53.000          47.000
 111511184.53447  86891827.18547  21219875.2164   21219877.8084   21219874.9524
        53.000          48.000
 09  1  1  0 20  0.0000000  0 10G12G18G 9G22G14G 5G30G21G24G29
 128012864.20347  99750267.91947  24360050.4144   24360053.0744   24360050.0664
        42.000          38.000
 124870805.86747  97301920.63647  23762128.5344   23762130.2584   23762128.6344
        45.000          39.000
 113006570.02247  88057051.35847  21504445.4594   21504448.6694   21504445.7134
        52.000          46.000
 128201494.90547  99897247.36047  24395950.8834   24395952.4074   24395950.9634
        43.000          37.000
 116418513.06347  90715711.88647  22153715.1664   22153718.3454   22153715.4424
        49.000          44.000
 125452292.33947  97755015.55147  23872790.5904   23872795.4144   23872790.7014
        45.000          39.000
 124003991.11147  96626477.74147  23597181.1974   23597184.8194   23597181.4084
        46.000          40.000
 112645913.74347  87776033.44447  21435807.1994   21435809.1674   21435807.7514
        53.000          46.000
 112251850.38247  87468950.54747  21360834.8934   21360838.9684   21360834.9564
        53.000          47.000
 111572345.73347  86939485.25047  21231513.9144   21231516.4004   21231513.6804
        53.000          48.000
 09  1  1  0 20 30.0000000  0 10G12G18G 9G22G14G 5G30G21G24G29
 128020467.81547  99756192.82247  24361496.7724   24361500.0834   24361496.2034
        43.000          38.000
 124867309.99247  97299196.59047  23761463.0864   23761464.7184   23761463.3184
        46.000          39.000
 113026816.77647  88072828.06847  21508298.2664   21508301.6804   21508298.3644
        52.000          46.000
 128197530.65947  99894158.39047  24395196.1614   24395197.3884   24395196.2514
        44.000          37.000
 116386138.48547  90690484.99447  22147554.6714   22147557.6024   22147554.7454
        49.000          44.000
 125445322.79447  97749584.76647  23871464.1524   23871469.2654   23871465.0794
        45.000          39.000
 123997834.40347  96621680.31847  23596009.5274   23596013.4564   23596009.2274
        46.000          40.000
 112567427.97347  87714875.71147  21420872.0904   21420873.8164   21420872.5254
        53.000          46.000
 112244878.34947  87463517.79547  21359508.1584   21359512.1354   21359508.3094
        53.000          47.000
 111633793.69847  86987366.76647  21243207.0114   21243209.6944   21243206.7734
        53.000          48.000
 09  1  1  0 21  0.0000000  0 10G12G18G 9G22G14G 5G30G21G24G29
 128027928.05947  99762006.00947  24362917.0054   24362919.8214   24362916.7204
        42.000          37.000
 124863593.14547  97296300.35847  23760756.1674   23760757.5854   23760756.5524
        46.000          39.000
 113047587.54947  88089013.10647  21512250.6424   21512254.1484   21512250.6514
        52.000          46.000
 128193413.39947  99890950.19647  24394413.2364   24394413.8464   24394413.3144
        44.000          37.000
 116354238.54947  90665627.92947  22141484.2594   22141486.9674   22141484.1794
        50.000          44.000
 125438200.92947  97744035.26147  23870109.4124   23870113.7464   23870109.7324
        45.000          39.000
 123991457.78147  96616711.57047  23594796.2524   23594800.2844   23594795.9304
        46.000          40.000
 112489157.54247  87653885.76447  21405977.7034   21405979.1424   21405978.1264
        53.000          46.000
 112238317.41847  87458405.38947  21358259.6284   21358263.7414   21358259.7444
        53.000          47.000
 111695518.86547  87035464.29847  21254953.0004   21254955.7404   21254952.8014
        53.000          48.000
 09  1  1  0 21 30.0000000  0 10G12G18G 9G22G14G 5G30G21G24G29
 128035250.28947  99767711.65247  24364310.7034   24364313.1864   24364310.6874
        43.000          38.000
 124859659.14347  97293234.90547  23760007.0464   23760009.1444   23760007.4614
        45.000          39.000
 113068887.21947  88105610.28047  21516303.9164   21516307.3584   21516303.9954
        52.000          46.000
 128189146.62647  99887625.46947  24393600.5054   24393602.5554   24393600.6184
        43.000          37.000
 116322818.22447  90641144.60547  22135505.1904   22135507.9484   22135505.5724
        50.000          44.000
 125430932.65347  97738371.69547  23868726.7164   23868730.6114   23868726.8634
        45.000          39.000
 123984866.14347  96611575.26247  23593541.6664   23593545.7384   23593541.3524
        46.000          40.000
 112411110.19847  87593069.64747  21391125.7044   21391127.1684   21391126.0574
        53.000          46.000
 112232173.60547  87453618.00847  21357090.6374   21357094.6904   21357090.7824
        53.000          47.000
 111757523.49347  87083779.59847  21266751.8914   21266754.7464   21266751.4934
        53.000          48.000
 09  1  1  0 22  0.0000000  0 10G12G18G 9G22G14G 5G30G21G24G29
 128042436.20547  99773311.08447  24365678.0584   24365680.7234   24365677.7544
        43.000          38.000
 124855508.30147  97290000.50147  23759217.1054   23759219.3754   23759217.4174
        45.000          39.000
 113090716.53247  88122620.15347  21520457.8504   21520461.2164   21520458.0434
        52.000          46.000
 128184729.24647  99884183.41847  24392760.5054   24392761.2834   24392760.6454
        45.000          38.000
 116291877.44047  90617034.93447  22129617.1454   22129620.2564   22129617.4264
        50.000          44.000
 125423519.51847  97732595.21547  23867315.8504   23867320.1534   23867316.3914
        46.000          39.000
 123978060.14947  96606271.93747  23592246.3634   23592250.6564   23592245.9704
        46.000          40.000
 112333289.60147  87532430.21147  21376316.9514   21376318.4014   21376317.3214
        53.000          46.000
 112226448.54447  87449156.92147  21356001.1974   21356005.0724   21356001.2764
        53.000          47.000
 111819804.90047  87132310.58147  21278603.4994   21278606.4214   21278603.2654
        53.000          48.000
 09  1  1  0 22 30.0000000  0 10G12G18G 9G22G14G 5G30G21G24G29
 128049485.01847  99778803.70047  24367018.7484   24367022.1964   24367018.2914
        43.000          38.000
 124851137.94147  97286595.06247  23758385.1934   23758387.7814   23758385.4644
        45.000          39.000
 113113074.01947  88140041.58747  21524712.1974   21524715.6744   21524712.2504
        52.000          46.000
 128180157.81047  99880621.29647  24391890.2764   24391890.8894   24391890.8084
        45.000          38.000
 116261414.29147  90593297.44447  22123820.4184   22123822.9704   22123820.5604
        50.000          44.000
 125415960.65447  97726705.20647  23865877.1254   23865880.8604   23865878.0034
        45.000          39.000
 123971038.32847  96600800.40547  23590910.1454   23590914.1574   23590910.0894
        46.000          40.000
 112255696.61247  87471968.16047  21361551.4144   21361553.2544   21361551.7114
        53.000          46.000
 112221141.80847  87445021.80247  21354991.5194   21354995.6134   21354991.6154
        54.000          47.000
 111882358.17047  87181053.39947  21290507.1764   21290509.8054   21290507.0274
        53.000          48.000
 09  1  1  0 23  0.0000000  0 10G12G18G 9G22G14G 5G30G21G24G29
 128056397.96047  99784190.44547  24368334.3294   24368337.4414   24368334.2644
        42.000          38.000
 124846547.60147  97283018.18547  23757512.6594   23757514.3504   23757513.1944
        45.000          39.000
 113135960.02447  88157874.85947  21529067.3504   21529070.7854   21529067.5404
        52.000          46.000
 128175430.91747  99876938.05047  24390990.3584   24390991.1804   24390991.1744
        44.000          37.000
 116231428.40247  90569931.85447  22118114.1234   22118117.0134   22118114.3074
        50.000          44.000
 125408257.17347  97720702.51747  23864411.0904   23864416.0644   23864411.5574
        45.000          39.000
 123963800.93647  96595160.91247  23589532.9684   23589537.0674   23589532.8814
        46.000          40.000
 112178334.15747  87411685.74047  21346829.8244   21346831.5804   21346830.2484
        53.000          46.000
 112216254.58447  87441213.58447  21354061.3884   21354065.4164   21354061.5144
        53.000          47.000
 111945180.30847  87230005.71647  21302461.7644   21302464.4274   21302461.3894
        53.000          48.000
 09  1  1  0 23 30.0000000  0 10G12G18G 9G22G14G 5G30G21G24G29
 128063176.77447  99789472.62147  24369624.6204   24369627.6044   24369624.7034
        43.000          38.000
 124841737.26347  97279269.88347  23756596.5764   23756598.8924   23756596.7334
        45.000          39.000
 113159374.80547  88176120.15547  21533523.0964   21533526.5694   21533523.1444
        52.000          46.000
 128170547.75847  99873133.03347  24390061.8194   24390062.8914   24390062.0274
        44.000          37.000
 116201919.74847  90546938.13147  22112498.9534   22112501.6444   22112499.1604
        50.000          44.000
 125400410.62947  97714588.35247  23862918.5104   23862922.6734   23862918.7434
        45.000          39.000
 123956348.51347  96589353.83447  23588115.1674   23588118.7214   23588114.9834
        46.000          40.000
 112101205.50347  87351585.50847  21332152.6174   21332154.4084   21332153.1524
        53.000          46.000
 112211788.37647  87437733.43147  21353211.4064   21353215.4134   21353211.4884
        53.000          47.000
 112008268.84247  87279165.61047  21314467.1654   21314469.8284   21314466.8334
        53.000          48.000
 09  1  1  0 24  0.0000000  0 10G12G18G 9G22G14G 5G30G21G24G29
 128069823.69547  99794652.06847  24370888.7574   24370892.3674   24370889.0434
        42.000          38.000
 124836708.49347  97275351.37147  23755639.4254   23755641.8644   23755640.0274
        45.000          39.000
 113183320.39047  88194779.06547  21538079.7294   21538083.4134   21538079.8424
        53.000          46.000
 128165508.10647  99869206.06947  24389102.3994   24389104.1314   24389102.7214
        43.000          37.000
 116172889.85047  90524317.46647  22106974.4044   22106977.6484   22106974.6894
        49.000          44.000
 125392423.71047  97708364.80247  23861398.3294   23861402.4354   23861399.0904
        45.000          39.000
 123948682.86847  96583380.62347  23586656.3364   23586659.5584   23586656.0094
        46.000          40.000
 112024315.15547  87291670.95747  21317520.9294   21317522.4874   21317521.2634
        53.000          46.000
