     2.11           OBSERVATION DATA    G (GPS)             RINEX VERSION / TYPE
teqc  2013Mar15     gpsops              20140511 00:23:23UTCPGM / RUN BY / DATE
Linux 2.4.21-27.ELsmp|Opteron|gcc -static|Linux x86_64|=+   COMMENT
BIT 2 OF LLI FLAGS DATA COLLECTED UNDER A/S CONDITION       COMMENT
GLPS                                                        MARKER NAME
42005M002                                                   MARKER NUMBER
GGN                 JPL                                     OBSERVER / AGENCY
ZR220013847         ASHTECH UZ-12       CQ00                REC # / TYPE / VERS
CR519992104         ASH701945B_M    SCIT                    ANT # / TYPE
   -33801.4662 -6377516.5323   -82154.3508                  APPROX POSITION XYZ
        0.0083        0.0000        0.0000                  ANTENNA: DELTA H/E/N
     1     1                                                WAVELENGTH FACT L1/2
     7    L1    L2    P1    P2    C1    S1    S2            # / TYPES OF OBSERV
    30.0000                                                 INTERVAL
                                                            COMMENT
This data is provided as a public service by NASA/JPL.      COMMENT
No warranty is expressed or implied regarding suitability   COMMENT
for use.  For further information, contact:                 COMMENT
Dave Stowers, NASA/JPL m/s 238-600                          COMMENT
4800 Oak Grove Drive, Pasadena CA 91109 USA                 COMMENT
                                                            COMMENT
Forced Modulo Decimation to 30 seconds                      COMMENT
 SNR is mapped to RINEX snr flag value [0-9]                COMMENT
  L1 & L2: min(max(int(snr_dBHz/6), 0), 9)                  COMMENT
pseudorange smoothing corrections not applied               COMMENT
  2014     5    10     0     0    0.0000000     GPS         TIME OF FIRST OBS
                                                            END OF HEADER
 14  5 10  0  0  0.0000000  0 11G13G09G07G10G11G08G17G20G04G01G28
  10050765.10447   7823994.28246  23402441.5774   23402450.3934   23402441.690
        43.0004         39.0004
 -19032829.75748 -14816726.01848  20380308.9324   20380316.7914   20380309.329
        53.0004         48.0004
 -23879117.86049 -18575923.75248  20164039.1254   20164045.2044   20164038.743
        54.0004         49.0004
  -5982193.12846  -4651572.13546  24515101.5834   24515114.8274   24515103.354
        41.0004         37.0004
                                                                  24660768.576

 -24120639.16349 -18746356.12248  20304286.5854   20304294.2834   20304286.936
        54.0004         49.0004
 -16136823.72248 -12513760.30847  22234647.3984   22234655.9194   22234647.041
        50.0004         45.0004
  -4842134.19847  -3713080.86446  23615443.0104   23615452.9284   23615443.625
        42.0004         38.0004
 -16110903.54448 -12499516.76447  22052231.5724   22052239.6714   22052231.097
        49.0004         44.0004
  -9881509.57647  -7672658.46646  22942800.5684   22942812.8824   22942800.177
        46.0004         41.0004
  -3657595.59247  -2814833.26746  24031969.8394   24031981.0824   24031970.363
        43.0004         38.0004
 14  5 10  0  0 30.0000000  0 10G13G09G07G10G08G17G20G04G01G28
  10130813.89547   7886370.01246  23417674.6974   23417682.3344   23417673.954
        43.0004         39.0004
 -19081593.72348 -14854723.81248  20371029.9104   20371037.5554   20371029.789
        53.0004         49.0004
 -23861989.41149 -18562576.86248  20167298.3944   20167304.3594   20167298.035
        54.0004         49.0004
  -6027122.64046  -4686581.98446  24506552.6714   24506565.2324   24506553.564
        41.0004         37.0004
 -24172132.99449 -18786481.09448  20294487.7684   20294495.3384   20294488.267
        54.0004         49.0004
 -16100836.34848 -12485718.17747  22241495.7244   22241504.1684   22241495.169
        50.0004         46.0004
  -4841497.32147  -3712584.54946  23615564.3824   23615574.2664   23615565.158
        42.0004         38.0004
 -16199039.15548 -12568193.75047  22035459.4014   22035467.3404   22035459.365
        49.0004         44.0004
  -9793722.76647  -7604253.18046  22959505.7884   22959519.0484   22959505.513
        46.0004         41.0004
  -3695012.96047  -2843989.44246  24024849.0584   24024860.7774   24024849.745
        43.0004         39.0004
 14  5 10  0  1  0.0000000  0 10G13G09G07G10G08G17G20G04G01G28
  10210758.65947   7948664.67946  23432886.9304   23432893.9454   23432887.738
        44.0004         39.0004
 -19129828.87348 -14892309.54548  20361850.8794   20361858.3884   20361850.761
        53.0004         49.0004
 -23844259.81949 -18548761.54648  20170672.2864   20170677.9554   20170671.700
        54.0004         49.0004
  -6072297.27947  -4721782.81846  24497956.7304   24497968.1414   24497957.699
        42.0004         37.0004
 -24223092.53349 -18826189.73948  20284790.3514   20284798.2644   20284790.618
        54.0004         49.0004
 -16064671.07148 -12457537.42647  22248377.7664   22248386.1244   22248377.136
        50.0004         45.0004
  -4840701.17447  -3711964.12046  23615714.5834   23615724.9834   23615716.093
        42.0004         37.0004
 -16286903.87248 -12636659.65647  22018739.1344   22018748.2094   22018739.209
        49.0004         44.0004
  -9705620.90847  -7535602.40046  22976271.5334   22976284.5374   22976270.754
        46.0004         41.0004
  -3732688.01747  -2873346.42046  24017680.4414   24017691.6264   24017680.979
        43.0004         39.0004
 14  5 10  0  1 30.0000000  0 10G13G09G07G10G08G17G20G04G01G28
  10290598.23647   8010877.40946  23448079.6384   23448088.1374   23448080.014
        44.0004         39.0004
 -19177532.51048 -14929481.11848  20352773.1494   20352780.4014   20352773.209
        53.0004         49.0004
 -23825928.46849 -18534477.33948  20174160.5044   20174166.5794   20174160.265
        54.0004         49.0004
  -6117716.07946  -4757173.92246  24489313.4894   24489326.3544   24489314.280
        41.0004         37.0004
 -24273514.48349 -18865479.47848  20275195.3294   20275202.6284   20275195.711
        54.0004         49.0004
 -16028329.98448 -12429219.67447  22255292.9484   22255301.8034   22255292.790
        50.0004         46.0004
  -4839743.08647  -3711217.50546  23615897.7694   23615908.2584   23615899.127
        42.0004         37.0004
 -16374494.13948 -12704911.70247  22002072.1394   22002079.6574   22002071.412
        49.0004         44.0004
  -9617205.65147  -7466707.41346  22993096.2374   22993109.7804   22993095.606
        46.0004         41.0004
  -3770618.96847  -2902902.80646  24010462.0204   24010472.2924   24010462.076
        43.0004         39.0004
 14  5 10  0  2  0.0000000  0 10G13G09G07G10G08G17G20G04G01G28
  10370329.97147   8073006.09346  23463252.0514   23463261.3964   23463252.581
        43.0004         39.0004
 -19224703.57048 -14966237.69048  20343796.9184   20343804.1664   20343796.480
        53.0004         49.0004
 -23806996.96649 -18519725.47548  20177763.0424   20177768.7394   20177762.498
        54.0004         49.0004
  -6163380.11246  -4792756.11646  24480624.6194   24480634.3534   24480624.929
        41.0004         37.0004
 -24323397.54849 -18904349.31248  20265702.7774   20265710.4224   20265702.874
        54.0004         49.0004
 -15991816.75548 -12400767.79447  22262241.2094   22262249.3504   22262240.816
        50.0004         46.0004
  -4838622.13647  -3710344.00146  23616111.6234   23616121.0734   23616112.430
        42.0004         38.0004
 -16461808.34048 -12772948.64947  21985456.3424   21985465.0754   21985455.725
        49.0004         44.0004
  -9528480.54347  -7397570.99346  23009980.2254   23009993.5874   23009979.463
        46.0004         41.0004
  -3808806.34047  -2932659.00746  24003194.7894   24003204.5444   24003195.501
        43.0004         39.0004
 14  5 10  0  2 30.0000000  0 10G13G09G07G10G08G17G20G04G01G28
  10449952.80347   8135049.92946  23478404.2714   23478412.6094   23478404.619
        44.0004         39.0004
 -19271337.94648 -15002576.07348  20334922.1084   20334929.9174   20334922.221
        53.0004         49.0004
 -23787463.41949 -18504504.49048  20181479.9874   20181485.8284   20181479.636
        54.0004         49.0004
  -6209286.86147  -4828527.45046  24471887.4544   24471899.9164   24471888.889
        42.0004         37.0004
 -24372736.73949 -18942795.34048  20256313.8634   20256321.7144   20256314.276
        54.0004         49.0004
 -15955131.96248 -12372182.22247  22269221.6904   22269230.7744   22269221.900
        50.0004         45.0004
  -4837334.46047  -3709340.56146  23616357.0914   23616364.6584   23616356.944
        42.0004         37.0004
 -16548841.92048 -12840766.92347  21968893.9704   21968903.0184   21968894.100
        49.0004         44.0004
  -9439446.04847  -7328193.48546  23026923.0004   23026935.9124   23026922.015
        46.0004         41.0004
  -3847247.39547  -2962612.88046  23995879.9944   23995891.0144   23995880.279
        43.0004         39.0004
 14  5 10  0  3  0.0000000  0 10G13G09G07G10G08G17G20G04G01G28
  10529462.68947   8197005.73946  23493534.0874   23493543.4284   23493533.822
        43.0004         39.0004
 -19317435.82948 -15038496.40748  20326150.2414   20326157.5294   20326150.140
        53.0004         49.0004
 -23767330.59749 -18488816.52848  20185311.2334   20185317.1254   20185310.985
        54.0004         49.0004
  -6255438.35547  -4864489.46346  24463105.1764   24463117.0404   24463105.898
        42.0004         37.0004
 -24421531.62249 -18980817.24048  20247028.4574   20247036.0344   20247028.860
        54.0004         49.0004
 -15918280.31948 -12343466.63547  22276235.6674   22276243.0184   22276234.245
        50.0004         46.0004
  -4835880.63347  -3708207.64746  23616632.6204   23616642.7054   23616633.144
        42.0004         37.0004
 -16635594.27648 -12908366.06547  21952385.5634   21952393.5474   21952385.030
        49.0004         45.0004
  -9350106.79747  -7258578.49846  23043923.2714   23043936.3974   23043922.605
        46.0004         41.0004
  -3885943.09447  -2992765.16446  23988515.9964   23988526.3584   23988516.773
        44.0004         39.0004
 14  5 10  0  3 30.0000000  0 10G13G09G07G10G08G17G20G04G01G28
  10608859.02147   8258873.08246  23508643.5314   23508650.6934   23508642.985
        43.0004         38.0004
 -19362994.29948 -15073996.41848  20317480.8754   20317488.0904   20317480.575
        53.0004         49.0004
 -23746597.68049 -18472660.96548  20189256.4124   20189262.4334   20189256.259
        54.0004         49.0004
  -6301832.92547  -4900640.90146  24454277.1914   24454288.8884   24454277.006
        42.0004         37.0004
 -24469778.55749 -19018412.16748  20237847.2714   20237854.9784   20237847.551
        54.0004         49.0004
 -15881262.97148 -12314621.93147  22283279.1174   22283286.7214   22283278.392
        50.0004         46.0004
  -4834257.29547  -3706942.66146  23616941.7964   23616950.8934   23616942.757
        42.0004         37.0004
 -16722061.24948 -12975742.82847  21935932.7334   21935939.5264   21935931.410
        49.0004         45.0004
  -9260463.91547  -7188726.91246  23060980.6854   23060995.6184   23060981.350
        46.0004         41.0004
  -3924891.21447  -3023114.14946  23981104.2244   23981114.6734   23981104.931
        43.0004         39.0004
 14  5 10  0  4  0.0000000  0 10G13G09G07G10G08G17G20G04G01G28
  10688139.82347   8320650.41546  23523729.8124   23523737.1314   23523729.710
        43.0004         39.0004
 -19408011.52948 -15109074.68448  20308914.2814   20308921.6044   20308914.057
        53.0004         49.0004
 -23725265.33549 -18456038.31148  20193315.7234   20193321.7274   20193315.653
        54.0004         49.0004
  -6348470.40447  -4936981.61446  24445402.5304   24445414.4394   24445402.521
        42.0004         37.0004
 -24517475.40549 -19055578.45848  20228770.8454   20228778.5754   20228770.996
        54.0004         49.0004
 -15844082.89248 -12285650.42447  22290354.1854   22290362.5974   22290353.799
        50.0004         46.0004
  -4832463.00947  -3705544.45746  23617282.5724   23617293.5514   23617283.832
        42.0004         37.0004
 -16808240.52748 -13042895.41147  21919532.3944   21919540.5794   21919531.906
        49.0004         45.0004
  -9170520.21147  -7118640.93046  23078097.4704   23078109.7454   23078096.658
        45.0004         41.0004
  -3964091.13947  -3053659.36046  23973644.6364   23973654.3934   23973645.183
        43.0004         39.0004
 14  5 10  0  4 30.0000000  0 10G13G09G07G10G08G17G20G04G01G28
  10767303.03847   8382336.12346  23538794.9044   23538800.4074   23538793.885
        43.0004         38.0004
 -19452485.41448 -15143729.56448  20300450.9124   20300458.4964   20300450.904
        53.0004         49.0004
 -23703333.89049 -18438948.82748  20197489.3854   20197494.9734   20197488.953
        54.0004         49.0004
  -6395350.31047  -4973511.25546  24436479.6924   24436493.5214   24436481.502
        42.0004         38.0004
 -24564619.88049 -19092314.32848  20219799.6604   20219806.9474   20219799.792
        54.0004         49.0004
 -15806742.71448 -12256554.15647  22297460.1784   22297467.7974   22297459.303
        50.0004         45.0004
  -4830495.87247  -3704011.58446  23617658.2654   23617666.4804   23617658.691
        42.0004         38.0004
 -16894129.29548 -13109821.62747  21903187.4524   21903196.0154   21903187.461
        49.0004         45.0004
  -9080278.09647  -7048322.41546  23095269.1554   23095282.7264   23095269.153
        45.0004         41.0004
  -4003542.11847  -3084400.19146  23966136.7474   23966147.9794   23966137.441
        43.0004         39.0004
 14  5 10  0  5  0.0000000  0 10G13G09G07G10G08G17G20G04G01G28
  10846345.48247   8443927.72146  23553834.7804   23553843.9484   23553834.952
        43.0004         39.0004
 -19496414.87548 -15177960.21448  20292091.0614   20292098.4204   20292091.050
        53.0004         49.0004
 -23680804.46849 -18421393.38348  20201776.8294   20201782.2944   20201776.251
        54.0004         49.0004
  -6442472.87847  -5010229.96546  24427514.4054   24427524.6524   24427514.655
        42.0004         37.0004
 -24611209.87549 -19128618.14048  20210933.5234   20210941.0154   20210933.750
        54.0004         49.0004
 -15769245.72748 -12227335.70347  22304595.2884   22304603.8814   22304594.890
        50.0004         46.0004
  -4828354.88947  -3702343.22546  23618064.0974   23618074.4894   23618064.556
        42.0004         37.0004
 -16979725.64548 -13176519.98747  21886899.6604   21886907.2484   21886899.429
        49.0004         45.0004
  -8989740.94047  -6977774.00546  23112498.4684   23112512.2834   23112498.009
        45.0004         40.0004
  -4043244.13747  -3115336.66946  23958582.6904   23958592.3484   23958582.535
        43.0004         39.0004
 14  5 10  0  5 30.0000000  0 10G13G09G07G10G08G17G20G04G01G28
  10925267.20647   8505425.25646  23568852.8224   23568862.0274   23568852.697
        43.0004         38.0004
 -19539796.59848 -15211764.06348  20283835.9654   20283843.1884   20283836.038
        53.0004         49.0004
 -23657676.38049 -18403371.45048  20206177.5194   20206183.1864   20206177.020
        54.0004         49.0004
  -6489836.51647  -5047136.50846  24418500.2984   24418511.5804   24418501.403
        42.0004         37.0004
 -24657241.47249 -19164486.83248  20202173.9164   20202181.4644   20202174.240
        54.0004         49.0004
 -15731592.85848 -12197995.78447  22311759.8574   22311768.4614   22311759.566
        50.0004         45.0004
  -4826036.66747  -3700536.76146  23618506.8684   23618514.1754   23618507.667
        42.0004         38.0004
 -17065025.38948 -13242987.22847  21870667.0344   21870675.1844   21870666.796
        49.0004         45.0004
  -8898909.62247  -6906996.37846  23129783.3454   23129795.9704   23129782.794
        45.0004         40.0004
  -4083194.44147  -3146466.59946  23950981.1484   23950990.5964   23950980.247
        44.0004         39.0004
 14  5 10  0  6  0.0000000  0 10G13G09G07G10G08G17G20G04G01G28
  11004064.14747   8566825.53946  23583848.2824   23583857.1514   23583847.715
        43.0004         38.0004
 -19582630.29048 -15245140.87048  20275684.5584   20275692.3314   20275684.696
        53.0004         49.0004
 -23633951.71949 -18384884.65048  20210692.2554   20210698.3164   20210691.910
        54.0004         49.0004
  -6537442.24247  -5084231.69646  24409440.2624   24409451.3804   24409441.199
        42.0004         37.0004
 -24702713.61649 -19199919.59548  20193520.6904   20193528.6214   20193521.105
        54.0004         49.0004
 -15693788.48748 -12168537.81247  22318953.8264   22318962.3034   22318953.445
        50.0004         45.0004
  -4823541.09347  -3698592.11446  23618980.2164   23618989.8854   23618981.218
        42.0004         37.0004
 -17150027.42348 -13309222.49447  21854492.0824   21854499.7014   21854491.691
        49.0004         45.0004
  -8807788.18747  -6835992.67246  23147123.3864   23147136.8314   23147122.496
        45.0004         40.0004
  -4123393.71547  -3177790.53246  23943330.2274   23943340.2464   23943330.269
        44.0004         39.0004
 14  5 10  0  6 30.0000000  0 10G13G09G07G10G08G17G20G04G01G28
  11082736.02747   8628128.38546  23598818.2934   23598825.1234   23598818.184
        43.0004         38.0004
 -19624912.55548 -15278087.99948  20267639.0494   20267645.9934   20267638.790
        53.0004         49.0004
 -23609629.58349 -18365932.28448  20215320.6264   20215326.4124   20215320.149
        54.0004         49.0004
  -6585288.13947  -5121514.02146  24400337.3514   24400348.4264   24400336.910
        42.0004         37.0004
 -24747622.36549 -19234913.34448  20184975.1564   20184983.0134   20184975.293
        54.0004         49.0004
 -15655833.21748 -12138962.25147  22326176.4594   22326185.4064   22326176.372
        50.0004         45.0004
  -4820864.61547  -3696506.50246  23619489.9074   23619500.2774   23619490.977
        42.0004         37.0004
 -17234727.37248 -13375222.35747  21838374.1474   21838381.6724   21838373.655
        49.0004         45.0004
  -8716377.57547  -6764763.63846  23164518.0324   23164531.2434   23164517.262
        45.0004         40.0004
  -4163839.34447  -3209306.41846  23935633.9534   23935644.4254   23935633.357
        43.0004         39.0004
 14  5 10  0  7  0.0000000  0 10G13G09G07G10G08G17G20G04G01G28
  11161281.21247   8689332.52846  23613763.9494   23613770.8564   23613764.704
        43.0004         38.0004
 -19666641.56048 -15310604.01648  20259698.0644   20259704.9994   20259697.872
        53.0004         49.0004
 -23584710.38949 -18346514.68148  20220062.5174   20220068.3674   20220062.100
        54.0004         49.0004
  -6633373.77547  -5158983.15246  24391184.9334   24391197.3824   24391186.093
        42.0004         37.0004
 -24791965.39649 -19269466.27948  20176536.4744   20176544.3944   20176536.996
        54.0004         49.0004
 -15617729.85148 -12109271.29847  22333427.4814   22333435.8534   22333426.920
        50.0004         45.0004
  -4818005.47747  -3694278.53846  23620034.6114   23620044.7164   23620034.787
        42.0004         37.0004
 -17319122.64348 -13440984.81247  21822313.7234   21822322.3704   21822313.193
        50.0004         45.0004
  -8624680.22647  -6693311.18046  23181968.0774   23181980.2344   23181966.974
        45.0004         40.0004
  -4204530.35347  -3241013.53646  23927890.9734   23927899.6314   23927890.047
        43.0004         39.0004
 14  5 10  0  7 30.0000000  0 10G13G09G07G10G08G17G20G04G01G28
  11239696.18147   8750435.18846  23628687.7624   23628694.9624   23628686.651
        43.0004         38.0004
 -19707816.90548 -15342688.61148  20251862.8114   20251869.8374   20251862.604
        53.0004         49.0004
 -23559196.33949 -18326633.55448  20224917.4524   20224923.6804   20224917.042
        54.0004         49.0004
  -6681700.17547  -5196639.89946  24381988.5894   24382000.1434   24381990.138
        42.0004         37.0004
 -24835741.78949 -19303577.67248  20168206.4134   20168213.8814   20168206.636
        54.0004         49.0004
 -15579482.59848 -12079468.21647  22340705.4144   22340713.9364   22340705.328
        50.0004         45.0004
  -4814963.34247  -3691908.01046  23620613.3314   23620621.5384   23620613.791
        42.0004         37.0004
 -17403211.87548 -13506508.79747  21806312.3874   21806320.2594   21806312.593
        50.0004         45.0004
  -8532700.27347  -6621638.50246  23199470.9234   23199482.7944   23199470.189
        45.0004         40.0004
  -4245467.43047  -3272912.40146  23920100.3344   23920109.5574   23920099.929
        43.0004         39.0004
 14  5 10  0  8  0.0000000  0 10G13G09G07G10G08G17G20G04G01G28
  11317980.56047   8811436.08746  23643584.4864   23643591.5584   23643583.832
        42.0004         38.0004
 -19748435.33249 -15374339.24048  20244133.0694   20244140.1374   20244132.805
        54.0004         49.0004
 -23533086.54349 -18306288.21548  20229885.8874   20229891.8114   20229885.574
        54.0004         49.0004
  -6730265.15747  -5234482.52946  24372747.9604   24372759.2714   24372748.805
        42.0004         37.0004
 -24878947.60949 -19337244.46548  20159984.2314   20159992.0094   20159984.596
        54.0004         49.0004
 -15541092.26248 -12049553.64247  22348011.1484   22348019.8574   22348010.744
        50.0004         45.0004
  -4811735.16247  -3689392.50446  23621226.2974   23621235.4434   23621227.800
        42.0004         37.0004
 -17486990.91248 -13571791.07047  21790370.2794   21790377.8224   21790369.237
        50.0004         45.0004
  -8440438.52947  -6549746.23946  23217028.1224   23217040.5124   23217027.012
        45.0004         40.0004
  -4286647.76647  -3305000.79346  23912263.6634   23912274.7264   23912263.386
        43.0004         39.0004
 14  5 10  0  8 30.0000000  0 10G13G09G07G10G08G17G20G04G01G28
  11396131.93747   8872333.35346  23658454.8284   23658462.4874   23658454.424
        42.0004         38.0004
 -19788495.76349 -15405555.07348  20236509.9454   20236517.0674   20236509.865
        54.0004         49.0004
 -23506382.31549 -18285479.68148  20234967.7304   20234973.5034   20234967.534
        54.0004         49.0004
  -6779068.97847  -5272511.28546  24363461.7354   24363471.3494   24363461.004
        42.0004         37.0004
 -24921581.25549 -19370465.41348  20151871.4374   20151879.0314   20151871.839
        54.0004         49.0004
 -15502561.89848 -12019529.95447  22355343.0264   22355351.6724   22355342.546
        50.0004         45.0004
  -4808318.98147  -3686730.49646  23621878.0854   23621886.5174   23621878.307
        42.0004         37.0004
 -17570457.64448 -13636829.99047  21774486.2254   21774494.7824   21774486.046
        50.0004         45.0004
  -8347898.19147  -6477636.90546  23234637.9744   23234651.4284   23234637.064
        45.0004         41.0004
  -4328070.68347  -3337278.21946  23904380.8344   23904390.3384   23904380.967
        43.0004         39.0004
 14  5 10  0  9  0.0000000  0 10G13G09G07G10G08G17G20G04G01G28
  11474146.94947   8933124.36046  23673302.8064   23673309.1104   23673300.518
        42.0004         37.0004
 -19827997.80649 -15436335.80148  20228992.4354   20228999.4304   20228992.595
        54.0004         49.0004
 -23479085.35749 -18264209.27348  20240161.9434   20240168.0644   20240161.418
        54.0004         49.0004
  -6828112.19347  -5310726.58246  24354128.7964   24354138.2624   24354128.444
        42.0004         37.0004
 -24963641.59049 -19403239.62448  20143867.5074   20143874.8084   20143867.730
        54.0004         49.0004
 -15463895.05448 -11989399.92547  22362701.2334   22362710.4274   22362700.979
        50.0004         45.0004
  -4804714.73347  -3683921.95646  23622562.9124   23622571.9434   23622563.403
        42.0004         37.0004
 -17653610.73348 -13701624.50247  21758662.5104   21758670.7254   21758662.076
        50.0004         45.0004
  -8255083.06947  -6405313.46946  23252299.4684   23252312.6784   23252298.946
        45.0004         40.0004
  -4369736.84447  -3369745.17146  23896451.5604   23896460.7384   23896451.594
        43.0004         39.0004
 14  5 10  0  9 30.0000000  0 10G13G09G07G10G08G17G20G04G01G28
  11552025.55047   8993809.08546  23688120.0264   23688128.3294   23688120.315
        42.0004         37.0004
 -19866938.15349 -15466678.84548  20221582.5174   20221589.7424   20221582.560
        54.0004         49.0004
 -23451195.09749 -18242476.55448  20245469.3164   20245475.2444   20245468.626
        54.0004         49.0004
  -6877392.89147  -5349126.92546  24344750.1484   24344759.8984   24344750.171
        42.0004         37.0004
 -25005124.63349 -19435563.99348  20135973.5614   20135981.2114   20135973.896
        54.0004         49.0004
 -15425093.31148 -11959164.77747  22370085.5124   22370093.0754   22370084.449
        50.0004         45.0004
  -4800919.10447  -3680964.28346  23623286.1054   23623293.7334   23623286.310
        42.0004         37.0004
 -17736445.78648 -13766171.20147  21742900.2744   21742907.6934   21742899.425
        50.0004         45.0004
  -8161994.03547  -6332776.57246  23270014.2584   23270027.5334   23270013.843
        45.0004         40.0004
  -4411643.12947  -3402399.27346  23888477.7234   23888486.4394   23888477.532
        43.0004         39.0004
 14  5 10  0 10  0.0000000  0 10G13G09G07G10G08G17G20G04G01G28
  11629765.87647   9054386.05246  23702915.4514   23702921.3134   23702913.710
        42.0004         37.0004
 -19905315.19949 -15496582.95348  20214279.3284   20214286.8474   20214279.475
        54.0004         49.0004
 -23422712.24748 -18220282.07848  20250889.2774   20250895.0714   20250888.840
        53.0004         49.0004
  -6926910.58947  -5387711.93146  24335327.1014   24335337.3954   24335327.685
        42.0004         38.0004
 -25046027.96149 -19467436.64048  20128189.4134   20128197.1794   20128190.061
        54.0004         49.0004
 -15386158.80948 -11928826.18747  22377492.9894   22377501.4764   22377493.253
        50.0004         45.0004
  -4796929.90247  -3677855.78846  23624044.8764   23624054.9434   23624045.262
        42.0004         37.0004
 -17818960.01248 -13830467.89447  21727197.1944   21727204.8274   21727197.336
        50.0004         45.0004
  -8068633.49447  -6260028.10746  23287779.9794   23287792.5424   23287779.473
        45.0004         40.0004
  -4453788.84247  -3435239.93946  23880455.8824   23880466.6934   23880456.368
        43.0004         38.0004
 14  5 10  0 10 30.0000000  0 10G13G09G07G10G08G17G20G04G01G28
  11707366.54747   9114854.20646  23717680.0744   23717688.7814   23717680.951
        42.0004         38.0004
 -19943126.48949 -15526046.21848  20207084.1764   20207091.6124   20207084.224
        54.0004         49.0004
 -23393637.06548 -18197626.04348  20256422.1254   20256428.0904   20256421.618
        53.0004         49.0004
  -6976664.03847  -5426480.64346  24325859.3884   24325868.4304   24325859.485
        42.0004         38.0004
 -25086348.87749 -19498855.45948  20120517.0044   20120524.3284   20120517.465
        54.0004         49.0004
 -15347093.71148 -11898385.82147  22384927.3444   22384936.0164   22384926.835
        50.0004         45.0004
  -4792744.99147  -3674594.77246  23624841.7864   23624851.0624   23624841.735
        42.0004         38.0004
 -17901150.40248 -13894512.25247  21711557.1874   21711565.1194   21711556.618
        50.0004         45.0004
  -7975003.55347  -6187069.70846  23305596.8104   23305609.9964   23305596.222
        45.0004         40.0004
  -4496172.43347  -3468265.95146  23872390.6954   23872402.0764   23872391.077
        43.0004         38.0004
 14  5 10  0 11  0.0000000  0 11G13G09G07G10G08G17G26G20G04G01G28
  11784820.19947   9175207.80046  23732419.8884   23732426.9074   23732419.786
        42.0004         38.0004
 -19980375.92149 -15555071.65948  20199995.6254   20200003.0914   20199995.714
        54.0004         49.0004
 -23363976.04048 -18174513.50648  20262066.1684   20262072.0114   20262065.761
        53.0004         49.0004
  -7026658.35947  -5465437.04246  24316345.3454   24316355.4034   24316345.482
        43.0004         38.0004
 -25126090.71749 -19529823.05448  20112954.0264   20112961.6224   20112954.578
        54.0004         49.0004
 -15307906.09748 -11867849.98847  22392385.4034   22392392.8544   22392384.426
        50.0004         45.0004
   -153263.79748   -101376.06246  24190977.0734   24190992.1654   24190976.417
        50.0004         36.0004
  -4788368.29247  -3671184.32846  23625673.8474   23625683.1314   23625673.882
        42.0004         37.0004
 -17983019.56548 -13958306.29847  21695978.5594   21695986.1394   21695977.788
        50.0004         45.0004
  -7881112.23047  -6113907.64546  23323463.7334   23323476.8814   23323463.137
        45.0004         40.0004
  -4538797.89547  -3501480.44246  23864279.9794   23864289.2304   23864280.126
        43.0004         38.0004
 14  5 10  0 11 30.0000000  0 11G13G09G07G10G08G17G26G20G04G01G28
  11862130.88747   9235449.98946  23747131.6784   23747139.4894   23747131.280
        42.0004         38.0004
 -20017056.36049 -15583653.73648  20193015.5594   20193022.8214   20193015.473
        54.0004         49.0004
 -23333724.09748 -18150940.51648  20267823.0894   20267829.1934   20267822.674
        53.0004         49.0004
  -7076887.22047  -5504576.20446  24306787.0684   24306797.5884   24306787.265
        43.0004         38.0004
 -25165245.36949 -19560333.10548  20105503.3494   20105510.5974   20105503.803
        54.0004         49.0004
 -15268592.36148 -11837215.88347  22399866.2964   22399874.3884   22399865.555
        50.0004         45.0004
   -176044.70947   -119127.33346  24186641.5184   24186658.2024   24186641.062
        45.0004         37.0004
  -4783792.28947  -3667618.56146  23626545.5174   23626553.9874   23626545.475
        42.0004         38.0004
 -18064559.42548 -14021843.74847  21680461.2234   21680468.5784   21680460.770
        50.0004         45.0004
  -7786956.47347  -6040539.53846  23341381.1494   23341394.1974   23341380.290
        45.0004         40.0004
  -4581658.46647  -3534878.13146  23856124.4504   23856133.9364   23856124.146
        43.0004         39.0004
 14  5 10  0 12  0.0000000  0 11G13G09G07G10G08G17G26G20G04G01G28
  11939295.44847   9295578.33046  23761815.1924   23761823.1734   23761814.820
        42.0004         38.0004
 -20053167.28349 -15611792.03548  20186144.0344   20186151.1094   20186143.978
        54.0004         49.0004
 -23302883.15148 -18126908.56148  20273691.9374   20273697.5094   20273691.648
        53.0004         49.0004
  -7127351.01947  -5543898.43346  24297183.1994   24297195.7784   24297183.445
        43.0004         38.0004
 -25203811.75649 -19590384.76048  20098164.3104   20098171.7324   20098164.483
        54.0004         49.0004
 -15229156.26548 -11806486.41847  22407370.5534   22407379.1554   22407370.036
        50.0004         45.0004
   -198459.27047   -136593.10246  24182376.1284   24182389.9994   24182375.885
        42.0004         37.0004
  -4779016.01347  -3663896.75646  23627454.2224   23627462.9794   23627453.333
        42.0004         37.0004
 -18145768.00748 -14085123.06547  21665008.5654   21665014.9894   21665007.715
        50.0004         45.0004
  -7692539.65247  -5966968.00646  23359347.1324   23359361.0254   23359347.557
        45.0004         40.0004
  -4624754.12547  -3568459.01146  23847923.2014   23847931.4304   23847922.961
        43.0004         39.0004
 14  5 10  0 12 30.0000000  0 11G13G09G07G10G08G17G26G20G04G01G28
  12016312.85747   9355592.00846  23776472.3564   23776478.7354   23776470.295
        42.0004         38.0004
 -20088706.63949 -15639484.96348  20179381.0924   20179388.0884   20179380.866
        54.0004         49.0004
 -23271453.72248 -18102418.05448  20279672.6314   20279678.4854   20279672.098
        53.0004         49.0004
  -7178048.47847  -5583402.72346  24287535.4954   24287546.7114   24287535.754
        43.0004         38.0004
 -25241787.44649 -19619976.13648  20090937.7634   20090945.4304   20090938.137
        54.0004         49.0004
 -15189599.78748 -11775663.15547  22414897.8494   22414905.5424   22414897.161
        49.0004         45.0004
   -220507.92746   -153773.74746  24178180.0194   24178196.9674   24178178.880
        41.0004         36.0004
  -4774036.95247  -3660016.95146  23628401.8614   23628410.5054   23628401.528
        42.0004         38.0004
 -18226642.56548 -14148142.10147  21649618.6584   21649626.1284   21649617.460
        50.0004         45.0004
  -7597863.91347  -5893194.71946  23377363.4844   23377376.9104   23377363.908
        44.0004         40.0004
  -4668083.32347  -3602221.86846  23839677.6984   23839687.3864   23839677.340
        43.0004         39.0004
 14  5 10  0 13  0.0000000  0 11G13G09G07G10G08G17G26G20G04G01G28
  12093182.59647   9415490.59746  23791099.7704   23791106.0254   23791098.851
        42.0004         38.0004
 -20123671.61549 -15666730.32848  20172727.3424   20172734.4554   20172727.405
        54.0004         49.0004
 -23239435.72548 -18077468.92148  20285765.7364   20285771.0844   20285765.224
        53.0004         49.0004
  -7228978.08147  -5623087.93546  24277843.9174   24277855.8514   24277845.077
        43.0004         38.0004
 -25279169.13549 -19649104.65348  20083823.9154   20083831.4204   20083824.330
        54.0004         49.0004
 -15149924.55748 -11744747.36647  22422448.0544   22422455.5054   22422447.110
        49.0004         45.0004
   -242190.47546   -170669.10046  24174054.4084   24174068.5114   24174054.442
        41.0004         37.0004
  -4768852.67047  -3655977.21646  23629386.8394   23629396.5594   23629387.208
        42.0004         38.0004
 -18307179.01948 -14210897.67647  21634292.2274   21634299.5704   21634292.062
        50.0004         45.0004
  -7502930.75947  -5819220.84346  23395430.2334   23395441.9404   23395429.161
        44.0004         40.0004
  -4711643.49447  -3636164.70446  23831388.7464   23831397.9884   23831388.513
        43.0004         39.0004
 14  5 10  0 13 30.0000000  0 11G13G09G07G10G08G17G26G20G04G01G28
  12169902.65947   9475272.56046  23805698.9034   23805704.8314   23805698.443
        42.0004         38.0004
 -20158060.85249 -15693527.06248  20166183.0624   20166190.2224   20166183.009
        54.0004         49.0004
 -23206829.89548 -18052061.73848  20291970.1814   20291975.7444   20291969.663
        53.0004         49.0004
  -7280139.23547  -5662953.54146  24268108.9334   24268120.4224   24268109.191
        43.0004         38.0004
 -25315954.48749 -19677768.49748  20076824.1534   20076831.9784   20076824.446
        54.0004         49.0004
 -15110133.08448 -11713740.99747  22430020.1524   22430028.5954   22430019.296
        50.0004         45.0004
   -263508.00646   -187280.03446  24169996.9474   24170012.1784   24169996.323
        41.0004         37.0004
  -4763461.20347  -3651776.05646  23630414.5774   23630422.5344   23630414.640
        42.0004         38.0004
 -18387374.85348 -14273387.82747  21619031.7544   21619039.3514   21619031.110
        50.0004         45.0004
  -7407742.72747  -5745048.36546  23413542.8254   23413555.7994   23413542.333
        44.0004         40.0004
  -4755433.82047  -3670286.87946  23823054.4074   23823064.8484   23823054.799
        43.0004         38.0004
 14  5 10  0 14  0.0000000  0 11G13G09G07G10G08G17G26G20G04G01G28
  12246469.85447   9534935.41546  23820269.0504   23820276.0964   23820268.766
        42.0004         38.0004
 -20191874.37049 -15719875.18548  20159748.4984   20159755.7204   20159748.591
        54.0004         49.0004
 -23173639.07048 -18026198.71948  20298286.3004   20298292.0654   20298285.711
        53.0004         49.0004
  -7331533.08847  -5703000.49246  24258328.4444   24258338.5614   24258329.027
        43.0004         38.0004
 -25352143.27049 -19705967.48048  20069937.3574   20069945.1114   20069937.803
        54.0004         49.0004
 -15070229.26148 -11682647.08447  22437612.7704   22437620.7534   22437612.472
        49.0004         45.0004
   -284462.89546   -203608.39846  24166010.3384   24166025.0834   24166009.453
        41.0004         37.0004
  -4757862.45647  -3647413.36346  23631479.2264   23631487.6694   23631478.935
        42.0004         37.0004
 -18467228.76548 -14335611.54847  21603835.0804   21603843.1204   21603835.561
        50.0004         45.0004
  -7312303.91047  -5670680.46546  23431704.2244   23431717.9254   23431703.965
        44.0004         40.0004
  -4799454.44047  -3704588.49546  23814678.4084   23814687.9294   23814678.314
        43.0004         38.0004
 14  5 10  0 14 30.0000000  0 11G13G09G07G10G08G17G26G20G04G01G28
  12322881.66747   9594477.18646  23834809.9774   23834817.6244   23834809.996
        42.0004         38.0004
 -20225111.46249 -15745774.14448  20153423.3094   20153430.3674   20153423.582
        54.0004         49.0004
 -23139864.58848 -17999880.89548  20304713.1094   20304718.9774   20304712.833
        53.0004         49.0004
  -7383159.18947  -5743228.40246  24248504.4054   24248514.6804   24248505.210
        43.0004         38.0004
 -25387734.11749 -19733700.54448  20063164.7304   20063171.9174   20063165.134
        54.0004         49.0004
 -15030216.52248 -11651468.29647  22445226.9314   22445235.9094   22445226.830
        50.0004         45.0004
   -305056.79946   -219655.47846  24162090.8924   24162105.9114   24162089.999
        41.0004         37.0004
  -4752055.37147  -3642888.34246  23632583.6204   23632592.5064   23632585.025
        42.0004         38.0004
 -18546739.16048 -14397567.59747  21588705.5544   21588712.6084   21588705.057
        50.0004         46.0004
  -7216617.56247  -5596119.68746  23449912.3774   23449927.2404   23449912.067
        44.0004         39.0004
  -4843704.61647  -3739068.99046  23806257.0394   23806266.2934   23806257.376
        43.0004         38.0004
 14  5 10  0 15  0.0000000  0 11G13G09G07G10G08G17G26G20G04G01G28
  12399135.84947   9653896.14046  23849321.2514   23849327.1404   23849320.246
        42.0004         38.0004
 -20257771.19349 -15771223.21448  20147208.4574   20147215.9094   20147208.461
        54.0004         49.0004
 -23105508.25048 -17973109.67948  20311251.0934   20311256.3194   20311250.405
        53.0004         49.0004
  -7435017.43147  -5783637.19946  24238636.0984   24238646.1004   24238637.123
        43.0004         39.0004
 -25422725.62349 -19760966.58548  20056506.0854   20056513.4814   20056506.263
        54.0004         49.0004
 -14990097.87048 -11620206.98147  22452861.4914   22452868.8404   22452861.334
        50.0004         45.0004
   -325291.34846   -235422.52846  24158240.4804   24158255.7924   24158240.193
        41.0004         37.0004
  -4746038.83947  -3638200.10746  23633728.8314   23633738.1464   23633729.520
        42.0004         37.0004
 -18625904.00648 -14459254.38647  21573640.8164   21573648.3654   21573640.101
        50.0004         46.0004
  -7120686.83747  -5521368.48746  23468168.3534   23468182.0294   23468166.793
        44.0004         39.0004
  -4888184.01847  -3773728.12046  23797793.0004   23797802.0844   23797792.910
        43.0004         38.0004
 14  5 10  0 15 30.0000000  0 11G13G09G07G10G08G17G26G20G04G01G28
  12475232.43247   9713192.27846  23863800.5924   23863808.1144   23863800.882
        42.0004         38.0004
 -20289850.49549 -15796219.99848  20141103.9794   20141111.0434   20141104.272
        54.0004         49.0004
 -23070569.47948 -17945884.61848  20317899.5404   20317904.9454   20317899.020
        53.0004         49.0004
  -7487105.69847  -5824225.24846  24228723.5804   24228733.9604   24228723.819
        43.0004         38.0004
 -25457114.00649 -19787762.67048  20049962.2004   20049969.3444   20049962.650
        54.0004         49.0004
 -14949873.85448 -11588863.56747  22460516.7284   22460524.0034   22460515.514
        50.0004         45.0004
   -345165.92046   -250909.09046  24154458.5464   24154472.7874   24154457.363
        41.0004         37.0004
  -4739809.25447  -3633345.85646  23634913.6914   23634923.2934   23634915.418
        42.0004         38.0004
 -18704718.82448 -14520668.43047  21558643.1314   21558649.7494   21558642.525
        50.0004         46.0004
  -7024512.55647  -5446427.51046  23486468.5524   23486482.2524   23486467.862
        43.0004         39.0004
  -4932889.46947  -3808563.37646  23789284.7074   23789295.3684   23789285.760
        43.0004         38.0004
 14  5 10  0 16  0.0000000  0 11G13G09G07G10G08G17G26G20G04G01G28
  12551170.99247   9772365.29146  23878250.2074   23878258.0174   23878250.659
        42.0004         38.0004
 -20321347.35349 -15820762.93548  20135110.6844   20135117.2754   20135110.353
        54.0004         49.0004
 -23035048.49048 -17918205.88548  20324658.9204   20324664.7244   20324658.272
        53.0004         49.0004
  -7539422.45347  -5864991.32446  24218767.5994   24218777.7644   24218767.955
        43.0004         38.0004
 -25490896.39249 -19814086.54548  20043533.5324   20043540.6214   20043533.938
        54.0004         49.0004
 -14909546.54848 -11557439.66947  22468189.4824   22468198.5094   22468189.620
        50.0004         45.0004
   -364680.76546   -266115.32646  24150745.3914   24150760.4974   24150744.053
        41.0004         37.0004
  -4733364.26847  -3628323.76246  23636140.6084   23636149.6054   23636141.281
        42.0004         37.0004
 -18783180.35748 -14581807.18247  21543712.1104   21543719.1504   21543711.692
        50.0004         46.0004
  -6928096.74447  -5371298.30946  23504816.7394   23504830.5234   23504815.626
        44.0004         39.0004
  -4977819.07747  -3843573.32046  23780735.7724   23780745.2434   23780735.564
        43.0004         38.0004
 14  5 10  0 16 30.0000000  0 11G13G09G07G10G08G17G26G20G04G01G28
  12626946.54347   9831411.26846  23892670.0204   23892679.5284   23892670.519
        42.0004         38.0004
 -20352262.71449 -15844852.75748  20129227.9084   20129234.4294   20129227.532
        54.0004         49.0004
 -22998949.05848 -17890076.41948  20331528.2674   20331534.5074   20331527.886
        53.0004         49.0004
  -7591969.45947  -5905936.82846  24208768.6304   24208779.2224   24208769.003
        43.0004         38.0004
 -25524073.11549 -19839938.47948  20037219.9814   20037227.1134   20037220.466
        54.0004         49.0004
 -14869120.83148 -11525939.07747  22475883.0774   22475890.3974   22475882.316
        50.0004         45.0004
   -383839.24946   -281043.90146  24147097.2034   24147112.6374   24147096.943
        41.0004         36.0004
  -4726704.52547  -3623134.32446  23637408.7934   23637417.4064   23637408.734
        42.0004         37.0004
 -18861288.28148 -14642670.40347  21528848.6714   21528855.6634   21528847.940
        50.0004         46.0004
  -6831444.16447  -5295984.62746  23523208.9604   23523222.5424   23523208.407
        44.0004         39.0004
  -5022973.90647  -3878758.76846  23772143.2574   23772152.8544   23772143.440
        43.0004         38.0004
 14  5 10  0 17  0.0000000  0 11G13G09G07G10G08G17G26G20G04G01G28
  12702559.08047   9890330.23446  23907059.0434   23907066.6264   23907059.204
        42.0004         38.0004
 -20382593.88149 -15868487.36048  20123455.4494   20123462.3104   20123455.310
        54.0004         49.0004
 -22962270.90748 -17861495.99848  20338507.8124   20338513.3254   20338507.501
        53.0004         49.0004
  -7644744.46247  -5947059.98246  24198724.8684   24198736.1414   24198726.070
        43.0004         38.0004
 -25556641.11049 -19865316.07548  20031022.7814   20031029.6584   20031023.179
        54.0004         49.0004
 -14828597.59448 -11494362.51047  22483593.6294   22483602.4874   22483593.487
        50.0004         45.0004
   -402641.02446   -295694.50346  24143519.2324   24143536.7664   24143520.590
        41.0004         36.0004
  -4719827.09147  -3617775.26546  23638716.2324   23638724.0224   23638717.094
        42.0004         37.0004
 -18939038.55848 -14703254.93147  21514052.2964   21514060.4864   21514052.457
        50.0004         46.0004
  -6734556.05747  -5220487.42146  23541646.0094   23541659.0274   23541645.274
        44.0004         39.0004
  -5068351.28847  -3914117.62046  23763507.3874   23763516.5964   23763507.852
        43.0004         38.0004
 14  5 10  0 17 30.0000000  0 11G13G09G07G10G08G17G26G20G04G01G28
  12778006.99747   9949120.92846  23921415.1344   23921423.4694   23921415.401
        42.0004         37.0004
 -20412339.62349 -15891665.79248  20117794.9654   20117801.7914   20117795.031
        54.0004         49.0004
 -22925015.00548 -17832465.38448  20345597.6184   20345603.0244   20345596.943
        53.0004         49.0004
  -7697746.93147  -5988360.38446  24188638.3644   24188649.8004   24188639.493
        43.0004         38.0004
 -25588598.39049 -19890217.79048  20024941.0064   20024948.9624   20024941.420
        54.0004         49.0004
 -14787979.63048 -11462712.12347  22491323.2724   22491331.5244   22491322.815
        50.0004         45.0004
   -421087.30746   -310068.12046  24140009.7324   24140026.3754   24140009.764
        41.0004         37.0004
  -4712730.04647  -3612245.07346  23640067.8134   23640075.4654   23640067.025
        42.0004         37.0004
 -19016428.87948 -14763558.97547  21499325.9874   21499333.3764   21499325.590
        50.0004         46.0004
  -6637435.04747  -5144808.72146  23560127.1574   23560140.8764   23560127.405
        44.0004         39.0004
  -5113950.14747  -3949649.04446  23754829.5304   23754840.5034   23754830.774
        43.0004         39.0004
 14  5 10  0 18  0.0000000  0 11G13G09G07G10G08G17G26G20G04G01G28
  12853289.59947  10007782.80246  23935742.5694   23935748.4554   23935741.896
        42.0004         37.0004
 -20441497.73149 -15914386.32348  20112246.2524   20112253.2164   20112246.255
        54.0004         49.0004
 -22887181.65348 -17802984.81148  20352796.9704   20352802.7744   20352796.421
        53.0004         49.0004
  -7750975.13647  -6029836.68646  24178510.0734   24178520.4394   24178510.381
        43.0004         38.0004
 -25619942.46649 -19914641.68048  20018976.8074   20018983.6434   20018977.331
        54.0004         49.0004
 -14747268.22948 -11430988.92047  22499069.7824   22499078.8344   22499069.910
        50.0004         45.0004
   -439178.32846   -324164.87946  24136568.2294   24136583.7674   24136567.216
        41.0004         37.0004
  -4705410.94547  -3606541.85146  23641458.9024   23641468.7744   23641460.059
        42.0004         37.0004
 -19093455.61348 -14823579.71447  21484668.2194   21484675.4324   21484667.381
        51.0004         46.0004
  -6540082.87247  -5068949.89946  23578654.5764   23578666.7694   23578652.914
        44.0004         39.0004
  -5159768.07847  -3985351.17146  23746111.9704   23746120.8664   23746112.179
        43.0004         39.0004
 14  5 10  0 18 30.0000000  0 11G13G09G07G10G08G17G26G20G04G01G28
  12928404.01947  10066313.61146  23950035.7584   23950044.0454   23950035.767
        42.0004         38.0004
 -20470068.37649 -15936649.09048  20106809.3784   20106816.7564   20106809.539
        54.0004         49.0004
 -22848773.83248 -17773056.59748  20360105.4264   20360111.0704   20360105.050
        53.0004         49.0004
  -7804429.75947  -6071489.41946  24168338.4364   24168349.4964   24168338.702
        43.0004         38.0004
 -25650672.70149 -19938587.25148  20013128.6304   20013136.0764   20013129.183
        54.0004         49.0004
 -14706467.25348 -11399195.92747  22506834.4754   22506842.8994   22506834.050
        50.0004         45.0004
   -456916.45846   -337986.68946  24133192.9484   24133206.5394   24133191.816
        41.0004         37.0004
  -4697869.36447  -3600665.27246  23642894.3454   23642903.8624   23642894.837
        42.0004         37.0004
 -19170117.70048 -14883316.30747  21470080.0114   21470086.9524   21470079.494
        51.0004         46.0004
  -6442503.50047  -4992914.04146  23597222.2184   23597234.8924   23597221.437
        44.0004         39.0004
  -5205805.35447  -4021224.22546  23737350.8294   23737360.5074   23737351.264
        43.0004         39.0004
 14  5 10  0 19  0.0000000  0 11G13G09G07G10G08G17G26G20G04G01G28
  13003347.93147  10124711.56446  23964296.5484   23964304.5624   23964296.750
        42.0004         37.0004
 -20498050.78949 -15958453.49348  20101484.6624   20101491.4944   20101484.656
        54.0004         49.0004
 -22809793.10248 -17742681.95948  20367523.6444   20367528.9894   20367523.079
        53.0004         49.0004
  -7858110.53347  -6113318.37646  24158123.2124   24158132.1234   24158122.512
        43.0004         38.0004
 -25680787.69349 -19962053.41248  20007398.4414   20007405.2574   20007398.548
        54.0004         49.0004
 -14665580.00248 -11367335.70347  22514614.7304   22514623.6584   22514614.758
        50.0004         45.0004
   -474303.34046   -351534.78146  24129882.4324   24129898.9144   24129881.772
        41.0004         37.0004
  -4690104.07547  -3594614.39646  23644371.7664   23644381.4864   23644372.183
        42.0004         37.0004
 -19246412.80348 -14942766.93747  21455560.8224   21455568.3814   21455560.303
        51.0004         46.0004
  -6344699.94447  -4916703.49546  23615833.9124   23615847.6814   23615832.816
        44.0004         39.0004
  -5252061.23347  -4057267.62646  23728548.8964   23728558.5224   23728548.381
        43.0004         39.0004
 14  5 10  0 19 30.0000000  0 11G13G09G07G10G08G17G26G20G04G01G28
  13078120.76447  10182976.21346  23978524.9914   23978532.0464   23978525.216
        42.0004         37.0004
 -20525443.20049 -15979798.15548  20096272.0874   20096278.8894   20096271.856
        54.0004         49.0004
 -22770239.90548 -17711861.24548  20375049.7434   20375055.9554   20375049.553
        53.0004         49.0004
  -7912015.63647  -6155322.14046  24147863.5934   24147874.2294   24147865.528
        43.0004         38.0004
 -25710284.84049 -19985038.13748  20001784.6934   20001792.2734   20001785.047
        54.0004         49.0004
 -14624607.97748 -11335409.42547  22522411.9044   22522420.4184   22522411.101
        50.0004         45.0004
   -491339.18546   -364809.35546  24126641.4404   24126656.8604   24126641.617
        41.0004         37.0004
  -4682112.69747  -3588387.32546  23645892.7884   23645903.8894   23645893.977
        42.0004         37.0004
 -19322337.73348 -15001929.12747  21441112.8534   21441120.6224   21441112.890
        51.0004         46.0004
  -6246674.03947  -4840319.68246  23634487.3214   23634500.1484   23634486.554
        44.0004         39.0004
  -5298532.77447  -4093479.08546  23719705.2394   23719714.5664   23719705.511
        43.0004         39.0004
 14  5 10  0 20  0.0000000  0 11G13G09G07G10G08G17G26G20G04G01G28
  13152721.68946  10241106.91046  23992721.3524   23992728.0324   23992720.928
        41.0004         37.0004
 -20552243.49049 -16000681.43048  20091172.1224   20091178.6394   20091171.715
        54.0004         49.0004
 -22730114.64948 -17680594.77148  20382686.1534   20382691.3664   20382685.590
        53.0004         49.0004
  -7966143.49947  -6197499.48046  24137564.4074   24137576.1554   24137564.897
        43.0004         38.0004
 -25739161.52049 -20007539.38348  19996289.8874   19996296.8874   19996290.213
        54.0004         49.0004
 -14583552.53248 -11303418.13947  22530224.6914   22530232.2564   22530223.911
        50.0004         45.0004
   -508024.36146   -377810.65346  24123466.1584   24123480.9254   24123465.238
        41.0004         37.0004
  -4673892.53146  -3581982.00846  23647457.9294   23647465.6384   23647457.770
        41.0004         37.0004
 -19397889.01848 -15060800.16447  21426735.7324   21426743.3104   21426735.387
        51.0004         46.0004
  -6148427.37747  -4763763.85246  23653183.2264   23653196.6824   23653182.519
        44.0004         39.0004
  -5345218.29747  -4129857.28346  23710821.3314   23710831.1134   23710821.298
        43.0004         39.0004
 14  5 10  0 20 30.0000000  0 11G13G09G07G10G08G17G26G20G04G01G28
  13227147.01046  10299100.77546  24006883.8904   24006889.8764   24006883.979
        41.0004         37.0004
 -20578452.55549 -16021104.00848  20086184.4934   20086191.1424   20086184.430
        54.0004         49.0004
 -22689420.93848 -17648885.34648  20390429.4144   20390434.9934   20390428.907
        53.0004         49.0004
  -8020495.54647  -6239851.50046  24127221.7414   24127230.7294   24127221.727
        43.0004         38.0004
 -25767418.20449 -20029557.51248  19990912.7354   19990920.0094   19990912.867
        54.0004         49.0004
 -14542418.53848 -11271365.64347  22538051.8184   22538059.7844   22538051.453
        50.0004         45.0004
   -524362.23147   -390541.34346  24120358.7784   24120372.1224   24120357.189
        42.0004         37.0004
  -4665444.41347  -3575399.05346  23649064.9694   23649075.8484   23649066.618
        42.0004         37.0004
 -19473066.38848 -15119379.84147  21412430.2924   21412437.3194   21412429.856
        51.0004         46.0004
  -6049964.88747  -4687039.84746  23671918.8904   23671931.8664   23671919.183
        44.0004         39.0004
  -5392118.72647  -4166402.93946  23701895.8314   23701906.6414   23701896.488
        44.0004         39.0004
 14  5 10  0 21  0.0000000  0 11G13G09G07G10G08G17G26G20G04G01G28
  13301397.19447  10356958.17046  24021013.6214   24021020.3664   24021013.455
        42.0004         37.0004
 -20604067.29449 -16041063.46648  20081310.0294   20081316.8884   20081309.952
        54.0004         49.0004
 -22648157.73548 -17616732.15948  20398281.6654   20398287.2664   20398281.304
        53.0004         49.0004
  -8075068.91747  -6282376.00046  24116835.5884   24116846.1774   24116836.083
        43.0004         38.0004
 -25795051.25649 -20051089.70348  19985654.3274   19985661.2944   19985654.506
        54.0004         49.0004
 -14501205.94848 -11239251.91147  22545894.4404   22545902.3424   22545894.164
        49.0004         45.0004
   -540351.82347   -403000.61346  24117314.7884   24117332.1844   24117314.128
        42.0004         38.0004
  -4656764.11847  -3568635.16546  23650716.6194   23650726.5004   23650717.382
        42.0004         37.0004
 -19547865.03748 -15177664.40747  21398196.9174   21398203.3494   21398196.358
        51.0004         46.0004
  -5951286.95947  -4610147.95746  23690697.4854   23690710.4564   23690696.968
        44.0004         39.0004
  -5439230.25447  -4203113.06646  23692930.4874   23692940.2814   23692931.863
        44.0004         39.0004
 14  5 10  0 21 30.0000000  0 11G13G09G07G10G08G17G26G20G04G01G28
  13375469.24447  10414676.74346  24035109.4204   24035116.7694   24035108.887
        42.0004         37.0004
 -20629088.65149 -16060560.54948  20076548.4624   20076555.2634   20076548.594
        54.0004         49.0004
 -22606328.60948 -17584137.99748  20406241.5894   20406246.9884   20406240.909
        53.0004         49.0004
  -8129864.46347  -6325073.60446  24106408.5634   24106419.8694   24106408.848
        43.0004         38.0004
 -25822060.66949 -20072135.93848  19980514.2464   19980521.7734   19980514.652
        54.0004         49.0004
 -14459919.75548 -11207080.81147  22553751.3394   22553759.4084   22553750.472
        49.0004         45.0004
   -555996.23547   -415190.91846  24114338.0284   24114351.1274   24114337.158
        42.0004         37.0004
  -4647852.07647  -3561690.72146  23652414.1544   23652422.9654   23652413.946
        42.0004         37.0004
 -19622284.51948 -15235653.52847  21384034.1634   21384041.8894   21384034.457
        51.0004         46.0004
  -5852398.24147  -4533091.82046  23709515.8524   23709527.7134   23709515.311
        44.0004         39.0004
  -5486553.37947  -4239988.10346  23683926.1704   23683934.1734   23683926.265
        44.0004         39.0004
 14  5 10  0 22  0.0000000  0 11G13G09G07G10G08G17G26G20G04G01G28
  13449364.59747  10472257.63346  24049170.0924   24049178.4794   24049170.201
        42.0004         37.0004
 -20653512.07249 -16079591.71148  20071900.5884   20071907.6544   20071900.686
        54.0004         49.0004
 -22563931.74848 -17551101.44148  20414309.2694   20414314.5314   20414308.804
        53.0004         49.0004
  -8184878.26547  -6367941.28946  24095938.9684   24095949.7764   24095939.769
        43.0004         38.0004
 -25848441.56449 -20092692.41948  19975494.1564   19975501.3734   19975494.544
        54.0004         49.0004
 -14418558.95048 -11174851.58047  22561621.1794   22561629.5934   22561621.065
        49.0004         45.0004
   -571293.63747   -427110.82546  24111425.9744   24111443.0274   24111425.143
        42.0004         38.0004
  -4638703.33247  -3554561.82446  23654153.2254   23654163.7504   23654154.275
        42.0004         37.0004
 -19696319.11448 -15293342.72147  21369946.3674   21369953.3974   21369946.054
        51.0004         46.0004
  -5753298.00847  -4455870.85946  23728374.2994   23728385.8854   23728373.159
        44.0004         39.0004
  -5534083.72847  -4277024.58946  23674881.8344   23674889.0644   23674881.426
        44.0004         39.0004
 14  5 10  0 22 30.0000000  0 11G13G09G07G10G08G17G26G20G04G01G28
  13523077.52447  10529696.35846  24063197.9984   24063204.1334   24063197.520
        42.0004         37.0004
 -20677340.56749 -16098159.29348  20067366.2484   20067373.3294   20067366.250
        54.0004         49.0004
 -22520972.23148 -17517626.45448  20422483.7214   20422489.5864   20422483.652
        53.0004         49.0004
  -8240113.17247  -6410981.26146  24085428.6374   24085438.4914   24085429.115
        43.0004         38.0004
 -25874196.41549 -20112761.07548  19970593.4614   19970600.4624   19970593.589
        54.0004         49.0004
 -14377129.62048 -11142568.95447  22569505.6744   22569513.1264   22569504.653
        49.0004         44.0004
   -586248.90947   -438764.14346  24108579.7964   24108594.8074   24108580.770
        42.0004         38.0004
  -4629320.28247  -3547250.35346  23655939.5214   23655949.2804   23655940.155
        42.0004         37.0004
 -19769970.02648 -15350732.96147  21355930.8174   21355937.9294   21355930.488
        51.0004         46.0004
  -5653992.72147  -4378490.12246  23747270.4524   23747284.1104   23747270.131
        44.0004         40.0004
  -5581823.53647  -4314224.30046  23665795.7484   23665805.3384   23665796.636
        43.0004         39.0004
 14  5 10  0 23  0.0000000  0 11G13G09G07G10G08G17G26G20G04G01G28
  13596608.93646  10586993.64246  24077189.6344   24077196.4794   24077189.613
        41.0004         37.0004
 -20700571.06349 -16116260.90348  20062945.9074   20062952.4754   20062945.587
        54.0004         49.0004
 -22477449.37148 -17483712.49948  20430766.0564   20430771.9354   20430765.742
        53.0004         49.0004
  -8295565.89147  -6454190.96846  24074876.8334   24074886.4884   24074877.393
        43.0004         38.0004
 -25899321.25649 -20132338.82048  19965812.0344   19965818.9804   19965812.519
        54.0004         49.0004
 -14335631.88748 -11110233.02947  22577402.1844   22577409.6874   22577401.380
        49.0004         44.0004
   -600861.13247   -450150.13446  24105799.0754   24105814.4194   24105798.652
        42.0004         38.0004
  -4619699.04647  -3539753.27946  23657769.7974   23657778.7434   23657770.060
        42.0004         37.0004
 -19843232.53648 -15407820.53947  21341989.4124   21341996.2794   21341989.115
        51.0004         46.0004
  -5554482.73647  -4300949.87746  23766206.6704   23766220.0774   23766206.181
        44.0004         40.0004
  -5629768.93647  -4351584.22946  23656672.4384   23656681.3074   23656672.192
