     2.11           OBSERVATION DATA    G (GPS)             RINEX VERSION / TYPE
teqc  2013Mar15     gpsops              20140513 00:23:23UTCPGM / RUN BY / DATE
Linux 2.4.21-27.ELsmp|Opteron|gcc -static|Linux x86_64|=+   COMMENT
BIT 2 OF LLI FLAGS DATA COLLECTED UNDER A/S CONDITION       COMMENT
GLPS                                                        MARKER NAME
42005M002                                                   MARKER NUMBER
GGN                 JPL                                     OBSERVER / AGENCY
ZR220013847         ASHTECH UZ-12       CQ00                REC # / TYPE / VERS
CR519992104         ASH701945B_M    SCIT                    ANT # / TYPE
   -33801.4662 -6377516.5323   -82154.3508                  APPROX POSITION XYZ
        0.0083        0.0000        0.0000                  ANTENNA: DELTA H/E/N
     1     1                                                WAVELENGTH FACT L1/2
     7    L1    L2    P1    P2    C1    S1    S2            # / TYPES OF OBSERV
    30.0000                                                 INTERVAL
                                                            COMMENT
This data is provided as a public service by NASA/JPL.      COMMENT
No warranty is expressed or implied regarding suitability   COMMENT
for use.  For further information, contact:                 COMMENT
Dave Stowers, NASA/JPL m/s 238-600                          COMMENT
4800 Oak Grove Drive, Pasadena CA 91109 USA                 COMMENT
                                                            COMMENT
Forced Modulo Decimation to 30 seconds                      COMMENT
 SNR is mapped to RINEX snr flag value [0-9]                COMMENT
  L1 & L2: min(max(int(snr_dBHz/6), 0), 9)                  COMMENT
pseudorange smoothing corrections not applied               COMMENT
  2014     5    12     0     0    0.0000000     GPS         TIME OF FIRST OBS
                                                            END OF HEADER
 14  5 12  0  0  0.0000000  0 10G13G10G20G09G08G17G07G04G01G28
  12094344.75347   9420344.29946  23654073.0224   23654082.4064   23654074.160
        42.0004         38.0004
  -5960951.52847  -4635867.67046  24372554.0014   24372566.2454   24372555.041
        42.0004         37.0004
  -4545138.83547  -3494724.72546  23615417.0884   23615427.3854   23615416.812
        42.0004         37.0004
 -18896774.21148 -14719027.46048  20241204.0734   20241212.3384   20241203.793
        53.0004         49.0004
 -25790647.50349 -20042137.14148  20152898.0924   20152906.3474   20152898.220
        54.0004         49.0004
 -14926988.23248 -11570903.97247  22351027.9314   22351038.7294   22351027.623
        50.0004         45.0004
 -24715367.45649 -19222694.45148  20232478.7444   20232485.1224   20232478.338
        54.0004         49.0004
 -20799861.09848 -16130595.60847  21788206.5744   21788215.0394   21788205.794
        50.0004         45.0004
  -8219946.89147  -6369826.63146  23222855.1914   23222872.8014   23222854.913
        45.0004         40.0004
  -5025654.93247  -3871938.90546  23909783.2894   23909797.6494   23909784.477
        44.0004         39.0004
 14  5 12  0  0 30.0000000  0 10G13G10G20G09G08G17G07G04G01G28
  12172457.69547   9481211.62446  23668937.7224   23668946.8864   23668938.083
        42.0004         37.0004
  -6009835.48647  -4673958.84546  24363251.8874   24363263.3964   24363252.260
        42.0004         37.0004
  -4541751.28847  -3492085.06846  23616061.6754   23616072.7484   23616061.695
        42.0004         37.0004
 -18936657.17848 -14750104.98548  20233614.4454   20233622.3004   20233614.465
        53.0004         49.0004
 -25832689.18049 -20074896.78648  20144897.6034   20144905.7254   20144897.817
        54.0004         49.0004
 -14888317.63848 -11540771.05347  22358387.0084   22358397.8724   22358386.518
        50.0004         45.0004
 -24688375.30649 -19201661.54848  20237615.2204   20237621.5014   20237614.529
        54.0004         49.0004
 -20883261.39848 -16195582.74347  21772335.5864   21772344.1154   21772335.687
        50.0004         45.0004
  -8127308.32447  -6297640.86546  23240484.1804   23240500.8744   23240483.040
        45.0004         40.0004
  -5067158.51547  -3904279.13446  23901886.0004   23901900.7454   23901886.420
        44.0004         39.0004
 14  5 12  0  1  0.0000000  0 10G13G10G20G09G08G17G07G04G01G28
  12250431.31447   9541970.36846  23683775.4364   23683784.7494   23683776.400
        42.0004         38.0004
  -6058960.98347  -4712238.24446  24353901.9524   24353914.3634   24353903.237
        42.0004         37.0004
  -4538176.93047  -3489299.83846  23616742.0724   23616751.5114   23616741.606
        42.0004         37.0004
 -18975983.23748 -14780748.55648  20226130.7724   20226138.9174   20226130.751
        53.0004         49.0004
 -25874157.59149 -20107209.73148  20137006.5494   20137014.5254   20137006.793
        54.0004         49.0004
 -14849514.50148 -11510534.85147  22365771.0934   22365781.3514   22365770.550
        50.0004         45.0004
 -24660793.05249 -19180168.82848  20242864.0314   20242870.0834   20242863.494
        54.0004         49.0004
 -20966349.51948 -16260326.61547  21756524.3604   21756532.4354   21756523.686
        50.0004         45.0004
  -8034397.82547  -6225243.21246  23258164.8204   23258180.9324   23258163.681
        45.0004         41.0004
  -5108906.70947  -3936809.95646  23893941.5424   23893957.0224   23893941.718
        43.0004         39.0004
 14  5 12  0  1 30.0000000  0 10G13G10G20G09G08G17G07G04G01G28
  12328268.97047   9602623.17046  23698588.6694   23698596.8604   23698588.767
        42.0004         37.0004
  -6108322.31047  -4750701.39246  24344510.0964   24344520.9934   24344510.306
        42.0004         37.0004
  -4534409.29147  -3486364.01046  23617458.8864   23617467.3424   23617458.816
        42.0004         38.0004
 -19014745.56649 -14810952.85548  20218754.3064   20218762.6194   20218754.646
        54.0004         49.0004
 -25915045.30849 -20139070.19148  20129225.3824   20129233.5534   20129225.874
        54.0004         49.0004
 -14810576.29748 -11480193.40147  22373181.0684   22373191.0014   22373180.323
        50.0004         45.0004
 -24632616.31849 -19158212.87548  20248225.5344   20248231.8114   20248225.068
        54.0004         49.0004
 -21049117.38048 -16324820.94347  21740774.4444   21740781.9744   21740774.123
        50.0004         45.0004
  -7941212.71747  -6152631.56046  23275897.1934   23275913.7494   23275896.505
        45.0004         41.0004
  -5150893.53447  -3969526.73746  23885951.1624   23885965.3904   23885951.434
        43.0004         38.0004
 14  5 12  0  2  0.0000000  0 10G13G10G20G09G08G17G07G04G01G28
  12405966.74947   9663166.99546  23713374.5674   23713381.7774   23713373.581
        42.0004         38.0004
  -6157920.48847  -4789349.09546  24335070.8824   24335082.8814   24335072.339
        42.0004         38.0004
  -4530448.27247  -3483277.48546  23618212.3674   23618222.7244   23618212.383
        42.0004         38.0004
 -19052943.88949 -14840717.66948  20211485.6124   20211493.1404   20211485.493
        54.0004         49.0004
 -25955351.81649 -20170477.75248  20121555.6574   20121563.8774   20121555.922
        54.0004         49.0004
 -14771507.13848 -11449749.90947  22380615.1384   22380626.0494   22380614.751
        50.0004         45.0004
 -24603847.64149 -19135795.66348  20253699.7154   20253706.6454   20253699.569
        54.0004         49.0004
 -21131564.42348 -16389065.28147  21725085.3314   21725093.0034   21725084.421
        50.0004         45.0004
  -7847757.44547  -6079809.37746  23293681.0774   23293696.9334   23293680.637
        45.0004         40.0004
  -5193119.64247  -4002429.96546  23877914.9964   23877931.1864   23877916.196
        43.0004         38.0004
 14  5 12  0  2 30.0000000  0 10G13G10G20G09G08G17G07G04G01G28
  12483524.04047   9723601.34346  23728133.5534   23728140.7774   23728132.725
        42.0004         38.0004
  -6207754.20047  -4828180.33046  24325589.4104   24325601.1534   24325589.044
        42.0004         38.0004
  -4526290.75647  -3480037.84246  23619002.5754   23619013.5524   23619003.943
        42.0004         38.0004
 -19090575.69249 -14870041.04748  20204324.3794   20204332.5994   20204324.349
        54.0004         49.0004
 -25995073.77549 -20201429.82948  20113996.8654   20114004.9554   20113996.694
        54.0004         49.0004
 -14732308.42648 -11419205.46347  22388073.9954   22388084.4694   22388074.093
        50.0004         45.0004
 -24574486.66549 -19112916.92048  20259286.6414   20259293.7894   20259286.691
        54.0004         49.0004
 -21213686.61848 -16453056.49047  21709457.6454   21709466.8524   21709457.011
        50.0004         45.0004
  -7754033.27147  -6006777.67446  23311516.0854   23311532.5574   23311515.330
        45.0004         40.0004
  -5235582.80347  -4035517.91846  23869835.6984   23869849.3214   23869835.723
        43.0004         39.0004
 14  5 12  0  3  0.0000000  0 11G13G10G20G09G26G08G17G07G04G01G28
  12560932.55747   9783919.75546  23742863.7404   23742871.1064   23742862.217
        42.0004         38.0004
  -6257829.52647  -4867199.83646  24316058.6964   24316071.5904   24316059.550
        42.0004         37.0004
  -4521941.77447  -3476649.03346  23619829.9644   23619841.0924   23619830.780
        42.0004         37.0004
 -19127646.11549 -14898926.97848  20197270.0994   20197278.3044   20197269.987
        54.0004         49.0004
   -947461.37248   -715914.45446  24191006.2024   24191022.1304   24191006.411
        51.0004         37.0004
 -26034215.85149 -20231930.04448  20106548.2474   20106556.1454   20106548.404
        54.0004         49.0004
 -14692989.42148 -11388567.29147  22395557.2174   22395566.1874   22395556.257
        50.0004         45.0004
 -24544541.08748 -19089582.64348  20264985.8354   20264991.9814   20264985.276
        53.0004         49.0004
 -21295488.01048 -16516797.72347  21693890.8154   21693899.2224   21693891.199
        50.0004         45.0004
  -7660049.46247  -5933543.65846  23329400.5274   23329416.8964   23329400.359
        45.0004         40.0004
  -5278288.35147  -4068794.74646  23861708.5834   23861723.0284   23861708.900
        43.0004         39.0004
 14  5 12  0  3 30.0000000  0 11G13G10G20G09G26G08G17G07G04G01G28
  12638198.25647   9844126.89346  23757567.1444   23757575.2974   23757566.020
        42.0004         38.0004
  -6308137.88247  -4906400.92446  24306485.2744   24306496.9814   24306485.393
        42.0004         37.0004
  -4517391.32447  -3473103.20946  23620695.9064   23620706.0464   23620696.808
        42.0004         37.0004
 -19164145.66749 -14927368.07748  20190324.1614   20190332.5514   20190324.146
        54.0004         49.0004
   -970123.49047   -733572.99346  24186693.0164   24186710.7654   24186693.001
        46.0004         37.0004
 -26072767.66549 -20261970.32048  20099211.4844   20099219.8234   20099211.925
        54.0004         49.0004
 -14653544.77148 -11357831.20647  22403063.2014   22403072.1254   22403062.505
        50.0004         45.0004
 -24514003.67948 -19065787.19448  20270796.5774   20270802.8284   20270796.468
        53.0004         49.0004
 -21376958.04448 -16580280.75547  21678388.4054   21678395.8484   21678386.870
        50.0004         45.0004
  -7565800.61647  -5860103.13746  23347335.8664   23347352.5054   23347335.156
        45.0004         40.0004
  -5321227.35547  -4102253.47946  23853536.6354   23853551.4894   23853538.067
        43.0004         39.0004
 14  5 12  0  4  0.0000000  0 11G13G10G20G09G26G08G17G07G04G01G28
  12715318.09047   9904220.37846  23772241.3334   23772250.1564   23772240.867
        42.0004         38.0004
  -6358679.78647  -4945783.97846  24296867.3894   24296879.1224   24296866.702
        42.0004         37.0004
  -4512639.39447  -3469400.40946  23621599.8614   23621612.3514   23621600.755
        42.0004         37.0004
 -19200073.87349 -14955363.97448  20183487.1164   20183495.2384   20183487.456
        54.0004         49.0004
   -992418.42747   -750945.39746  24182451.2894   24182467.9254   24182450.626
        43.0004         36.0004
 -26110728.24049 -20291549.89048  20091988.3654   20091996.3494   20091988.339
        54.0004         49.0004
 -14613978.02348 -11326999.98747  22410591.6894   22410602.0364   22410591.676
        50.0004         45.0004
 -24482876.49948 -19041532.19248  20276720.0704   20276726.3284   20276719.528
        53.0004         49.0004
 -21458095.31948 -16643504.49847  21662948.1714   21662955.1794   21662948.112
        50.0004         45.0004
  -7471290.59647  -5786459.09646  23365319.8814   23365336.7974   23365320.114
        45.0004         40.0004
  -5364399.89147  -4135894.20446  23845321.6944   23845335.9174   23845321.556
        43.0004         39.0004
 14  5 12  0  4 30.0000000  0 11G13G10G20G09G26G08G17G07G04G01G28
  12792288.49847   9964197.39246  23786888.9834   23786896.3234   23786888.508
        42.0004         38.0004
  -6409456.67447  -4985350.15246  24287205.0084   24287217.3694   24287204.530
        42.0004         38.0004
  -4507685.80847  -3465540.48146  23622542.4404   23622553.0374   23622544.369
        42.0004         37.0004
 -19235430.97249 -14982914.84648  20176759.0134   20176766.6744   20176758.724
        54.0004         49.0004
  -1014349.06246   -768033.95146  24178277.0554   24178295.3624   24178276.896
        41.0004         36.0004
 -26148097.40749 -20320668.62548  20084876.7194   20084884.7244   20084877.008
        54.0004         49.0004
 -14574293.90348 -11296077.30947  22418144.2324   22418153.4024   22418143.223
        50.0004         45.0004
 -24451162.65848 -19016820.04648  20282754.8834   20282761.2364   20282754.204
        53.0004         49.0004
 -21538899.20248 -16706468.45347  21647571.7094   21647579.4754   21647570.718
        50.0004         45.0004
  -7376523.77047  -5712614.93746  23383353.7144   23383370.9714   23383353.605
        44.0004         40.0004
  -5407806.91647  -4169717.63946  23837062.2574   23837076.2754   23837061.749
        43.0004         39.0004
 14  5 12  0  5  0.0000000  0 11G13G10G20G09G26G08G17G07G04G01G28
  12869110.77047  10024059.00346  23801508.2244   23801515.1124   23801506.731
        42.0004         38.0004
  -6460464.89947  -5025096.58646  24277498.1184   24277510.1364   24277499.151
        42.0004         38.0004
  -4502525.70747  -3461519.60546  23623524.2484   23623535.5244   23623525.088
        42.0004         37.0004
 -19270212.41449 -15010017.16348  20170140.2354   20170148.1464   20170140.411
        54.0004         49.0004
  -1035913.13646   -784836.84746  24174173.3164   24174188.3544   24174173.159
        41.0004         37.0004
 -26184869.85449 -20349322.38148  20077879.3554   20077887.4064   20077879.533
        54.0004         49.0004
 -14534491.57548 -11265062.52147  22425717.4524   22425728.1774   22425717.363
        50.0004         45.0004
 -24418859.92448 -18991649.02248  20288901.6164   20288908.0434   20288901.407
        53.0004         49.0004
 -21619363.58648 -16769167.85847  21632258.6864   21632267.1934   21632258.861
        50.0004         45.0004
  -7281499.62447  -5638570.27546  23401436.8064   23401453.8184   23401436.008
        45.0004         40.0004
  -5451443.86747  -4203720.23946  23828758.0874   23828770.8764   23828757.748
        43.0004         39.0004
 14  5 12  0  5 30.0000000  0 11G13G10G20G09G26G08G17G07G04G01G28
  12945779.91947  10083801.28946  23816098.3724   23816105.6274   23816096.671
        42.0004         38.0004
  -6511707.18347  -5065025.39246  24267746.0774   24267758.5034   24267747.552
        42.0004         38.0004
  -4497160.66447  -3457339.05346  23624546.5624   23624555.7594   23624547.520
        42.0004         37.0004
 -19304420.07049 -15036672.36648  20163630.7384   20163638.6394   20163630.547
        54.0004         49.0004
  -1057114.91146   -801357.46446  24170137.9924   24170155.9114   24170138.087
        41.0004         37.0004
 -26221046.94749 -20377512.22848  20070994.7094   20071002.8674   20070995.032
        54.0004         49.0004
 -14494576.85148 -11233960.14747  22433312.5774   22433324.5324   22433312.660
        50.0004         45.0004
 -24385972.40748 -18966022.32148  20295160.1024   20295166.0934   20295159.756
        53.0004         49.0004
 -21699489.56748 -16831603.57647  21617011.5614   21617019.7594   21617011.528
        50.0004         45.0004
  -7186224.02347  -5564329.67746  23419567.4534   23419583.8204   23419566.953
        44.0004         40.0004
  -5495312.76847  -4237903.56846  23820409.3834   23820424.0254   23820409.409
        43.0004         39.0004
 14  5 12  0  6  0.0000000  0 11G13G10G20G09G26G08G17G07G04G01G28
  13022296.13547  10143424.41546  23830658.4954   23830665.1814   23830657.570
        42.0004         38.0004
  -6563181.14547  -5105134.73446  24257951.4884   24257963.7194   24257952.169
        42.0004         38.0004
  -4491587.27847  -3452996.14346  23625607.9064   23625616.2294   23625607.205
        42.0004         37.0004
 -19338050.76849 -15062878.00048  20157230.9864   20157238.7454   20157230.973
        54.0004         49.0004
  -1077953.73046   -817595.25246  24166173.7994   24166189.7314   24166172.564
        41.0004         37.0004
 -26256625.08349 -20405235.35748  20064224.8774   20064232.9054   20064224.986
        54.0004         49.0004
 -14454550.52748 -11202770.82447  22440929.9694   22440940.4094   22440929.670
        50.0004         45.0004
 -24352499.72448 -18939939.64748  20301529.5544   20301535.7864   20301529.038
        53.0004         49.0004
 -21779272.45548 -16893771.95347  21601829.7864   21601837.5724   21601829.330
        50.0004         46.0004
  -7090697.87547  -5489893.85446  23437745.2364   23437762.4074   23437744.443
        44.0004         40.0004
  -5539410.94847  -4272265.54946  23812018.2134   23812031.5484   23812017.929
        43.0004         39.0004
 14  5 12  0  6 30.0000000  0 11G13G10G20G09G26G08G17G07G04G01G28
  13098655.72847  10202925.51646  23845187.7434   23845196.8194   23845188.174
        42.0004         38.0004
  -6614887.71147  -5145425.32346  24248111.7004   24248124.0614   24248112.735
        43.0004         38.0004
  -4485805.53447  -3448490.90146  23626707.5064   23626716.5884   23626707.576
        42.0004         37.0004
 -19371104.43949 -15088633.99748  20150940.6004   20150948.6864   20150940.822
        54.0004         49.0004
  -1098432.03146   -833552.13146  24162275.8674   24162293.6264   24162275.417
        41.0004         36.0004
 -26291603.53849 -20432491.19348  20057568.1784   20057576.4684   20057568.586
        54.0004         49.0004
 -14414416.63548 -11171497.67447  22448567.7204   22448577.6284   22448566.898
        50.0004         45.0004
 -24318444.26748 -18913402.86448  20308009.8834   20308016.2214   20308009.733
        53.0004         49.0004
 -21858711.27448 -16955672.22047  21586712.8104   21586720.3384   21586712.254
        50.0004         46.0004
  -6994925.14747  -5415265.89146  23455970.7044   23455988.2394   23455969.248
        44.0004         39.0004
  -5583738.75447  -4306806.46346  23803581.5324   23803596.0834   23803582.594
        43.0004         38.0004
 14  5 12  0  7  0.0000000  0 11G13G10G20G09G26G08G17G07G04G01G28
  13174857.28347  10262303.46146  23859688.9324   23859697.1534   23859688.004
        42.0004         37.0004
  -6666825.57447  -5185896.13546  24238228.8234   24238239.8724   24238229.664
        43.0004         38.0004
  -4479812.89747  -3443821.32146  23627847.1764   23627857.5974   23627846.847
        42.0004         37.0004
 -19403579.46749 -15113939.10548  20144761.1774   20144769.0304   20144760.759
        54.0004         49.0004
  -1118550.44646   -849228.57446  24158447.9274   24158465.1504   24158447.141
        41.0004         37.0004
 -26325980.25749 -20459278.15348  20051026.5204   20051034.6884   20051027.070
        54.0004         49.0004
 -14374177.45748 -11140142.48947  22456223.9724   22456235.0254   22456224.333
        50.0004         45.0004
 -24283806.48048 -18886412.31548  20314601.4274   20314607.4874   20314600.826
        53.0004         49.0004
 -21937803.19248 -17017302.17447  21571662.0384   21571669.8724   21571661.455
        50.0004         46.0004
  -6898908.15847  -5340447.59346  23474241.3414   23474258.4144   23474241.152
        44.0004         39.0004
  -5628294.32547  -4341524.85146  23795103.1854   23795116.4904   23795103.237
        43.0004         38.0004
 14  5 12  0  7 30.0000000  0 11G13G10G20G09G26G08G17G07G04G01G28
  13250901.14447  10321558.52546  23874158.8964   23874167.0824   23874158.180
        42.0004         37.0004
  -6718992.26347  -5226545.25646  24228300.5164   24228311.2584   24228301.423
        43.0004         38.0004
  -4473605.93447  -3438984.73146  23629028.3124   23629039.6624   23629029.065
        42.0004         37.0004
 -19435473.07949 -15138791.16248  20138691.8814   20138699.5664   20138691.943
        54.0004         49.0004
  -1138308.35646   -864624.09846  24154687.5724   24154702.7344   24154687.231
        41.0004         37.0004
 -26359751.47849 -20485593.29348  20044599.8494   20044607.8874   20044600.218
        54.0004         49.0004
 -14333833.88548 -11108705.95847  22463901.8874   22463911.6794   22463901.406
        50.0004         45.0004
 -24248586.10448 -18858967.80348  20321303.3154   20321309.8824   20321302.982
        53.0004         49.0004
 -22016543.73148 -17078658.33347  21556678.5334   21556686.2864   21556677.869
        50.0004         46.0004
  -6802647.71147  -5265439.58446  23492560.5434   23492576.4264   23492558.960
        44.0004         39.0004
  -5673074.72647  -4376418.44046  23786581.7414   23786594.2844   23786581.653
        43.0004         38.0004
 14  5 12  0  8  0.0000000  0 11G13G10G20G09G26G08G17G07G04G01G28
  13326783.53147  10380687.76446  23888597.4494   23888606.0764   23888598.352
        42.0004         37.0004
  -6771389.14147  -5267373.74746  24218330.6484   24218341.6304   24218330.740
        43.0004         38.0004
  -4467185.34547  -3433981.69046  23630250.1314   23630262.1794   23630250.590
        42.0004         37.0004
 -19466785.70249 -15163190.50048  20132732.8204   20132741.1864   20132733.009
        54.0004         49.0004
  -1157708.70646   -879741.01846  24150994.0554   24151011.3254   24150994.941
        41.0004         37.0004
 -26392916.84449 -20511436.34348  20038288.8234   20038296.8434   20038288.958
        54.0004         49.0004
 -14293390.20248 -11077191.41847  22471597.3884   22471608.6304   22471597.592
        50.0004         45.0004
 -24212785.99648 -18831071.54848  20328115.6614   20328122.3834   20328115.191
        53.0004         49.0004
 -22094932.16148 -17139740.12247  21541761.8134   21541769.6774   21541761.180
        50.0004         46.0004
  -6706148.40147  -5190245.44046  23510923.0024   23510939.9664   23510922.160
        44.0004         39.0004
  -5718080.95547  -4411487.99446  23778016.5754   23778031.8034   23778017.192
        43.0004         38.0004
 14  5 12  0  8 30.0000000  0 11G13G10G20G09G26G08G17G07G04G01G28
  13402503.76547  10439690.66546  23903006.6244   23903015.6974   23903007.624
        42.0004         37.0004
  -6824014.90247  -5308380.59446  24208315.8784   24208326.4544   24208316.196
        43.0004         38.0004
  -4460548.19547  -3428809.88046  23631513.1754   23631522.7024   23631513.908
        42.0004         37.0004
 -19497515.10949 -15187135.38848  20126885.4204   20126893.3104   20126885.445
        54.0004         49.0004
  -1176751.86746   -894579.59146  24147369.9754   24147386.0854   24147370.661
        41.0004         36.0004
 -26425473.82349 -20536805.32048  20032093.5904   20032101.1154   20032093.839
        54.0004         49.0004
 -14252847.96048 -11045600.07547  22479313.4844   22479323.3814   22479312.747
        50.0004         45.0004
 -24176406.52848 -18802723.85248  20335039.0284   20335044.4954   20335038.288
        53.0004         49.0004
 -22172965.46448 -17200545.18747  21526911.6564   21526920.2654   21526911.399
        50.0004         46.0004
  -6609411.99547  -5114866.56546  23529331.8804   23529348.5124   23529331.037
        44.0004         39.0004
  -5763311.09547  -4446732.02946  23769409.6244   23769423.7604   23769409.720
        43.0004         38.0004
 14  5 12  0  9  0.0000000  0 11G13G10G20G09G26G08G17G07G04G01G28
  13478060.76347  10498566.36846  23917385.8424   23917393.1474   23917385.705
        42.0004         37.0004
  -6876868.34647  -5349564.84146  24198258.1024   24198268.7264   24198258.468
        43.0004         38.0004
  -4453692.10047  -3423467.48346  23632817.0374   23632828.3624   23632818.150
        42.0004         37.0004
 -19527659.29849 -15210624.25348  20121149.0694   20121156.7234   20121149.000
        54.0004         49.0004
  -1195438.03746   -909140.01246  24143815.5904   24143831.0834   24143814.751
        41.0004         37.0004
 -26457419.79949 -20561698.19648  20026014.0394   20026022.0554   20026014.179
        54.0004         49.0004
 -14212209.27848 -11013933.58847  22487046.6064   22487056.6304   22487045.906
        50.0004         45.0004
 -24139448.22548 -18773925.10848  20342071.4834   20342077.7004   20342071.199
        53.0004         49.0004
 -22250639.88148 -17261070.59847  21512130.9524   21512139.2854   21512130.612
        51.0004         46.0004
  -6512440.39047  -5039304.40746  23547785.0294   23547801.7264   23547784.424
        44.0004         40.0004
  -5808762.53247  -4482148.46346  23760760.2434   23760774.4074   23760760.684
        43.0004         38.0004
 14  5 12  0  9 30.0000000  0 11G13G10G20G09G26G08G17G07G04G01G28
  13553450.19447  10557311.48646  23931731.8364   23931739.7334   23931731.980
        42.0004         37.0004
  -6929951.06447  -5390927.75046  24188155.6164   24188166.6694   24188156.880
        43.0004         38.0004
  -4446618.30447  -3417955.43246  23634162.9094   23634174.6544   23634163.578
        42.0004         37.0004
 -19557219.52049 -15233658.08248  20115523.7914   20115531.5304   20115523.803
        54.0004         49.0004
  -1213771.02846   -923425.20446  24140326.5064   24140342.3604   24140325.729
        41.0004         37.0004
 -26488755.64949 -20586115.64248  20020051.1014   20020059.0344   20020051.534
        54.0004         49.0004
 -14171479.21948 -10982195.89647  22494796.8204   22494808.2104   22494796.404
        50.0004         45.0004
 -24101914.77748 -18744678.20248  20349213.6884   20349219.7624   20349213.512
        53.0004         49.0004
 -22327955.80448 -17321316.66247  21497417.7184   21497425.4734   21497417.715
        51.0004         46.0004
  -6415238.78747  -4963563.02546  23566281.8394   23566299.2984   23566281.420
        44.0004         40.0004
  -5854436.84247  -4517738.58246  23752068.7744   23752081.5424   23752068.559
        43.0004         38.0004
 14  5 12  0 10  0.0000000  0 11G13G10G20G09G26G08G17G07G04G01G28
  13628673.49347  10615927.15246  23946046.0544   23946054.3254   23946046.252
        42.0004         37.0004
  -6983258.97847  -5432466.13646  24178012.2014   24178022.6854   24178012.302
        43.0004         38.0004
  -4439321.87047  -3412269.92746  23635552.4404   23635562.5784   23635552.409
        42.0004         37.0004
 -19586191.55449 -15256233.58348  20110010.8734   20110018.3044   20110010.641
        54.0004         49.0004
  -1231748.82046   -937433.62046  24136904.2504   24136921.4504   24136905.181
        41.0004         36.0004
 -26519476.13949 -20610053.59448  20014204.7674   20014212.9164   20014205.186
        54.0004         49.0004
 -14130656.96548 -10950386.36547  22502564.8784   22502575.4514   22502564.490
        50.0004         45.0004
 -24063804.44548 -18714981.77448  20356466.2164   20356472.0384   20356465.555
        53.0004         49.0004
 -22404907.35448 -17381278.80747  21482774.8884   21482781.8454   21482773.796
        51.0004         46.0004
  -6317806.59947  -4887641.97446  23584822.2744   23584839.8744   23584822.006
        44.0004         40.0004
  -5900329.54947  -4553498.89046  23743335.3234   23743348.2924   23743335.602
        43.0004         39.0004
 14  5 12  0 10 30.0000000  0 11G13G10G20G09G26G08G17G07G04G01G28
  13703727.46647  10674410.86546  23960329.4384   23960337.4804   23960328.550
        42.0004         37.0004
  -7036793.36447  -5474180.98046  24167823.4524   24167834.5294   24167824.576
        43.0004         38.0004
  -4431802.58147  -3406410.76946  23636984.3034   23636993.8684   23636984.460
        42.0004         37.0004
 -19614575.87649 -15278351.13048  20104608.9434   20104616.6234   20104609.093
        54.0004         49.0004
  -1249374.16146   -951167.43146  24133551.5844   24133568.4064   24133550.377
        41.0004         37.0004
 -26549581.42149 -20633512.15748  20008476.1264   20008483.8984   20008476.516
        54.0004         49.0004
 -14089746.93448 -10918508.43247  22510350.4834   22510360.4034   22510349.845
        50.0004         45.0004
 -24025120.18448 -18684838.12948  20363827.2444   20363833.5664   20363826.782
        53.0004         49.0004
 -22481493.80848 -17440956.45247  21468200.2814   21468207.3634   21468200.412
        51.0004         46.0004
  -6220148.28747  -4811544.72946  23603406.4804   23603423.5684   23603405.779
        44.0004         40.0004
  -5946441.37147  -4589429.93446  23734560.5154   23734574.3914   23734560.562
        43.0004         38.0004
 14  5 12  0 11  0.0000000  0 11G13G10G20G09G26G08G17G07G04G01G28
  13778610.43747  10732761.35746  23974578.3184   23974585.9254   23974578.022
        42.0004         37.0004
  -7090553.53247  -5516071.77946  24157593.9384   24157603.9394   24157594.150
        43.0004         38.0004
  -4424058.93047  -3400376.78346  23638457.0254   23638467.4574   23638457.054
        42.0004         37.0004
 -19642371.16749 -15300009.69348  20099319.6384   20099327.2764   20099319.672
        54.0004         49.0004
  -1266648.35746   -964627.59946  24130264.5894   24130279.6354   24130263.245
        41.0004         37.0004
 -26579069.68149 -20656489.92748  20002864.4144   20002872.2414   20002864.596
        54.0004         49.0004
 -14048751.63148 -10886564.06047  22518151.1104   22518161.3644   22518150.720
        50.0004         45.0004
 -23985863.44348 -18654248.39748  20371297.3954   20371303.5874   20371297.320
        53.0004         49.0004
 -22557712.60348 -17500347.62247  21453696.1424   21453703.8204   21453695.508
        51.0004         46.0004
  -6122266.33247  -4735273.20946  23622032.7614   23622049.7914   23622032.113
        44.0004         40.0004
  -5992770.64747  -4625530.44046  23725743.7404   23725755.7854   23725744.415
        43.0004         39.0004
 14  5 12  0 11 30.0000000  0 11G13G10G20G09G26G08G17G07G04G01G28
  13853322.64447  10790978.77046  23988794.8754   23988803.4954   23988795.222
        42.0004         37.0004
  -7144536.67847  -5558136.31746  24147321.6184   24147332.1484   24147322.216
        43.0004         38.0004
  -4416087.49347  -3394165.27046  23639973.8184   23639985.6304   23639973.777
        42.0004         37.0004
 -19669574.60749 -15321207.07248  20094142.7324   20094150.2904   20094143.059
        54.0004         49.0004
  -1283570.74046   -977813.63246  24127043.8854   24127059.6564   24127043.047
        41.0004         37.0004
 -26607937.68449 -20678984.38048  19997371.1484   19997378.7274   19997371.322
        54.0004         49.0004
 -14007671.61748 -10854553.67547  22525968.5464   22525978.3844   22525968.039
        50.0004         45.0004
 -23946033.64948 -18623212.12948  20378876.8224   20378882.7534   20378876.564
        53.0004         48.0004
 -22633559.50148 -17559448.99247  21439263.2214   21439270.7804   21439263.092
        51.0004         46.0004
  -6024161.69347  -4658828.16346  23640701.7604   23640718.7384   23640701.363
        44.0004         40.0004
  -6039314.33347  -4661798.01246  23716887.3794   23716900.2074   23716887.055
        43.0004         39.0004
 14  5 12  0 12  0.0000000  0 11G13G10G20G09G26G08G17G07G04G01G28
  13927860.15647  10849060.06646  24002978.6704   24002986.9554   24002979.108
        42.0004         37.0004
  -7198744.16347  -5600375.67146  24137006.1264   24137017.3684   24137006.653
        43.0004         38.0004
  -4407888.66346  -3387776.60446  23641533.0844   23641543.6724   23641534.628
        41.0004         37.0004
 -19696187.33349 -15341944.15248  20089079.0354   20089086.5374   20089078.756
        54.0004         49.0004
  -1300144.56947   -990728.05246  24123890.7114   24123903.4944   24123888.946
        42.0004         37.0004
 -26636185.65949 -20700995.69548  19991995.5614   19992003.2154   19991995.786
        54.0004         49.0004
 -13966511.65948 -10822480.99647  22533800.9234   22533811.4624   22533800.615
        50.0004         45.0004
 -23905634.30448 -18591732.05348  20386564.4834   20386570.6054   20386564.146
        53.0004         48.0004
 -22709033.94248 -17618260.13547  21424900.7214   21424908.7594   21424900.315
        51.0004         46.0004
  -5925839.02947  -4582213.22746  23659412.5074   23659428.9994   23659411.618
        44.0004         40.0004
  -6086073.26047  -4698233.30046  23707989.7114   23708001.4144   23707989.254
        43.0004         39.0004
 14  5 12  0 12 30.0000000  0 11G13G10G20G09G26G08G17G07G04G01G28
  14002222.99047  10907005.24846  24017131.8384   24017138.2954   24017129.805
        42.0004         37.0004
  -7253173.66047  -5642788.01346  24126647.3304   24126658.1764   24126648.800
        43.0004         38.0004
  -4399459.64347  -3381208.55246  23643138.9404   23643148.4754   23643139.163
        42.0004         37.0004
 -19722206.94849 -15362219.06748  20084127.3344   20084135.0334   20084127.419
        54.0004         49.0004
  -1316369.71547  -1003370.77746  24120801.5644   24120815.7624   24120800.549
        42.0004         37.0004
 -26663810.60149 -20722521.53148  19986738.6954   19986746.3774   19986738.912
        54.0004         49.0004
 -13925272.62748 -10790346.69447  22541648.2534   22541658.6944   22541647.995
        49.0004         45.0004
 -23864665.16948 -18559807.98748  20394360.5894   20394366.3814   20394360.226
        53.0004         49.0004
 -22784132.15648 -17676778.11947  21410610.1724   21410617.5324   21410609.914
        51.0004         46.0004
  -5827299.62247  -4505429.38346  23678162.7304   23678180.2874   23678163.210
        44.0004         40.0004
  -6133044.70947  -4734834.17946  23699050.1884   23699064.2264   23699050.935
        44.0004         39.0004
 14  5 12  0 13  0.0000000  0 11G13G10G20G09G26G08G17G07G04G01G28
  14076409.63847  10964813.14546  24031246.9064   24031254.4764   24031247.137
        42.0004         37.0004
  -7307824.55847  -5685372.89046  24116247.7924   24116258.6394   24116248.913
        43.0004         38.0004
  -4390798.40447  -3374459.55946  23644786.1004   23644799.2294   23644786.275
        42.0004         37.0004
 -19747632.19349 -15382030.83748  20079289.1054   20079296.5584   20079289.132
        54.0004         49.0004
  -1332247.34847  -1015742.69146  24117780.7064   24117796.3024   24117779.970
        42.0004         37.0004
 -26690810.65849 -20743560.44048  19981600.5404   19981608.3014   19981600.968
        54.0004         49.0004
 -13883957.16148 -10758152.84647  22549510.3504   22549521.5294   22549510.081
        49.0004         45.0004
 -23823127.71248 -18527441.07248  20402265.1674   20402271.2994   20402264.648
        53.0004         49.0004
 -22858851.71248 -17735001.04647  21396390.7894   21396398.9184   21396391.098
        51.0004         46.0004
  -5728546.03447  -4428478.64646  23696956.1374   23696972.6354   23696955.264
        44.0004         39.0004
  -6180227.43147  -4771599.71246  23690072.4554   23690084.6724   23690072.705
        44.0004         39.0004
 14  5 12  0 13 30.0000000  0 11G13G10G20G09G26G08G17G07G04G01G28
  14150417.09547  11022481.41746  24045330.3664   24045337.2754   24045330.046
        42.0004         37.0004
  -7362697.44847  -5728130.72546  24105804.7924   24105815.3714   24105805.955
        43.0004         38.0004
  -4381904.84247  -3367529.53046  23646478.7074   23646489.0994   23646479.810
        42.0004         37.0004
 -19772463.28249 -15401379.62848  20074563.8014   20074571.5464   20074563.916
        54.0004         49.0004
  -1347779.93047  -1027845.75646  24114823.2184   24114840.6544   24114822.816
        42.0004         37.0004
 -26717185.51049 -20764112.17748  19976581.7174   19976589.2884   19976581.936
        54.0004         49.0004
 -13842569.01748 -10725902.35547  22557386.8994   22557396.7304   22557385.859
        49.0004         45.0004
 -23781024.65948 -18494633.43948  20410276.6824   20410282.9044   20410276.578
        53.0004         49.0004
 -22933191.26148 -17792927.86047  21382245.3734   21382252.4614   21382244.575
        51.0004         46.0004
  -5629582.21447  -4351364.10346  23715787.6484   23715805.1244   23715787.572
        44.0004         39.0004
  -6227621.21747  -4808529.68946  23681052.4294   23681065.1904   23681052.987
        44.0004         39.0004
 14  5 12  0 14  0.0000000  0 11G13G10G20G09G26G08G17G07G04G01G28
  14224244.40946  11080009.31546  24059378.0064   24059386.0244   24059378.875
        41.0004         37.0004
  -7417791.02847  -5771060.54346  24095321.3844   24095332.4394   24095322.199
        43.0004         38.0004
  -4372776.90847  -3360416.88946  23648216.9654   23648226.7684   23648216.328
        42.0004         37.0004
 -19796698.64749 -15420264.22548  20069951.7104   20069959.3724   20069951.813
        54.0004         49.0004
  -1362968.21947  -1039680.53046  24111934.1684   24111948.1464   24111933.930
        42.0004         37.0004
 -26742932.97349 -20784175.03648  19971681.8704   19971689.7844   19971682.191
        54.0004         49.0004
 -13801110.22648 -10693596.81247  22565275.3494   22565286.7354   22565275.478
        49.0004         45.0004
 -23738357.03748 -18461385.87948  20418396.2744   20418402.0244   20418395.954
        53.0004         49.0004
 -23007147.82048 -17850556.24047  21368170.9954   21368178.9514   21368170.963
        51.0004         46.0004
  -5530410.30247  -4274087.40146  23734659.0114   23734676.7084   23734658.648
        44.0004         40.0004
  -6275223.89447  -4845622.43546  23671993.0984   23672006.9494   23671994.627
        44.0004         39.0004
 14  5 12  0 14 30.0000000  0 11G13G10G20G09G26G08G17G07G04G01G28
  14297891.03046  11137396.40746  24073393.9304   24073401.4314   24073393.859
        41.0004         37.0004
  -7473103.43447  -5814160.86746  24084796.1954   24084806.2464   24084796.770
        42.0004         38.0004
  -4363412.10947  -3353119.65846  23649998.4684   23650009.0954   23649999.013
        42.0004         37.0004
 -19820336.58149 -15438683.28648  20065453.4204   20065460.7824   20065453.351
        54.0004         49.0004
  -1377812.73747  -1051247.43446  24109107.1974   24109124.8604   24109108.045
        42.0004         37.0004
 -26768051.07449 -20803747.49048  19966902.3294   19966909.8374   19966902.498
        54.0004         49.0004
 -13759582.07448 -10661237.22947  22573178.3354   22573188.7394   22573177.810
        49.0004         44.0004
 -23695125.43448 -18427698.84948  20426623.0694   20426628.9254   20426622.434
        53.0004         49.0004
 -23080718.22548 -17907883.72747  21354171.0284   21354178.4484   21354171.025
        51.0004         46.0004
  -5431032.03547  -4196649.90146  23753569.8544   23753587.9754   23753569.822
        44.0004         40.0004
  -6323033.49047  -4882876.42146  23662895.3994   23662909.5404   23662896.273
        43.0004         39.0004
 14  5 12  0 15  0.0000000  0 11G13G10G20G09G26G08G17G07G04G01G28
  14371354.73346  11194640.97246  24087372.8854   24087380.1964   24087372.854
        41.0004         37.0004
  -7528634.28247  -5857431.40046  24074229.0714   24074239.3534   24074229.874
        43.0004         38.0004
  -4353809.17947  -3345636.88146  23651825.0894   23651834.7964   23651825.203
        42.0004         37.0004
 -19843376.65049 -15456636.48148  20061068.9994   20061076.5344   20061069.000
        54.0004         49.0004
  -1392315.16947  -1062547.77846  24106347.8594   24106364.9724   24106347.899
        42.0004         38.0004
 -26792538.50249 -20822828.51148  19962242.3274   19962249.7784   19962242.671
        54.0004         49.0004
 -13717987.81948 -10628826.13847  22581093.1244   22581104.1324   22581092.965
        49.0004         44.0004
 -23651331.95748 -18393574.00548  20434956.4614   20434962.5204   20434956.096
        53.0004         49.0004
 -23153900.25248 -17964908.57847  21340245.1654   21340253.4114   21340244.431
        51.0004         46.0004
  -5331450.61847  -4119054.09946  23772519.9734   23772537.9754   23772519.387
        44.0004         39.0004
  -6371048.77647  -4920290.69846  23653758.8104   23653770.5214   23653759.132
        43.0004         39.0004
 14  5 12  0 15 30.0000000  0 11G13G10G20G09G26G08G17G07G04G01G28
  14444632.76546  11251740.85246  24101317.1754   24101324.6674   24101316.846
        41.0004         37.0004
  -7584384.00047  -5900872.49546  24063621.0604   24063629.7104   24063621.011
        43.0004         38.0004
  -4343967.85347  -3337968.34846  23653698.9834   23653707.7314   23653698.620
        42.0004         37.0004
 -19865819.07449 -15474123.98048  20056798.1804   20056805.7634   20056798.285
        54.0004         49.0004
  -1406478.12547  -1073583.61546  24103653.3324   24103669.5314   24103652.887
        42.0004         38.0004
 -26816394.97249 -20841417.87848  19957702.7524   19957710.2434   19957702.891
        54.0004         49.0004
 -13676330.99548 -10596366.27647  22589020.9274   22589031.1994   22589019.998
        49.0004         44.0004
 -23606979.21248 -18359013.36348  20443396.7834   20443402.2764   20443396.030
        53.0004         49.0004
 -23226693.00748 -18021630.10547  21326392.6804   21326399.9334   21326392.586
        51.0004         46.0004
  -5231669.86947  -4041302.97946  23791507.6894   23791526.2504   23791506.937
        44.0004         39.0004
  -6419269.98847  -4957865.43846  23644582.5154   23644595.1774   23644582.915
        43.0004         39.0004
 14  5 12  0 16  0.0000000  0 11G13G10G20G09G26G08G17G07G04G01G28
  14517726.18946  11308696.88346  24115225.3184   24115233.5914   24115226.747
        41.0004         37.0004
  -7640349.31347  -5944481.57746  24052969.9424   24052979.2264   24052970.605
        43.0004         38.0004
  -4333884.05047  -3330110.88746  23655617.9904   23655628.0654   23655617.735
        42.0004         37.0004
 -19887660.48549 -15491143.16048  20052642.0614   20052649.6084   20052641.972
        54.0004         49.0004
  -1420300.26047  -1084353.86246  24101023.3864   24101038.6374   24101022.797
        42.0004         37.0004
 -26839616.49549 -20859512.48348  19953283.5874   19953291.3414   19953283.663
        54.0004         49.0004
 -13634611.50148 -10563857.58447  22596959.6844   22596969.2864   22596959.113
        49.0004         44.0004
 -23562066.28948 -18324016.21948  20451943.0084   20451949.2814   20451942.480
        53.0004         49.0004
 -23299091.37548 -18078044.31047  21312615.7454   21312623.8704   21312615.443
        51.0004         46.0004
  -5131689.93747  -3963396.65046  23810533.8324   23810550.4414   23810532.826
        44.0004         39.0004
  -6467692.78547  -4995597.25546  23635368.3434   23635379.9114   23635368.512
        44.0004         39.0004
 14  5 12  0 16 30.0000000  0 12G13G10G20G09G26G08G17G07G02G04G01G28
  14590630.97046  11365505.90546  24129099.0274   24129106.5184   24129099.177
        41.0004         37.0004
  -7696531.75747  -5988259.85446  24042278.0154   24042287.6474   24042279.467
        42.0004         38.0004
  -4323558.81046  -3322065.26246  23657581.4944   23657592.6084   23657582.052
        41.0004         37.0004
 -19908902.57349 -15507695.33348  20048599.8984   20048607.1564   20048599.854
        54.0004         49.0004
  -1433785.58947  -1094861.66146  24098455.3174   24098470.6794   24098456.013
        42.0004         37.0004
 -26862204.21949 -20877113.21948  19948985.2274   19948992.6494   19948985.551
        54.0004         49.0004
 -13592834.52548 -10531304.11647  22604909.2594   22604919.1774   22604909.216
        49.0004         44.0004
 -23516597.46548 -18288585.90848  20460595.3414   20460601.7614   20460595.072
        53.0004         48.0004
   -682455.08347   -484290.56246  24077421.6874   24077431.7374   24077422.823
        47.0004         38.0004
 -23371095.49648 -18134151.31547  21298914.2484   21298920.8644   21298913.776
        51.0004         46.0004
  -5031515.98247  -3885339.13646  23829596.0544   23829614.3404   23829595.572
        44.0004         39.0004
  -6516318.54947  -5033487.23146  23626114.6334   23626127.5984   23626114.264
        44.0004         39.0004
 14  5 12  0 17  0.0000000  0 12G13G10G20G09G26G08G17G07G02G04G01G28
  14663347.20146  11422168.00946  24142936.9514   24142944.8864   24142936.531
        41.0004         37.0004
  -7752928.91947  -6032205.44246  24031546.8804   24031555.5094   24031547.080
        42.0004         37.0004
  -4312989.15046  -3313829.21146  23659593.4864   23659604.3064   23659594.059
        41.0004         37.0004
 -19929543.17249 -15523778.80948  20044671.4844   20044679.3274   20044671.822
        54.0004         49.0004
  -1446933.97347  -1105106.92646  24095954.7214   24095969.9494   24095953.427
        42.0004         37.0004
 -26884155.38649 -20894217.93748  19944808.2104   19944815.5524   19944808.433
        54.0004         50.0004
 -13551000.86248 -10498706.46647  22612869.5994   22612880.2014   22612869.629
        49.0004         44.0004
 -23470572.74548 -18252722.42448  20469353.8074   20469359.7144   20469353.073
        53.0004         48.0004
   -776184.19847   -557325.89246  24059586.4884   24059595.2474   24059585.975
        44.0004         38.0004
 -23442701.53548 -18189948.12347  21285287.5744   21285294.6994   21285287.532
        51.0004         46.0004
  -4931149.37047  -3807131.49946  23848696.1524   23848712.9524   23848694.918
        44.0004         39.0004
  -6565144.08947  -5071532.86546  23616822.9204   23616835.8814   23616823.278
        44.0004         39.0004
 14  5 12  0 17 30.0000000  0 12G13G10G20G09G26G08G17G07G02G04G01G28
  14735873.32946  11478681.98546  24156739.0624   24156743.4224   24156738.233
        41.0004         37.0004
  -7809539.92647  -6076317.68046  24020772.7494   24020782.9054   24020773.083
        42.0004         37.0004
  -4302173.41746  -3305401.40046  23661651.2734   23661661.8674   23661651.952
        41.0004         37.0004
 -19949581.30649 -15539392.83948  20040858.5144   20040865.6814   20040858.523
        54.0004         49.0004
  -1459746.86946  -1115090.74046  24093516.5444   24093531.6374   24093515.656
        41.0004         37.0004
 -26905468.68949 -20910825.61748  19940752.1714   19940759.6844   19940752.415
        54.0004         49.0004
 -13509113.34048 -10466066.84447  22620840.8204   22620851.4114   22620840.767
        49.0004         44.0004
 -23423993.78748 -18216427.07148  20478217.1314   20478223.2324   20478216.857
        53.0004         48.0004
   -869754.95147   -630237.81846  24041780.6184   24041789.9914   24041779.704
        43.0004         38.0004
 -23513907.10948 -18245432.88447  21271737.9914   21271745.0654   21271737.359
        51.0004         47.0004
  -4830592.60047  -3728775.67746  23867830.9474   23867848.2684   23867830.186
        44.0004         39.0004
  -6614168.14947  -5109733.19646  23607494.2744   23607506.6134   23607493.876
        44.0004         39.0004
 14  5 12  0 18  0.0000000  0 12G13G10G20G09G26G08G17G07G02G04G01G28
  14808209.51046  11535047.95146  24170503.2964   24170507.4074   24170503.335
        41.0004         37.0004
  -7866362.05447  -6120594.42246  24009959.0014   24009969.6974   24009960.012
        42.0004         38.0004
  -4291108.35046  -3296779.29246  23663755.7384   23663767.2794   23663757.162
        41.0004         37.0004
 -19969014.47249 -15554535.46648  20037160.5034   20037167.7004   20037160.602
        54.0004         49.0004
  -1472223.83846  -1124812.82546  24091139.6954   24091156.4054   24091139.875
        41.0004         37.0004
 -26926140.98249 -20926933.80948  19936818.0364   19936825.5854   19936818.522
        54.0004         49.0004
 -13467172.29948 -10433385.52647  22628822.5484   22628833.0104   22628821.726
        49.0004         44.0004
 -23376860.40248 -18179699.69748  20487186.1034   20487192.3574   20487185.810
        53.0004         48.0004
   -963163.18847   -703023.09746  24024004.8684   24024013.3104   24024004.931
        43.0004         38.0004
 -23584708.10448 -18300602.38647  21258264.8224   21258272.3544   21258264.428
        51.0004         47.0004
  -4729846.70047  -3650272.48846  23887002.7664   23887020.4064   23887001.426
        43.0004         39.0004
  -6663387.44347  -5148085.65446  23598128.0774   23598140.8664   23598127.937
        44.0004         39.0004
 14  5 12  0 18 30.0000000  0 12G13G10G20G09G26G08G17G07G02G04G01G28
  14880352.18046  11591263.10646  24184231.8814   24184238.9414   24184231.492
        41.0004         36.0004
  -7923396.71947  -6165036.76346  23999106.4704   23999117.0644   23999106.986
        42.0004         38.0004
  -4279794.75346  -3287963.55046  23665909.0204   23665920.5044   23665909.315
        41.0004         37.0004
 -19987844.44949 -15569208.07048  20033577.1874   20033584.7084   20033577.186
        54.0004         49.0004
  -1484368.57046  -1134276.00146  24088829.7694   24088847.1194   24088829.983
        41.0004         37.0004
 -26946173.30849 -20942543.32948  19933006.1324   19933013.5944   19933006.382
        54.0004         49.0004
 -13425182.55248 -10400666.25347  22636812.0024   22636822.8024   22636812.023
        49.0004         44.0004
 -23329176.69848 -18142543.50548  20496260.1284   20496265.8004   20496259.952
        53.0004         48.0004
  -1056408.84047   -775681.69046  24006261.4734   24006270.1724   24006261.295
        43.0004         38.0004
 -23655104.32848 -18355456.48347  21244868.4194   21244875.8644   21244868.040
        51.0004         47.0004
  -4628916.49647  -3571625.67946  23906208.4984   23906227.0294   23906208.461
        43.0004         39.0004
  -6712802.67347  -5186590.80546  23588723.9084   23588734.7424   23588724.506
        44.0004         39.0004
 14  5 12  0 19  0.0000000  0 12G13G10G20G09G26G08G17G07G02G04G01G28
  14952300.48846  11647326.82346  24197922.9854   24197929.6844   24197921.710
        41.0004         36.0004
  -7980642.54547  -6209643.65046  23988212.5364   23988222.2744   23988213.479
        42.0004         38.0004
  -4268230.70546  -3278952.64546  23668110.6574   23668121.8284   23668110.047
        41.0004         36.0004
 -20006069.87649 -15583409.60348  20030108.8514   20030116.1144   20030108.907
        54.0004         49.0004
  -1496181.97046  -1143481.01846  24086581.8644   24086596.8124   24086581.576
        41.0004         36.0004
 -26965563.96649 -20957652.84548  19929316.4194   19929323.7704   19929316.615
        54.0004         49.0004
 -13383146.25548 -10367910.71147  22644812.4544   22644822.5094   22644811.238
        49.0004         44.0004
 -23280943.84348 -18104959.40348  20505438.4054   20505444.3154   20505438.140
        53.0004         48.0004
  -1149489.03947   -848211.38146  23988548.2094   23988557.1134   23988548.414
        43.0004         38.0004
 -23725093.02948 -18409993.03347  21231550.4264   21231557.2204   21231549.798
        51.0004         47.0004
  -4527804.20847  -3492836.98046  23925449.7924   23925467.5144   23925449.141
        43.0004         39.0004
  -6762411.81347  -5225247.05346  23579283.3454   23579295.6334   23579283.254
        44.0004         39.0004
 14  5 12  0 19 30.0000000  0 12G13G10G20G09G26G08G17G07G02G04G01G28
  15024054.44546  11703239.10346  24211577.2434   24211583.1984   24211576.170
        41.0004         36.0004
  -8038096.76847  -6254412.93046  23977279.6864   23977288.3954   23977280.150
        43.0004         38.0004
  -4256412.81246  -3269743.93346  23670359.4414   23670369.4714   23670359.638
        41.0004         36.0004
 -20023688.59649 -15597138.37748  20026756.0614   20026763.2164   20026756.155
        54.0004         49.0004
  -1507663.82846  -1152427.66146  24084396.1504   24084410.7724   24084396.539
        41.0004         37.0004
 -26984310.16749 -20972260.18948  19925748.8534   19925756.1774   19925749.123
        54.0004         49.0004
 -13341063.97048 -10335119.32247  22652820.0674   22652829.2874   22652819.137
        49.0004         44.0004
 -23232162.03948 -18066947.55148  20514721.5744   20514727.2804   20514720.827
        53.0004         48.0004
  -1242399.85747   -920609.05846  23970867.4944   23970875.5714   23970867.673
        43.0004         38.0004
 -23794670.38948 -18464209.06047  21218310.0844   21218316.6934   21218309.407
        51.0004         47.0004
  -4426510.90847  -3413907.22846  23944725.4384   23944743.2344   23944724.978
        43.0004         39.0004
  -6812211.66447  -5264051.90746  23569806.5694   23569818.2834   23569806.528
        44.0004         39.0004
 14  5 12  0 20  0.0000000  0 12G13G10G20G09G26G08G17G07G02G04G01G28
  15095609.16146  11758996.12246  24225192.5824   24225200.1524   24225193.057
        41.0004         36.0004
  -8095762.03047  -6299346.65746  23966306.1794   23966315.1104   23966306.550
        43.0004         38.0004
  -4244343.37246  -3260339.22546  23672656.9534   23672668.8654   23672656.419
        41.0004         36.0004
 -20040703.57049 -15610396.69948  20023518.0874   20023525.4934   20023518.340
        54.0004         49.0004
  -1518819.19846  -1161119.93446  24082272.7384   24082287.5254   24082272.742
        41.0004         37.0004
 -27002414.10549 -20986367.07048  19922303.4724   19922310.8144   19922303.973
        54.0004         49.0004
 -13298941.88048 -10302296.92447  22660835.8544   22660845.8514   22660835.191
        49.0004         44.0004
 -23182836.65448 -18028512.12548  20524108.0434   20524113.6484   20524107.461
        53.0004         48.0004
  -1335142.57847   -992875.77846  23953218.0974   23953226.9794   23953218.401
        43.0004         38.0004
 -23863837.56848 -18518105.47047  21205147.9824   21205155.0904   21205147.666
        51.0004         47.0004
  -4325042.81747  -3334841.27946  23964034.5514   23964051.7914   23964033.684
        43.0004         39.0004
  -6862204.27647  -5303006.97646  23560293.2694   23560305.6974   23560293.687
        44.0004         39.0004
 14  5 12  0 20 30.0000000  0 12G13G10G20G09G26G08G17G07G02G04G01G28
  15166966.15546  11814599.08646  24238771.9024   24238779.8654   24238772.045
        41.0004         36.0004
  -8153634.37047  -6344441.74146  23955292.9634   23955302.0274   23955293.545
        43.0004         38.0004
  -4232018.10546  -3250735.17446  23675001.2674   23675012.6904   23675002.144
        41.0004         36.0004
 -20057111.20849 -15623181.77448  20020395.7084   20020403.0954   20020395.901
        54.0004         49.0004
  -1529646.72447  -1169556.72046  24080212.6994   24080227.9784   24080213.167
        42.0004         37.0004
 -27019871.47349 -20999970.13048  19918981.5184   19918988.4814   19918982.102
        54.0004         49.0004
 -13256779.54548 -10269443.15647  22668858.7654   22668868.9854   22668858.427
        49.0004         44.0004
 -23132966.54448 -17989652.24848  20533598.0804   20533603.8434   20533597.179
        53.0004         48.0004
  -1427711.95647  -1065007.43046  23935602.0904   23935610.0864   23935602.473
        43.0004         38.0004
 -23932589.26048 -18571678.12047  21192064.8874   21192071.8164   21192064.474
        51.0004         47.0004
  -4223399.72647  -3255638.96146  23983376.8284   23983394.6904   23983376.470
        43.0004         39.0004
  -6912385.46947  -5342108.99746  23550742.8464   23550755.0314   23550743.703
        44.0004         39.0004
 14  5 12  0 21  0.0000000  0 12G13G10G20G09G26G08G17G07G02G04G01G28
  15238123.43646  11870046.43046  24252311.8994   24252320.3684   24252312.246
        41.0004         36.0004
  -8211713.39147  -6389697.88546  23944240.5424   23944251.1304   23944241.075
        43.0004         38.0004
  -4219435.93646  -3240930.92946  23677396.9264   23677406.8824   23677396.005
        41.0004         36.0004
 -20072911.23449 -15635493.39348  20017389.1814   20017396.4284   20017389.271
        54.0004         49.0004
  -1540148.24547  -1177739.48746  24078215.9924   24078229.9884   24078213.599
        42.0004         37.0004
 -27036681.73549 -21013068.95148  19915782.8564   19915790.0574   19915783.196
        54.0004         49.0004
 -13214579.62148 -10236560.10047  22676887.7594   22676898.8804   22676888.034
        49.0004         44.0004
 -23082553.85848 -17950369.57648  20543191.1304   20543196.5574   20543190.490
        53.0004         48.0004
  -1520106.06547  -1137002.49346  23918019.9314   23918028.6954   23918021.148
        43.0004         38.0004
 -24000923.67348 -18624925.62147  21179060.9754   21179067.9054   21179060.688
        51.0004         47.0004
  -4121584.68447  -3176302.65046  24002751.5874   24002768.9774   24002751.099
        43.0004         39.0004
  -6962753.79647  -5381356.81946  23541158.8834   23541170.2834   23541159.188
        44.0004         39.0004
 14  5 12  0 21 30.0000000  0 12G13G10G20G09G26G08G17G07G02G04G01G28
  15309080.84046  11925338.01746  24265814.8714   24265821.2764   24265814.793
        40.0004         36.0004
  -8269997.38247  -6435113.73746  23933149.1134   23933159.6214   23933149.781
        43.0004         38.0004
  -4206594.46646  -3230924.65646  23679840.5214   23679850.5144   23679840.250
        41.0004         36.0004
 -20088102.42949 -15647330.59648  20014498.2184   20014505.4884   20014498.433
        54.0004         50.0004
  -1550324.43146  -1185668.71746  24076273.8814   24076292.2604   24076277.850
        41.0004         36.0004
 -27052843.20549 -21025662.22348  19912707.5714   19912714.1324   19912707.521
        54.0004         49.0004
 -13172343.73848 -10203649.02647  22684925.9574   22684936.4294   22684925.054
        49.0004         44.0004
 -23031599.65648 -17910664.93248  20552887.1744   20552892.9194   20552886.432
        53.0004         48.0004
  -1612321.90047  -1208858.65146  23900472.6564   23900479.3364   23900472.068
        42.0004         38.0004
 -24068837.73448 -18677845.57647  21166137.4874   21166144.1624   21166137.098
        52.0004         47.0004
  -4019599.64947  -3096833.87946  24022158.1234   24022176.1184   24022157.875
        43.0004         39.0004
  -7013307.00947  -5420748.70746  23531538.7744   23531550.5844   23531539.397
        44.0004         40.0004
 14  5 12  0 22  0.0000000  0 12G13G10G20G09G26G08G17G07G02G04G01G28
  15379834.53246  11980470.84646  24279279.5764   24279287.2834   24279278.641
        40.0004         36.0004
  -8328487.26447  -6480690.03146  23922019.1164   23922028.1574   23922018.773
        43.0004         39.0004
  -4193494.38746  -3220716.83946  23682332.8654   23682344.2014   23682332.177
        41.0004         36.0004
 -20102686.56049 -15658694.76248  20011723.3654   20011730.1954   20011723.090
        54.0004         50.0004
  -1560179.09546  -1193347.46046  24074402.4424   24074418.2794   24074401.230
        41.0004         37.0004
 -27068357.11449 -21037750.90348  19909754.8824   19909762.1754   19909755.195
        54.0004         49.0004
 -13130076.65348 -10170713.64847  22692969.1634   22692979.7734   22692969.065
