     2.11           OBSERVATION DATA    G (GPS)             RINEX VERSION / TYPE
teqc  2013Mar15     gpsops              20140519 00:23:26UTCPGM / RUN BY / DATE
Linux 2.4.21-27.ELsmp|Opteron|gcc -static|Linux x86_64|=+   COMMENT
BIT 2 OF LLI FLAGS DATA COLLECTED UNDER A/S CONDITION       COMMENT
GLPS                                                        MARKER NAME
42005M002                                                   MARKER NUMBER
GGN                 JPL                                     OBSERVER / AGENCY
ZR220013847         ASHTECH UZ-12       CQ00                REC # / TYPE / VERS
CR519992104         ASH701945B_M    SCIT                    ANT # / TYPE
   -33801.4662 -6377516.5323   -82154.3508                  APPROX POSITION XYZ
        0.0083        0.0000        0.0000                  ANTENNA: DELTA H/E/N
     1     1                                                WAVELENGTH FACT L1/2
     7    L1    L2    P1    P2    C1    S1    S2            # / TYPES OF OBSERV
    30.0000                                                 INTERVAL
                                                            COMMENT
This data is provided as a public service by NASA/JPL.      COMMENT
No warranty is expressed or implied regarding suitability   COMMENT
for use.  For further information, contact:                 COMMENT
Dave Stowers, NASA/JPL m/s 238-600                          COMMENT
4800 Oak Grove Drive, Pasadena CA 91109 USA                 COMMENT
                                                            COMMENT
Forced Modulo Decimation to 30 seconds                      COMMENT
 SNR is mapped to RINEX snr flag value [0-9]                COMMENT
  L1 & L2: min(max(int(snr_dBHz/6), 0), 9)                  COMMENT
pseudorange smoothing corrections not applied               COMMENT
  2014     5    18     0     0    0.0000000     GPS         TIME OF FIRST OBS
                                                            END OF HEADER
 14  5 18  0  0  0.0000000  0 12G20G07G08G10G01G09G02G28G26G17G04G13
  -4615517.75746  -3537599.61646  23676149.2194   23676160.0894   23676149.743
        41.0004         37.0004
 -21993907.48548 -17109357.97748  20619299.5104   20619306.2614   20619299.138
        53.0004         48.0004
 -14179377.34049 -11034605.11248  19895991.9344   19895999.1244   19895992.331
        54.0004         49.0004
  -8288537.78047  -6447947.27246  23872253.0084   23872262.7934   23872252.832
        44.0004         39.0004
  -3991011.71047  -3077656.84446  24142895.5874   24142911.9434   24142895.358
        43.0004         39.0004
 -19839825.36049 -15450621.56948  19997751.4304   19997758.6984   19997751.350
        54.0004         49.0004
  -3243005.15547  -2474432.41046  23771105.0644   23771113.6464   23771105.003
        43.0004         39.0004
  -3260861.54047  -2541824.21946  23472455.2904   23472465.6894   23472455.170
        45.0004         40.0004
   -906361.22846   -686984.27246  24071113.5074   24071129.3964   24071113.646
        41.0004         37.0004
 -12162912.16948  -9407115.50447  22736866.0104   22736876.9174   22736865.670
        49.0004         44.0004
 -25275945.26248 -19636052.71347  21096855.2684   21096862.7294   21096854.759
        52.0004         47.0004
   -902204.18446   -645864.59545  24361344.0734   24361351.2844   24361343.665
        40.0004         35.0004
 14  5 18  0  0 30.0000000  0 12G20G07G08G10G01G09G02G28G26G17G04G13
  -4601095.47146  -3526361.47546  23678893.3064   23678904.1964   23678894.489
        41.0004         36.0004
 -21938940.56048 -17066526.56648  20629759.6184   20629765.6744   20629758.811
        52.0004         48.0004
 -14189263.46149 -11042308.52648  19894110.7384   19894117.7484   19894110.765
        54.0004         49.0004
  -8348245.57147  -6494472.64546  23860890.4874   23860900.2564   23860891.259
        44.0004         39.0004
  -3887890.11547  -2997302.44046  24162519.0204   24162535.6144   24162519.156
        43.0004         39.0004
 -19850749.80849 -15459134.05848  19995672.0704   19995679.8904   19995672.469
        54.0004         49.0004
  -3333737.51547  -2545132.71846  23753839.1704   23753846.9084   23753839.345
        44.0004         39.0004
  -3312662.37647  -2582188.33546  23462598.1794   23462608.3404   23462597.789
        45.0004         40.0004
   -914380.81947   -693233.10246  24069587.0644   24069601.8974   24069587.667
        42.0004         37.0004
 -12120297.15148  -9373908.97947  22744975.1694   22744984.3364   22744974.619
        49.0004         44.0004
 -25340978.13948 -19686727.60747  21084479.6734   21084486.9004   21084479.125
        52.0004         47.0004
   -832697.39746   -591703.25846  24374569.2654   24374576.8054   24374570.537
        40.0004         36.0004
 14  5 18  0  1  0.0000000  0 12G20G07G08G10G01G09G02G28G26G17G04G13
  -4586403.66146  -3514913.34446  23681690.4874   23681699.9524   23681690.317
        41.0004         36.0004
 -21883449.31948 -17023286.59948  20640319.2064   20640325.4704   20640318.604
        52.0004         48.0004
 -14198492.55049 -11049499.96448  19892354.1924   19892361.7844   19892354.713
        54.0004         49.0004
  -8408150.36547  -6541151.52146  23849491.0694   23849501.2654   23849491.052
        44.0004         39.0004
  -3784621.00747  -2916833.07746  24182170.5334   24182186.6434   24182170.566
        43.0004         38.0004
 -19861062.52749 -15467169.88048  19993709.8784   19993717.2504   19993709.958
        54.0004         49.0004
  -3424271.47247  -2615678.42546  23736610.6674   23736619.9144   23736610.914
        43.0004         39.0004
  -3364635.52547  -2622686.72446  23452708.0224   23452717.8114   23452707.909
        45.0004         40.0004
   -922087.98247   -699238.46146  24068119.8144   24068136.6594   24068120.335
        42.0004         37.0004
 -12077667.54648  -9340691.10547  22753087.9734   22753097.0554   22753086.950
        48.0004         44.0004
 -25405574.21048 -19737062.13647  21072187.3044   21072195.6904   21072187.046
        52.0004         47.0004
   -763402.61946   -537707.10045  24387757.8824   24387762.6624   24387756.822
        40.0004         35.0004
 14  5 18  0  1 30.0000000  0 12G20G07G08G10G01G09G02G28G26G17G04G13
  -4571441.39346  -3503254.43046  23684537.7044   23684546.8294   23684537.437
        41.0004         36.0004
 -21827436.24148 -16979639.99448  20650977.5164   20650984.1024   20650977.703
        52.0004         48.0004
 -14207064.25349 -11056179.14848  19890723.0434   19890730.7744   19890723.180
        54.0004         49.0004
  -8468251.53647  -6587983.42446  23838052.3614   23838064.5124   23838054.227
        44.0004         39.0004
  -3681207.18247  -2836250.95546  24201849.9734   24201865.9654   24201849.803
        43.0004         38.0004
 -19870763.42449 -15474728.95748  19991864.0194   19991871.2134   19991864.024
        54.0004         50.0004
  -3514605.23147  -2686068.14346  23719420.8904   23719429.7054   23719420.625
        43.0004         39.0004
  -3416779.48547  -2663318.22546  23442785.5304   23442796.0814   23442784.785
        45.0004         40.0004
   -929484.52847   -705001.78846  24066713.5594   24066729.3624   24066712.595
        42.0004         37.0004
 -12035025.17848  -9307463.27547  22761200.9234   22761211.4394   22761201.446
        48.0004         44.0004
 -25469731.69748 -19787054.90847  21059978.2534   21059986.2324   21059978.082
        52.0004         47.0004
   -694321.52446   -483877.46745  24400902.7334   24400909.6494   24400902.210
        40.0004         35.0004
 14  5 18  0  2  0.0000000  0 12G20G07G08G10G01G09G02G28G26G17G04G13
  -4556207.50946  -3491383.90846  23687437.7414   23687444.9714   23687436.000
        41.0004         36.0004
 -21770903.66148 -16935588.59248  20661735.7564   20661742.1354   20661735.206
        52.0004         48.0004
 -14214978.11449 -11062345.73748  19889217.3064   19889224.4964   19889217.371
        54.0004         49.0004
  -8528548.40747  -6634967.82546  23826580.0114   23826589.7894   23826579.906
        44.0004         39.0004
  -3577651.83447  -2755558.55646  24221557.3034   24221572.2124   24221555.865
        43.0004         38.0004
 -19879852.72149 -15481811.46048  19990134.0824   19990141.3684   19990134.029
        54.0004         49.0004
  -3604736.70947  -2756300.24846  23702269.4524   23702277.7224   23702269.106
        43.0004         39.0004
  -3469092.78647  -2704081.66846  23432830.4104   23432840.1024   23432829.764
        45.0004         41.0004
   -936572.61547   -710524.75846  24065364.4174   24065378.3854   24065363.833
        42.0004         37.0004
 -11992374.29848  -9274228.81247  22769317.5344   22769328.5114   22769317.402
        48.0004         44.0004
 -25533448.65848 -19836704.41447  21047853.5624   21047861.1904   21047853.153
        52.0004         47.0004
   -625455.76146   -430215.62045  24414005.0054   24414013.2684   24414006.381
        40.0004         35.0004
 14  5 18  0  2 30.0000000  0 12G20G07G08G10G01G09G02G28G26G17G04G13
  -4540698.26846  -3479298.81046  23690386.7814   23690398.5594   23690387.519
        41.0004         36.0004
 -21713850.84248 -16891131.80448  20672592.6254   20672599.0894   20672592.241
        52.0004         48.0004
 -14222231.20849 -11067997.43948  19887836.6614   19887844.3854   19887837.115
        54.0004         49.0004
  -8589037.37247  -6682101.89946  23815068.0054   23815078.3054   23815068.938
        44.0004         39.0004
  -3473955.09347  -2674755.96946  24241289.0564   24241304.2034   24241288.892
        42.0004         38.0004
 -19888327.48449 -15488415.10948  19988521.6034   19988528.8674   19988521.445
        54.0004         49.0004
  -3694661.22047  -2826371.07846  23685156.5374   23685165.1304   23685156.934
        44.0004         39.0004
  -3521571.64047  -2744974.12346  23422843.2364   23422853.5284   23422843.657
        45.0004         41.0004
   -943351.26447   -715806.60446  24064073.7354   24064089.3094   24064074.075
        42.0004         37.0004
 -11949713.65348  -9240986.74647  22777436.1724   22777446.2504   22777435.659
        48.0004         44.0004
 -25596720.45448 -19886007.03547  21035812.8824   21035820.8864   21035813.011
        52.0004         47.0004
   -556803.95046   -376720.47945  24427068.6744   24427077.2904   24427070.422
        40.0004         35.0004
 14  5 18  0  3  0.0000000  0 12G20G07G08G10G01G09G02G28G26G17G04G13
  -4524915.03346  -3467000.22146  23693391.1714   23693399.1714   23693391.377
        40.0004         36.0004
 -21656282.72548 -16846273.48448  20683547.5334   20683554.0534   20683546.929
        52.0004         48.0004
 -14228825.36349 -11073135.68548  19886581.9224   19886589.0694   19886582.238
        54.0004         49.0004
  -8649720.03347  -6729386.90146  23803520.4854   23803530.2344   23803521.278
        44.0004         39.0004
  -3370122.35447  -2593847.40446  24261047.9294   24261064.4944   24261047.551
        42.0004         37.0004
 -19896190.44549 -15494542.02748  19987025.2794   19987032.5794   19987025.138
        54.0004         49.0004
  -3784379.26147  -2896281.02446  23668083.6224   23668092.2214   23668083.710
        44.0004         39.0004
  -3574217.08547  -2785996.39846  23412823.9094   23412835.4554   23412824.997
        45.0004         40.0004
   -949824.91747   -720850.80646  24062841.4964   24062856.7994   24062841.557
        42.0004         37.0004
 -11907048.38048  -9207741.08147  22785553.9504   22785565.6674   22785554.633
        48.0004         44.0004
 -25659547.80248 -19934963.33447  21023857.2974   21023865.1234   21023857.171
        52.0004         47.0004
   -488370.13746   -323395.19745  24440092.0934   24440099.1764   24440091.889
        40.0004         35.0004
 14  5 18  0  3 30.0000000  0 12G20G07G08G10G01G09G02G28G26G17G04G13
  -4508856.37946  -3454487.00346  23696444.7124   23696456.0504   23696447.048
        40.0004         36.0004
 -21598201.82548 -16801015.59148  20694600.1604   20694606.2334   20694599.493
        52.0004         48.0004
 -14234759.70449 -11077759.78848  19885452.5224   19885460.0704   19885452.837
        54.0004         49.0004
  -8710594.81947  -6776821.61646  23791937.3694   23791946.4134   23791936.956
        44.0004         39.0004
  -3266156.10747  -2512834.81746  24280831.2324   24280849.4434   24280831.783
        42.0004         37.0004
 -19903441.29949 -15500191.98748  19985645.2764   19985652.2604   19985645.071
        54.0004         49.0004
  -3873888.40947  -2966028.20046  23651050.4784   23651059.1314   23651051.185
        44.0004         39.0004
  -3627027.19347  -2827146.97346  23402775.4784   23402786.1214   23402775.574
        45.0004         40.0004
   -955995.12647   -725658.54046  24061666.9854   24061682.5274   24061668.283
        42.0004         38.0004
 -11864381.20748  -9174493.92847  22793674.3154   22793684.1564   22793673.775
        48.0004         44.0004
 -25721928.47648 -19983571.57147  21011986.6994   21011994.6644   21011986.189
        52.0004         47.0004
   -420155.12546   -270240.43045  24453074.4724   24453078.5574   24453072.766
        40.0004         35.0004
 14  5 18  0  4  0.0000000  0 12G20G07G08G10G01G09G02G28G26G17G04G13
  -4492517.83546  -3441755.69246  23699556.5474   23699566.3504   23699556.313
        40.0004         36.0004
 -21539606.77248 -16755357.05748  20705749.5634   20705756.2204   20705749.194
        52.0004         48.0004
 -14240030.91649 -11081867.17048  19884449.4274   19884456.7154   19884449.889
        54.0004         49.0004
  -8771657.69547  -6824402.89046  23780316.6524   23780327.3534   23780317.196
        44.0004         39.0004
  -3162055.89546  -2431717.83146  24300641.8224   24300658.0354   24300641.146
        41.0004         37.0004
 -19910076.80149 -15505362.44148  19984382.7904   19984389.8774   19984382.795
        54.0004         49.0004
  -3963183.05247  -3035608.22646  23634057.9414   23634065.5804   23634058.777
        44.0004         39.0004
  -3679997.22347  -2868422.17146  23392695.9204   23392705.5074   23392695.681
        45.0004         40.0004
   -961860.27847   -730228.57646  24060550.4684   24060566.3694   24060551.333
        42.0004         38.0004
 -11821711.02648  -9141244.42747  22801795.2854   22801804.4364   22801793.622
        48.0004         44.0004
 -25783857.28748 -20031827.70947  21000201.6574   21000210.2374   21000201.650
        52.0004         47.0004
   -352157.09446   -217254.73045  24466010.8654   24466018.3804   24466011.895
        40.0004         35.0004
 14  5 18  0  4 30.0000000  0 12G20G07G08G10G01G09G02G28G26G17G04G13
  -4475901.15946  -3428807.64346  23702718.4494   23702728.3914   23702718.562
        41.0004         36.0004
 -21480502.80348 -16709301.96348  20716997.2574   20717003.2534   20716996.657
        52.0004         48.0004
 -14244641.21249 -11085459.55048  19883572.2334   19883579.4714   19883572.289
        54.0004         49.0004
  -8832910.04647  -6872131.82446  23768660.2344   23768669.1014   23768660.889
        44.0004         39.0004
  -3057827.33446  -2350500.82946  24320476.1024   24320491.4924   24320475.463
        41.0004         36.0004
 -19916099.80749 -15510055.63248  19983236.1864   19983243.6384   19983236.405
        54.0004         49.0004
  -4052263.94247  -3105021.69646  23617105.9204   23617115.0444   23617107.034
        44.0004         39.0004
  -3733127.72647  -2909822.40046  23382584.2704   23382596.0974   23382585.326
        45.0004         40.0004
   -967425.18747   -734564.64746  24059492.5824   24059507.5974   24059492.743
        42.0004         38.0004
 -11779043.13248  -9107996.71347  22809913.7034   22809923.4254   22809913.162
        49.0004         44.0004
 -25845334.96448 -20079732.30547  20988503.7804   20988510.5214   20988502.702
        52.0004         47.0004
   -284380.30046   -164441.43545  24478909.4864   24478916.9674   24478909.030
        40.0004         35.0004
 14  5 18  0  5  0.0000000  0 12G20G07G08G10G01G09G02G28G26G17G04G13
  -4459005.46946  -3415642.19646  23705932.1654   23705943.7044   23705932.668
        41.0004         36.0004
 -21420892.26348 -16662852.14148  20728340.6784   20728346.7454   20728339.894
        52.0004         48.0004
 -14248590.49349 -11088536.85748  19882820.6284   19882828.1904   19882820.858
        54.0004         49.0004
  -8894351.38847  -6920007.99746  23756969.0024   23756977.9414   23756968.929
        44.0004         39.0004
  -2953473.46446  -2269186.20046  24340334.5824   24340351.0014   24340333.406
        41.0004         36.0004
 -19921510.76349 -15514271.90448  19982206.6684   19982213.7904   19982206.728
        54.0004         50.0004
  -4141129.21947  -3174267.15946  23600195.3124   23600204.7844   23600195.966
        44.0004         39.0004
  -3786417.78647  -2951346.96646  23372443.9704   23372452.7234   23372444.372
        45.0004         40.0004
   -972691.90447   -738668.33646  24058489.9294   24058504.9624   24058490.033
        43.0004         38.0004
 -11736379.91348  -9074752.65447  22818033.2684   22818042.8344   22818031.390
        49.0004         44.0004
 -25906360.01648 -20127284.21647  20976890.1904   20976897.9654   20976890.004
        52.0004         47.0004
   -216826.08046   -111801.56345  24491762.1504   24491773.7224   24491764.578
        40.0004         35.0004
 14  5 18  0  5 30.0000000  0 12G20G07G08G10G01G09G02G28G26G17G04G13
  -4441826.40246  -3402255.94046  23709203.3674   23709212.0464   23709201.910
        40.0004         36.0004
 -21360774.61448 -16616007.17148  20739780.6094   20739787.0014   20739780.360
        52.0004         48.0004
 -14251875.61449 -11091096.63448  19882195.6074   19882202.7094   19882195.633
        54.0004         49.0004
  -8955977.51247  -6968028.17246  23745241.0964   23745252.1334   23745241.520
        44.0004         39.0004
  -2848994.05846  -2187773.74146  24360215.1634   24360232.1344   24360214.898
        41.0004         36.0004
 -19926306.70749 -15518008.94348  19981294.0904   19981301.2424   19981294.157
        54.0004         49.0004
  -4229773.78547  -3243340.64646  23583327.7584   23583334.8584   23583327.840
        44.0004         39.0004
  -3839862.47747  -2992992.01946  23362273.9364   23362283.8814   23362273.803
        45.0004         40.0004
   -977659.21147   -742538.77246  24057544.8294   24057559.5874   24057544.782
        43.0004         38.0004
 -11693721.03448  -9041511.96447  22826149.7524   22826160.1524   22826149.746
        49.0004         44.0004
 -25966927.36248 -20174479.46147  20965364.8284   20965372.6714   20965364.403
        52.0004         47.0004
   -149492.67646    -59333.75245  24504578.7744   24504584.1944   24504577.858
        40.0004         35.0004
 14  5 18  0  6  0.0000000  0 12G20G07G08G10G01G09G02G28G26G17G04G13
  -4424364.63646  -3388649.39946  23712524.6114   23712535.4414   23712525.050
        40.0004         36.0004
 -21300154.03848 -16568770.30348  20751315.8824   20751322.6994   20751315.638
        52.0004         48.0004
 -14254498.02449 -11093140.01048  19881696.2684   19881703.5174   19881696.584
        54.0004         49.0004
  -9017789.14247  -7016192.88446  23733479.4074   23733488.8184   23733479.020
        44.0004         39.0004
  -2744393.74746  -2106267.07046  24380121.2884   24380136.3764   24380119.678
        41.0004         36.0004
 -19930489.61149 -15521268.28848  19980498.2304   19980505.1174   19980497.840
        54.0004         49.0004
  -4318197.78247  -3312242.25246  23566500.8084   23566508.6094   23566500.959
        44.0004         39.0004
  -3893462.46647  -3034758.08146  23352073.7304   23352084.9874   23352073.640
        44.0004         40.0004
   -982330.92347   -746178.84646  24056655.9424   24056670.5354   24056655.091
        42.0004         38.0004
 -11651070.86148  -9008278.05947  22834265.7784   22834276.4124   22834265.722
        49.0004         44.0004
 -26027037.14748 -20221318.17447  20953926.4554   20953933.9004   20953926.029
        52.0004         47.0004
    -82383.34846     -7040.56045  24517347.4564   24517353.6214   24517348.105
        40.0004         35.0004
 14  5 18  0  6 30.0000000  0 12G20G07G08G10G01G09G02G28G26G17G04G13
  -4406619.71846  -3374822.22646  23715902.5824   23715912.6464   23715902.426
        40.0004         36.0004
 -21239033.63248 -16521143.95748  20762947.0674   20762953.4584   20762946.769
        52.0004         48.0004
 -14256457.91349 -11094667.14348  19881323.2194   19881330.6584   19881323.544
        54.0004         49.0004
  -9079785.65247  -7064501.65846  23721680.1114   23721691.2704   23721681.396
        44.0004         39.0004
  -2639675.83346  -2024668.76246  24400047.6114   24400063.3714   24400047.364
        40.0004         36.0004
 -19934060.04649 -15524050.38548  19979818.5884   19979825.7324   19979818.467
        54.0004         49.0004
  -4406398.87147  -3380970.17346  23549716.2584   23549724.6884   23549716.533
        44.0004         39.0004
  -3947216.14447  -3076643.91746  23341844.3864   23341856.2994   23341844.842
        44.0004         40.0004
   -986709.33947   -749590.38646  24055822.1514   24055837.4394   24055821.880
        42.0004         38.0004
 -11608432.23748  -8975053.16347  22842380.4444   22842389.1604   22842379.679
        49.0004         44.0004
 -26086687.76148 -20267799.08547  20942575.2614   20942582.2964   20942574.745
        52.0004         47.0004
    -15499.76646     45076.72245  24530075.2404   24530085.4844   24530076.309
        40.0004         35.0004
 14  5 18  0  7  0.0000000  0 12G20G07G08G10G01G09G02G28G26G17G04G13
  -4388587.46946  -3360771.14645  23719332.0264   23719344.6374   23719333.077
        40.0004         35.0004
 -21177412.62148 -16473127.52648  20774672.9944   20774679.3124   20774672.376
        52.0004         48.0004
 -14257752.27549 -11095675.67548  19881076.9014   19881084.1664   19881077.458
        54.0004         49.0004
  -9141963.06547  -7112951.38346  23709848.7934   23709858.2914   23709849.252
        44.0004         39.0004
  -2534840.16246  -1942978.70346  24419997.6974   24420013.6224   24419996.403
        41.0004         36.0004
 -19937015.33149 -15526353.14148  19979255.8874   19979263.2904   19979256.136
        54.0004         49.0004
  -4494372.35447  -3449520.73046  23532975.3834   23532982.5694   23532975.471
        44.0004         39.0004
  -4001119.00847  -3118645.98246  23331587.1284   23331596.9354   23331587.221
        44.0004         40.0004
   -990793.40847   -752772.57946  24055045.8914   24055058.6734   24055044.393
        42.0004         38.0004
 -11565804.58448  -8941836.82147  22850491.7314   22850502.1714   22850491.383
        49.0004         44.0004
 -26145874.64448 -20313918.64647  20931312.1624   20931320.1914   20931311.965
        52.0004         47.0004
     51159.90746     97019.52146  24542761.8224   24542768.7224   24542760.996
        40.0004         36.0004
 14  5 18  0  7 30.0000000  0 12G20G07G08G10G01G09G02G28G26G17G04G13
  -4370270.58946  -3346498.29345  23722817.7754   23722828.7714   23722818.281
        40.0004         35.0004
 -21115297.44548 -16424726.04248  20786493.4594   20786499.0514   20786492.525
        52.0004         48.0004
 -14258384.65549 -11096168.38048  19880956.7914   19880963.9204   19880956.928
        54.0004         49.0004
  -9204323.90447  -7161544.05146  23697981.5484   23697990.8784   23697982.849
        44.0004         39.0004
  -2429893.50346  -1861202.16246  24439968.2704   24439983.7544   24439967.469
        40.0004         36.0004
 -19939359.47949 -15528179.69548  19978809.7914   19978817.0754   19978809.717
        54.0004         49.0004
  -4582119.91847  -3517895.26546  23516276.9734   23516284.2704   23516278.106
        44.0004         39.0004
  -4055173.19647  -3160765.96546  23321300.5214   23321311.0114   23321301.220
        44.0004         40.0004
   -994588.98447   -755729.96046  24054323.0244   24054338.5224   24054322.042
        42.0004         38.0004
 -11523194.23648  -8908633.93347  22858599.7184   22858610.4964   22858599.796
        49.0004         44.0004
 -26204599.86948 -20359678.47247  20920136.8994   20920144.4624   20920136.399
        52.0004         47.0004
    117590.38146    148783.72745  24555403.3374   24555409.3984   24555402.364
        40.0004         35.0004
 14  5 18  0  8  0.0000000  0 12G20G07G08G10G01G09G02G28G26G17G04G13
  -4351664.62846  -3332000.13445  23726358.7784   23726367.5514   23726359.657
        40.0004         35.0004
 -21052687.03348 -16375938.64748  20798407.3754   20798413.1954   20798407.130
        52.0004         48.0004
 -14258351.31849 -11096142.34348  19880962.6164   19880970.1974   19880963.097
        54.0004         49.0004
  -9266863.61147  -7210276.09746  23686079.7424   23686090.9234   23686080.581
        44.0004         39.0004
  -2324835.00846  -1779338.47946  24459958.7364   24459973.9824   24459959.256
        40.0004         36.0004
 -19941089.30749 -15529527.55148  19978480.8054   19978487.5764   19978480.878
        54.0004         49.0004
  -4669635.71447  -3586089.17446  23499623.8784   23499631.2794   23499624.084
        44.0004         39.0004
  -4109373.39347  -3202999.71546  23310986.5024   23310996.8804   23310986.828
        44.0004         40.0004
   -998094.44147   -758461.27746  24053655.2974   24053670.0724   24053655.556
        42.0004         37.0004
 -11480599.91348  -8875443.55447  22866705.4504   22866716.2554   22866705.371
        49.0004         44.0004
 -26262858.02848 -20405074.35647  20909050.9434   20909058.6584   20909050.651
        52.0004         47.0004
    183794.26046    200371.34346  24568001.5354   24568004.4064   24568000.673
        40.0004         36.0004
 14  5 18  0  8 30.0000000  0 12G20G07G08G10G01G09G02G28G26G17G04G13
  -4332768.85846  -3317276.21045  23729953.7644   23729963.4174   23729954.929
        40.0004         35.0004
 -20989584.10548 -16326767.47548  20810415.5764   20810421.8714   20810414.974
        52.0004         48.0004
 -14257652.43949 -11095597.70248  19881096.0364   19881103.1924   19881096.146
        54.0004         49.0004
  -9329581.20747  -7259146.75946  23674145.1284   23674155.2994   23674146.441
        44.0004         39.0004
  -2219667.63446  -1697389.93746  24479972.7554   24479988.7304   24479972.475
        41.0004         36.0004
 -19942205.17949 -15530397.00148  19978268.5494   19978275.2664   19978268.447
        54.0004         49.0004
  -4756918.06947  -3654101.20546  23483014.9564   23483022.2774   23483014.168
        44.0004         39.0004
  -4163717.96047  -3245345.97846  23300646.0444   23300655.0014   23300645.306
        44.0004         40.0004
  -1001311.77947   -760968.10646  24053041.7884   24053057.6274   24053042.611
        42.0004         38.0004
 -11438024.31948  -8842267.77247  22874807.6664   22874817.8674   22874807.073
        49.0004         44.0004
 -26320647.41348 -20450104.95747  20898053.4464   20898061.3094   20898053.105
        52.0004         47.0004
    249769.95946    251781.17245  24580553.6114   24580561.3384   24580555.095
        40.0004         35.0004
 14  5 18  0  9  0.0000000  0 12G20G07G08G10G01G09G02G28G26G17G04G13
  -4313581.62046  -3302325.15745  23733605.4214   23733614.5094   23733607.158
        40.0004         35.0004
 -20925990.54748 -16277213.99848  20822516.6884   20822523.0074   20822516.585
        52.0004         48.0004
 -14256288.00049 -11094534.43748  19881355.5244   19881362.8424   19881355.851
        54.0004         49.0004
  -9392475.26447  -7308154.90046  23662177.8744   23662187.3334   23662177.809
        44.0004         39.0004
  -2114393.88046  -1615358.50446  24500006.1294   24500020.9784   24500005.034
        41.0004         36.0004
 -19942707.32349 -15530788.21848  19978172.5554   19978179.6154   19978172.767
        54.0004         50.0004
  -4843964.70347  -3721929.55646  23466448.2184   23466457.1974   23466448.982
        44.0004         39.0004
  -4218204.94647  -3287803.20346  23290276.1774   23290286.5314   23290276.856
        45.0004         40.0004
  -1004242.68547   -763251.71446  24052484.9674   24052500.1214   24052484.918
        42.0004         38.0004
 -11395469.56748  -8809108.21847  22882904.9294   22882915.0514   22882905.031
        48.0004         44.0004
 -26377966.02548 -20494768.72247  20887146.2734   20887153.9374   20887145.888
        52.0004         47.0004
    315516.59346    303012.49945  24593062.7314   24593071.0954   24593066.215
        40.0004         35.0004
 14  5 18  0  9 30.0000000  0 12G20G07G08G10G01G09G02G28G26G17G04G13
  -4294104.77246  -3287148.41146  23737311.4434   23737323.7704   23737312.558
        40.0004         36.0004
 -20861911.50448 -16227282.21248  20834710.7124   20834716.8224   20834710.239
        52.0004         48.0004
 -14254260.36249 -11092954.39848  19881741.3734   19881748.4844   19881741.551
        54.0004         49.0004
  -9455547.19147  -7357301.65746  23650175.8054   23650185.1084   23650175.141
        44.0004         39.0004
  -2009019.10346  -1533248.35646  24520057.3764   24520074.2324   24520057.207
        41.0004         37.0004
 -19942598.50449 -15530703.36348  19978193.4714   19978200.0454   19978193.634
        54.0004         50.0004
  -4930776.02947  -3789574.54746  23449929.5064   23449937.6724   23449930.141
        44.0004         39.0004
  -4272835.44547  -3330372.26846  23279880.5874   23279891.7034   23279881.061
        45.0004         40.0004
  -1006891.74147   -765315.71946  24051980.5664   24051995.0264   24051980.732
        42.0004         38.0004
 -11352940.44748  -8775968.64247  22890998.3384   22891008.4434   22890998.170
        48.0004         44.0004
 -26434814.71648 -20539066.31747  20876327.7514   20876335.6294   20876328.047
        52.0004         47.0004
    381030.52046    354062.48745  24605531.3494   24605538.9524   24605532.140
        40.0004         35.0004
 14  5 18  0 10  0.0000000  0 12G20G07G08G10G01G09G02G28G26G17G04G13
  -4274335.01846  -3271743.43746  23741076.7644   23741083.5134   23741075.124
        40.0004         36.0004
 -20797347.40648 -16176972.46748  20846996.7414   20847003.0874   20846996.411
        52.0004         48.0004
 -14251567.35249 -11090855.88448  19882253.9794   19882260.8204   19882253.969
        54.0004         49.0004
  -9518793.51647  -7406584.31146  23638138.6144   23638148.3674   23638139.234
        44.0004         39.0004
  -1903544.07646  -1451060.07846  24540130.8754   24540144.8704   24540129.244
        41.0004         37.0004
 -19941877.09649 -15530141.16248  19978330.5104   19978337.4924   19978330.713
        54.0004         50.0004
  -5017347.80147  -3857032.86546  23433455.6704   23433463.1394   23433456.207
        44.0004         40.0004
  -4327605.32547  -3373049.93546  23269457.7274   23269468.7334   23269458.084
        45.0004         40.0004
  -1009258.82947   -767160.00546  24051530.9704   24051545.1664   24051530.040
        42.0004         38.0004
 -11310437.28248  -8742849.28547  22899086.3834   22899096.2414   22899086.039
        48.0004         44.0004
 -26491189.57348 -20582994.69247  20865600.6304   20865608.1414   20865600.139
        52.0004         47.0004
    446312.39046    404931.64745  24617956.1214   24617961.0434   24617954.979
        40.0004         35.0004
 14  5 18  0 10 30.0000000  0 12G20G07G08G10G01G09G02G28G26G17G04G13
  -4254269.20946  -3256107.76345  23744893.3234   23744902.7764   23744893.226
        40.0004         35.0004
 -20732298.90248 -16126285.25547  20859374.6294   20859380.8064   20859374.310
        52.0004         47.0004
 -14248206.99749 -11088237.36348  19882893.2234   19882900.4624   19882893.325
        54.0004         49.0004
  -9582211.13347  -7456000.44046  23626071.5904   23626081.2494   23626071.202
        44.0004         39.0004
  -1797969.48146  -1368794.21246  24560220.0084   24560236.2044   24560218.899
        41.0004         37.0004
 -19940541.51549 -15529100.38648  19978584.8694   19978591.7104   19978584.751
        54.0004         50.0004
  -5103675.85647  -3924301.27446  23417027.9034   23417035.7954   23417027.631
        44.0004         40.0004
  -4382510.75547  -3415833.21846  23259009.5634   23259018.5214   23259009.822
        45.0004         40.0004
  -1011343.87647   -768784.52146  24051133.1004   24051149.0464   24051133.366
        43.0004         38.0004
 -11267960.39748  -8709750.40647  22907169.7644   22907179.5004   22907169.290
        49.0004         44.0004
 -26547086.81748 -20626550.90247  20854963.4714   20854970.9804   20854963.167
        52.0004         47.0004
    511363.45146    455620.98545  24630333.8944   24630340.0484   24630332.817
        40.0004         35.0004
 14  5 18  0 11  0.0000000  0 12G20G07G08G10G01G09G02G28G26G17G04G13
  -4233909.41146  -3240243.02545  23748768.1064   23748777.4594   23748767.445
        40.0004         35.0004
 -20666771.44748 -16075224.83647  20871844.4114   20871850.3634   20871844.012
        52.0004         47.0004
 -14244182.39249 -11085101.24348  19883659.1584   19883665.9144   19883659.280
        54.0004         49.0004
  -9645802.14047  -7505551.66946  23613969.6644   23613979.2494   23613970.889
        44.0004         39.0004
  -1692301.05346  -1286455.23346  24580327.3294   24580344.5164   24580327.084
        41.0004         37.0004
 -19938595.28149 -15527583.77948  19978955.1504   19978962.2564   19978954.999
        54.0004         50.0004
  -5189761.27547  -3991380.61746  23400646.3044   23400653.6674   23400646.020
        44.0004         40.0004
  -4437553.41947  -3458723.43946  23248535.3084   23248545.5454   23248535.620
        45.0004         40.0004
  -1013151.85547   -770193.13246  24050789.1774   24050803.7924   24050788.873
        43.0004         38.0004
 -11225515.16248  -8676676.19147  22915246.6284   22915256.7954   22915246.100
        48.0004         44.0004
 -26602507.87848 -20669736.05747  20844417.0424   20844424.5474   20844416.669
        52.0004         47.0004
    576179.34146    506127.04545  24642667.8684   24642674.6324   24642666.855
        40.0004         35.0004
 14  5 18  0 11 30.0000000  0 12G20G07G08G10G01G09G02G28G26G17G04G13
  -4213251.25246  -3224145.81145  23752698.6664   23752706.1994   23752698.489
        40.0004         35.0004
 -20600764.20748 -16023790.55547  20884405.2814   20884411.0814   20884404.658
        52.0004         47.0004
 -14239490.21849 -11081444.93748  19884551.5814   19884558.7824   19884552.178
        54.0004         49.0004
  -9709561.49647  -7555234.08146  23601836.5454   23601845.5404   23601837.224
        44.0004         39.0004
  -1586538.11546  -1204042.60046  24600453.1754   24600470.2564   24600452.679
        41.0004         37.0004
 -19936035.39549 -15525588.99648  19979442.0184   19979449.3254   19979442.115
        54.0004         50.0004
  -5275598.52047  -4058266.56546  23384311.7724   23384319.0434   23384312.520
        44.0004         40.0004
  -4492727.34447  -3501715.94246  23238036.4054   23238045.9604   23238035.784
        45.0004         40.0004
  -1014681.25547   -771384.66946  24050497.9784   24050512.1914   24050497.823
        43.0004         38.0004
 -11183100.55548  -8643625.83447  22923316.7704   22923327.5744   22923316.925
        48.0004         43.0004
 -26657447.57348 -20712546.13147  20833962.9604   20833969.9214   20833962.542
        52.0004         47.0004
    640762.64646    556451.88345  24654957.6214   24654963.2104   24654956.962
        40.0004         35.0004
 14  5 18  0 12  0.0000000  0 12G20G07G08G10G01G09G02G28G26G17G04G13
  -4192296.92346  -3207817.78845  23756687.6174   23756695.1934   23756685.933
        40.0004         35.0004
 -20534282.99848 -15971986.94847  20897056.2414   20897062.3854   20897055.536
        52.0004         47.0004
 -14234133.49649 -11077270.80348  19885571.0754   19885578.1134   19885571.210
        54.0004         49.0004
  -9773490.73047  -7605048.86546  23589671.4104   23589680.9034   23589672.193
        44.0004         39.0004
  -1480686.51546  -1121560.88246  24620595.1034   24620612.7044   24620596.290
        41.0004         37.0004
 -19932865.23049 -15523118.67148  19980045.1914   19980052.3234   19980045.233
        54.0004         50.0004
  -5361188.40047  -4124959.76946  23368023.4594   23368031.7534   23368024.922
        44.0004         40.0004
  -4548034.07947  -3544811.93446  23227510.3994   23227521.2234   23227511.736
        45.0004         41.0004
  -1015937.25947   -772363.18046  24050259.3304   24050272.9864   24050258.889
        43.0004         38.0004
 -11140721.89448  -8610603.48947  22931382.2214   22931392.5554   22931381.784
        48.0004         44.0004
 -26711907.04048 -20754981.99447  20823599.2654   20823606.4244   20823598.178
        52.0004         47.0004
    705109.17846    606592.23745  24667202.9904   24667207.9614   24667202.177
        40.0004         35.0004
 14  5 18  0 12 30.0000000  0 12G20G07G08G10G01G09G02G28G26G17G04G13
  -4171046.01746  -3191258.68545  23760729.2224   23760739.0724   23760730.732
        40.0004         35.0004
 -20467331.08648 -15919816.57047  20909796.9174   20909802.4944   20909796.329
        52.0004         47.0004
 -14228113.27349 -11072579.65448  19886716.3914   19886723.8354   19886717.143
        54.0004         49.0004
  -9837589.72847  -7654995.92946  23577473.3064   23577482.6644   23577474.403
        44.0004         39.0004
  -1374749.90246  -1039012.90746  24640754.9374   24640773.2964   24640754.837
        41.0004         36.0004
 -19929086.36549 -15520174.03748  19980764.2954   19980771.3464   19980764.293
        54.0004         50.0004
  -5446529.85847  -4191459.39546  23351783.3454   23351790.7234   23351783.605
        45.0004         40.0004
  -4603472.60747  -3588010.61946  23216960.9184   23216971.1214   23216961.541
        45.0004         40.0004
  -1016922.70747   -773130.87446  24050070.7274   24050084.9474   24050070.820
        43.0004         38.0004
 -11098382.26848  -8577611.56247  22939438.4504   22939448.8364   22939438.415
        48.0004         43.0004
 -26765885.87248 -20797043.33747  20813326.9974   20813334.2644   20813326.979
        52.0004         47.0004
    769216.95746    656546.53945  24679400.8714   24679405.7464   24679401.159
        40.0004         35.0004
 14  5 18  0 13  0.0000000  0 12G20G07G08G10G01G09G02G28G26G17G04G13
  -4149484.34646  -3174457.40045  23764832.8844   23764843.8644   23764833.485
        40.0004         35.0004
 -20399897.40148 -15867270.77147  20922628.9034   20922634.6624   20922628.244
        52.0004         47.0004
 -14221416.14349 -11067361.03948  19887990.9044   19887997.9204   19887990.925
        54.0004         49.0004
  -9901843.55547  -7705063.64946  23565244.9094   23565255.9234   23565247.027
        44.0004         39.0004
  -1268717.38146   -956390.20246  24660932.4924   24660948.9804   24660931.736
        41.0004         36.0004
 -19924685.60649 -15516744.80448  19981601.6094   19981608.6664   19981601.860
        54.0004         50.0004
  -5531607.35147  -4257753.33946  23335593.8524   23335601.3864   23335593.907
        45.0004         40.0004
  -4659027.78147  -3631300.18946  23206389.4814   23206400.0844   23206389.678
        45.0004         40.0004
  -1017625.94947   -773678.65946  24049936.5184   24049951.3784   24049936.447
        43.0004         38.0004
 -11056070.38448  -8544641.24647  22947491.1224   22947501.2304   22947490.108
        48.0004         43.0004
 -26819368.57048 -20838718.09748  20803149.7744   20803157.2284   20803149.545
        52.0004         48.0004
    833098.35546    706324.42145  24691557.4244   24691561.5644   24691556.728
        39.0004         34.0004
 14  5 18  0 13 30.0000000  0 12G20G07G08G10G01G09G02G28G26G17G04G13
  -4127630.51746  -3157428.48845  23768993.2074   23769001.2384   23768992.923
        40.0004         35.0004
 -20332004.76848 -15814367.35447  20935548.5364   20935553.8334   20935547.962
        52.0004         47.0004
 -14214062.48549 -11061630.84648  19889390.4494   19889397.1834   19889390.652
        54.0004         49.0004
  -9966271.05347  -7755266.69046  23552986.0564   23552995.2164   23552986.538
        44.0004         40.0004
  -1162611.87546   -873710.63346  24681124.8584   24681139.1924   24681123.489
        41.0004         36.0004
 -19919683.85249 -15512847.26448  19982553.5614   19982560.5434   19982553.348
        54.0004         50.0004
  -5616438.91747  -4323855.64246  23319450.9544   23319457.6874   23319450.605
        45.0004         40.0004
  -4714717.60847  -3674694.70246  23195791.8964   23195801.9764   23195792.154
        45.0004         40.0004
  -1018069.19647   -774023.86246  24049853.2654   24049868.1144   24049852.332
        43.0004         38.0004
 -11013808.92548  -8511710.22347  22955532.2804   22955543.2384   22955532.379
        48.0004         44.0004
 -26872373.77348 -20880020.76748  20793063.6464   20793070.7804   20793062.473
        52.0004         48.0004
    896732.15046    755909.37345  24703666.8534   24703674.2904   24703666.309
        39.0004         34.0004
 14  5 18  0 14  0.0000000  0 12G20G07G08G10G01G09G02G28G26G17G04G13
  -4105472.53746  -3140162.58345  23773206.7644   23773217.4354   23773209.099
        40.0004         35.0004
 -20263644.62148 -15761099.63947  20948556.9904   20948562.4954   20948556.197
        52.0004         47.0004
 -14206041.16149 -11055380.39248  19890916.5544   19890923.8324   19890916.841
        54.0004         49.0004
 -10030859.54747  -7805595.19746  23540695.5334   23540705.3244   23540695.694
        44.0004         40.0004
  -1056424.64446   -790967.37845  24701329.7514   24701346.9524   24701330.347
        40.0004         35.0004
 -19914070.23149 -15508472.95048  19983621.5464   19983628.3414   19983621.865
        54.0004         50.0004
  -5701011.12447  -4389755.85346  23303357.3724   23303365.1224   23303357.424
        45.0004         40.0004
  -4770528.81347  -3718183.78146  23185171.2654   23185182.7304   23185171.609
        45.0004         40.0004
  -1018243.04947   -774159.13946  24049819.7044   24049832.6394   24049819.467
        43.0004         38.0004
 -10971588.46548  -8478811.13947  22963566.5084   22963576.9584   22963566.646
        48.0004         43.0004
 -26924888.43448 -20920941.20248  20783070.2094   20783077.3624   20783069.805
        52.0004         48.0004
    960128.98946    805309.67145  24715731.5394   24715736.4714   24715730.317
        39.0004         35.0004
 14  5 18  0 14 30.0000000  0 12G20G07G08G10G01G09G02G28G26G17G04G13
  -4083013.43446  -3122662.02245  23777481.8394   23777492.3334   23777483.380
        40.0004         35.0004
 -20194823.29748 -15707472.56447  20961652.6884   20961658.3674   20961652.639
        52.0004         47.0004
 -14197356.75149 -11048613.25348  19892569.2644   19892576.0484   19892569.465
        54.0004         49.0004
 -10095611.52747  -7856051.08346  23528373.4584   23528382.2774   23528373.666
        44.0004         40.0004
   -950162.32846   -708165.58145  24721555.2444   24721568.9534   24721551.454
        40.0004         35.0004
 -19907849.24249 -15503625.35248  19984805.2044   19984812.3114   19984805.189
        54.0004         49.0004
  -5785325.57047  -4455455.21046  23287313.0744   23287319.8724   23287312.737
        45.0004         40.0004
  -4826463.24247  -3761768.88746  23174527.0224   23174537.9004   23174527.957
        45.0004         41.0004
  -1018153.33247   -774089.04946  24049835.7064   24049850.9184   24049835.541
        43.0004         38.0004
 -10929415.38448  -8445948.98347  22971592.7074   22971602.7044   22971591.712
        48.0004         43.0004
 -26976914.91448 -20961481.24048  20773169.5244   20773176.6384   20773169.400
        52.0004         48.0004
   1023283.96646    854521.49945  24727749.8104   24727753.9034   24727747.717
        39.0004         35.0004
 14  5 18  0 15  0.0000000  0 12G20G07G08G10G01G09G02G28G26G17G04G13
  -4060249.60246  -3104923.99645  23781815.1164   23781823.6164   23781814.068
        40.0004         35.0004
 -20125540.90348 -15653486.21947  20974836.1574   20974842.7864   20974836.230
        52.0004         47.0004
 -14188006.85949 -11041327.55248  19894348.3084   19894355.4254   19894348.396
        54.0004         49.0004
 -10160522.99147  -7906631.26046  23516020.6714   23516029.6594   23516021.054
        44.0004         40.0004
   -843825.15646   -625305.48245  24741787.3714   24741801.9094   24741786.436
        40.0004         35.0004
 -19901019.08549 -15498303.08448  19986105.1074   19986111.8914   19986104.951
        54.0004         49.0004
  -5869377.86047  -4520950.29046  23271317.6284   23271325.4694   23271317.911
        45.0004         40.0004
  -4882516.55147  -3805446.62546  23163861.3344   23163870.3134   23163860.996
        46.0004         41.0004
  -1017799.70347   -773813.30746  24049903.9624   24049917.0094   24049903.791
        43.0004         38.0004
 -10887289.21948  -8413123.37347  22979607.4244   22979618.7654   22979608.231
        48.0004         43.0004
 -27028448.98648 -21001637.58348  20763362.9214   20763370.0674   20763362.247
        52.0004         48.0004
   1086198.46146    903545.95145  24739721.1064   24739725.6394   24739720.032
        39.0004         35.0004
 14  5 18  0 15 30.0000000  0 12G20G07G08G10G01G09G02G28G26G17G04G13
  -4037179.49946  -3086947.37445  23786204.6724   23786213.4924   23786204.333
        39.0004         35.0004
 -20055799.46848 -15599142.17547  20988107.7264   20988114.2984   20988107.646
        52.0004         47.0004
 -14177990.57349 -11033522.58848  19896254.4574   19896261.2124   19896254.759
        54.0004         49.0004
 -10225591.78647  -7957334.02046  23503639.1764   23503647.9824   23503638.592
        44.0004         40.0004
   -737415.12446   -542388.58045  24762036.5814   24762052.6384   24762035.834
        39.0004         34.0004
 -19893579.57749 -15492505.99248  19987521.0084   19987527.4184   19987520.808
        54.0004         49.0004
  -5953165.16847  -4586238.89346  23255373.0834   23255380.8374   23255373.250
        45.0004         41.0004
  -4938686.44547  -3849215.21946  23153172.0354   23153182.2634   23153172.285
        46.0004         41.0004
  -1017183.47747   -773332.93946  24050020.8094   24050033.8454   24050020.282
        43.0004         38.0004
 -10845211.56548  -8380335.56747  22987615.6194   22987626.0184   22987615.494
        48.0004         43.0004
 -27079488.35948 -21041408.44448  20753650.8114   20753657.2264   20753650.356
        52.0004         48.0004
   1148872.09546    952382.69945  24751648.2314   24751651.4234   24751645.800
        40.0004         35.0004
 14  5 18  0 16  0.0000000  0 12G20G07G08G10G01G09G02G28G26G17G04G13
  -4013803.37046  -3068732.25145  23790654.0974   23790661.9684   23790652.482
        39.0004         34.0004
 -19985602.97848 -15544443.53747  21001465.3264   21001471.8744   21001465.504
        52.0004         47.0004
 -14167310.06949 -11025200.04848  19898286.7314   19898293.7454   19898286.897
        54.0004         49.0004
 -10290818.29547  -8008159.67946  23491226.1794   23491236.0194   23491226.808
        44.0004         40.0004
 -21111396.20146 -16418218.01345  24782299.8454   24782312.5424   24782297.367
        39.0004         34.0004
 -19885532.92149 -15486235.79848  19989051.9194   19989058.6814   19989051.744
        54.0004         49.0004
  -6036686.68847  -4651320.39546  23239479.6534   23239486.6044   23239480.721
        45.0004         41.0004
  -4994971.85647  -3893073.82346  23142461.3094   23142470.3814   23142460.939
        46.0004         41.0004
  -1016307.94747   -772650.53346  24050187.4274   24050201.0944   24050187.364
        43.0004         38.0004
 -10803186.06548  -8347588.39147  22995612.7944   22995622.6504   22995612.766
        48.0004         43.0004
 -27130032.80448 -21080793.65148  20744031.9894   20744039.1564   20744031.329
        52.0004         48.0004
   1211302.74146   1001030.12545  24763527.0684   24763532.5254   24763525.784
        40.0004         35.0004
 14  5 18  0 16 30.0000000  0 12G20G07G08G10G01G09G02G28G26G17G04G13
  -3990119.78846  -3050277.56445  23795157.8024   23795168.5584   23795159.766
        39.0004         34.0004
 -19914953.24148 -15489391.72547  21014909.6354   21014916.2614   21014909.774
        52.0004         47.0004
 -14155964.89549 -11016359.58448  19900445.6894   19900452.3414   19900445.704
        54.0004         49.0004
 -10356200.08847  -8059106.34846  23478784.4184   23478792.8304   23478785.001
        44.0004         40.0004
 -21004850.45146 -16335195.38545  24802574.9364   24802591.8974   24802572.961
        38.0004         34.0004
 -19876879.35549 -15479492.69148  19990698.9674   19990705.3114   19990698.838
        54.0004         50.0004
  -6119939.70547  -4716192.66646  23223637.5434   23223643.7454   23223637.378
        45.0004         41.0004
  -5051370.34347  -3937020.54247  23131729.3814   23131738.7494   23131728.869
        46.0004         42.0004
  -1015174.57747   -771767.21146  24050401.7264   24050415.7814   24050402.246
        43.0004         38.0004
 -10761214.07848  -8314882.90847  23003600.0974   23003609.4994   23003599.253
        48.0004         43.0004
 -27180080.34248 -21119791.65148  20734508.0604   20734515.3354   20734507.891
        52.0004         48.0004
   1273490.19546   1049488.03745  24775359.6244   24775364.9414   24775360.314
        40.0004         35.0004
 14  5 18  0 17  0.0000000  0 12G20G07G08G10G01G09G02G28G26G17G04G13
  -3966128.54446  -3031583.14945  23799724.0774   23799735.1134   23799725.185
        39.0004         35.0004
 -19843853.75948 -15433989.47247  21028439.7104   21028445.4624   21028439.490
        52.0004         47.0004
 -14143956.40549 -11007002.25048  19902730.7034   19902737.5604   19902731.035
        54.0004         49.0004
 -10421736.62247  -8110173.59446  23466312.8754   23466321.1874   23466313.928
        44.0004         40.0004
 -20898241.34856 -16252123.37755  24822859.5635   24822879.4925   24822859.891
        38.0004         33.0004
 -19867620.07949 -15472277.59948  19992460.3924   19992467.4634   19992460.516
        54.0004         50.0004
  -6202923.16647  -4780854.91246  23207845.0914   23207853.3594   23207845.316
        45.0004         41.0004
  -5107880.70847  -3981054.45247  23120974.7344   23120984.3044   23120975.022
        46.0004         42.0004
  -1013786.18347   -770685.16546  24050666.6164   24050680.7714   24050666.177
        43.0004         38.0004
 -10719298.56548  -8282221.43647  23011576.1444   23011586.4184   23011575.857
        48.0004         43.0004
 -27229629.99148 -21158401.69748  20725079.4504   20725085.9764   20725079.152
        52.0004         48.0004
   1335432.70046   1097755.05945  24787150.0744   24787154.6764   24787147.148
        40.0004         35.0004
 14  5 18  0 17 30.0000000  0 11G20G07G08G10G09G02G28G26G17G04G13
  -3941825.45246  -3012645.74145  23804349.3034   23804359.5054   23804350.234
        39.0004         34.0004
 -19772304.41248 -15378236.66247  21042055.1584   21042061.7494   21042054.746
        52.0004         47.0004
 -14131281.98649 -10997126.01348  19905142.4804   19905149.4594   19905142.909
        54.0004         49.0004
 -10487423.25347  -8161357.78846  23453813.0674   23453821.9534   23453813.887
        45.0004         40.0004
 -19857752.80349 -15464588.74348  19994338.1714   19994344.8804   19994338.024
        54.0004         50.0004
  -6285631.53247  -4845302.77946  23192106.6904   23192114.2304   23192107.206
        45.0004         41.0004
  -5164497.73847  -4025171.46147  23110201.4894   23110212.1854   23110200.917
        46.0004         42.0004
  -1012141.68847   -769403.55246  24050979.4334   24050993.2294   24050978.734
        43.0004         38.0004
 -10677438.46748  -8249603.15947  23019542.1674   23019552.7084   23019541.529
        48.0004         43.0004
 -27278677.01748 -21196620.08048  20715745.2044   20715753.1564   20715744.655
        52.0004         48.0004
   1397132.50146   1145832.96645  24798887.6204   24798892.2854   24798888.354
        40.0004         35.0004
 14  5 18  0 18  0.0000000  0 12G20G07G08G10G01G09G02G28G26G17G04G13
  -3917214.93846  -2993468.79845  23809031.9824   23809044.4694   23809033.367
        39.0004         35.0004
 -19700312.50548 -15322139.01047  21055754.8754   21055760.3514   21055754.787
        52.0004         47.0004
 -14117946.63549 -10986734.76648  19907680.2124   19907687.0684   19907680.375
        54.0004         49.0004
 -10553262.87647  -8212661.20946  23441284.6264   23441293.3064   23441284.968
        45.0004         40.0004
 -20684838.77456 -16085835.72155  24863468.5725   24863485.5685   24863468.885
        38.0004         33.0004
 -19847282.82849 -15456430.25148  19996330.6144   19996337.2994   19996330.668
        54.0004         50.0004
  -6368067.57947  -4909538.45746  23176419.0384   23176425.3794   23176419.816
        45.0004         41.0004
  -5221224.01947  -4069373.60147  23099406.0844   23099416.4814   23099406.749
        46.0004         42.0004
  -1010247.67747   -767927.51446  24051340.2334   24051354.0674   24051339.650
        42.0004         38.0004
 -10635640.69648  -8217033.44447  23027495.4754   23027505.8664   23027495.218
        48.0004         43.0004
 -27327224.64248 -21234449.32448  20706507.5284   20706513.9694   20706507.611
        52.0004         48.0004
   1458584.21246   1193717.54045  24810583.2774   24810588.8734   24810582.512
        39.0004         35.0004
 14  5 18  0 18 30.0000000  0 12G20G07G08G10G01G09G02G28G26G17G04G13
  -3892290.34346  -2974047.09545  23813775.2234   23813785.0524   23813775.233
        39.0004         35.0004
 -19627875.50148 -15265694.51847  21069539.1024   21069544.4284   21069538.268
        52.0004         47.0004
 -14103945.90449 -10975825.03848  19910344.1704   19910351.2424   19910344.367
        54.0004         49.0004
 -10619249.24347  -8264078.98746  23428727.4334   23428736.1734   23428727.648
        45.0004         40.0004
 -20578050.25446 -16002623.89145  24883788.3064   24883807.3344   24883790.264
        38.0004         33.0004
 -19836206.17749 -15447799.02348  19998438.4064   19998444.8234   19998438.199
        54.0004         50.0004
  -6450224.34047  -4973556.50946  23160785.5804   23160791.5314   23160785.719
        45.0004         41.0004
  -5278052.63347  -4113655.48146  23088590.4574   23088601.7064   23088591.702
        46.0004         41.0004
  -1008101.35447   -766254.87846  24051748.4534   24051760.9684   24051747.984
        43.0004         38.0004
 -10593902.42548  -8184510.08547  23035438.9504   23035447.3014   23035437.497
        48.0004         43.0004
 -27375266.36848 -21271884.36548  20697365.2004   20697372.1604   20697364.519
        52.0004         48.0004
   1519791.75046   1241411.82245  24822229.9044   24822234.3284   24822229.169
        40.0004         35.0004
 14  5 18  0 19  0.0000000  0 11G20G07G08G10G09G02G28G26G17G04G13
  -3867054.10946  -2954382.55745  23818579.7154   23818591.0034   23818579.213
        39.0004         34.0004
 -19554999.16048 -15208907.69147  21083407.1864   21083412.9344   21083406.610
        52.0004         47.0004
 -14089283.26149 -10964399.53848  19913133.8754   19913141.3834   19913134.598
        54.0004         49.0004
 -10685383.71847  -8315612.16846  23416141.1534   23416150.4734   23416142.652
        45.0004         40.0004
 -19824526.48049 -15438697.89048  20000660.5814   20000667.3214   20000660.766
        54.0004         50.0004
  -6532102.74347  -5037357.65846  23145204.1814   23145211.3554   23145204.812
        46.0004         41.0004
  -5334984.21347  -4158017.58546  23077758.0304   23077767.4174   23077757.956
        46.0004         41.0004
  -1005707.55747   -764389.39846  24052203.0974   24052216.8974   24052203.526
        43.0004         38.0004
 -10552228.59547  -8152036.93147  23043368.9064   23043378.3254   23043367.933
        47.0004         43.0004
 -27422803.66548 -21308926.33248  20688318.7424   20688326.5084   20688318.698
        52.0004         48.0004
   1580751.51146   1288913.07845  24833829.4264   24833834.2744   24833829.345
        39.0004         35.0004
 14  5 18  0 19 30.0000000  0 12G20G07G08G10G01G09G02G28G26G17G04G13
  -3841503.52146  -2934473.09245  23823439.7834   23823452.8114   23823440.929
        39.0004         34.0004
 -19481684.31048 -15151779.16847  21097358.2774   21097364.3194   21097357.583
        52.0004         47.0004
 -14073957.52249 -10952457.34748  19916050.4244   19916057.8984   19916051.099
        54.0004         49.0004
 -10751663.00847  -8367258.19546  23403529.3764   23403537.6204   23403529.767
        45.0004         40.0004
 -20364313.78246 -15836076.04145  24924465.3214   24924483.4994   24924463.332
        37.0004         33.0004
 -19812242.92349 -15429126.21748  20002998.5754   20003005.0394   20002998.188
        54.0004         50.0004
  -6613698.73347  -5100938.75046  23129675.9304   23129683.7524   23129676.852
        46.0004         41.0004
  -5392014.83047  -4202456.87546  23066905.0104   23066913.9474   23066905.526
        46.0004         41.0004
  -1003066.58647   -762331.32346  24052705.3424   24052719.5264   24052705.679
        43.0004         38.0004
 -10510619.68848  -8119614.36447  23051285.8834   23051296.3214   23051286.222
        48.0004         43.0004
 -27469833.29248 -21345572.72448  20679369.8224   20679376.6634   20679369.318
        52.0004         48.0004
   1641464.58146   1336222.05445  24845382.0394   24845389.0424   24845381.544
        39.0004         35.0004
 14  5 18  0 20  0.0000000  0 12G20G07G08G10G01G09G02G28G26G17G04G13
  -3815639.27146  -2914319.20645  23828361.6984   23828371.5344   23828361.885
        39.0004         34.0004
 -19407935.39648 -15094312.40747  21111391.7344   21111397.5554   21111391.373
        52.0004         47.0004
 -14057970.64849 -10939999.97548  19919093.1434   19919099.6654   19919093.244
        54.0004         49.0004
 -10818087.11347  -8419017.06446  23390889.5184   23390897.4724   23390889.024
        45.0004         40.0004
                 -15752743.89755                  24944828.2835   24944813.094
                        32.0004
 -19799357.85149 -15419085.83548  20005449.8994   20005456.4734   20005450.070
        54.0004         50.0004
  -6695011.78147  -5164299.37046  23114204.0684   23114210.5434   23114203.797
        45.0004         41.0004
  -5449144.25947  -4246973.17746  23056033.7894   23056042.9834   23056033.804
        46.0004         41.0004
  -1000182.07447   -760083.48046  24053254.7464   24053267.9894   24053254.388
        43.0004         38.0004
 -10469079.33448  -8087245.22247  23059191.2454   23059199.9014   23059190.895
        48.0004         43.0004
 -27516355.15948 -21381823.45748  20670516.9634   20670523.5824   20670516.141
        52.0004         48.0004
   1701928.57346   1383336.96445  24856888.8504   24856892.5184   24856887.941
        39.0004         34.0004
 14  5 18  0 20 30.0000000  0 11G20G07G08G10G09G02G28G26G17G04G13
  -3789459.88746  -2893919.78645  23833343.2594   23833353.6084   23833344.571
        39.0004         35.0004
 -19333754.44848 -15036509.00447  21125508.1064   21125513.4394   21125507.512
        51.0004         47.0004
 -14041322.86549 -10927027.61448  19922261.1534   19922267.8694   19922261.270
        54.0004         49.0004
 -10884653.86547  -8470887.08346  23378221.9764   23378229.9124   23378222.296
        45.0004         40.0004
 -19785871.96849 -15408577.28348  20008016.2104   20008023.1404   20008016.189
        54.0004         50.0004
  -6776039.43747  -5227437.61246  23098783.7714   23098791.6204   23098783.673
        45.0004         41.0004
  -5506369.79747  -4291564.35646  23045143.6374   23045153.2794   23045144.417
