     2.11           OBSERVATION DATA    G (GPS)             RINEX VERSION / TYPE
teqc  2013Mar15     gpsops              20140529 00:23:12UTCPGM / RUN BY / DATE
Linux 2.4.21-27.ELsmp|Opteron|gcc -static|Linux x86_64|=+   COMMENT
BIT 2 OF LLI FLAGS DATA COLLECTED UNDER A/S CONDITION       COMMENT
GLPS                                                        MARKER NAME
42005M002                                                   MARKER NUMBER
GGN                 JPL                                     OBSERVER / AGENCY
ZR220013847         ASHTECH UZ-12       CQ00                REC # / TYPE / VERS
CR519992104         ASH701945B_M    SCIT                    ANT # / TYPE
   -33801.4662 -6377516.5323   -82154.3508                  APPROX POSITION XYZ
        0.0083        0.0000        0.0000                  ANTENNA: DELTA H/E/N
     1     1                                                WAVELENGTH FACT L1/2
     7    L1    L2    P1    P2    C1    S1    S2            # / TYPES OF OBSERV
    30.0000                                                 INTERVAL
                                                            COMMENT
This data is provided as a public service by NASA/JPL.      COMMENT
No warranty is expressed or implied regarding suitability   COMMENT
for use.  For further information, contact:                 COMMENT
Dave Stowers, NASA/JPL m/s 238-600                          COMMENT
4800 Oak Grove Drive, Pasadena CA 91109 USA                 COMMENT
                                                            COMMENT
Forced Modulo Decimation to 30 seconds                      COMMENT
 SNR is mapped to RINEX snr flag value [0-9]                COMMENT
  L1 & L2: min(max(int(snr_dBHz/6), 0), 9)                  COMMENT
pseudorange smoothing corrections not applied               COMMENT
  2014     5    28     0     0    0.0000000     GPS         TIME OF FIRST OBS
                                                            END OF HEADER
 14  5 28  0  0  0.0000000  0 10G30G26G07G02G08G04G28G10G20G17
  -9924848.37949  -7724352.60248  20445881.0914   20445888.3214   20445881.006
        54.0004         50.0004
  -1007533.52747   -771602.93146  24118019.3314   24118028.1624   24118019.602
        42.0004         38.0004
 -15473757.19148 -12031839.53047  21776572.0304   21776576.4324   21776571.532
        50.0004         45.0004
  -8693446.59848  -6719161.15847  22492076.3634   22492080.9294   22492076.881
        48.0004         43.0004
 -24911155.60748 -19370848.53548  20210669.4434   20210675.1384   20210669.524
        53.0004         48.0004
 -27344359.38648 -21255877.33548  20398956.4564   20398962.1964   20398956.100
        53.0004         49.0004
  -8831764.50947  -6848936.21247  22591725.3234   22591730.4304   22591725.641
        47.0004         43.0004
 -13962155.79347 -10873614.54547  22855391.4464   22855398.8924   22855392.187
        46.0004         42.0004
 -10566932.97646  -8166777.06845  24050779.6964   24050787.5504   24050777.344
        38.0004         34.0004
 -10025225.98347  -7764247.87747  23379873.3524   23379881.5524   23379872.918
        47.0004         43.0004
 14  5 28  0  0 30.0000000  0 10G30G26G07G02G08G04G28G10G20G17
  -9885925.18349  -7694022.81848  20453288.3274   20453295.2664   20453288.254
        54.0004         50.0004
   -996245.04647   -762806.60046  24120167.4364   24120177.3464   24120167.414
        42.0004         38.0004
 -15383798.90548 -11961742.12847  21793690.9304   21793694.8464   21793690.315
        50.0004         45.0004
  -8760326.34748  -6771275.16647  22479349.8354   22479354.0514   22479349.804
        48.0004         43.0004
 -24864619.61248 -19334586.69848  20219525.0774   20219530.5894   20219525.385
        53.0004         48.0004
 -27368520.17248 -21274703.89148  20394358.8564   20394364.3684   20394358.707
        53.0004         49.0004
  -8890906.07847  -6895020.44347  22580470.7764   22580476.9774   22580471.229
        47.0004         43.0004
 -14033160.80547 -10928943.01647  22841880.1364   22841887.2324   22841880.312
        46.0004         42.0004
 -10527418.24846  -8135986.32445  24058296.6064   24058307.2214   24058298.299
        39.0004         34.0004
  -9988204.34347  -7735399.83347  23386918.8784   23386927.0984   23386918.039
        47.0004         43.0004
 14  5 28  0  1  0.0000000  0 10G30G26G07G02G08G04G28G10G20G17
  -9846485.80849  -7663290.81448  20460792.8224   20460800.1134   20460793.031
        54.0004         50.0004
   -984804.78747   -753892.00446  24122344.9334   24122353.8844   24122344.269
        42.0004         38.0004
 -15293532.95648 -11891404.99347  21810868.3014   21810872.3554   21810867.064
        50.0004         45.0004
  -8826835.94548  -6823100.75247  22466694.3014   22466697.6204   22466693.140
        48.0004         43.0004
 -24817485.13648 -19297858.51148  20228493.8004   20228500.1724   20228494.459
        53.0004         48.0004
 -27392128.86448 -21293100.24148  20389866.5904   20389871.9454   20389865.706
        53.0004         49.0004
  -8950039.17347  -6941098.05447  22569218.4444   22569224.2254   22569218.558
        47.0004         43.0004
 -14104226.86847 -10984319.06247  22828355.9624   22828362.3224   22828356.660
        46.0004         42.0004
 -10487560.95246  -8104928.65545  24065882.3724   24065892.4614   24065881.216
        38.0004         34.0004
  -9951329.45747  -7706666.13847  23393934.7564   23393944.5964   23393935.122
        47.0004         43.0004
 14  5 28  0  1 30.0000000  0 10G30G26G07G02G08G04G28G10G20G17
  -9806535.11749  -7632160.38148  20468395.3554   20468402.7164   20468395.526
        54.0004         50.0004
   -973218.26447   -744863.43846  24124550.1784   24124559.7184   24124549.591
        43.0004         38.0004
 -15202965.65548 -11820833.03847  21828101.7274   21828106.3244   21828101.158
        50.0004         45.0004
  -8892976.98948  -6874639.14747  22454107.5434   22454111.5414   22454107.807
        48.0004         43.0004
 -24769757.65748 -19260668.24748  20237576.6764   20237581.8784   20237576.792
        53.0004         48.0004
 -27415188.01548 -21311068.38348  20385478.1864   20385483.7734   20385477.918
        53.0004         49.0004
  -9009164.58647  -6987169.67747  22557967.5464   22557974.1504   22557966.988
        47.0004         43.0004
 -14175355.34747 -11039743.73247  22814821.0004   22814827.5354   22814821.770
        46.0004         42.0004
 -10447364.96446                  24073529.7234                   24073531.888
        39.0004
  -9914605.85747  -7678050.32247  23400924.4614   23400933.1124   23400922.764
        47.0004         42.0004
 14  5 28  0  2  0.0000000  0 10G30G26G07G02G08G04G28G10G20G17
  -9766071.04349  -7600629.90848  20476095.5544   20476102.6074   20476095.480
        54.0004         50.0004
   -961483.86147   -735719.62546  24126782.8294   24126791.9014   24126782.004
        43.0004         38.0004
 -15112096.11048 -11750025.56847  21845393.5534   21845398.3854   21845393.480
        50.0004         45.0004
  -8958743.92748  -6925886.03947  22441592.6284   22441596.1634   22441592.554
        48.0004         44.0004
 -24721435.16748 -19223014.32848  20246771.7964   20246777.6414   20246772.167
        53.0004         48.0004
 -27437693.48548 -21328605.07848  20381195.3624   20381200.9404   20381195.133
        53.0004         49.0004
  -9068275.94747  -7033230.35947  22546718.7164   22546724.0214   22546717.889
        47.0004         43.0004
 -14246540.06147 -11095212.22847  22801275.5314   22801280.7834   22801275.434
        46.0004         42.0004
                                                                  24081246.270

  -9878031.33847  -7649550.68047  23407884.0104   23407892.7784   23407882.443
        47.0004         42.0004
 14  5 28  0  2 30.0000000  0 10G30G26G07G02G08G04G28G10G20G17
  -9725095.60849  -7568700.97248  20483892.9444   20483900.1364   20483892.769
        54.0004         50.0004
   -949604.13147   -726462.59446  24129043.6704   24129052.0894   24129043.010
        43.0004         38.0004
 -15020927.74948 -11678985.24447  21862742.4064   21862747.6134   21862741.676
        50.0004         45.0004
  -9024135.38948  -6976840.35247  22429147.4384   22429153.2844   22429148.630
        48.0004         44.0004
 -24672519.96748 -19184898.56648  20256080.2774   20256085.4494   20256080.492
        53.0004         48.0004
 -27459645.14948 -21345710.24048  20377018.2054   20377023.6974   20377017.882
        53.0004         49.0004
  -9127370.99347  -7079278.32447  22535471.8074   22535478.0694   22535472.735
        47.0004         43.0004
 -14317778.86847 -11150722.89247  22787718.0084   22787725.5584   22787719.090
        47.0004         42.0004
 -10365943.75546  -8010161.81645  24089025.1574   24089032.7194   24089026.918
        39.0004         34.0004
  -9841607.63647  -7621168.55747  23414813.7664   23414823.1964   23414814.161
        47.0004         42.0004
 14  5 28  0  3  0.0000000  0 10G30G26G07G02G08G04G28G10G20G17
  -9683612.21349  -7536376.22148  20491786.9514   20491794.0304   20491786.960
        54.0004         50.0004
   -937583.04547   -717095.40546  24131330.4674   24131339.3044   24131329.719
        43.0004         38.0004
 -14929465.03048 -11607715.55947  21880147.4284   21880152.3124   21880147.064
        49.0004         45.0004
  -9089151.44748  -7027502.14047  22416776.9824   22416779.1924   22416776.237
        48.0004         44.0004
 -24623016.06148 -19146324.06348  20265500.5314   20265506.1634   20265500.607
        53.0004         48.0004
 -27481044.02648 -21362384.66148  20372946.1494   20372951.8584   20372945.796
        53.0004         49.0004
  -9186448.56547  -7125312.68947  22524230.2754   22524236.9554   22524230.585
        47.0004         43.0004
 -14389071.59947 -11206275.56047  22774151.6344   22774158.6824   22774152.152
        47.0004         42.0004
 -10324719.91746  -7978039.30545  24096872.3844   24096878.9244   24096869.989
        39.0004         34.0004
  -9805337.65247  -7592906.21347  23421716.7014   23421725.8334   23421716.024
        47.0004         42.0004
 14  5 28  0  3 30.0000000  0 10G30G26G07G02G08G04G28G10G20G17
  -9641622.13049  -7503656.64448  20499777.0674   20499784.5724   20499777.257
        54.0004         50.0004
   -925422.30747   -707619.38946  24133643.7774   24133653.8414   24133644.477
        43.0004         38.0004
 -14837710.83748 -11536218.74547  21897607.8894   21897612.2294   21897607.027
        49.0004         45.0004
  -9153790.39348  -7077870.07547  22404476.1154   22404479.9714   22404476.257
        48.0004         44.0004
 -24572925.12748 -19107292.13748  20275032.4494   20275038.3614   20275032.696
        53.0004         48.0004
 -27501889.57948 -21378627.91348  20368979.0224   20368985.0674   20368978.815
        53.0004         49.0004
  -9245505.30747  -7171330.81147  22512992.2374   22512998.9024   22512992.521
        47.0004         43.0004
 -14460415.41147 -11261868.03647  22760575.4734   22760581.4074   22760575.414
        47.0004         42.0004
 -10283153.71146  -7945650.01545  24104780.4444   24104786.5684   24104781.446
        39.0004         34.0004
  -9769222.69447  -7564764.67547  23428589.2364   23428598.0094   23428588.429
        47.0004         42.0004
 14  5 28  0  4  0.0000000  0 10G30G26G07G02G08G04G28G10G20G17
  -9599126.40649  -7470543.06848  20507864.0374   20507871.3544   20507864.039
        54.0004         50.0004
   -913123.46847   -698035.76846  24135985.2224   24135994.9384   24135983.887
        43.0004         38.0004
 -14745667.54048 -11464496.65947  21915123.0474   21915127.6244   21915122.170
        49.0004         45.0004
  -9218049.71248  -7127942.19247  22392248.1974   22392251.7854   22392248.442
        48.0004         44.0004
 -24522248.36448 -19067803.72048  20284676.1034   20284681.3534   20284676.180
        53.0004         48.0004
 -27522180.40348 -21394438.91748  20365118.1964   20365123.6464   20365117.798
        53.0004         49.0004
  -9304537.91947  -7217330.13647  22501757.9944   22501763.5904   22501758.723
        47.0004         43.0004
 -14531807.51847 -11317498.15347  22746989.9934   22746996.4914   22746990.324
        47.0004         42.0004
 -10241244.12846  -7912993.13245  24112753.3094   24112762.8914   24112754.121
        38.0004         34.0004
  -9733263.73347  -7536744.68447  23435431.6734   23435442.2314   23435430.810
        46.0004         42.0004
 14  5 28  0  4 30.0000000  0 10G30G26G07G02G08G04G28G10G20G17
  -9556126.20249  -7437036.38548  20516046.5304   20516053.5654   20516046.500
        54.0004         50.0004
   -900688.13347   -688345.77846  24138350.9444   24138360.4924   24138351.129
        43.0004         38.0004
 -14653337.25148 -11392550.94147  21932692.9054   21932697.7234   21932691.944
        49.0004         45.0004
  -9281927.18748  -7177716.77147  22380091.3854   22380096.4544   22380092.141
        48.0004         44.0004
 -24470987.39448 -19027860.07948  20294430.7654   20294435.7994   20294430.962
        53.0004         48.0004
 -27541915.85948 -21409817.16448  20361362.4514   20361368.2744   20361362.343
        53.0004         49.0004
  -9363543.20047  -7263308.16047  22490530.2034   22490535.5344   22490530.440
        47.0004         43.0004
 -14603244.90247 -11373163.54747  22733395.8104   22733401.0284   22733395.915
        47.0004         42.0004
 -10198990.29046  -7880068.03545  24120797.7414   24120802.0654   24120797.523
        38.0004         34.0004
  -9697461.30147  -7508846.66747  23442244.3284   23442253.5914   23442244.279
        46.0004         42.0004
 14  5 28  0  5  0.0000000  0 10G30G26G07G02G08G04G28G10G20G17
  -9512627.12949  -7403140.97548  20524324.2984   20524331.0494   20524324.055
        54.0004         50.0004
   -888122.24147   -678554.07246  24140741.5164   24140751.0754   24140741.754
        42.0004         38.0004
 -14560726.85848 -11320386.95847  21950315.7624   21950321.2134   21950315.095
        49.0004         45.0004
  -9345424.44148  -7227195.08547  22368008.4814   22368013.6574   22368008.571
        48.0004         44.0004
 -24419148.25148 -18987465.91148  20304295.4924   20304300.3044   20304295.540
        53.0004         48.0004
 -27561099.31748 -21424765.27948  20357711.6584   20357717.9344   20357711.561
        53.0004         49.0004
  -9422522.19947  -7309265.69347  22479307.4084   22479312.0134   22479306.925
        47.0004         43.0004
 -14674729.08447 -11428865.41347  22719793.1674   22719798.0874   22719793.597
        47.0004         42.0004
 -10156396.10646  -7846877.67245  24128902.5654   24128909.1494   24128900.952
        38.0004         33.0004
  -9661820.53047  -7481074.62347  23449027.2344   23449035.4774   23449026.293
        46.0004         42.0004
 14  5 28  0  5 30.0000000  0 10G30G26G07G02G08G04G28G10G20G17
  -9468626.96849  -7368855.10048  20532697.0204   20532704.0314   20532697.060
        54.0004         50.0004
   -875424.12847   -668659.31046  24143159.0074   24143168.5204   24143158.658
        42.0004         38.0004
 -14467835.41748 -11248003.97347  21967991.9064   21967996.3964   21967991.906
        49.0004         45.0004
  -9408536.65948  -7276373.36147  22355999.0794   22356002.2664   22355999.479
        48.0004         44.0004
 -24366729.16348 -18946619.83948  20314270.2934   20314275.7544   20314270.628
        53.0004         48.0004
 -27579726.41048 -21439279.86048  20354167.5714   20354173.0994   20354166.978
        53.0004         49.0004
  -9481468.13047  -7355197.46147  22468088.6054   22468096.8814   22468090.006
        47.0004         43.0004
 -14746253.56847 -11484598.68647  22706180.6564   22706189.3174   22706182.024
        47.0004         42.0004
 -10113457.19046  -7813418.72045  24137071.5914   24137083.4674   24137073.213
        38.0004         34.0004
  -9626338.71647  -7453426.45247  23455778.3874   23455787.7354   23455778.279
        46.0004         42.0004
 14  5 28  0  6  0.0000000  0 10G30G26G07G02G08G04G28G10G20G17
  -9424129.58049  -7334181.78348  20541164.7664   20541171.7524   20541164.565
        54.0004         50.0004
   -862598.07347   -658664.87746  24145599.3894   24145608.2024   24145598.918
        42.0004         38.0004
 -14374668.21648 -11175406.11547  21985721.4714   21985725.3414   21985721.096
        49.0004         45.0004
  -9471264.25648  -7325251.93847  22344061.5314   22344066.4194   22344062.023
        48.0004         44.0004
 -24313734.50648 -18905325.26948  20324354.7574   20324360.1274   20324354.894
        53.0004         48.0004
 -27597798.88848 -21453362.27948  20350728.4464   20350733.7514   20350727.746
        53.0004         49.0004
  -9540380.10048  -7401102.76747  22456878.5624   22456886.1474   22456878.978
        48.0004         43.0004
 -14817817.97047 -11540363.06647  22692563.9614   22692569.7584   22692564.570
        47.0004         42.0004
 -10070175.36246  -7779692.60945  24145310.6904   24145315.7844   24145308.058
        38.0004         33.0004
  -9591019.63947  -7425905.10347  23462500.1124   23462507.9684   23462499.362
        46.0004         42.0004
 14  5 28  0  6 30.0000000  0 10G30G26G07G02G08G04G28G10G20G17
  -9379134.62549  -7299120.74348  20549726.8394   20549733.8974   20549726.875
        54.0004         50.0004
   -849643.91747   -648570.60546  24148063.1824   24148072.9474   24148062.925
        42.0004         38.0004
 -14281225.59748 -11102593.63347  22003502.3214   22003507.8874   22003502.194
        49.0004         44.0004
  -9533603.43548  -7373827.85447  22332199.4114   22332203.5664   22332199.619
        48.0004         44.0004
 -24260164.27748 -18863582.20648  20334548.5614   20334553.9094   20334548.996
        53.0004         48.0004
 -27615314.28948 -21467010.61248  20347395.2674   20347401.0214   20347394.523
        53.0004         49.0004
  -9599253.08448  -7446977.70647  22445675.9144   22445683.0624   22445676.113
        48.0004         43.0004
 -14889417.91947 -11596155.14547  22678937.5594   22678944.0764   22678939.046
        47.0004         42.0004
 -10026548.35646  -7745697.44645  24153609.0924   24153618.1004   24153608.610
        38.0004         33.0004
  -9555862.25047  -7398509.73747  23469190.0174   23469199.0924   23469189.536
        46.0004         42.0004
 14  5 28  0  7  0.0000000  0 10G30G26G07G02G08G04G28G10G20G17
  -9333649.19149  -7263677.52048  20558382.4464   20558389.6724   20558382.172
        54.0004         49.0004
   -836569.21947   -638382.43446  24150551.5044   24150561.5334   24150551.334
        42.0004         37.0004
 -14187516.21348 -11029573.30147  22021335.6554   22021339.8154   22021334.735
        49.0004         44.0004
  -9595557.69848  -7422103.82747  22320409.5684   22320414.0904   22320410.103
        48.0004         44.0004
 -24206026.10648 -18821396.58548  20344850.8094   20344856.5164   20344851.275
        53.0004         48.0004
 -27632277.65648 -21480228.78548  20344167.1224   20344172.8064   20344166.823
        53.0004         49.0004
  -9658089.76547  -7492824.35247  22434478.7834   22434485.1964   22434479.656
        47.0004         43.0004
 -14961056.16847 -11651977.06647  22665306.4824   22665314.0334   22665306.785
        47.0004         42.0004
  -9982581.51656  -7711437.52355  24161974.5055   24161983.9015   24161977.097
        38.0004         33.0004
  -9520872.92047  -7371245.31947  23475848.0424   23475856.8794   23475847.889
        47.0004         42.0004
 14  5 28  0  7 30.0000000  0 10G30G26G07G02G08G04G28G10G20G17
  -9287668.98549  -7227848.75548  20567132.1274   20567139.2014   20567132.237
        54.0004         49.0004
   -823370.05847   -628097.26446  24153063.6904   24153072.2114   24153063.044
        42.0004         38.0004
 -14093536.68648 -10956342.45347  22039218.4284   22039223.1744   22039218.443
        49.0004         44.0004
  -9657119.59848  -7470074.06747  22308695.0144   22308699.1394   22308694.877
        48.0004         44.0004
 -24151315.79648 -18778765.14748  20355261.7234   20355267.1014   20355262.170
        53.0004         48.0004
 -27648682.57748 -21493011.81248  20341045.3454   20341050.6344   20341045.096
        53.0004         49.0004
  -9716881.10047  -7538635.66747  22423293.3744   22423297.7204   22423291.828
        47.0004         43.0004
 -15032724.50147 -11707822.42647  22651667.4034   22651675.1914   22651668.355
        47.0004         42.0004
  -9938268.09346  -7676907.55845  24170412.1144   24170416.0774   24170409.393
        38.0004         33.0004
  -9486046.70447  -7344108.01447  23482476.3844   23482484.3924   23482475.111
        47.0004         42.0004
 14  5 28  0  8  0.0000000  0 10G30G26G07G02G08G04G28G10G20G17
  -9241199.64249  -7191638.84848  20575975.0364   20575982.3834   20575974.745
        54.0004         49.0004
   -810052.32947   -617719.70746  24155597.0704   24155606.4294   24155597.366
        42.0004         38.0004
 -13999293.85648 -10882906.43547  22057151.8254   22057157.4174   22057151.544
        49.0004         44.0004
  -9718291.32448  -7517740.27747  22297054.3904   22297059.6944   22297054.528
        48.0004         44.0004
 -24096039.47448 -18735692.65448  20365780.2424   20365786.0314   20365780.674
        53.0004         48.0004
 -27664532.63548 -21505362.47848  20338029.2494   20338034.8454   20338028.643
        53.0004         49.0004
  -9775628.31447  -7584412.60047  22412112.8344   22412118.5374   22412112.633
        47.0004         43.0004
 -15104424.29147 -11763692.30347  22638024.6234   22638030.4184   22638024.547
        47.0004         42.0004
  -9893611.94946  -7642110.51045  24178908.2994   24178916.7454   24178907.076
        38.0004         34.0004
  -9451389.23847  -7317102.20147  23489070.1864   23489079.4534   23489070.479
        47.0004         42.0004
 14  5 28  0  8 30.0000000  0 10G30G26G07G02G08G04G28G10G20G17
  -9194242.80149  -7155049.07348  20584910.6574   20584917.6144   20584910.452
        54.0004         49.0004
   -796618.01847   -607251.30646  24158154.0424   24158163.2724   24158153.810
        43.0004         38.0004
 -13904790.59748 -10809267.48547  22075135.8904   22075140.1474   22075135.618
        49.0004         44.0004
  -9779071.03948  -7565101.03047  22285488.9184   22285492.2054   22285488.479
        48.0004         44.0004
 -24040199.21748 -18692180.73648  20376406.7024   20376411.8144   20376406.927
        53.0004         48.0004
 -27679827.24248 -21517280.32048  20335118.9514   20335124.3404   20335118.316
        53.0004         49.0004
  -9834327.89847  -7630152.42047  22400941.7054   22400948.3944   22400942.400
        47.0004         43.0004
 -15176152.82147 -11819584.57247  22624373.2654   22624380.5364   22624374.549
        47.0004         42.0004
  -9848612.72246  -7607046.12545  24187470.8754   24187475.5764   24187469.309
        38.0004         34.0004
  -9416901.30547  -7290228.50947  23495632.7944   23495643.0234   23495633.371
        47.0004         42.0004
 14  5 28  0  9  0.0000000  0 10G30G26G07G02G08G04G28G10G20G17
  -9146799.47049  -7118080.21048  20593938.6314   20593945.8144   20593938.659
        54.0004         49.0004
   -783068.34247   -596693.01246  24160732.2054   24160741.8314   24160732.794
        43.0004         38.0004
 -13810028.99448 -10735427.25347  22093167.9404   22093172.6784   22093167.795
        49.0004         44.0004
  -9839456.28748  -7612154.39447  22273997.0494   22274000.6024   22273997.509
        48.0004         44.0004
 -23983796.63648 -18648230.64048  20387139.6194   20387145.2114   20387139.953
        53.0004         48.0004
 -27694565.70248 -21528764.80548  20332314.0054   20332319.4384   20332313.625
        53.0004         49.0004
  -9892976.30148  -7675852.35447  22389781.9854   22389788.5754   22389781.847
        48.0004         43.0004
 -15247906.56947 -11875496.48647  22610719.9864   22610726.7914   22610720.960
        47.0004         42.0004
  -9803269.43346  -7571713.65445  24196097.8384   24196105.2924   24196098.467
        38.0004         33.0004
  -9382583.36947  -7263487.27047  23502164.3524   23502172.4074   23502163.788
        47.0004         42.0004
 14  5 28  0  9 30.0000000  0 10G30G26G07G02G08G04G28G10G20G17
  -9098870.72649  -7080733.10948  20603059.3374   20603066.5034   20603059.362
        54.0004         49.0004
   -769404.84847   -586046.02146  24163332.1904   24163341.1554   24163331.828
        43.0004         38.0004
 -13715011.27948 -10661387.43047  22111249.2624   22111254.5844   22111248.942
        49.0004         44.0004
  -9899444.79748  -7658898.60947  22262582.0964   22262585.4524   22262581.830
        48.0004         44.0004
 -23926832.96048 -18603843.32948  20397979.1534   20397984.7984   20397979.416
        52.0004         48.0004
 -27708746.58948 -21539814.81248  20329615.2394   20329620.8684   20329614.865
        53.0004         49.0004
  -9951569.79548  -7721509.50047  22378631.4334   22378637.9014   22378631.961
        48.0004         43.0004
 -15319682.48147 -11931425.67247  22597061.0794   22597068.0754   22597061.713
        47.0004         43.0004
  -9757581.11346  -7536112.30445  24204793.6234   24204802.8774   24204792.774
        38.0004         34.0004
  -9348435.51247  -7236878.55847  23508662.0664   23508670.9904   23508661.900
        47.0004         42.0004
 14  5 28  0 10  0.0000000  0 10G30G26G07G02G08G04G28G10G20G17
  -9050461.14649  -7043011.32648  20612271.2644   20612278.4884   20612271.204
        54.0004         49.0004
   -755632.12447   -575313.92146  24165953.4144   24165962.0404   24165953.148
        43.0004         38.0004
 -13619742.58548 -10587152.01747  22129378.4894   22129383.3984   22129377.940
        49.0004         44.0004
  -9959037.70948  -7705334.57447  22251241.5344   22251246.4864   22251241.527
        49.0004         44.0004
 -23869313.20748 -18559022.71148  20408924.5464   20408930.6594   20408925.391
        52.0004         48.0004
 -27722372.48648 -21550432.36748  20327022.0924   20327028.1234   20327022.011
        53.0004         49.0004
 -10010108.12348  -7767123.67747  22367492.0394   22367498.4724   22367492.457
        48.0004         43.0004
 -15391480.41847 -11987372.02347  22583398.8144   22583405.3474   22583398.491
        47.0004         42.0004
  -9711550.33646  -7500244.11345  24213552.6294   24213562.8524   24213552.122
        38.0004         34.0004
  -9314461.73247  -7210405.48847  23515127.4154   23515136.1414   23515126.258
        46.0004         42.0004
 14  5 28  0 10 30.0000000  0 10G30G26G07G02G08G04G28G10G20G17
  -9001570.24749  -7004914.48748  20621575.3454   20621581.9084   20621574.893
        54.0004         49.0004
   -741750.07147   -564496.62546  24168594.0924   24168604.3144   24168594.578
        43.0004         38.0004
 -13524223.73348 -10512721.69347  22147555.2554   22147560.0504   22147554.952
        49.0004         44.0004
 -10018231.19148  -7751459.29647  22239977.8844   22239982.1184   22239978.007
        49.0004         44.0004
 -23811237.75748 -18513769.08248  20419976.2784   20419982.0274   20419976.521
        52.0004         48.0004
 -27735441.16348 -21560615.72248  20324535.6984   20324541.2284   20324535.116
        53.0004         49.0004
 -10068586.17748  -7812690.88047  22356363.7834   22356370.3194   22356364.336
        48.0004         43.0004
 -15463295.59347 -12043331.81447  22569733.3774   22569739.0304   22569733.237
        47.0004         43.0004
  -9665174.66256  -7464107.14355  24222378.5075   24222381.0195   24222376.031
        38.0004         33.0004
  -9280661.05047  -7184067.31247  23521559.6184   23521568.2114   23521558.438
        46.0004         42.0004
 14  5 28  0 11  0.0000000  0 10G30G26G07G02G08G04G28G10G20G17
  -8952204.27349  -6966447.46848  20630968.9504   20630975.7194   20630968.926
        54.0004         49.0004
   -727765.14547   -553599.18446  24171256.2284   24171264.7064   24171255.224
        43.0004         38.0004
 -13428462.02748 -10438102.14147  22165778.5484   22165782.9124   22165777.643
        49.0004         44.0004
 -10077028.08448  -7797274.98347  22228789.1944   22228791.6084   22228788.959
        49.0004         44.0004
 -23752613.17848 -18468087.56248  20431132.0534   20431138.0074   20431132.592
        52.0004         48.0004
 -27747956.57148 -21570367.95448  20322153.8184   20322159.4574   20322153.505
        53.0004         49.0004
 -10127005.23548  -7858212.09647  22345246.1214   22345252.2514   22345246.838
        48.0004         43.0004
 -15535129.81447 -12099306.43947  22556062.9744   22556068.4524   22556063.693
        47.0004         43.0004
  -9618457.99346  -7427704.54645  24231267.4604   24231275.9924   24231266.161
        38.0004         33.0004
  -9247038.50247  -7157867.90846  23527958.5544   23527965.3174   23527956.712
        46.0004         41.0004
 14  5 28  0 11 30.0000000  0 10G30G26G07G02G08G04G28G10G20G17
  -8902360.27949  -6927607.95448  20640453.9794   20640460.5554   20640453.897
        54.0004         49.0004
   -713674.49947   -542619.35846  24173937.6024   24173946.3774   24173937.249
        43.0004         38.0004
 -13332455.53748 -10363291.83647  22184047.1594   22184051.5024   22184046.894
        48.0004         44.0004
 -10135421.85948  -7842776.55347  22217676.4364   22217679.6524   22217677.029
        49.0004         44.0004
 -23693436.70848 -18421975.99548  20442393.2174   20442398.5134   20442393.258
        52.0004         48.0004
 -27759914.02048 -21579685.42148  20319878.0724   20319884.0164   20319878.298
        53.0004         49.0004
 -10185357.50248  -7903681.27847  22334142.3244   22334149.7904   22334142.899
        48.0004         43.0004
 -15606975.81647 -12155290.24847  22542391.4474   22542397.0224   22542391.472
        47.0004         43.0004
  -9571395.75546  -7391032.59345  24240224.2094   24240230.9004   24240223.217
        38.0004         34.0004
  -9213590.49647  -7131804.52846  23534322.9724   23534331.9924   23534321.410
        46.0004         41.0004
 14  5 28  0 12  0.0000000  0 10G30G26G07G02G08G04G28G10G20G17
  -8852043.13549  -6888399.76048  20650028.9964   20650036.0074   20650028.853
        54.0004         49.0004
   -699483.24447   -531561.12846  24176637.2054   24176646.5544   24176636.848
        43.0004         38.0004
 -13236210.11448 -10288295.35747  22202362.1004   22202366.6074   22202361.857
        48.0004         44.0004
 -10193414.30148  -7887965.40247  22206640.9504   22206644.8594   22206641.042
        49.0004         44.0004
 -23633713.88148 -18375438.69448  20453757.9204   20453763.7374   20453758.261
        52.0004         48.0004
 -27771316.17348 -21588570.18748  20317708.7704   20317714.0934   20317708.181
        53.0004         49.0004
 -10243642.84148  -7949098.31747  22323051.8194   22323057.6414   22323051.834
        48.0004         43.0004
 -15678833.79147 -12211283.38347  22528716.3204   22528722.1954   22528717.472
        47.0004         43.0004
  -9523990.56646  -7354093.45845  24249241.8094   24249249.3454   24249242.995
        38.0004         33.0004
  -9180321.25347  -7105880.43246  23540654.2634   23540661.5404   23540652.676
        46.0004         41.0004
 14  5 28  0 12 30.0000000  0 10G30G26G07G02G08G04G28G10G20G17
  -8801253.74149  -6848823.57848  20659693.9344   20659700.7974   20659693.699
        54.0004         49.0004
   -685192.45447   -520425.32746  24179357.2594   24179365.9864   24179356.624
        43.0004         38.0004
 -13139727.68348 -10213114.22247  22220722.3524   22220726.1964   22220721.631
        48.0004         44.0004
 -10251002.61048  -7932839.33447  22195681.1094   22195685.5654   22195682.080
        49.0004         44.0004
 -23573446.13648 -18328476.78048  20465226.8784   20465232.0554   20465227.019
        52.0004         48.0004
 -27782161.67048 -21597021.19448  20315644.6274   20315649.9904   20315644.291
        53.0004         49.0004
 -10301857.17248  -7994460.02347  22311974.2284   22311978.8324   22311973.967
        48.0004         43.0004
 -15750700.14348 -12267283.04747  22515042.0044   22515047.0864   22515042.036
        48.0004         43.0004
  -9476241.42146  -7316886.31545  24258330.1954   24258337.0484   24258329.526
        37.0004         33.0004
  -9147230.79947  -7080095.64946  23546949.6334   23546959.4664   23546949.652
        46.0004         41.0004
 14  5 28  0 13  0.0000000  0 10G30G26G07G02G08G04G28G10G20G17
  -8749995.18449  -6808881.81148  20669448.0624   20669454.9224   20669448.077
        54.0004         49.0004
   -670805.31147   -509214.45346  24182093.8414   24182103.3814   24182094.692
        43.0004         38.0004
 -13043012.28148 -10137751.52047  22239126.4174   22239131.2014   22239125.952
        48.0004         44.0004
 -10308186.47348  -7977398.11847  22184800.9504   22184803.8724   22184800.436
        49.0004         44.0004
 -23512636.92048 -18281092.94548  20476798.0234   20476803.3974   20476798.376
        52.0004         48.0004
 -27792451.99048 -21605039.59348  20313686.5664   20313692.3854   20313686.178
        53.0004         49.0004
 -10359998.83848  -8039765.11147  22300910.3634   22300914.7514   22300909.956
        48.0004         43.0004
 -15822573.20847 -12323287.94247  22501364.0774   22501370.6984   22501364.720
        47.0004         43.0004
  -9428149.32946  -7279411.90945  24267480.6414   24267486.7414   24267480.887
        37.0004         33.0004
  -9114321.04447  -7054451.67646  23553212.1764   23553221.4964   23553211.983
        46.0004         41.0004
 14  5 28  0 13 30.0000000  0 10G30G26G07G02G08G04G28G10G20G17
  -8698270.24349  -6768576.63148  20679290.7694   20679297.8744   20679290.664
        54.0004         49.0004
   -656324.79247   -497930.82546  24184850.2904   24184859.0654   24184849.953
        43.0004         38.0004
 -12946067.49748 -10062210.08947  22257573.0514   22257580.2564   22257573.694
        48.0004         44.0004
 -10364965.43348  -8021641.39047  22173996.2814   22173999.5414   22173996.317
        49.0004         44.0004
 -23451289.47248 -18233289.70948  20488472.0114   20488477.9154   20488472.502
        52.0004         48.0004
 -27802187.78748 -21612625.90048  20311833.9354   20311839.6454   20311833.449
        53.0004         49.0004
 -10418065.39448  -8085011.67847  22289859.7264   22289865.1374   22289860.376
        48.0004         43.0004
 -15894451.32647 -12379296.78347  22487686.6184   22487691.9854   22487686.201
        47.0004         43.0004
  -9379715.01446  -7241670.85845  24276697.2464   24276705.6254   24276698.292
        38.0004         33.0004
  -9081594.18047  -7028950.21246  23559440.0424   23559448.6184   23559439.619
        46.0004         41.0004
 14  5 28  0 14  0.0000000  0 10G30G26G07G02G08G04G28G10G20G17
  -8646078.87049  -6727907.99848  20689222.7414   20689229.3454   20689222.465
        54.0004         49.0004
   -641750.91947   -486574.45146  24187623.9644   24187631.2134   24187623.118
        43.0004         38.0004
 -12848894.20948  -9986490.59047  22276065.9704   22276069.9854   22276065.564
        48.0004         44.0004
 -10421335.83448  -8065566.30947  22163268.9324   22163272.5644   22163268.671
        49.0004         44.0004
 -23389404.32248 -18185067.48248  20500248.4454   20500253.9114   20500248.777
        52.0004         48.0004
 -27811366.97848 -21619778.48948  20310087.2364   20310092.7404   20310086.727
        53.0004         49.0004
 -10476052.10548  -8130196.02447  22278826.2174   22278831.4574   22278825.279
        48.0004         43.0004
 -15966329.97047 -12435306.02147  22474008.8194   22474014.4894   22474008.620
        47.0004         43.0004
  -9330936.45446  -7203661.54645  24285979.6764   24285985.8904   24285980.440
        38.0004         33.0004
  -9049048.99447  -7003590.30147  23565632.2874   23565642.0584   23565632.994
        46.0004         42.0004
 14  5 28  0 14 30.0000000  0 10G30G26G07G02G08G04G28G10G20G17
  -8593425.74749  -6686879.56048  20699241.8174   20699248.5504   20699241.908
        54.0004         49.0004
   -627088.41547   -475149.01446  24190413.2964   24190422.3734   24190413.332
        43.0004         38.0004
 -12751497.96348  -9910597.36747  22294599.3404   22294604.5704   22294599.169
        48.0004         44.0004
 -10477298.90748  -8109173.82647  22152618.3404   22152623.9184   22152619.309
        49.0004         44.0004
 -23326986.46248 -18136430.15948  20512126.0184   20512131.6214   20512126.304
        52.0004         48.0004
 -27819992.42748 -21626499.58848  20308445.6384   20308451.4304   20308445.514
        53.0004         49.0004
 -10533958.43248  -8175317.71947  22267805.5584   22267811.8314   22267805.992
        48.0004         44.0004
 -16038209.16348 -12491315.69047  22460328.9504   22460336.9474   22460330.313
        48.0004         43.0004
  -9281815.83846  -7165385.71545  24295327.1754   24295336.1094   24295327.296
        37.0004         33.0004
  -9016689.50847  -6978375.10147  23571791.8594   23571800.0604   23571791.096
        46.0004         42.0004
 14  5 28  0 15  0.0000000  0 10G30G26G07G02G08G04G28G10G20G17
  -8540310.59249  -6645491.09248  20709349.2244   20709356.2174   20709349.414
        54.0004         49.0004
   -612337.23647   -463654.47346  24193221.1054   24193228.1584   24193220.601
        43.0004         38.0004
 -12653879.41448  -9834530.91847  22313175.3014   22313179.7514   22313175.125
        48.0004         43.0004
 -10532850.93448  -8152461.04847  22142047.8104   22142051.6774   22142048.071
        49.0004         44.0004
 -23264035.91048 -18087377.74648  20524104.8794   20524110.6024   20524105.617
        52.0004         48.0004
 -27828061.58849 -21632787.21848  20306910.4014   20306915.9194   20306909.934
        54.0004         49.0004
 -10591779.02448  -8220372.62447  22256803.4794   22256807.9444   22256803.178
        48.0004         44.0004
 -16110083.99948 -12547321.96947  22446651.4724   22446658.6974   22446652.565
        48.0004         43.0004
  -9232351.67046  -7126842.15745  24304740.0994   24304746.4904   24304740.014
        37.0004         33.0004
  -8984514.21647  -6953303.41946  23577913.2544   23577922.8304   23577913.080
        46.0004         41.0004
 14  5 28  0 15 30.0000000  0 10G30G26G07G02G08G04G28G10G20G17
  -8486737.42449  -6603745.73448  20719543.8634   20719551.1634   20719543.896
        54.0004         49.0004
   -597501.33447   -452093.92646  24196043.8454   24196051.9424   24196043.557
        43.0004         38.0004
 -12556043.32448  -9758294.97447  22331794.5004   22331798.1604   22331793.113
        48.0004         43.0004
 -10587992.87848  -8195428.73047  22131554.5394   22131558.2304   22131555.035
        49.0004         44.0004
 -23200557.51748 -18037914.03748  20536184.9304   20536190.1824   20536185.022
        52.0004         48.0004
 -27835576.74849 -21638643.16348  20305480.0134   20305485.5814   20305479.831
        54.0004         49.0004
 -10649513.01348  -8265360.05547  22245817.3504   22245822.4054   22245816.623
        48.0004         44.0004
 -16181953.64148 -12603324.20347  22432976.0064   22432981.2044   22432976.439
        48.0004         43.0004
                  -7088032.41245                  24314223.8534   24314218.203
                        32.0004
  -8952526.03547  -6928377.54246  23584000.6894   23584009.8074   23584000.195
        46.0004         41.0004
 14  5 28  0 16  0.0000000  0 10G30G26G07G02G08G04G28G10G20G17
  -8432707.46949  -6561644.44148  20729825.8784   20729832.6424   20729825.637
        54.0004         49.0004
   -582582.00247   -440468.36446  24198883.2464   24198891.7864   24198882.646
        43.0004         38.0004
 -12457991.87048  -9681891.20447  22350452.0484   22350455.4594   22350451.583
        48.0004         43.0004
 -10642722.35148  -8238075.00347  22121140.2534   22121144.3504   22121140.077
        49.0004         45.0004
 -23136552.85948 -17988040.24548  20548364.3014   20548369.6664   20548364.641
        52.0004         48.0004
 -27842537.22749 -21644066.88848  20304155.4184   20304161.4114   20304155.166
        54.0004         49.0004
 -10707156.39748  -8310276.88147  22234846.0784   22234853.2464   22234847.270
        48.0004         44.0004
 -16253814.81048 -12659319.83547  22419300.6724   22419307.9644   22419301.911
        48.0004         43.0004
  -9132397.23346  -7048955.49645  24323766.0624   24323771.7634   24323761.775
        37.0004         32.0004
  -8920725.21547  -6903597.64746  23590052.4574   23590060.8344   23590051.969
        46.0004         41.0004
 14  5 28  0 16 30.0000000  0 10G30G26G07G02G08G04G28G10G20G17
  -8378224.86349  -6519190.42748  20740193.3244   20740200.1954   20740193.092
        54.0004         49.0004
   -567583.44447   -428781.07646  24201736.6064   24201745.0704   24201737.132
        43.0004         38.0004
 -12359729.98948  -9605323.45747  22369150.5624   22369154.1194   22369150.365
        48.0004         43.0004
 -10697039.97348  -8280400.34647  22110803.4654   22110807.5504   22110804.242
        49.0004         45.0004
 -23072026.71348 -17937760.10048  20560643.3794   20560649.1364   20560643.496
        52.0004         48.0004
 -27848945.21049 -21649060.09348  20302936.2594   20302941.7764   20302935.966
        54.0004         49.0004
 -10764708.33448  -8355122.46147  22223895.3774   22223900.4934   22223895.737
        48.0004         44.0004
 -16325666.67848 -12715308.22247  22405628.4034   22405633.5624   22405628.650
        48.0004         43.0004
                  -7009612.93045                  24333374.0714   24333367.378
                        32.0004
  -8889114.40347  -6878965.80447  23596068.3384   23596077.2104   23596067.458
        46.0004         42.0004
 14  5 28  0 17  0.0000000  0 10G30G26G07G02G08G04G28G10G20G17
  -8323288.45149  -6476382.79848  20750647.2924   20750654.1164   20750647.053
        54.0004         49.0004
   -552504.45447   -417031.09746  24204606.1414   24204615.6634   24204605.350
        43.0004         38.0004
 -12261257.43048  -9528591.55747  22387888.6894   22387893.6994   22387888.873
        48.0004         43.0004
 -10750941.13948  -8322401.18647  22100546.9574   22100550.2784   22100546.856
        49.0004         45.0004
 -23006978.15848 -17887072.88448  20573021.7664   20573027.0424   20573022.206
        52.0004         48.0004
 -27854797.47049 -21653620.27748  20301822.4664   20301828.0884   20301821.921
        54.0004         49.0004
 -10822162.29448  -8399891.68547  22212962.6664   22212967.2414   22212962.434
        48.0004         44.0004
 -16397503.26648 -12771284.69447  22391957.9374   22391964.4844   22391958.088
        48.0004         43.0004
  -9031074.29646  -6970002.50845  24343044.0474   24343051.2574   24343042.230
        37.0004         33.0004
  -8857692.04747  -6854480.81347  23602047.7124   23602056.2554   23602046.503
        46.0004         42.0004
 14  5 28  0 17 30.0000000  0 10G30G26G07G02G08G04G28G10G20G17
  -8267904.45949  -6433226.40648  20761186.2204   20761193.5844   20761186.467
        54.0004         49.0004
   -537351.27147   -405223.31346  24207489.9564   24207498.2894   24207489.782
        43.0004         38.0004
 -12162581.22248  -9451700.96547  22406667.0134   22406671.5254   22406666.262
        48.0004         43.0004
 -10804428.71448  -8364079.74447  22090367.7464   22090371.8404   22090368.157
        49.0004         45.0004
 -22941413.83848 -17835983.76947  20585497.8414   20585503.5084   20585498.101
        52.0004         47.0004
 -27860098.50748 -21657750.92948  20300813.8394   20300819.1814   20300813.588
        53.0004         49.0004
 -10879519.60848  -8444585.61447  22202048.1774   22202053.6164   22202047.564
        48.0004         44.0004
 -16469326.22948 -12827250.55647  22378290.4854   22378296.0084   22378290.703
        48.0004         43.0004
                  -6930127.48345                  24352781.8934   24352779.802
                        32.0004
  -8826462.94647  -6830146.42046  23607989.4634   23607999.3994   23607989.417
        46.0004         41.0004
 14  5 28  0 18  0.0000000  0 10G30G26G07G02G08G04G28G10G20G17
  -8212071.63649  -6389720.27848  20771810.8704   20771818.1214   20771810.933
        54.0004         49.0004
   -522122.72647   -393356.80646  24210387.4904   24210395.4604   24210387.109
        43.0004         38.0004
 -12063700.94548  -9374651.36247  22425483.6304   22425486.8244   22425482.361
        48.0004         43.0004
 -10857497.92548  -8405432.31147  22080270.1974   22080273.2324   22080269.559
        49.0004         45.0004
 -22875333.11848 -17784492.27347  20598072.5114   20598077.9874   20598073.110
        52.0004         47.0004
 -27864844.87048 -21661449.37748  20299910.5714   20299915.6484   20299910.291
        53.0004         49.0004
 -10936773.71548  -8489199.11247  22191152.4224   22191158.7534   22191152.383
        49.0004         44.0004
 -16541129.30848 -12883200.92147  22364626.8884   22364632.0314   22364627.610
        48.0004         43.0004
                  -6889985.18645                  24362587.7484   24362583.611
                        32.0004
  -8795424.24347  -6805960.38846  23613895.7304   23613904.8084   23613895.908
        46.0004         41.0004
 14  5 28  0 18 30.0000000  0 10G30G26G07G02G08G04G28G10G20G17
  -8155793.97849  -6345867.52448  20782520.1794   20782527.4144   20782520.500
        54.0004         49.0004
   -506822.63547   -381434.55246  24213298.2494   24213307.5434   24213298.394
        43.0004         38.0004
 -11964621.14048  -9297446.27547  22444337.2604   22444340.7674   22444336.854
        48.0004         43.0004
 -10910149.50048  -8446459.44747  22070250.5794   22070254.1194   22070250.234
        49.0004         45.0004
 -22808740.59848 -17732601.96547  20610744.4764   20610750.4954   20610744.959
        52.0004         47.0004
 -27869039.03948 -21664717.53848  20299112.2114   20299118.0684   20299111.975
        53.0004         49.0004
 -10993923.47148  -8533731.28747  22180275.9414   22180282.5904   22180276.878
        49.0004         44.0004
 -16612911.72148 -12939135.19247  22350965.9804   22350973.0884   22350967.398
        48.0004         43.0004
  -8876529.05056  -6849577.57155  24372449.9065   24372456.0295   24372450.426
        37.0004         32.0004
  -8764579.46847  -6781925.46546  23619765.3754   23619774.3974   23619765.771
        46.0004         41.0004
 14  5 28  0 19  0.0000000  0 10G30G26G07G02G08G04G28G10G20G17
  -8099074.10849  -6301670.18948  20793313.8554   20793320.8854   20793313.702
        54.0004         49.0004
   -491453.63947   -369458.58946  24216222.3474   24216231.5264   24216223.238
        43.0004         38.0004
 -11865345.12148  -9220088.30247  22463230.1674   22463232.9154   22463228.453
        48.0004         43.0004
 -10962382.68148  -8487160.55847  22060310.5114   22060313.8614   22060310.870
        49.0004         45.0004
 -22741639.36048 -17680315.25747  20623513.3994   20623519.2094   20623514.134
        52.0004         47.0004
 -27872681.50549 -21667555.80548  20298419.3934   20298424.7964   20298419.139
        54.0004         49.0004
 -11050966.30748  -8578180.17647  22169422.0314   22169429.3114   22169422.461
        49.0004         44.0004
 -16684671.02248 -12995051.44547  22337312.8654   22337318.5774   22337312.156
        48.0004         43.0004
                                                                  24382383.252

  -8733929.47447  -6758042.30746  23625598.2004   23625607.1044   23625597.950
        46.0004         41.0004
 14  5 28  0 19 30.0000000  0 10G30G26G07G02G08G04G28G10G20G17
  -8041915.73749  -6257131.16748  20804190.5424   20804197.6134   20804190.804
        54.0004         49.0004
   -476019.40147   -357431.79946  24219158.7944   24219168.3444   24219159.196
        42.0004         38.0004
 -11765877.37448  -9142580.93847  22482156.6544   22482160.1634   22482156.151
        48.0004         43.0004
 -11014197.83648  -8527535.94647  22050450.3094   22050454.1374   22050450.695
        49.0004         45.0004
 -22674033.57548 -17627635.39147  20636378.8374   20636384.1694   20636378.818
        52.0004         47.0004
 -27875774.30749 -21669965.76348  20297830.6864   20297836.2454   20297830.097
        54.0004         49.0004
 -11107900.65348  -8622544.51047  22158587.6664   22158593.9774   22158587.834
        48.0004         44.0004
 -16756406.30048 -13050948.98047  22323660.1524   22323665.7234   22323660.958
        48.0004         43.0004
                  -6767968.01845                  24392389.7124   24392380.555
                        32.0004
  -8703477.02647  -6734313.08646  23631393.4704   23631402.2914   23631393.083
        46.0004         41.0004
 14  5 28  0 20  0.0000000  0 10G30G26G07G02G08G04G28G10G20G17
  -7984316.74049  -6212248.79748  20815151.2274   20815158.4644   20815151.210
        54.0004         49.0004
   -460517.66947   -345352.42646  24222109.9804   24222117.1344   24222109.954
        42.0004         38.0004
 -11666216.51748  -9064923.09747  22501121.5314   22501127.0814   22501121.242
        48.0004         43.0004
 -11065589.12148  -8567581.02947  22040670.6384   22040674.4684   22040671.025
        49.0004         45.0004
 -22605921.68348 -17574561.15747  20649339.5974   20649345.0484   20649340.354
        52.0004         47.0004
 -27878313.32549 -21671944.20348  20297347.4734   20297352.9124   20297347.231
        54.0004         49.0004
 -11164719.26548  -8666818.66447  22147774.6334   22147780.2114   22147775.523
        49.0004         44.0004
 -16828110.38448 -13106822.22647  22310016.5394   22310022.9444   22310016.407
        48.0004         43.0004
                  -6726764.25845                  24402452.5084   24402442.936
                        32.0004
  -8673218.62347  -6710735.06846  23637151.6054   23637159.7974   23637150.418
        46.0004         41.0004
 14  5 28  0 20 30.0000000  0 11G30G26G07G02G08G04G05G28G10G20G17
  -7926282.90449  -6167027.59148  20826194.6304   20826201.6644   20826194.958
        54.0004         49.0004
   -444954.15647   -333224.90346  24225071.6974   24225079.0884   24225071.234
        42.0004         38.0004
 -11566369.18448  -8987119.94247  22520121.2364   22520126.0404   22520121.531
        48.0004         43.0004
 -11116559.26048  -8607297.95647  22030971.0864   22030974.8084   22030971.388
        49.0004         45.0004
 -22537309.93548 -17521097.42647  20662396.1064   20662401.7914   20662396.340
        52.0004         47.0004
 -27880302.48749 -21673494.18448  20296969.2164   20296974.6444   20296968.603
        54.0004         49.0004
  -1324475.90647   -994131.71446  25481363.2984   25481370.8544   25481361.125
        42.0004         36.0004
 -11221422.44148  -8711002.86347  22136985.5384   22136990.4504   22136985.157
        49.0004         44.0004
 -16899784.18448 -13162671.85747  22296377.5564   22296382.6224   22296377.072
        48.0004         43.0004
  -8665701.58146  -6685296.27245  24412572.9514   24412577.9104   24412570.422
        37.0004         33.0004
  -8643158.74147  -6687311.74846  23642871.0224   23642880.3344   23642870.532
        46.0004         41.0004
 14  5 28  0 21  0.0000000  0 11G30G26G07G02G08G04G05G28G10G20G17
  -7867816.39449  -6121469.23948  20837320.7904   20837327.2734   20837320.443
        54.0004         49.0004
   -429330.92847   -321050.85446  24228043.5364   24228052.7414   24228043.867
        42.0004         38.0004
 -11466338.15647  -8909173.65847  22539157.6364   22539161.0154   22539156.568
        47.0004         43.0004
 -11167106.80148  -8646685.57847  22021352.3524   22021355.4814   22021352.808
        49.0004         45.0004
 -22468201.04748 -17467246.31547  20675547.2854   20675552.2364   20675547.681
        52.0004         47.0004
 -27881742.25149 -21674616.06248  20296695.2144   20296700.4204   20296694.807
        54.0004         49.0004
  -1404428.31046  -1056431.97546  25466147.3724   25466154.9974   25466146.745
        41.0004         36.0004
 -11278007.11148  -8755094.73147  22126217.1784   22126222.6004   22126217.339
        49.0004         44.0004
 -16971424.76548 -13218495.61947  22282744.2074   22282749.9314   22282744.218
        48.0004         43.0004
                  -6643564.46045                  24422766.3424   24422761.981
                        33.0004
  -8613297.99547  -6664043.59146  23648554.2364   23648561.8594   23648553.009
        46.0004         41.0004
 14  5 28  0 21 30.0000000  0 11G30G26G07G02G08G04G05G28G10G20G17
  -7808919.20649  -6075575.29148  20848528.3984   20848535.2374   20848528.368
        54.0004         49.0004
   -413649.69547   -308831.60646  24231029.6954   24231036.1464   24231028.392
        42.0004         38.0004
 -11366125.99147  -8831086.21147  22558226.7614   22558231.5904   22558226.378
        47.0004         43.0004
 -11217230.43948  -8685742.89247  22011813.7604   22011817.6424   22011813.892
        49.0004         45.0004
 -22398597.59948 -17413009.82447  20688792.7084   20688797.9654   20688792.612
        52.0004         47.0004
 -27882632.68949 -21675309.89248  20296525.7924   20296531.0014   20296525.448
        54.0004         49.0004
  -1484599.11846  -1118902.42446  25450890.4114   25450899.9064   25450890.879
        41.0004         36.0004
 -11334469.96248  -8799091.67547  22115472.2224   22115478.6774   22115472.865
        49.0004         44.0004
 -17043029.19148 -13274291.19447  22269117.8574   22269122.7704   22269118.735
        48.0004         44.0004
                  -6601568.55445                  24433024.6224   24433015.979
                        32.0004
  -8583637.26847  -6640931.29246  23654197.9564   23654205.9524   23654197.669
        46.0004         41.0004
 14  5 28  0 22  0.0000000  0 11G30G26G07G02G08G04G05G28G10G20G17
  -7749594.46648  -6029348.18848  20859817.4764   20859824.4144   20859817.215
        53.0004         49.0004
   -397913.66747   -296569.67146  24234024.3364   24234030.5344   24234022.517
        42.0004         38.0004
 -11265736.27947  -8752860.43347  22577331.8324   22577334.8854   22577330.076
        47.0004         43.0004
 -11266929.87948  -8724469.66147  22002356.3134   22002360.1854   22002356.837
        50.0004         45.0004
 -22328503.12448 -17358390.71747  20702130.8914   20702135.9984   20702131.347
        52.0004         47.0004
 -27882975.01949 -21675576.62548  20296460.2364   20296465.8594   20296460.043
        54.0004         49.0004
  -1564988.57646  -1181543.23346  25435594.1084   25435602.6044   25435592.019
        40.0004         36.0004
 -11390808.83448  -8842992.00647  22104751.2564   22104757.4154   22104752.065
        49.0004         44.0004
 -17114595.67548 -13330057.20947  22255499.0764   22255505.9704   22255499.863
        48.0004         44.0004
  -8504018.56346  -6559309.42845  24443334.0904   24443346.9084   24443337.428
        37.0004         33.0004
  -8554178.00947  -6617975.98646  23659803.3904   23659812.7034   23659803.466
        46.0004         41.0004
 14  5 28  0 22 30.0000000  0 10G30G26G07G02G08G04G05G28G10G17
  -7689840.50748  -5982786.62648  20871188.3894   20871195.3314   20871188.104
        53.0004         49.0004
   -382120.85347   -284263.46246  24237027.1064   24237036.6644   24237027.522
        42.0004         38.0004
 -11165168.23647  -8674495.68947  22596468.1704   22596471.5044   22596467.182
        47.0004         43.0004
 -11316199.97748  -8762861.88447  21992980.2544   21992984.2934   21992980.509
        50.0004         45.0004
 -22257916.64948 -17303388.23647  20715563.0084   20715568.3104   20715563.155
        52.0004         47.0004
 -27882766.01349 -21675413.75048  20296499.9804   20296505.7364   20296499.991
        54.0004         49.0004
  -1645590.98646  -1244350.00046  25420254.8304   25420262.3634   25420253.590
        41.0004         36.0004
 -11447016.79048  -8886790.32747  22094055.4244   22094061.3284   22094056.078
        49.0004         44.0004
 -17186117.42348 -13385788.37447  22241889.5584   22241895.4744   22241889.836
        48.0004         44.0004
  -8524917.58547  -6595175.61346  23665372.5364   23665380.3244   23665371.268
        45.0004         41.0004
 14  5 28  0 23  0.0000000  0 11G30G26G07G02G08G04G05G28G10G20G17
  -7629667.39848  -5935898.45148  20882638.5494   20882645.8464   20882638.448
        53.0004         49.0004
   -366281.20447   -271920.78346  24240042.7864   24240049.3754   24240041.500
        42.0004         37.0004
 -11064432.27747  -8596000.10347  22615637.7734   22615641.4204   22615636.986
        47.0004         43.0004
 -11365047.90048  -8800925.12847  21983684.8964   21983688.7674   21983685.916
        50.0004         45.0004
 -22186848.87848 -17248010.71647  20729087.0344   20729092.0784   20729086.778
        52.0004         47.0004
 -27882013.77649 -21674827.57648  20296643.0624   20296648.5734   20296642.744
        54.0004         49.0004
  -1726413.12746  -1307327.96946  25404875.6324   25404883.1004   25404873.489
        41.0004         36.0004
 -11503098.59748  -8930490.35447  22083384.1164   22083388.9764   22083383.859
        49.0004         44.0004
 -17257599.33248 -13441488.49147  22228286.4224   22228292.3534   22228287.166
        48.0004         44.0004
                  -6473999.17845                  24464173.5654   24464171.073
                        33.0004
  -8495864.39447  -6572536.71846  23670901.0314   23670908.9834   23670900.499
        45.0004         41.0004
 14  5 28  0 23 30.0000000  0 11G30G26G07G02G08G04G05G28G10G20G17
  -7569071.04648  -5888680.48048  20894170.0684   20894176.4204   20894169.522
        53.0004         49.0004
   -350390.41047   -259538.23346  24243065.5224   24243074.3314   24243065.746
        42.0004         37.0004
 -10963525.49447  -8517371.40547  22634838.8504   22634842.9244   22634838.929
        47.0004         43.0004
 -11413465.57848  -8838653.12347  21974471.6144   21974475.0124   21974471.373
        50.0004         45.0004
 -22115295.90948 -17192255.12147  20742702.6124   20742708.3284   20742702.970
        52.0004         47.0004
 -27880712.47349 -21673813.55448  20296890.8304   20296896.3214   20296890.453
        54.0004         49.0004
  -1807446.96846  -1370470.91946  25389454.4694   25389462.1654   25389453.342
        41.0004         37.0004
 -11559044.62448  -8974084.57447  22072737.8334   22072743.3694   22072737.559
        49.0004         44.0004
 -17329032.32048 -13497150.48647  22214693.3234   22214697.9974   22214693.946
        48.0004         44.0004
  -8339290.52846  -6430949.85445  24474684.9934   24474690.5474   24474684.768
        37.0004         32.0004
  -8467012.80347  -6550054.91346  23676390.6034   23676398.6484   23676390.345
        45.0004         41.0004
 14  5 28  0 24  0.0000000  0 11G30G26G07G02G08G04G05G28G10G20G17
  -7508055.69948  -5841136.02348  20905780.7844   20905787.4044   20905780.418
        53.0004         49.0004
   -334452.53847   -247119.02146  24246098.2074   24246106.1544   24246098.118
        42.0004         38.0004
 -10862452.34147  -8438613.06547  22654072.3224   22654076.6534   22654072.102
        47.0004         43.0004
 -11461454.22248  -8876046.80547  21965340.1484   21965342.8724   21965340.325
        50.0004         45.0004
 -22043262.44948 -17136125.11247  20756410.1404   20756415.6444   20756410.612
        52.0004         47.0004
 -27878864.69449 -21672373.71048  20297242.5194   20297248.2054   20297242.310
        54.0004         49.0004
  -1888693.04346  -1433779.24746  25373994.4044   25374002.4114   25373992.457
        41.0004         37.0004
 -11614853.86348  -9017572.21147  22062116.9574   22062122.0144   22062117.608
        49.0004         44.0004
 -17400415.73248 -13552773.85047  22201109.0384   22201115.9454   22201110.138
        48.0004         44.0004
