     2.11           OBSERVATION DATA    G (GPS)             RINEX VERSION / TYPE
teqc  2008Oct2      gpsops              20090107 00:09:50UTCPGM / RUN BY / DATE
    30.0000                                                 INTERVAL
     1     1                                                WAVELENGTH FACT L1/2
     7    L1    L2    P1    P2    C1    S1    S2            # / TYPES OF OBSERV
Linux 2.4.20-8|Pentium IV|gcc -static|Linux|486/DX+         COMMENT
     2.10           OBSERVATION DATA    GPS                 COMMENT
soc2rnx ver 1.20    gpsops               7-Jan-2009 00:09:44COMMENT
S1, if present, is the SNR for the C/A data stream on L1.   COMMENT
 SNR is mapped to RINEX snr flag value [1,4-9]              COMMENT
    SNR:   >316  >100  >31.6  >10  >3.2    >0 bad=0         COMMENT
L1 & L2:      9     8     7     6     5     4     1         COMMENT
                                                            COMMENT
This data is provided as a public service by NASA/JPL.      COMMENT
No warranty is expressed or implied regarding suitability   COMMENT
for use.  For further information, contact:                 COMMENT
Dave Stowers, NASA/JPL m/s 238-600                          COMMENT
4800 Oak Grove Drive, Pasadena CA 91109 USA                 COMMENT
                                                            COMMENT
Forced Modulo Decimation to 30 seconds                      COMMENT
  2009     1     6     0     0    0.0000000     GPS         TIME OF FIRST OBS
GGN                 JPL                                     OBSERVER / AGENCY
CR519992104         ASH701945B_M    SCIT                    ANT # / TYPE
   -33801.4662 -6377516.5323   -82154.3508                  APPROX POSITION XYZ
        0.0083        0.0000        0.0000                  ANTENNA: DELTA H/E/N
ZR220013847         ASHTECH UZ-12       CQ00                REC # / TYPE / VERS
GLPS                                                        MARKER NAME
42005M002                                                   MARKER NUMBER
                                                            END OF HEADER
 09  1  6  0  0  0.0000000  0 10G21G22G18G30G24G14G 5G29G12G 9
 112559902.62647  87709002.69147  21419445.7944   21419447.7384   21419446.2504
        53.000          46.000
 128194104.37547  99891498.44847  24394535.4244   24394536.8584   24394535.9104
        44.000          37.000
 124873251.44947  97303801.91947  23762612.7934   23762616.5594   23762613.8044
        45.000          39.000
 123994640.15947  96619177.22547  23595413.7074   23595418.7234   23595413.1864
        46.000          40.000
 112244783.32847  87463434.13747  21359500.4784   21359504.1194   21359500.0914
        53.000          47.000
 116308619.28347  90630088.83247  22132795.6374   22132800.1404   22132795.1124
        50.000          44.000
 125495677.70847  97788809.92747  23881056.6944   23881061.6144   23881056.6484
        46.000          39.000
 111583421.10347  86948112.48647  21233621.5214   21233625.3324   21233621.5864
        53.000          48.000
 127976979.92747  99722301.56747  24353225.6304   24353230.2314   24353224.9034
        43.000          38.000
 113031681.11847  88076621.09947  21509222.6584   21509226.8564   21509223.2474
        52.000          46.000
 09  1  6  0  0 30.0000000  0 10G21G22G18G30G24G14G 5G29G12G 9
 112481662.09047  87648036.04247  21404557.3064   21404559.1934   21404557.6974
        53.000          46.000
 128189966.03647  99888273.87447  24393748.4154   24393749.5754   24393748.4124
        44.000          38.000
 124869511.89847  97300888.00647  23761901.7124   23761904.7314   23761902.0214
        46.000          39.000
 123988269.96547  96614213.46847  23594201.2734   23594206.0044   23594200.9264
        46.000          40.000
 112238254.10047  87458346.44247  21358257.4014   21358261.8824   21358257.5774
        53.000          47.000
 116277053.58447  90605492.24847  22126788.8954   22126792.5144   22126789.2444
        50.000          44.000
 125488574.11447  97783274.70647  23879704.6864   23879709.8334   23879705.0764
        46.000          39.000
 111644820.78547  86995956.39447  21245305.7154   21245309.2034   21245305.5264
        53.000          48.000
 127984420.19347  99728099.23547  24354641.0524   24354646.1764   24354640.6754
        43.000          38.000
 113052465.69547  88092816.90147  21513178.2484   21513182.0774   21513178.3404
        52.000          46.000
 09  1  6  0  1  0.0000000  0 10G21G22G18G30G24G14G 5G29G12G 9
 112403643.64647  87587242.45547  21389710.7004   21389712.7674   21389710.9674
        53.000          46.000
 128185676.70847  99884931.59047  24392931.4114   24392933.7504   24392931.4414
        43.000          37.000
 124865554.22747  97297804.13847  23761148.8194   23761151.4154   23761149.4224
        46.000          39.000
 123981683.41947  96609081.13447  23592947.8544   23592952.7794   23592947.4264
        47.000          40.000
 112232140.67847  87453582.74147  21357094.1474   21357098.5924   21357094.3404
        53.000          47.000
 116245966.56547  90581268.65247  22120872.9324   22120877.0224   22120873.1414
        50.000          44.000
 125481322.91647  97777624.44347  23878324.6464   23878330.3144   23878325.0764
        45.000          39.000
 111706500.21847  87044018.30147  21257042.9484   21257046.5214   21257042.5694
        53.000          48.000
 127991721.10047  99733788.32447  24356030.8344   24356035.5424   24356030.8164
        42.000          37.000
 113073777.91747  88109423.84947  21517233.8144   21517237.6034   21517233.9014
        52.000          46.000
 09  1  6  0  1 30.0000000  0 10G21G22G18G30G24G14G 5G29G12G 9
 112325848.70647  87526623.03147  21374906.8274   21374908.7944   21374907.1974
        53.000          46.000
 128181233.39247  99881469.33347  24392086.5524   24392088.0154   24392086.5654
        45.000          38.000
 124861376.61647  97294548.89347  23760353.6934   23760356.5214   23760354.1354
        45.000          39.000
 123974879.30447  96603779.26147  23591653.0434   23591658.0924   23591652.6234
        47.000          40.000
 112226442.77747  87449142.82047  21356010.0234   21356014.1154   21356010.0764
        53.000          47.000
 116215356.27947  90557416.53947  22115048.2284   22115051.6194   22115048.5974
        50.000          44.000
 125473923.59547  97771858.76447  23876916.6594   23876921.8254   23876916.8834
        46.000          39.000
 111768454.85047  87092294.64747  21268832.5014   21268836.2194   21268832.1154
        53.000          48.000
 127998881.84447  99739368.18947  24357393.0014   24357398.1814   24357393.5614
        42.000          37.000
 113095616.62047  88126441.04847  21521389.6364   21521393.0974   21521389.7764
        52.000          46.000
 09  1  6  0  2  0.0000000  0 10G21G22G18G30G24G14G 5G29G12G 9
 112248285.36847  87466184.08747  21360146.9834   21360149.2914   21360147.3834
        53.000          46.000
 128176639.91247  99877890.06647  24391212.3764   24391213.5564   24391212.5034
        45.000          38.000
 124856983.42947  97291125.65447  23759517.2694   23759520.2574   23759517.7454
        45.000          39.000
 123967863.20647  96598312.21147  23590317.8554   23590322.7794   23590317.7474
        46.000          40.000
 112221166.89047  87445031.74147  21355005.9774   21355010.4324   21355006.2094
        53.000          47.000
 116185227.85747  90533939.90447  22109314.9194   22109318.3134   22109315.0024
        49.000          44.000
 125466382.52247  97765982.65647  23875481.5834   23875486.5784   23875482.2124
        45.000          39.000
 111830687.00747  87140787.23647  21280674.8304   21280678.5214   21280674.6684
        53.000          48.000
 128005908.77247  99744843.78247  24358730.8174   24358734.9014   24358730.3644
        43.000          38.000
 113117987.22247  88143872.71247  21525646.5334   21525650.3174   21525646.5474
        52.000          46.000
 09  1  6  0  2 30.0000000  0 10G21G22G18G30G24G14G 5G29G12G 9
 112170950.42947  87405923.12247  21345430.4564   21345432.6924   21345430.8504
        53.000          46.000
 128171888.70947  99874187.89247  24390308.6654   24390309.1724   24390308.1324
        45.000          37.000
 124852368.22947  97287529.43447  23758639.2434   23758642.4264   23758639.2544
        46.000          39.000
 123960629.06047  96592675.26347  23588941.2774   23588946.0204   23588941.2124
        47.000          40.000
 112216308.15747  87441245.72147  21354081.2644   21354085.7744   21354081.3704
        53.000          47.000
 116155574.67747  90510833.58647  22103672.1494   22103675.5884   22103672.2054
        50.000          44.000
 125458694.83847  97759992.27347  23874018.1544   23874023.9594   23874018.4874
        45.000          39.000
 111893187.82047  87189489.16847  21292568.4144   21292571.8794   21292568.1994
        53.000          48.000
 128012797.29947  99750211.54347  24360040.9434   24360045.6534   24360040.6904
        43.000          38.000
 113140883.89247  88161714.31147  21530003.8254   21530007.3014   21530004.0214
        52.000          46.000
 09  1  6  0  3  0.0000000  0 11G21G22G18G30G24G14G 5G29G12G31G 9
 112093850.95447  87345845.61947  21330758.9384   21330761.1014   21330759.3034
        53.000          46.000
 128166982.35747  99870364.80847  24389374.5344   24389375.3034   24389374.8114
        44.000          37.000
 124847534.60247  97283762.97747  23757719.8484   23757722.2844   23757720.8054
        45.000          39.000
 123953181.25847  96586871.82947  23587523.9434   23587528.8934   23587524.0544
        47.000          40.000
 112211871.94547  87437788.93847  21353236.9804   21353241.5064   21353237.0254
        53.000          47.000
 116126400.44947  90488100.47847  22098120.0684   22098123.8904   22098120.4214
        49.000          44.000
 125450865.62247  97753891.60747  23872528.4224   23872533.9734   23872529.3634
        46.000          39.000
 111955958.28147  87238401.21847  21304513.1314   21304516.5284   21304512.7014
        52.000          48.000
 128019552.21047  99755475.16547  24361326.5194   24361331.0494   24361326.1134
        43.000          38.000
 142214485.54257  93024245.35057  25159602.9095   25159609.5585   25159601.4755
        40.000          35.000
 113164310.82447  88179969.09447  21534461.8414   21534465.4404   21534461.9384
        52.000          46.000
 09  1  6  0  3 30.0000000  0 11G21G22G18G30G24G14G 5G29G12G31G 9
 112016989.47247  87285953.55947  21316132.7504   21316134.7474   21316133.1674
        53.000          46.000
 128161919.17247  99866419.51347  24388410.8704   24388412.7394   24388410.9924
        42.000          37.000
 124842482.12847  97279826.01447  23756758.2494   23756761.0814   23756758.7134
        45.000          39.000
 123945519.88647  96580901.97347  23586066.0204   23586070.5274   23586065.3354
        46.000          40.000
 112207859.08847  87434662.04447  21352473.2664   21352477.9884   21352473.4394
        53.000          47.000
 116097704.92647  90465740.37947  22092659.7644   22092663.1724   22092659.8394
        50.000          44.000
 125442895.70547  97747681.31047  23871011.9704   23871017.4544   23871012.3814
        45.000          39.000
 112018994.87347  87287520.64347  21316508.7654   21316512.0574   21316508.5704
        53.000          48.000
 128026174.52247  99760635.45547  24362586.9024   24362591.3164   24362587.0514
        43.000          38.000
 142114420.68147  92946272.84047  25140561.1634   25140567.3054   25140560.3204
        41.000          36.000
 113188267.77647  88198636.88347  21539020.6464   21539024.3884   21539020.8204
        52.000          46.000
 09  1  6  0  4  0.0000000  0 11G21G22G18G30G24G14G 5G29G12G31G 9
 111940368.61447  87226249.01347  21301552.0564   21301554.5584   21301552.6214
        53.000          46.000
 128156697.23447  99862350.52247  24387417.1784   24387418.5284   24387417.2224
        43.000          37.000
 124837209.23347  97275717.28747  23755754.5274   23755757.5364   23755755.0954
        45.000          39.000
 123937644.55447  96574765.39147  23584567.0854   23584571.7934   23584566.0964
        46.000          40.000
 112204270.40747  87431865.67147  21351790.4264   21351795.0424   21351790.5854
        53.000          47.000
 116069487.12047  90443752.52347  22087290.0434   22087293.4434   22087290.3504
        50.000          44.000
 125434785.69047  97741361.85247  23869468.5814   23869474.5564   23869468.8844
        45.000          39.000
 112082294.26747  87336844.84947  21328554.2894   21328557.5434   21328553.9864
        53.000          48.000
 128032664.60347  99765692.72647  24363821.3624   24363826.8454   24363821.0964
        42.000          38.000
 142014227.36347  92868200.22747  25121494.8394   25121501.3064   25121494.0194
        40.000          36.000
 113212754.25847  88217717.28947  21543680.2044   21543683.8794   21543680.3914
        52.000          46.000
 09  1  6  0  4 30.0000000  0 11G21G22G18G30G24G14G 5G29G12G31G 9
 111863993.76547  87166736.15847  21287018.4304   21287020.9594   21287018.6254
        53.000          47.000
 128151317.46647  99858158.57047  24386393.0864   24386393.7214   24386393.2764
        43.000          37.000
 124831717.79047  97271438.25547  23754709.7524   23754712.5224   23754710.3454
        46.000          39.000
 123929557.92347  96568464.18047  23583028.2874   23583033.0114   23583027.4994
        46.000          40.000
 112201109.33347  87429402.49447  21351189.0424   21351193.5924   21351189.1584
        53.000          47.000
 116041749.00747  90422138.46147  22082011.3754   22082015.0164   22082011.7124
        50.000          44.000
 125426538.97647  97734935.90247  23867899.0074   23867905.4854   23867899.6974
        45.000          40.000
 112145855.81447  87386373.32947  21340649.5114   21340652.9414   21340649.2274
        53.000          47.000
 128039026.02247  99770649.76147  24365031.5314   24365036.9704   24365031.7044
        43.000          38.000
 141913909.57547  92790030.62847  25102404.7784   25102410.3614   25102403.9014
        41.000          36.000
 113237772.98447  88237212.43347  21548440.8284   21548444.6154   21548440.9564
        52.000          46.000
 09  1  6  0  5  0.0000000  0 11G21G22G18G30G24G14G 5G29G12G31G 9
 111787865.17747  87107415.19847  21272531.8724   21272534.0254   21272532.3304
        53.000          47.000
 128145776.05547  99853840.62247  24385338.7934   24385340.3144   24385338.7164
        42.000          37.000
 124826005.11347  97266986.85247  23753622.6244   23753625.0684   23753623.0804
        45.000          39.000
 123921257.88347  96561996.68347  23581448.6354   23581453.4544   23581448.6074
        47.000          40.000
 112198374.78647  87427271.67747  21350668.4494   21350673.2004   21350668.5504
        53.000          47.000
 116014487.51347  90400895.78247  22076823.5744   22076827.2354   22076823.7554
        50.000          44.000
 125418154.42847  97728402.51647  23866303.5874   23866310.0814   23866304.1154
        46.000          39.000
 112209674.38047  87436102.09247  21352793.8054   21352797.0884   21352793.6694
        53.000          47.000
 128045257.67147  99775505.67247  24366217.9234   24366223.5744   24366217.5734
        43.000          38.000
 141813467.30147  92711764.01347  25083291.5314   25083297.5604   25083289.6534
        39.000          35.000
 113263321.36847  88257120.30047  21553302.3034   21553306.3754   21553302.2494
        52.000          46.000
 09  1  6  0  5 30.0000000  0 11G21G22G18G30G24G14G 5G29G12G31G 9
 111711986.85047  87048289.24547  21258092.6834   21258094.7834   21258092.9674
        53.000          47.000
 128140072.23047  99849396.12047  24384252.8984   24384255.0474   24384252.7194
        41.000          37.000
 124820071.85347  97262363.57447  23752493.7134   23752496.0034   23752494.2214
        46.000          39.000
 123912745.97247  96555364.08547  23579829.2134   23579833.4574   23579829.3054
        47.000          40.000
 112196068.72347  87425474.74747  21350229.7774   21350234.5304   21350229.8854
        53.000          47.000
 115987703.41347  90380025.10847  22071727.2464   22071730.5574   22071727.6184
        50.000          44.000
 125409634.18247  97721763.42647  23864682.3554   23864688.5504   23864682.8924
        45.000          39.000
 112273747.72647  87486029.39047  21364986.4924   21364989.7544   21364986.1254
        52.000          47.000
 128051362.38647  99780262.69047  24367380.0024   24367384.3034   24367379.3284
        43.000          39.000
 141712903.22247  92633402.44347  25064154.7294   25064159.6334   25064152.5814
        38.000          35.000
 113289400.78747  88277441.95047  21558265.1794   21558269.1204   21558265.1424
        52.000          46.000
 09  1  6  0  6  0.0000000  0 11G21G22G18G30G24G14G 5G29G12G31G 9
 111636361.82747  86989360.66947  21243701.7214   21243703.7934   21243701.9304
        53.000          47.000
 128134205.00547  99844824.30547  24383136.8354   24383138.1494   24383136.4544
        42.000          37.000
 124813917.66847  97257568.09847  23751322.5884   23751325.0324   23751322.7744
        46.000          39.000
 123904022.62747  96548566.72747  23578169.6244   23578173.6644   23578169.5064
        47.000          40.000
 112194192.35147  87424012.64047  21349872.6494   21349877.3244   21349872.7194
        53.000          47.000
 115961396.26347  90359526.06347  22066720.7964   22066724.3614   22066720.8534
        50.000          44.000
 125400979.40347  97715019.47447  23863035.4774   23863040.8214   23863035.7334
        45.000          39.000
 112338072.88247  87536152.89647  21377227.0084   21377230.5764   21377226.6464
        53.000          47.000
 128057340.06947  99784920.69147  24368517.5744   24368521.6884   24368517.3644
        44.000          38.000
 141612218.96647  92554947.22747  25044995.0694   25045000.8864   25044992.0994
        39.000          35.000
 113316011.28847  88298177.43147  21563329.0894   21563332.5554   21563329.3214
        52.000          46.000
 09  1  6  0  6 30.0000000  0 11G21G22G18G30G24G14G 5G29G12G31G 9
 111560994.33347  86930632.76747  21229359.7784   21229361.8434   21229360.1654
        53.000          47.000
 128128174.37747  99840125.17347  24381988.8164   24381990.6254   24381988.6984
        42.000          37.000
 124807543.41547  97252601.19547  23750109.8874   23750111.4504   23750110.1974
        46.000          39.000
 123895089.21647  96541605.67747  23576469.3044   23576473.6474   23576469.4744
        47.000          40.000
 112192748.10647  87422887.25547  21349597.8414   21349602.4594   21349597.9564
        53.000          47.000
 115935566.92747  90339399.34747  22061805.6074   22061808.9004   22061805.7934
        50.000          44.000
 125392192.37347  97708172.47647  23861363.5504   23861368.8304   23861364.0264
        45.000          39.000
 112402648.03247  87586471.20747  21389515.5744   21389518.7624   21389515.3304
        53.000          48.000
 128063193.05947  99789481.55047  24369630.5654   24369635.6054   24369630.4364
        42.000          38.000
 141511417.51047  92476400.66547  25025813.1134   25025819.0504   25025810.6214
        40.000          35.000
 113343153.84147  88319327.50147  21568494.1334   21568497.9814   21568494.1544
        52.000          46.000
 09  1  6  0  7  0.0000000  0 11G21G22G18G30G24G14G 5G29G12G31G 9
 111485887.84547  86872108.25847  21215067.5694   21215069.5854   21215068.0044
        53.000          47.000
 128121979.37547  99835297.95047  24380810.7944   24380811.5484   24380810.3744
        42.000          37.000
 124800949.15647  97247462.85047  23748854.9394   23748857.0924   23748855.3064
        46.000          39.000
 123885946.65047  96534481.66047  23574729.3654   23574733.6084   23574729.2934
        47.000          40.000
 112191737.59947  87422099.85247  21349405.4584   21349410.0904   21349405.6104
        53.000          47.000
 115910215.26347  90319644.83647  22056981.0804   22056984.7754   22056981.2434
        50.000          44.000
 125383275.10247  97701223.99247  23859666.1994   23859672.1124   23859666.3704
        45.000          39.000
 112467470.89947  87636982.54447  21401851.0954   21401854.1674   21401850.9064
        53.000          47.000
 128068923.67247  99793947.07247  24370721.3144   24370725.9774   24370720.5674
        43.000          38.000
 141410501.68147  92397764.97947  25006609.2094   25006615.5244   25006607.4334
        40.000          36.000
 113370828.72947  88340892.38047  21573760.4584   21573764.0644   21573760.5554
        52.000          46.000
 09  1  6  0  7 30.0000000  0 11G21G22G18G30G24G14G 5G29G12G31G 9
 111411041.82147  86813786.70147  21200824.9014   21200826.8174   21200825.3734
        54.000          47.000
 128115615.67747  99830339.28947  24379599.6164   24379600.5304   24379599.2774
        43.000          37.000
 124794131.03447  97242150.07347  23747557.5904   23747559.6214   23747557.7074
        46.000          39.000
 123876591.88847  96527192.28547  23572948.8914   23572953.4064   23572948.3814
        47.000          40.000
 112191158.35147  87421648.49147  21349295.5774   21349299.8914   21349295.7344
        53.000          47.000
 115885337.45147  90300259.57147  22052247.2524   22052250.6054   22052247.4754
        50.000          44.000
 125374225.16747  97694172.12847  23857943.8174   23857950.4244   23857944.2294
        45.000          39.000
 112532534.85547  87687681.74147  21414232.1574   21414235.3634   21414231.9144
        52.000          47.000
 128074529.65347  99798315.44947  24371788.0164   24371792.9984   24371787.3364
        44.000          38.000
 141309469.77147  92319038.89247  24987383.1544   24987389.8444   24987381.6814
        40.000          36.000
 113399032.61247  88362869.45347  21579127.5124   21579131.0484   21579127.6814
        52.000          46.000
 09  1  6  0  8  0.0000000  0 11G21G22G18G30G24G14G 5G29G12G31G 9
 111336464.17747  86755674.26647  21186633.0754   21186635.0694   21186633.4654
        53.000          47.000
 128109085.83247  99825251.14347  24378356.7624   24378358.5094   24378357.0594
        43.000          38.000
 124787093.65247  97236666.41847  23746218.1714   23746220.1204   23746218.3854
        46.000          39.000
 123867030.19347  96519741.67747  23571129.2414   23571134.4574   23571128.4874
        47.000          41.000
 112191016.62547  87421538.06547  21349268.3904   21349273.0444   21349268.5564
        53.000          47.000
 115860937.66747  90281246.78647  22047603.9824   22047607.4514   22047604.2444
        50.000          44.000
 125365048.79747  97687021.76147  23856197.3234   23856203.7034   23856197.9074
        45.000          39.000
 112597841.81847  87738570.29047  21426659.6004   21426662.8624   21426659.1324
        52.000          47.000
 128080017.18147  99802591.50447  24372832.8584   24372836.9014   24372832.5784
        44.000          39.000
 141208328.34847  92240227.43547  24968136.8984   24968143.6434   24968135.8994
        41.000          36.000
 113427770.33447  88385262.50747  21584596.3334   21584600.0804   21584596.4514
        52.000          46.000
 09  1  6  0  8 30.0000000  0 11G21G22G18G30G24G14G 5G29G12G31G 9
 111262154.70447  86697770.79647  21172492.4534   21172494.5934   21172492.7924
        53.000          47.000
 128102386.12147  99820030.66947  24377081.6624   24377082.7264   24377081.9164
        43.000          37.000
 124779833.84547  97231009.46147  23744836.6264   23744839.1214   23744837.1844
        47.000          39.000
 123857258.67447  96512127.54147  23569270.2044   23569274.9944   23569269.7064
        47.000          41.000
 112191310.50647  87421767.07247  21349324.3814   21349328.7854   21349324.5084
        53.000          47.000
 115837012.56347  90262603.87647  22043051.2614   22043054.9734   22043051.6394
        50.000          44.000
 125355744.25747  97679771.50847  23854426.9034   23854432.7554   23854427.2074
        45.000          39.000
 112663386.30747  87789643.91747  21439132.2424   21439135.5734   21439132.1144
        52.000          47.000
 128085384.36447  99806773.79247  24373853.8104   24373858.3614   24373853.6524
        44.000          39.000
 141107076.44647  92161329.93447  24948869.7294   24948874.5734   24948868.7434
        40.000          36.000
 113457039.12147  88408069.38047  21590165.7504   21590169.4054   21590165.7894
        52.000          46.000
 09  1  6  0  9  0.0000000  0 11G21G22G18G30G24G14G 5G29G12G31G 9
 111188117.29847  86640079.32747  21158403.4854   21158405.6664   21158403.9584
        54.000          47.000
 128095515.89647  99814677.29147  24375773.8704   24375775.4184   24375773.6864
        43.000          37.000
 124772351.70147  97225179.26647  23743412.7144   23743415.0694   23743413.1224
        47.000          39.000
 123847278.76047  96504351.02047  23567371.2004   23567376.0044   23567370.8734
        47.000          41.000
 112192041.30247  87422336.53147  21349463.6204   21349467.7174   21349463.8184
        53.000          47.000
 115813562.23547  90244330.92747  22038588.9104   22038592.1774   22038589.1994
        50.000          44.000
 125346313.40047  97672422.83147  23852632.3104   23852638.2504   23852633.1644
        45.000          39.000
 112729165.85047  87840900.71147  21451649.5444   21451652.9094   21451649.0644
        52.000          47.000
 128090632.92947  99810863.65947  24374852.0834   24374856.5414   24374851.6794
        43.000          38.000
 141005717.12347  92082348.70247  24929581.5984   24929587.6054   24929581.0914
        42.000          36.000
 113486839.22247  88431290.25447  21595836.2254   21595840.1224   21595836.2944
        52.000          46.000
 09  1  6  0  9 30.0000000  0 11G21G22G18G30G24G14G 5G29G12G31G 9
 111114356.16547  86582603.14447  21144367.1344   21144369.5364   21144367.5004
        53.000          47.000
 128088474.97147  99809190.90247  24374434.5354   24374435.6134   24374434.4784
        43.000          37.000
 124764648.52747  97219176.82447  23741946.5844   23741949.2104   23741947.2284
        46.000          39.000
 123837092.43247  96496413.67447  23565432.3514   23565437.5044   23565432.1314
        47.000          41.000
 112193211.54347  87423248.42747  21349686.1054   21349690.5854   21349686.2464
        53.000          47.000
 115790587.59647  90226428.64447  22034216.6564   22034220.3474   22034216.8214
        50.000          44.000
 125336758.94947  97664977.87747  23850814.2254   23850820.0524   23850815.0074
        46.000          39.000
 112795178.51147  87892339.15947  21464211.4514   21464214.7884   21464211.2644
        52.000          47.000
 128095765.58947  99814863.17847  24375829.0344   24375833.6274   24375828.5624
        44.000          38.000
 140904253.49647  92003286.19147  24910273.6614   24910278.7594   24910273.4234
        42.000          36.000
 113517171.82747  88454926.07047  21601608.2684   21601612.2024   21601608.4544
        52.000          46.000
 09  1  6  0 10  0.0000000  0 11G21G22G18G30G24G14G 5G29G12G31G 9
 111040872.71047  86525343.33347  21130383.6344   21130386.1004   21130383.9524
        53.000          47.000
 128081260.62047  99803569.37047  24373061.6334   24373062.8664   24373061.5234
        43.000          37.000
 124756722.24647  97213000.53947  23740438.2854   23740440.6914   23740438.5124
        46.000          39.000
 123826698.44947  96488314.50347  23563453.9704   23563459.5784   23563454.3934
        47.000          41.000
 112194820.64247  87424502.28247  21349992.3774   21349996.7054   21349992.5444
        53.000          47.000
 115768086.16947  90208895.09747  22029934.9874   22029938.3974   22029935.3304
        50.000          44.000
 125327080.50547  97657436.30047  23848972.2274   23848978.8004   23848972.8434
        45.000          39.000
 112861419.82447  87943955.77247  21476816.9364   21476820.2104   21476816.7794
        52.000          47.000
 128100782.17447  99818772.25847  24376784.1464   24376788.1414   24376783.6584
        44.000          38.000
 140802685.40447  91924142.27647  24890945.4644   24890951.1464   24890945.1654
        42.000          36.000
 113548035.16547  88478975.44147  21607481.4984   21607485.1954   21607481.5894
        52.000          46.000
 09  1  6  0 10 30.0000000  0 11G21G22G18G30G24G14G 5G29G12G31G 9
 110967671.53847  86468303.47047  21116454.1084   21116456.3344   21116454.3694
        54.000          47.000
 128073872.97747  99797812.81047  24371656.5024   24371656.8544   24371656.3424
        44.000          38.000
 124748574.29147  97206651.51547  23738887.6974   23738890.5514   23738888.0964
        46.000          39.000
 123816099.03047  96480055.26847  23561437.4934   23561442.6724   23561437.9584
        47.000          41.000
 112196871.34547  87426100.25147  21350382.5324   21350387.1114   21350382.4904
        53.000          47.000
 115746059.15447  90191731.22647  22025743.0294   22025746.4314   22025743.2254
        49.000          44.000
 125317280.82547  97649800.23247  23847107.4024   23847113.2464   23847107.5454
        45.000          39.000
 112927888.42347  87995749.49447  21489465.4684   21489468.8894   21489465.0844
        52.000          47.000
 128105685.53247  99822593.09247  24377716.7364   24377721.3424   24377716.5124
        44.000          38.000
 140701016.48847  91844919.79447  24871598.5244   24871603.9914   24871598.3394
        41.000          36.000
 113579430.51947  88503439.37747  21613455.8464   21613459.6034   21613456.0024
        52.000          46.000
 09  1  6  0 11  0.0000000  0 11G21G22G18G30G24G14G 5G29G12G31G 9
 110894757.63647  86411487.45047  21102579.2394   21102581.1014   21102579.6294
        54.000          47.000
 128066312.99947  99791921.97847  24370216.9994   24370218.3614   24370217.2654
        43.000          38.000
 124740206.65547  97200131.32247  23737295.3234   23737297.9064   23737295.8014
        46.000          39.000
 123805296.50447  96471637.75047  23559381.8474   23559386.9374   23559381.7414
        47.000          41.000
 112199366.82947  87428044.79747  21350857.3884   21350861.7144   21350857.5174
        54.000          47.000
 115724507.99047  90174938.13347  22021641.9504   22021645.8354   22021641.9154
        50.000          44.000
 125307363.41247  97642072.44747  23845220.0694   23845226.3474   23845220.5234
        45.000          39.000
 112994583.48047  88047719.68747  21502157.0144   21502160.5594   21502156.6624
        52.000          47.000
 128110478.90447  99826328.20547  24378628.9174   24378633.3944   24378628.9654
        44.000          38.000
 140599251.22447  91765622.26047  24852232.1964   24852238.3494   24852232.6384
        43.000          36.000
 113611359.86347  88528319.40547  21619531.8634   21619535.3904   21619531.8424
        52.000          46.000
 09  1  6  0 11 30.0000000  0 11G21G22G18G30G24G14G 5G29G12G31G 9
 110822129.66747  86354894.23447  21088758.6194   21088760.3264   21088758.9904
        54.000          47.000
 128058575.33647  99785892.68447  24368744.1564   24368746.2644   24368744.1644
        43.000          38.000
 124731614.40047  97193436.09947  23735660.2904   23735663.0034   23735660.9084
        46.000          39.000
 123794287.07347  96463058.99947  23557286.8314   23557291.6394   23557286.3134
        47.000          40.000
 112202303.39247  87430333.04947  21351416.2904   21351420.4614   21351416.4434
        53.000          47.000
 115703427.48247  90158511.80047  22017630.3744   22017634.0164   22017630.7464
        50.000          44.000
 125297325.34547  97634250.63347  23843309.8644   23843315.7634   23843310.5844
        45.000          39.000
 113061497.75147  88099860.68447  21514890.3654   21514893.8264   21514890.3904
        52.000          47.000
 128115159.19147  99829975.21847  24379518.7484   24379523.8294   24379518.6904
        43.000          38.000
 140497387.04147  91686247.62347  24832848.3524   24832854.3194   24832848.0714
        40.000          36.000
 113643818.68947  88553612.02047  21625708.5764   21625712.2654   21625708.7744
        52.000          46.000
 09  1  6  0 12  0.0000000  0 11G21G22G18G30G24G14G 5G29G12G31G 9
 110749791.49547  86298526.84447  21074992.9634   21074994.8314   21074993.3214
        54.000          47.000
 128050659.66547  99779724.67747  24367238.5384   24367239.8854   24367238.2454
        44.000          38.000
 124722798.37147  97186566.49847  23733982.4414   23733985.1884   23733982.7994
        46.000          39.000
 123783072.41647  96454320.33347  23555152.6914   23555157.5774   23555152.4324
        47.000          41.000
 112205683.10347  87432966.60147  21352059.3014   21352063.5444   21352059.3534
        53.000          47.000
 115682817.79347  90142452.33847  22013708.4434   22013712.0844   22013708.8144
        50.000          44.000
 125287168.76347  97626336.47147  23841377.0234   23841383.0974   23841377.0574
        45.000          39.000
 113128629.02047  88152170.76247  21527664.8104   21527668.4434   21527664.5874
        52.000          47.000
 128119728.64447  99833535.86747  24380388.7094   24380393.2524   24380388.6304
        42.000          38.000
 140395427.00947  91606798.27147  24813446.5354   24813451.3664   24813445.3064
        41.000          36.000
 113676807.77647  88579317.81347  21631986.3264   21631989.6864   21631986.3324
        52.000          46.000
 09  1  6  0 12 30.0000000  0 11G21G22G18G30G24G14G 5G29G12G31G 9
 110677750.38347  86242390.92547  21061284.0394   21061286.0844   21061284.4124
        54.000          47.000
 128042568.81947  99773420.16347  24365698.9714   24365699.8364   24365698.8434
        45.000          38.000
 124713762.43047  97179525.54347  23732262.8444   23732265.5604   23732263.7144
        46.000          39.000
 123771657.30047  96445425.45947  23552980.3184   23552985.3314   23552980.1194
        47.000          41.000
 112209511.23747  87435949.58147  21352787.6464   21352792.0534   21352787.8654
        53.000          47.000
 115662682.74947  90126762.73347  22009877.1654   22009880.5334   22009877.2394
        50.000          44.000
 125276899.12147  97618334.19547  23839422.8324   23839429.0424   23839423.1334
        46.000          39.000
 113195978.81247  88204651.12447  21540480.9274   21540484.7024   21540480.5484
        51.000          47.000
 128124192.96647  99837014.59647  24381238.1374   24381242.7504   24381238.3114
        43.000          38.000
 140293377.38347  91527279.11847  24794026.4754   24794032.1234   24794026.6624
        41.000          37.000
 113710331.12347  88605439.92247  21638365.5374   21638369.0314   21638365.6694
        52.000          46.000
 09  1  6  0 13  0.0000000  0 11G21G22G18G30G24G14G 5G29G12G31G 9
 110606005.28647  86186485.67547  21047631.2064   21047633.4624   21047631.4664
        54.000          47.000
 128034297.36047  99766974.92247  24364124.7504   24364125.8014   24364124.8034
        44.000          38.000
 124704502.58947  97172310.13147  23730501.4334   23730503.5184   23730501.7024
        47.000          39.000
 123760038.11647  96436371.56447  23550769.4434   23550774.3504   23550768.9994
        47.000          41.000
 112213784.37647  87439279.31347  21353600.8964   21353605.2474   21353601.0454
        53.000          47.000
 115643017.36947  90111439.10447  22006134.9824   22006138.3164   22006135.0354
        50.000          44.000
 125266513.93647  97610241.88847  23837447.1194   23837452.4844   23837447.6794
        45.000          39.000
 113263539.83347  88257296.07847  21553337.5064   21553341.1094   21553337.3234
        52.000          47.000
 128128549.21947  99840409.11747  24382067.3444   24382072.1134   24382067.6994
        42.000          38.000
 140191235.79147  91447688.29147  24774589.7864   24774595.1354   24774589.5614
        41.000          36.000
 113744383.87147  88631974.54247  21644845.5084   21644849.1944   21644845.4914
        52.000          46.000
 09  1  6  0 13 30.0000000  0 11G21G22G18G30G24G14G 5G29G12G31G 9
 110534562.27147  86130815.80647  21034035.9064   21034038.2594   21034036.3074
        54.000          47.000
 128025847.37247  99760390.57347  24362515.9094   24362518.0654   24362516.2104
        44.000          38.000
 124695021.98447  97164922.70047  23728696.6704   23728699.5834   23728697.5224
        46.000          39.000
 123748218.47547  96427161.48547  23548520.0604   23548525.2644   23548519.6484
        46.000          41.000
 112218506.62147  87442958.99947  21354499.5754   21354503.8704   21354499.7014
        53.000          47.000
 115623824.19147  90096483.43347  22002482.2834   22002486.0884   22002482.5744
        50.000          44.000
 125256017.62247  97602062.98447  23835449.3564   23835455.2784   23835449.9994
        45.000          39.000
 113331312.51447  88310105.96947  21566234.1064   21566237.9284   21566233.9134
        52.000          47.000
 128132802.10847  99843723.09047  24382876.2514   24382881.5164   24382875.8184
        43.000          38.000
 140089007.84347  91368030.17847  24755136.8254   24755142.0464   24755136.5004
        41.000          36.000
 113778969.24447  88658924.19947  21651427.0434   21651430.3444   21651426.8644
        52.000          46.000
 09  1  6  0 14  0.0000000  0 11G21G22G18G30G24G14G 5G29G12G31G 9
 110463422.06047  86075381.87647  21020498.4954   21020500.5514   21020498.8784
        54.000          47.000
 128017215.49347  99753664.48547  24360874.0384   24360875.2734   24360873.6384
        44.000          38.000
 124685317.65847  97157360.92647  23726849.8114   23726852.8014   23726850.4824
        46.000          39.000
 123736196.85947  96417794.02947  23546232.4694   23546237.1514   23546232.3424
        47.000          40.000
 112223676.44047  87446987.44347  21355483.3694   21355487.7854   21355483.4644
        53.000          47.000
 115605100.17647  90081893.34347  21998919.3504   21998922.6364   21998919.6714
        50.000          44.000
 125245409.29947  97593796.80147  23833430.8874   23833436.3724   23833431.0864
        45.000          39.000
 113399291.52547  88363076.63447  21579169.9754   21579173.7644   21579169.5404
        52.000          47.000
 128136950.33047  99846955.50647  24383665.8104   24383670.7184   24383665.6904
        43.000          38.000
 139986693.45047  91288304.69447  24735667.1044   24735672.2104   24735666.4764
        41.000          37.000
 113814084.41847  88686286.68847  21658109.0864   21658112.6304   21658109.2094
        52.000          46.000
 09  1  6  0 14 30.0000000  0 11G21G22G18G30G24G14G 5G29G12G31G 9
 110392588.06547  86020186.56147  21007019.2204   21007021.2714   21007019.6264
        54.000          47.000
 128008401.16647  99746796.22447  24359196.6004   24359197.2544   24359196.4504
        44.000          37.000
 124675390.18447  97149625.26147  23724961.3934   23724963.3794   23724961.5614
        47.000          39.000
 123723974.15547  96408269.85547  23543906.7524   23543911.3594   23543906.5064
        47.000          41.000
 112229295.44547  87451365.90247  21356552.4284   21356557.0994   21356552.4114
        53.000          47.000
 115586844.82447  90067668.44047  21995445.5574   21995449.0874   21995445.6444
        50.000          44.000
 125234690.86847  97585444.80947  23831391.0574   23831396.7834   23831391.2964
        45.000          39.000
 113467474.48747  88416206.22447  21592144.9004   21592148.5984   21592144.6354
        52.000          47.000
 128140996.11847  99850108.09347  24384435.8254   24384440.6814   24384435.2824
        42.000          38.000
 139884294.92647  91208513.63847  24716181.1294   24716186.3124   24716180.1544
        41.000          37.000
 113849729.67647  88714062.23447  21664892.0634   21664895.5474   21664892.3074
        52.000          46.000
 09  1  6  0 15  0.0000000  0 11G21G22G18G30G24G14G 5G29G12G31G 9
 110322064.85147  85965233.41747  20993599.1744   20993601.0614   20993599.6094
        54.000          47.000
 127999403.99347  99739785.47447  24357484.2094   24357485.0404   24357484.3614
        45.000          38.000
 124665240.98147  97141716.83347  23723030.0594   23723031.6404   23723030.4884
        47.000          39.000
 123711552.56247  96398590.73247  23541542.4934   23541547.4074   23541542.0704
        47.000          40.000
 112235366.05447  87456096.25747  21357707.5354   21357712.3654   21357707.7214
        53.000          47.000
 115569058.82447  90053809.27447  21992060.9194   21992064.1774   21992061.1504
        50.000          44.000
 125223865.19447  97577009.25447  23829330.9754   23829336.4414   23829331.6604
        45.000          39.000
 113535860.08947  88469493.70947  21605158.2334   21605161.8664   21605158.1234
        52.000          47.000
 128144942.19747  99853183.01547  24385186.6984   24385191.4654   24385186.7224
        44.000          38.000
 139781815.80847  91128659.76647  24696680.0354   24696685.1244   24696679.3364
        40.000          37.000
 113885906.08847  88742251.65647  21671776.1874   21671779.7324   21671776.0834
        52.000          46.000
 09  1  6  0 15 30.0000000  0 11G21G22G18G30G24G14G 5G29G12G31G 9
 110251854.61247  85910524.14447  20980238.8014   20980240.4634   20980239.2844
        54.000          47.000
 127990222.81947  99732631.35247  24355736.8364   24355738.0004   24355737.0404
        44.000          38.000
 124654869.27747  97133635.03047  23721056.3904   23721058.3604   23721056.4914
        47.000          39.000
 123698931.85247  96388756.44547  23539140.9534   23539145.7854   23539140.3054
        47.000          40.000
 112241888.25847  87461178.50747  21358948.8744   21358953.5204   21358948.8964
        53.000          47.000
 115551741.03747  90040314.94647  21988765.3204   21988768.7384   21988765.5284
        50.000          44.000
 125212932.92247  97568490.63547  23827250.7674   23827256.2284   23827251.2904
        45.000          39.000
 113604444.17147  88522935.84747  21618209.3044   21618212.9224   21618208.9024
        52.000          47.000
 128148788.95947  99856180.57047  24385918.2364   24385923.0354   24385917.8494
        43.000          39.000
 139679257.60447  91048744.27347  24677163.4694   24677168.8814   24677162.8454
        41.000          36.000
 113922612.38447  88770853.97947  21678761.2234   21678764.6774   21678761.2724
        52.000          45.000
 09  1  6  0 16  0.0000000  0 11G21G22G18G30G24G14G 5G29G12G31G 9
 110181961.55147  85856062.03047  20966938.3544   20966940.3604   20966938.7734
        54.000          47.000
 127980858.13547  99725334.23347  24353955.1004   24353956.3094   24353954.8754
        44.000          38.000
 124644276.61747  97125381.02447  23719040.0264   23719042.8924   23719040.6614
        46.000          39.000
 123686114.49947  96378768.90447  23536702.2494   23536706.4794   23536701.8004
        47.000          41.000
 112248864.50047  87466614.55747  21360276.2464   21360281.0484   21360276.3734
        53.000          47.000
 115534891.95047  90027185.85047  21985559.0134   21985562.2814   21985559.3104
        50.000          44.000
 125201897.09647  97559891.34047  23825150.3864   23825155.9914   23825150.8174
        44.000          39.000
 113673226.02247  88576532.08847  21631298.1904   21631301.8154   21631297.7794
        52.000          47.000
 128152539.55447  99859103.16647  24386632.4624   24386636.9844   24386631.9344
        44.000          39.000
 139576624.04647  90968770.03547  24657633.2454   24657638.3944   24657631.8284
        41.000          36.000
 113959849.72247  88799870.09947  21685846.9664   21685850.6034   21685847.0564
        52.000          45.000
 09  1  6  0 16 30.0000000  0 11G21G22G18G30G24G14G 5G29G12G31G 9
 110112385.75947  85801847.14747  20953698.2634   20953700.5114   20953698.6634
        54.000          47.000
 127971304.96347  99717890.26547  24352137.0914   24352138.1314   24352137.5434
        44.000          38.000
 124633458.93747  97116951.68847  23716981.5694   23716984.1404   23716982.0574
        47.000          39.000
 123673097.62347  96368625.90747  23534224.8374   23534229.9484   23534225.0214
        47.000          41.000
 112256291.88647  87472402.14747  21361689.8594   21361694.2444   21361689.9644
        53.000          47.000
 115518506.93747  90014418.35047  21982441.0914   21982444.2834   21982441.2894
        50.000          44.000
 125190755.68847  97551209.76747  23823030.3124   23823035.3764   23823030.7824
        45.000          39.000
 113742198.67247  88630277.00947  21644423.1224   21644426.6734   21644422.8764
        51.000          46.000
 128156191.95247  99861949.24647  24387327.3184   24387331.8944   24387326.7204
        43.000          38.000
 139473913.55547  90888735.86047  24638087.8964   24638092.9614   24638087.1094
        41.000          36.000
 113997614.17747  88829296.95947  21693033.2574   21693037.0444   21693033.2524
        52.000          45.000
 09  1  6  0 17  0.0000000  0 11G21G22G18G30G24G14G 5G29G12G31G 9
 110043132.83047  85747883.83647  20940520.0694   20940522.0504   20940520.4114
        54.000          48.000
 127961565.15447  99710300.83247  24350283.6224   24350285.1344   24350283.8214
        44.000          38.000
 124622419.07347  97108349.23047  23714880.9204   23714883.4104   23714881.5294
        46.000          39.000
 123659884.49447  96358330.00147  23531710.4644   23531715.4684   23531710.5734
        47.000          40.000
 112264173.83247  87478543.93947  21363189.5774   21363194.1644   21363189.7734
        53.000          47.000
 115502588.05447  90002014.07547  21979411.8614   21979415.1314   21979411.9594
        50.000          44.000
 125179512.79047  97542449.12147  23820890.9594   23820896.0654   23820891.3454
        45.000          39.000
 113811361.86647  88684170.40847  21657584.2864   21657587.9494   21657583.9444
        51.000          46.000
 128159750.30847  99864722.03847  24388004.4054   24388009.2334   24388003.7274
        43.000          38.000
 139371130.98147  90808645.50447  24618529.5184   24618533.9114   24618528.6564
        41.000          36.000
 114035907.82347  88859136.18547  21700320.4024   21700323.9654   21700320.2244
        52.000          45.000
 09  1  6  0 17 30.0000000  0 11G21G22G18G30G24G14G 5G29G12G31G 9
 109974206.50847  85694175.02447  20927403.7694   20927405.8614   20927404.1784
        54.000          48.000
 127951638.77847  99702566.01847  24348394.8394   24348395.9844   24348394.9234
        44.000          39.000
 124611158.39247  97099574.70247  23712738.1714   23712740.6314   23712738.4704
        46.000          39.000
 123646477.19947  96347882.79347  23529159.0204   23529164.0944   23529158.4214
        47.000          40.000
 112272512.36747  87485041.51147  21364776.3224   21364780.7454   21364776.3754
        53.000          47.000
 115487135.88447  89989973.46047  21976471.1714   21976474.5344   21976471.2774
        51.000          44.000
 125168171.23747  97533611.58447  23818733.1294   23818737.7934   23818733.4584
        46.000          39.000
 113880714.19347  88738211.17947  21670781.6674   21670785.2924   21670781.3814
        51.000          46.000
 128163217.55247  99867423.86647  24388664.1354   24388668.2164   24388664.0464
        43.000          38.000
 139268279.98447  90728501.87047  24598957.3164   24598962.3354   24598957.2884
        42.000          36.000
 114074731.41347  88889388.34947  21707708.3164   21707711.9434   21707708.3934
        52.000          45.000
 09  1  6  0 18  0.0000000  0 11G21G22G18G30G24G14G 5G29G12G31G 9
 109905608.65547  85640722.16447  20914349.9564   20914352.0734   20914350.3824
        54.000          48.000
 127941523.19347  99694683.79647  24346469.7384   24346470.9514   24346469.9754
        45.000          38.000
 124599675.49947  97090627.02147  23710552.8674   23710555.1954   23710553.3394
        46.000          39.000
 123632875.26247  96337283.92547  23526570.8034   23526575.5794   23526570.7434
        47.000          41.000
 112281306.83447  87491894.35747  21366449.6824   21366454.3884   21366449.8604
        53.000          47.000
 115472147.94347  89978294.58147  21973619.1054   21973622.5974   21973619.4804
        50.000          44.000
 125156731.00047  97524697.15947  23816555.5204   23816560.9614   23816556.4304
        45.000          39.000
 113950251.45347  88792396.04947  21684014.2764   21684017.7584   21684014.1134
        51.000          46.000
 128166593.10647  99870054.24347  24389306.6394   24389311.1054   24389306.1114
        43.000          38.000
 139165361.50847  90648305.64447  24579373.3454   24579377.8384   24579372.6654
        42.000          37.000
 114114083.11347  88920052.03347  21715196.7814   21715200.4274   21715196.7594
        52.000          45.000
 09  1  6  0 18 30.0000000  0 11G21G22G18G30G24G14G 5G29G12G31G 9
 109837340.55647  85587526.24847  20901359.2134   20901361.1094   20901359.5704
        54.000          48.000
 127931215.68247  99686652.02147  24344507.9584   24344509.5434   24344508.2724
        44.000          39.000
 124587968.52747  97081504.73647  23708325.5144   23708327.0224   23708325.9024
        46.000          39.000
 123619077.18647  96326532.20847  23523945.4494   23523949.2924   23523944.8374
        47.000          41.000
 112290556.28147  87499101.72647  21368209.8744   21368214.3824   21368210.0854
        53.000          47.000
 115457621.43447  89966975.25747  21970854.9714   21970858.0114   21970855.0774
        51.000          44.000
 125145191.74147  97515705.57647  23814359.5504   23814364.8634   23814359.8944
        45.000          39.000
 114019968.82147  88846721.26047  21697281.1054   21697284.7324   21697280.9534
        52.000          46.000
 128169876.99547  99872613.18147  24389931.3504   24389935.9064   24389931.3974
        44.000          38.000
 139062375.82247  90568057.07747  24559776.0564   24559780.4164   24559775.3084
        43.000          37.000
 114153960.34847  88951125.22747  21722785.0774   21722788.8044   21722785.1014
        52.000          45.000
 09  1  6  0 19  0.0000000  0 11G21G22G18G30G24G14G 5G29G12G31G 9
 109769410.24747  85534593.55447  20888432.5114   20888434.4344   20888432.7614
        54.000          48.000
 127920720.32447  99678473.85247  24342511.0334   24342512.2664   24342511.1734
        44.000          38.000
 124576042.39647  97072211.66947  23706055.8974   23706057.8034   23706056.3534
        46.000          39.000
 123605088.93447  96315632.31147  23521283.3214   23521287.7764   23521283.2064
        47.000          41.000
 112300266.76947  87506668.34847  21370057.5954   21370062.2724   21370057.7474
        53.000          47.000
 115443560.45447  89956018.67147  21968179.1384   21968182.3824   21968179.3514
        50.000          44.000
 125133560.25947  97506642.13847  23812146.3474   23812151.4724   23812146.7054
        46.000          39.000
 114089868.69247  88901188.69947  21710582.7584   21710586.0344   21710582.6014
        52.000          46.000
 128173075.76547  99875105.81347  24390539.6774   24390544.6224   24390539.3764
        43.000          38.000
 138959330.13647  90487761.80147  24540166.7934   24540171.5894   24540166.8884
        42.000          37.000
 114194367.81947  88982611.59047  21730474.4244   21730478.1774   21730474.5274
        52.000          46.000
 09  1  6  0 19 30.0000000  0 12G21G22G18G30G24G14G 5G29G 6G12G31G 9
 109701811.90347  85481919.53247  20875568.7694   20875570.8524   20875569.1904
        54.000          48.000
 127910027.78947  99670142.03047  24340475.8624   24340477.7414   24340475.9774
        44.000          38.000
 124563888.78847  97062741.36047  23703742.9774   23703745.1004   23703743.3474
        46.000          39.000
 123590902.65047  96304578.09547  23518583.5194   23518588.2134   23518583.1934
        47.000          41.000
 112310430.29147  87514587.98547  21371991.8014   21371996.4114   21371991.8614
        52.000          47.000
 115429955.49547  89945417.42547  21965590.2334   21965593.6604   21965590.5934
        50.000          44.000
 125121829.36447  97497501.24447  23809913.8694   23809919.1884   23809914.4254
        45.000          39.000
 114159939.33247  88955789.19347  21723916.7944   21723919.9354   21723916.6884
        51.000          46.000
 142588930.97957  93316040.10557  25230840.6075   25230844.9775   25230840.3035
        41.000          36.000
 128176182.10647  99877526.40947  24391130.7854   24391135.3554   24391130.8784
        43.000          38.000
 138856218.18747  90407414.91447  24520545.0414   24520550.1004   24520544.9924
        42.000          37.000
 114235296.29247  89014503.92647  21738262.9144   21738266.6084   21738263.0114
        51.000          45.000
 09  1  6  0 20  0.0000000  0 12G21G22G18G30G24G14G 5G29G 6G12G31G 9
 109634554.57947  85429511.23147  20862770.1694   20862772.1564   20862770.4814
        54.000          48.000
 127899142.22847  99661659.81347  24338404.4614   24338406.2234   24338404.7024
        44.000          38.000
 124551513.22047  97053098.07647  23701387.6574   23701390.1294   23701388.1784
        46.000          39.000
 123576524.80547  96293374.61647  23515847.4414   23515852.1794   23515846.8864
        47.000          41.000
 112321052.99647  87522865.42647  21374013.3684   21374017.5734   21374013.4214
        53.000          47.000
 115416811.20947  89935175.15147  21963088.8064   21963092.0574   21963088.9984
        50.000          44.000
 125110006.18147  97488288.43547  23807664.3694   23807669.3354   23807664.6364
        45.000          39.000
 114230183.32147  89010524.76347  21737283.6364   21737287.1464   21737282.9394
        52.000          46.000
 142522796.20447  93264506.55847  25218254.3904   25218259.7694   25218255.0704
        40.000          35.000
 128179203.19947  99879880.59347  24391705.5574   24391710.2554   24391704.9694
        43.000          38.000
 138753047.64147  90327022.38247  24500911.8764   24500917.0374   24500912.0884
        42.000          37.000
 114276750.71547  89046806.09947  21746151.8324   21746155.1304   21746151.8794
        52.000          46.000
 09  1  6  0 20 30.0000000  0 12G21G22G18G30G24G14G 5G29G 6G12G31G 9
 109567646.15547  85377374.80847  20850037.8334   20850040.0404   20850038.2694
        54.000          48.000
 127888068.27747  99653030.79847  24336297.2354   24336297.9144   24336297.2954
        44.000          38.000
 124538921.04147  97043286.02147  23698991.9584   23698993.5494   23698991.9964
        47.000          39.000
 123561961.77647  96282026.83847  23513076.2694   23513080.7714   23513075.5714
        47.000          40.000
 112332140.93747  87531505.38947  21376123.3504   21376127.5424   21376123.4984
        53.000          47.000
 115404132.12147  89925295.36647  21960675.9134   21960679.1284   21960676.0834
        50.000          44.000
 125098097.67247  97479009.15447  23805397.5464   23805403.3724   23805397.4564
        44.000          39.000
 114300603.46847  89065397.59547  21750684.1794   21750687.8134   21750683.9384
        52.000          46.000
 142456944.69147  93213193.71247  25205723.5224   25205729.2804   25205724.1554
        41.000          35.000
 128182146.07847  99882173.84647  24392266.0884   24392269.5924   24392265.2544
        43.000          38.000
 138649826.26547  90246590.28247  24481269.3644   24481274.6034   24481269.1594
        42.000          37.000
 114318735.85447  89079521.81147  21754140.9284   21754144.4144   21754141.0684
        51.000          45.000
 09  1  6  0 21  0.0000000  0 12G21G22G18G30G24G14G 5G29G 6G12G31G 9
 109501084.29647  85325508.44047  20837371.4864   20837373.7114   20837371.8524
        54.000          48.000
 127876799.49947  99644249.96847  24334153.2034   24334154.1914   24334153.1934
        44.000          38.000
 124526106.96747  97033301.04047  23696553.2274   23696554.8584   23696553.7714
        47.000          39.000
 123547208.62547  96270530.90547  23510268.9614   23510273.4394   23510268.7164
        47.000          40.000
 112343689.14747  87540503.99247  21378320.8454   21378325.2434   21378321.0554
        53.000          47.000
 115391911.56047  89915772.87247  21958350.5974   21958353.7114   21958350.7284
        50.000          44.000
 125086099.82347  97469660.26747  23803114.4714   23803120.2084   23803114.8494
        45.000          39.000
 114371191.39547  89120401.18047  21764116.6864   21764120.1844   21764116.6634
        52.000          46.000
 142391371.42747  93162097.67347  25193245.5474   25193250.4964   25193245.5344
        42.000          36.000
 128185006.36547  99884402.73347  24392809.7824   24392814.0444   24392809.5634
        43.000          37.000
 138546550.86447  90166116.09147  24461616.8554   24461621.8114   24461615.7234
        42.000          38.000
 114361245.49747  89112646.22447  21762230.1404   21762233.6404   21762230.3014
        52.000          45.000
 09  1  6  0 21 30.0000000  0 12G21G22G18G30G24G14G 5G29G 6G12G31G 9
 109434872.77547  85273915.05447  20824772.0134   20824773.9314   20824772.4544
        54.000          48.000
 127865335.95747  99635317.37147  24331971.2174   24331972.5724   24331971.4444
        43.000          38.000
 124513072.00547  97023143.94447  23694073.3184   23694074.6664   23694073.4684
        47.000          39.000
 123532267.26147  96258888.32747  23507425.4824   23507430.2024   23507425.3034
        47.000          40.000
 112355699.33147  87549862.57947  21380606.1914   21380610.5834   21380606.3364
        53.000          47.000
 115380149.41947  89906607.59147  21956112.5774   21956115.2854   21956112.7764
        51.000          44.000
 125074015.16547  97460243.70747  23800814.8304   23800820.0094   23800815.8114
        45.000          39.000
 114441945.08347  89175533.92947  21777580.4074   21777584.1484   21777580.1554
        51.000          46.000
 142326078.63647  93111220.19447  25180820.9044   25180825.3294   25180820.8344
        41.000          36.000
 128187786.86447  99886569.43247  24393338.5714   24393342.9554   24393338.8474
        42.000          37.000
 138443224.56247  90085602.25347  24441954.1264   24441959.5104   24441953.2474
        42.000          38.000
 114404279.98247  89146179.60447  21770419.5114   21770422.7834   21770419.8664
        52.000          45.000
 09  1  6  0 22  0.0000000  0 12G21G22G18G30G24G14G 5G29G 6G12G31G 9
 109369014.18047  85222596.68147  20812239.5734   20812241.6424   20812239.9194
        54.000          48.000
 127853675.51947  99626231.32847  24329752.3904   24329753.7594   24329752.4494
        44.000          38.000
 124499815.58347  97012814.31147  23691550.3654   23691552.2684   23691550.8544
        46.000          39.000
 123517137.89247  96247099.24047  23504546.3504   23504551.0134   23504545.8344
        47.000          40.000
 112368171.62147  87559581.25347  21382979.5464   21382983.8774   21382979.7454
        53.000          47.000
 115368844.20747  89897798.36147  21953960.9004   21953964.2774   21953961.2714
        50.000          45.000
 125061844.74147  97450760.32247  23798499.0104   23798504.1964   23798499.5814
        45.000          39.000
 114512861.02647  89230793.09747  21791075.1594   21791078.9734   21791074.9844
        51.000          46.000
 142261066.36547  93060561.30547  25168448.8924   25168454.0354   25168449.2144
        41.000          36.000
 128190488.53747  99888674.70547  24393853.5994   24393856.9644   24393852.9984
        44.000          38.000
 138339849.03447  90005050.05747  24422282.4064   24422287.6314   24422281.6034
        43.000          38.000
 114447838.02647  89180120.95547  21778707.9794   21778711.6764   21778708.1484
