     2.11           OBSERVATION DATA    G (GPS)             RINEX VERSION / TYPE
teqc  2008Oct2      gpsops              20090131 00:09:47UTCPGM / RUN BY / DATE
    30.0000                                                 INTERVAL
     1     1                                                WAVELENGTH FACT L1/2
     7    L1    L2    P1    P2    C1    S1    S2            # / TYPES OF OBSERV
Linux 2.4.20-8|Pentium IV|gcc -static|Linux|486/DX+         COMMENT
     2.10           OBSERVATION DATA    GPS                 COMMENT
soc2rnx ver 1.20    gpsops              31-Jan-2009 00:09:38COMMENT
S1, if present, is the SNR for the C/A data stream on L1.   COMMENT
 SNR is mapped to RINEX snr flag value [1,4-9]              COMMENT
    SNR:   >316  >100  >31.6  >10  >3.2    >0 bad=0         COMMENT
L1 & L2:      9     8     7     6     5     4     1         COMMENT
                                                            COMMENT
This data is provided as a public service by NASA/JPL.      COMMENT
No warranty is expressed or implied regarding suitability   COMMENT
for use.  For further information, contact:                 COMMENT
Dave Stowers, NASA/JPL m/s 238-600                          COMMENT
4800 Oak Grove Drive, Pasadena CA 91109 USA                 COMMENT
                                                            COMMENT
Forced Modulo Decimation to 30 seconds                      COMMENT
  2009     1    30     0     0    0.0000000     GPS         TIME OF FIRST OBS
GGN                 JPL                                     OBSERVER / AGENCY
CR519992104         ASH701945B_M    SCIT                    ANT # / TYPE
   -33801.4662 -6377516.5323   -82154.3508                  APPROX POSITION XYZ
        0.0083        0.0000        0.0000                  ANTENNA: DELTA H/E/N
ZR220013847         ASHTECH UZ-12       CQ00                REC # / TYPE / VERS
GLPS                                                        MARKER NAME
42005M002                                                   MARKER NUMBER
                                                            END OF HEADER
 09  1 30  0  0  0.0000000  0 12G29G18G24G14G 6G31G 5G30G22G 9G21G12
 125417348.43747  97727787.00647  23866141.3224   23866143.5394   23866141.1714
        45.000          39.000
 120306171.55347  93745062.84347  22893507.7994   22893508.9174   22893507.8044
        48.000          42.000
 119665275.24847  93245657.26547  22771552.9434   22771558.7944   22771553.8164
        48.000          42.000
 117948985.67047  91908290.75947  22444953.6314   22444956.5974   22444954.5804
        49.000          43.000
 125989275.27547  98173448.82447  23974969.6524   23974974.9404   23974968.8364
        42.000          38.000
 113419183.79247  88378584.30947  21582951.3284   21582953.3124   21582951.2144
        53.000          47.000
 123641577.84347  96344070.05247  23528220.4114   23528224.5594   23528221.0744
        45.000          40.000
 119861285.67347  93398390.15047  22808853.1094   22808857.3864   22808853.8874
        49.000          43.000
 123499545.29147  96233412.05947  23501181.6464   23501183.7814   23501182.4724
        47.000          40.000
 126404339.07547  98496883.13247  24053950.2394   24053952.2474   24053950.2994
        42.000          38.000
 105034395.98947  81844980.77547  19987383.7944   19987385.2384   19987384.1434
        54.000          49.000
 128530411.77747 100153564.26147  24458525.5374   24458527.4904   24458524.8654
        44.000          38.000
 09  1 30  0  0 30.0000000  0 12G29G18G24G14G 6G31G 5G30G22G 9G21G12
 125484686.89547  97780258.55747  23878954.9774   23878957.4924   23878955.0284
        45.000          39.000
 120268633.57347  93715812.46247  22886364.2944   22886366.1704   22886364.6994
        49.000          41.000
 119744309.31147  93307242.25647  22786593.6474   22786598.1954   22786593.5674
        48.000          42.000
 117987459.00947  91938270.01047  22452275.5104   22452278.0174   22452275.7704
        49.000          43.000
 125968519.04447  98157275.17547  23971019.7644   23971024.1694   23971019.9694
        42.000          38.000
 113341390.76747  88317966.41347  21568147.9664   21568149.4194   21568147.5754
        53.000          47.000
 123640033.48047  96342866.70647  23527926.5084   23527930.6874   23527927.0994
        45.000          40.000
 119835365.69547  93378192.80047  22803922.0294   22803925.1834   22803921.9004
        49.000          43.000
 123454819.87547  96198561.09447  23492671.6004   23492671.9124   23492671.4274
        47.000          40.000
 126508260.88347  98577861.19547  24073725.9824   24073728.4914   24073725.9984
        42.000          38.000
 105050701.69347  81857686.52347  19990486.6284   19990488.1304   19990486.9684
        54.000          49.000
 128542055.17947 100162637.12147  24460741.2154   24460743.2364   24460741.0664
        43.000          38.000
 09  1 30  0  1  0.0000000  0 12G29G18G24G14G 6G31G 5G30G22G 9G21G12
 125551857.44947  97832599.27247  23891737.2644   23891739.8744   23891736.9364
        45.000          40.000
 120231048.90647  93686525.72847  22879212.2464   22879213.7574   22879212.7874
        48.000          41.000
 119823666.80747  93369079.26347  22801695.0024   22801699.4414   22801695.3124
        48.000          42.000
 118026058.68247  91968347.70447  22459620.8574   22459623.3854   22459621.1974
        49.000          43.000
 125948003.99447  98141289.48147  23967116.1144   23967120.5394   23967115.7314
        43.000          38.000
 113263983.43547  88257649.06447  21553417.9014   21553419.2234   21553417.4414
        53.000          47.000
 123638715.69547  96341839.90747  23527675.0844   23527679.7454   23527675.5184
        45.000          40.000
 119809525.80047  93358057.84447  22799004.4034   22799007.8804   22799003.9904
        49.000          42.000
 123409907.24747  96163564.25947  23484125.0814   23484125.1704   23484124.8874
        47.000          40.000
 126612383.41947  98658995.66447  24093539.5404   24093542.6414   24093540.1014
        43.000          38.000
 105067621.09447  81870870.48347  19993706.4144   19993707.9094   19993706.8494
        54.000          49.000
 128553898.32047 100171865.61847  24462993.9794   24462997.1744   24462993.9504
        43.000          38.000
 09  1 30  0  1 30.0000000  0 12G29G18G24G14G 6G31G 5G30G22G 9G21G12
 125618861.47247  97884810.20347  23904487.7104   23904490.1414   23904487.1754
        45.000          40.000
 120193422.41647  93657206.39347  22872051.9704   22872053.9244   22872052.4584
        48.000          41.000
 119903348.78547  93431169.13047  22816858.2344   22816862.4994   22816858.5504
        48.000          42.000
 118064785.37347  91998524.37647  22466990.1454   22466992.3334   22466990.4054
        49.000          43.000
 125927731.73547  98125492.96647  23963258.3084   23963262.5314   23963258.3374
        43.000          38.000
 113186967.58547  88197636.75847  21538762.0684   21538763.7544   21538761.4904
        53.000          47.000
 123637629.25947  96340993.40047  23527468.4074   23527472.7494   23527469.0594
        45.000          40.000
 119783771.49147  93337989.58847  22794103.7484   22794106.6804   22794103.3034
        49.000          42.000
 123364811.63247  96128424.82447  23475543.4724   23475543.6344   23475543.6654
        47.000          40.000
 126716706.72047  98740286.57147  24113392.1484   24113394.9134   24113391.9394
        43.000          38.000
 105085156.75547  81884534.64147  19997043.2824   19997044.7674   19997043.6314
        54.000          49.000
 128565946.12147 100181253.57347  24465286.7084   24465289.3184   24465286.5514
        43.000          38.000
 09  1 30  0  2  0.0000000  0 12G29G18G24G14G 6G31G 5G30G22G 9G21G12
 125685698.62147  97936891.10847  23917205.7964   23917209.2734   23917205.3214
        45.000          39.000
 120155756.81647  93627856.57347  22864884.7624   22864886.5064   22864885.1934
        48.000          41.000
 119983353.86447  93493510.77147  22832082.6474   22832086.8924   22832082.6534
        48.000          41.000
 118103637.13747  92028798.50247  22474383.4034   22474385.5234   22474383.4924
        49.000          43.000
 125907702.00547  98109885.44147  23959446.8074   23959451.1204   23959446.9704
        43.000          37.000
 113110346.42047  88137931.99747  21524181.4524   21524183.0814   21524181.1674
        53.000          47.000
 123636777.06247  96340329.40747  23527306.6504   23527311.0344   23527306.7684
        45.000          40.000
 119758105.95847  93317990.51547  22789219.1454   22789223.1464   22789219.0554
        49.000          42.000
 123319535.00147  96093144.34347  23466927.8084   23466928.2414   23466927.6364
        47.000          40.000
 126821228.95347  98821732.48147  24133281.3894   24133284.9704   24133281.7264
        44.000          38.000
 105103309.04547  81898679.28647  20000497.4774   20000499.1164   20000497.8744
        54.000          49.000
 128578200.92947 100190802.85647  24467618.9024   24467621.2864   24467618.6244
        43.000          38.000
 09  1 30  0  2 30.0000000  0 12G29G18G24G14G 6G31G 5G30G22G 9G21G12
 125752365.58747  97988839.41747  23929891.8824   23929894.9644   23929891.5434
        44.000          39.000
 120118052.35947  93598476.49147  22857709.6924   22857711.4704   22857710.0954
        48.000          42.000
 120063677.51147  93556100.63447  22847367.5864   22847371.8534   22847367.7124
        48.000          41.000
 118142609.16547  92059166.33547  22481799.5124   22481802.1684   22481799.7354
        49.000          43.000
 125887911.32147  98094464.16447  23955680.0454   23955684.8794   23955680.1174
        42.000          37.000
 113034120.69747  88078535.37347  21509676.0564   21509677.7994   21509675.8324
        52.000          47.000
 123636158.96747  96339847.82147  23527189.0004   23527193.3344   23527189.7104
        45.000          40.000
 119732529.64247  93298060.95947  22784352.5464   22784355.9064   22784352.1574
        49.000          42.000
 123274076.14647  96057721.89147  23458276.9624   23458277.5104   23458277.0134
        47.000          40.000
 126925944.91747  98903329.37747  24153208.9354   24153211.3064   24153208.6164
        44.000          38.000
 105122075.87747  81913302.79847  20004068.6264   20004070.3394   20004069.0924
        54.000          49.000
 128590662.44247 100200513.17747  24469990.0384   24469992.7374   24469989.7884
        44.000          38.000
 09  1 30  0  3  0.0000000  0 12G29G18G24G14G 6G31G 5G30G22G 9G21G12
 125818865.44447  98040657.50347  23942546.5514   23942549.9324   23942546.2304
        44.000          39.000
 120080314.74847  93569070.57347  22850528.2994   22850530.2484   22850528.7884
        49.000          42.000
 120144321.89447  93618940.41847  22862713.6424   22862718.2474   22862713.9414
        48.000          41.000
 118181703.46147  92089629.45047  22489238.9464   22489241.1924   22489239.0734
        49.000          43.000
 125868362.78747  98079231.59247  23951960.6084   23951964.5774   23951960.7914
        44.000          38.000
 112958297.21047  88019452.17747  21495247.4034   21495249.0164   21495246.7714
        53.000          47.000
 123635781.17547  96339553.48747  23527117.4604   23527121.3224   23527118.0584
        46.000          40.000
 119707049.12547  93278206.05447  22779503.5404   22779506.6634   22779503.2624
        49.000          42.000
 123228440.80947  96022161.90647  23449593.0414   23449593.4334   23449592.9664
        47.000          40.000
 127030856.00047  98985078.31947  24173172.3674   24173175.0774   24173172.5874
        43.000          37.000
 105141460.85147  81928407.97947  20007757.3414   20007759.0284   20007757.6364
        54.000          49.000
 128603336.25647 100210388.95347  24472401.7834   24472404.4624   24472401.5694
        44.000          38.000
 09  1 30  0  3 30.0000000  0 12G29G18G24G14G 6G31G 5G30G22G 9G21G12
 125885188.73247  98092338.02747  23955167.2124   23955170.7604   23955167.0664
        45.000          39.000
 120042538.72247  93539634.72147  22843339.6994   22843341.8004   22843340.2184
        49.000          42.000
 120225277.02647  93682022.35047  22878118.9504   22878123.2284   22878119.0544
        47.000          41.000
 118220909.41247  92120179.57047  22496699.4884   22496701.9264   22496699.5984
        49.000          43.000
 125849047.09347  98064180.44747  23948284.7724   23948289.1234   23948284.8164
        43.000          38.000
 112882870.64047  87960678.26947  21480894.1674   21480895.7424   21480894.0304
        53.000          47.000
 123635637.51847  96339441.59147  23527089.5424   23527094.1334   23527089.7914
        45.000          40.000
 119681658.37947  93258421.09247  22774671.6024   22774675.2524   22774671.4054
        49.000          43.000
 123182621.85447  95986458.83947  23440874.2134   23440874.4954   23440874.1484
        47.000          41.000
 127135951.59047  99066971.02347  24193171.2974   24193174.1684   24193171.2814
        43.000          37.000
 105161455.27447  81943988.05447  20011562.1794   20011563.9274   20011562.5464
        54.000          49.000
 128616215.81547 100220425.02747  24474852.5844   24474855.2354   24474851.9024
        43.000          38.000
 09  1 30  0  4  0.0000000  0 12G29G18G24G14G 6G31G 5G30G22G 9G21G12
 125951339.65347  98143884.23347  23967755.8174   23967759.1014   23967755.4684
        44.000          39.000
 120004732.00347  93510174.95747  22836145.1264   22836147.1904   22836145.4584
        49.000          41.000
 120306546.29847  93745349.07047  22893583.9144   22893588.4654   22893583.8824
        48.000          41.000
 118260229.75447  92150818.81747  22504182.0554   22504184.3264   22504182.3814
        49.000          43.000
 125829968.37847  98049313.96847  23944654.1824   23944658.9044   23944654.2804
        43.000          38.000
 112807849.27147  87902220.10247  21466618.1034   21466619.5914   21466617.6434
        53.000          47.000
 123635735.52347  96339518.01047  23527108.3334   23527112.7494   23527108.6604
        45.000          40.000
 119656365.48947  93238712.39147  22769858.9264   22769862.0404   22769858.3004
        50.000          43.000
 123136625.99447  95950617.93147  23432120.7134   23432121.7234   23432121.1684
        46.000          41.000
 127241234.32847  99149009.55447  24213205.4704   24213208.4254   24213205.5934
        42.000          37.000
 105182064.23447  81960046.98747  20015483.9784   20015485.7424   20015484.4064
        55.000          49.000
 128629308.82047 100230627.43447  24477344.4024   24477346.6944   24477344.2904
        45.000          39.000
 09  1 30  0  4 30.0000000  0 12G29G18G24G14G 6G31G 5G30G22G 9G21G12
 126017315.41347  98195293.94147  23980310.6494   23980313.9814   23980310.0034
        44.000          39.000
 119966894.87247  93480691.47247  22828945.2454   22828947.0824   22828945.4654
        49.000          41.000
 120388125.78447  93808917.50747  22909108.1164   22909112.4894   22909108.0904
        47.000          41.000
 118299660.15147  92181543.81647  22511685.3034   22511687.4624   22511685.4384
        48.000          43.000
 125811123.58047  98034629.75747  23941068.3214   23941072.0514   23941068.4684
        43.000          38.000
 112733233.85847  87844078.26047  21452419.2314   21452420.7314   21452418.9564
        53.000          47.000
 123636075.33647  96339782.81247  23527172.3494   23527177.0144   23527172.9144
        45.000          40.000
 119631170.96847  93219080.34347  22765064.8434   22765067.7354   22765064.4324
        49.000          43.000
 123090452.61547  95914638.69647  23423334.6834   23423335.1434   23423334.6794
        47.000          41.000
 127346699.36747  99231190.13947  24233274.6444   24233277.4064   24233275.1754
        41.000          36.000
 105203285.48147  81976583.03347  20019522.3714   20019524.0474   20019522.8134
        54.000          49.000
 128642614.71947 100240995.70747  24479876.0494   24479878.9114   24479875.6984
        44.000          39.000
 09  1 30  0  5  0.0000000  0 12G29G18G24G14G 6G31G 5G30G22G 9G21G12
 126083115.30147  98246566.59547  23992831.2364   23992835.2844   23992830.6344
        44.000          39.000
 119929029.57247  93451186.05947  22821739.4164   22821741.6154   22821740.0674
        48.000          42.000
 120470013.50047  93872726.13747  22924690.3894   22924695.1504   22924690.2944
        46.000          41.000
 118339198.62947  92212353.04547  22519209.1324   22519211.2894   22519209.3934
        49.000          43.000
 125792511.99747  98020127.26747  23937526.9444   23937530.7464   23937526.4764
        44.000          37.000
 112659027.18247  87786254.91247  21438298.0004   21438299.5384   21438297.7454
        53.000          47.000
 123636659.34447  96340237.94047  23527284.0274   23527288.4604   23527284.3634
        45.000          40.000
 119606077.65947  93199527.15247  22760289.5054   22760292.3724   22760289.0764
        50.000          43.000
 123044103.20347  95878522.28447  23414514.9974   23414515.0404   23414514.8864
        48.000          41.000
 127452344.79447  99313511.28947  24253378.6184   24253381.0904   24253379.2284
        42.000          36.000
 105225118.49647  81993595.77647  20023676.9484   20023678.7764   20023677.3364
        54.000          49.000
 128656135.71747 100251531.63747  24482449.4514   24482451.1694   24482449.0954
        45.000          39.000
 09  1 30  0  5 30.0000000  0 12G29G18G24G14G 6G31G 5G30G22G 9G21G12
 126148737.96947  98297701.15347  24005318.8274   24005322.6514   24005318.5184
        44.000          39.000
 119891138.25847  93421660.36347  22814529.0314   22814531.2044   22814529.2284
        49.000          42.000
 120552207.17447  93936773.15947  22940331.2354   22940335.8404   22940331.2714
        46.000          41.000
 118378842.79447  92243244.63447  22526753.2234   22526755.4074   22526753.5024
        49.000          43.000
 125774132.12247  98005805.33047  23934029.4924   23934033.0034   23934028.8734
        43.000          37.000
 112585232.11647  87728752.30047  21424255.0734   21424256.9784   21424254.6774
        52.000          47.000
 123637489.53647  96340884.88947  23527441.8054   23527445.9154   23527442.3344
        45.000          39.000
 119581088.19847  93180054.88647  22755534.0254   22755536.9904   22755534.1044
        49.000          43.000
 122997578.98447  95842269.67647  23405661.6184   23405661.8604   23405661.7254
        47.000          41.000
 127558167.41347  99395970.50047  24273515.7274   24273518.9924   24273516.5964
        41.000          36.000
 105247563.09547  82011085.07847  20027947.9694   20027949.7554   20027948.3364
        54.000          49.000
 128669873.63047 100262236.56447  24485062.8744   24485065.4304   24485062.3474
        43.000          38.000
 09  1 30  0  6  0.0000000  0 12G29G18G24G14G 6G31G 5G30G22G 9G21G12
 126214180.71547  98348695.51247  24017772.4184   24017775.8184   24017771.8444
        44.000          39.000
 119853221.68047  93392114.97347  22807314.1974   22807315.3834   22807314.4734
        49.000          41.000
 120634703.35547  94001055.90547  22956029.6814   22956034.8124   22956030.0134
        47.000          41.000
 118418588.26547  92274215.15447  22534316.4334   22534318.7844   22534316.8074
        49.000          43.000
 125755981.20047  97991661.79947  23930574.9484   23930579.0344   23930574.6924
        43.000          37.000
 112511849.84147  87671571.34847  21410290.8574   21410292.9094   21410290.4704
        53.000          47.000
 123638566.14447  96341723.85047  23527646.6254   23527650.7424   23527647.1974
        45.000          39.000
 119556202.75347  93160663.66347  22750798.5884   22750801.4804   22750798.1914
        49.000          43.000
 122950879.69547  95805880.63947  23396774.8774   23396775.1604   23396774.7674
        48.000          41.000
 127664162.74847  99478564.29547  24293686.3074   24293689.2324   24293686.3304
        40.000          36.000
 105270616.58047  82029048.84547  20032334.8244   20032336.6784   20032335.2024
        54.000          49.000
 128683828.41747 100273110.47847  24487718.2194   24487721.3944   24487717.9724
        44.000          38.000
 09  1 30  0  6 30.0000000  0 12G29G18G24G14G 6G31G 5G30G22G 9G21G12
 126279444.66347  98399550.57047  24030191.9634   24030194.7024   24030191.4114
        44.000          39.000
 119815283.95947  93362553.11647  22800094.7334   22800096.0194   22800094.9134
        49.000          41.000
 120717501.97647  94065574.31547  22971785.8054   22971790.6094   22971786.1584
        47.000          41.000
 118458435.02847  92305264.60747  22541898.9624   22541901.1294   22541899.1684
        49.000          43.000
 125738060.15447  97977697.39047  23927164.7994   23927168.2044   23927164.7044
        44.000          37.000
 112438885.15547  87614715.78947  21396406.1384   21396408.0294   21396405.8934
        53.000          47.000
 123639893.39847  96342758.11347  23527898.8884   23527903.5434   23527899.0484
        45.000          39.000
 119531426.22047  93141357.31747  22746083.2914   22746086.4894   22746083.0364
        49.000          42.000
 122904008.83047  95769357.91247  23387855.6344   23387855.8874   23387855.7774
        48.000          41.000
 127770330.78547  99561292.65347  24313889.2754   24313892.8324   24313889.0264
        39.000          35.000
 105294281.29347  82047488.89047  20036838.1694   20036839.8594   20036838.5874
        54.000          49.000
 128698003.66947 100284156.21147  24490415.5984   24490418.4624   24490415.4404
        44.000          38.000
 09  1 30  0  7  0.0000000  0 12G29G18G24G14G 6G31G 5G30G22G 9G21G12
 126344529.69047  98450266.18147  24042577.2984   24042580.1584   24042577.2944
        45.000          39.000
 119777328.56547  93332977.48947  22792871.9484   22792873.6324   22792872.3124
        49.000          42.000
 120800601.66947  94130327.33447  22987599.1574   22987604.0984   22987599.2714
        47.000          41.000
 118498381.28647  92336391.58447  22549500.4284   22549502.7614   22549500.6164
        48.000          43.000
 125720368.62047  97963911.82847  23923797.9284   23923801.6914   23923798.2194
        43.000          38.000
 112366341.40047  87558188.21947  21382601.5004   21382603.1624   21382600.9014
        53.000          47.000
 123641474.00147  96343989.82047  23528199.8434   23528204.0614   23528200.2694
        45.000          39.000
 119506761.96847  93122138.45447  22741389.8724   22741393.3294   22741389.7054
        49.000          43.000
 122856968.30747  95732702.98847  23378904.1554   23378904.4784   23378904.2954
        48.000          42.000
 127876669.07047  99644153.66947  24334124.1324   24334127.6744   24334124.3944
        39.000          35.000
 105318557.13547  82066405.14047  20041457.5244   20041459.4144   20041457.9284
        54.000          49.000
 128712401.95747 100295375.70347  24493155.3154   24493158.7834   24493155.2104
        44.000          39.000
 09  1 30  0  7 30.0000000  0 12G29G18G24G14G 6G31G 5G30G22G 9G21G12
 126409431.86747  98500839.33047  24054927.5914   24054930.4964   24054927.5634
        44.000          39.000
 119739355.18447  93303387.84847  22785645.8164   22785647.6284   22785646.1834
        49.000          42.000
 120883997.69747  94195311.26647  23003468.8514   23003474.0064   23003468.7864
        47.000          40.000
 118538421.91947  92367592.10347  22557120.0574   22557122.2864   22557120.1474
        48.000          43.000
 125702902.51947  97950301.92547  23920474.2454   23920478.3784   23920474.0644
        43.000          38.000
 112294218.46147  87501988.56147  21368877.2004   21368878.6064   21368876.8504
        53.000          47.000
 123643307.37447  96345418.45447  23528549.2034   23528552.3734   23528549.5954
        45.000          39.000
 119482209.76947  93103006.89347  22736718.0554   22736721.4174   22736717.8304
        49.000          43.000
 122809756.88947  95695914.90447  23369920.0124   23369920.5284   23369920.0444
        47.000          42.000
 127983172.44447  99727143.34747  24354391.1634   24354394.9984   24354392.3264
        40.000          35.000
 105343440.71647  82085794.95247  20046192.7844   20046194.6674   20046193.1954
        54.000          49.000
 128727022.25447 100306768.22047  24495938.0464   24495940.2144   24495937.9754
        44.000          38.000
 09  1 30  0  8  0.0000000  0 12G29G18G24G14G 6G31G 5G30G22G 9G21G12
 126474151.50847  98551270.24547  24067242.9394   24067246.4884   24067243.3144
        44.000          39.000
 119701367.46047  93273787.04347  22778416.9114   22778419.0064   22778417.5374
        48.000          42.000
 120967689.49347  94260525.65547  23019394.7914   23019399.6984   23019394.8364
        47.000          40.000
 118578556.04147  92398865.46947  22564757.3314   22564759.4764   22564757.6154
        48.000          43.000
 125685662.18847  97936867.93147  23917193.6854   23917197.5854   23917193.8884
        43.000          38.000
 112222520.60347  87446120.14047  21355233.5234   21355234.8774   21355233.4784
        53.000          47.000
 123645396.82547  96347046.65847  23528946.8814   23528950.0784   23528947.5774
        45.000          39.000
 119457773.47547  93083965.67147  22732067.9894   22732071.3884   22732067.8094
        49.000          43.000
 122762377.99447  95658996.30747  23360904.2284   23360904.7674   23360904.1014
        48.000          42.000
 128089839.56947  99810260.60947  24374689.9004   24374693.2244   24374690.6734
        41.000          36.000
 105368932.80547  82105658.92547  20051043.8074   20051045.5984   20051044.3164
        54.000          49.000
 128741867.81047 100318336.24647  24498762.6664   24498765.4104   24498762.4414
        43.000          38.000
 09  1 30  0  8 30.0000000  0 12G29G18G24G14G 6G31G 5G30G22G 9G21G12
 126538684.74647  98601555.91547  24079523.0504   24079526.5764   24079522.9524
        45.000          39.000
 119663364.26047  93244174.17847  22771185.2484   22771187.3824   22771185.5824
        48.000          42.000
 121051671.73347  94325966.36747  23035376.2894   23035381.0344   23035376.0404
        47.000          41.000
 118618778.06547  92430207.32647  22572411.0624   22572413.3064   22572411.1624
        48.000          43.000
 125668643.20747  97923606.42747  23913954.6484   23913958.8214   23913955.1034
        43.000          38.000
 112151247.27247  87390582.51247  21341670.5944   21341671.9874   21341670.0254
        53.000          47.000
 123647741.36847  96348873.62347  23529392.4354   23529396.6814   23529392.8594
        45.000          39.000
 119433452.73547  93065014.48547  22727439.8674   22727443.1614   22727439.5884
        50.000          43.000
 122714828.93247  95621945.10447  23351855.8254   23351856.1254   23351856.0694
        48.000          42.000
 128196664.56547  99893500.89747  24395017.5064   24395021.5214   24395017.9694
        40.000          35.000
 105395029.63947  82125994.12847  20056009.8854   20056011.6194   20056010.2884
        54.000          49.000
 128756937.34947 100330078.79647  24501630.8104   24501633.4914   24501630.4154
        44.000          38.000
 09  1 30  0  9  0.0000000  0 12G29G18G24G14G 6G31G 5G30G22G 9G21G12
 126603035.41447  98651699.31947  24091768.6264   24091772.2304   24091768.5904
        44.000          39.000
 119625353.09847  93214555.11247  22763951.7754   22763954.1374   22763952.1014
        48.000          42.000
 121135947.18947  94391635.55647  23051413.5864   23051418.0684   23051413.8634
        47.000          40.000
 118659090.40247  92461619.57047  22580082.1644   22580084.4044   22580082.4354
        48.000          43.000
 125651849.20547  97910520.23747  23910759.1364   23910763.0504   23910759.0434
        43.000          38.000
 112080406.22747  87335381.73747  21328190.0574   21328191.3084   21328189.7604
        53.000          47.000
 123650347.82847  96350904.68547  23529888.5394   23529892.8414   23529889.1654
        45.000          39.000
 119409254.89247  93046159.05647  22722835.1494   22722838.0454   22722834.9084
        50.000          43.000
 122667116.17647  95584766.35647  23342776.5594   23342776.4614   23342776.5724
        48.000          42.000
 128303649.64147  99976865.91747  24415376.0554   24415379.9764   24415375.6694
        39.000          35.000
 105421735.75647  82146804.10047  20061091.8974   20061093.5634   20061092.3544
        54.000          49.000
 128772237.27347 100342000.89247  24504542.4834   24504544.9364   24504541.8634
        45.000          38.000
 09  1 30  0  9 30.0000000  0 12G29G18G24G14G 6G31G 5G30G22G 9G21G12
 126667198.09847  98701696.22747  24103978.6004   24103981.5094   24103978.8444
        43.000          38.000
 119587331.68647  93184928.03947  22756716.5444   22756718.9304   22756716.8204
        48.000          42.000
 121220509.24047  94457528.07347  23067504.9954   23067509.4804   23067505.0804
        47.000          41.000
 118699486.30947  92493096.91947  22587769.1084   22587771.4884   22587769.4094
        48.000          43.000
 125635274.49947  97897604.91747  23907605.0244   23907608.7964   23907605.2594
        44.000          38.000
 112009995.09447  87280515.96147  21314791.1324   21314792.4814   21314790.8654
        53.000          48.000
 123653213.69447  96353137.87747  23530433.4034   23530438.0234   23530433.7954
        45.000          39.000
 119385177.81147  93027397.73147  22718253.5304   22718256.3764   22718253.1384
        50.000          43.000
 122619236.75847  95547457.74247  23333665.4184   23333665.6804   23333665.3344
        48.000          42.000
 128410787.62947 100060350.10047  24435762.5914   24435766.8564   24435763.9284
        40.000          35.000
 105449045.65147  82168084.54847  20066288.7584   20066290.3754   20066289.2124
        54.000          49.000
 128787764.60447 100354100.14647  24507497.1114   24507499.4114   24507496.9694
        44.000          38.000
 09  1 30  0 10  0.0000000  0 12G29G18G24G14G 6G31G 5G30G22G 9G21G12
 126731173.64647  98751547.31147  24116152.9394   24116155.9614   24116152.6154
        43.000          38.000
 119549304.41447  93155296.41047  22749480.1874   22749482.5224   22749480.4804
        48.000          42.000
 121305357.60347  94523643.69647  23083651.4134   23083655.6644   23083652.0334
        48.000          41.000
 118739965.03547  92524638.80947  22595472.5724   22595474.6044   22595472.9644
        48.000          43.000
 125618919.56847  97884860.84547  23904492.8554   23904497.0034   23904493.0394
        43.000          38.000
 111940018.63747  87225988.87947  21301474.8874   21301476.5934   21301474.1994
        53.000          48.000
 123656342.56247  96355576.00647  23531029.4714   23531032.9014   23531029.8034
        45.000          39.000
 119361225.78147  93008733.84947  22713695.4004   22713698.5004   22713695.0964
        49.000          43.000
 122571193.82047  95510021.70947  23324522.9674   23324523.4074   23324522.9474
        48.000          42.000
 128518077.36947 100143952.52747  24456180.6164   24456183.9714   24456181.1914
        40.000          35.000
 105476960.44147  82189836.34247  20071600.7914   20071602.4734   20071601.1184
        54.000          49.000
 128803522.65147 100366379.20747  24510495.8784   24510498.0954   24510496.0434
        43.000          38.000
 09  1 30  0 10 30.0000000  0 12G29G18G24G14G 6G31G 5G30G22G 9G21G12
 126794959.94847  98801250.94147  24128290.6674   24128294.1074   24128289.9934
        43.000          38.000
 119511272.30147  93125661.02147  22742242.9214   22742245.4414   22742243.3334
        49.000          42.000
 121390489.04447  94589979.88347  23099851.4434   23099856.2454   23099851.6244
        47.000          41.000
 118780523.12347  92556242.53747  22603190.4414   22603192.3084   22603190.8474
        48.000          42.000
 125602782.01747  97872286.16447  23901421.3104   23901425.6744   23901421.5214
        43.000          38.000
 111870478.33647  87171801.67547  21288241.8744   21288243.5344   21288241.9564
        53.000          48.000
 123659735.51847  96358219.91147  23531674.8054   23531678.8684   23531675.0514
        45.000          39.000
 119337400.29547  92990168.55747  22709161.4464   22709164.3784   22709161.4754
        50.000          43.000
 122522987.64147  95472458.46547  23315349.5224   23315349.7034   23315349.5704
        48.000          41.000
 128625515.10847 100227670.30247  24476624.5364   24476627.0014   24476625.6834
        39.000          34.000
 105505478.45047  82212058.17447  20077027.5524   20077029.2194   20077027.8984
        54.000          49.000
 128819512.39947 100378838.79047  24513538.5474   24513540.6114   24513538.4434
        44.000          38.000
 09  1 30  0 11  0.0000000  0 12G29G18G24G14G 6G31G 5G30G22G 9G21G12
 126858557.78647  98850807.71747  24140392.7804   24140396.1464   24140392.4354
        42.000          38.000
 119473239.53847  93096025.10647  22735005.8754   22735007.9554   22735006.1824
        49.000          42.000
 121475902.98247  94656536.20947  23116104.9924   23116109.5474   23116105.4074
        47.000          41.000
 118821159.91947  92587907.59747  22610922.9684   22610925.1904   22610923.1844
        48.000          43.000
 125586862.17847  97859881.14247  23898392.1344   23898396.5504   23898392.3084
        42.000          38.000
 111801378.42747  87117957.62347  21275092.6184   21275094.2834   21275091.9524
        53.000          48.000
 123663396.03747  96361072.31347  23532371.0964   23532375.4774   23532371.3024
        44.000          39.000
 119313705.40847  92971705.04247  22704652.3484   22704655.5674   22704652.2944
        49.000          43.000
 122474621.60447  95434770.67147  23306145.5444   23306146.2154   23306145.7194
        48.000          41.000
 128733100.51547 100311503.12047  24497097.7424   24497100.3624   24497097.6304
        38.000          34.000
 105534600.30647  82234750.53847  20082569.3464   20082570.7744   20082569.6534
        54.000          49.000
 128835736.90147 100391481.31347  24516625.7774   24516627.8654   24516625.5594
        43.000          38.000
 09  1 30  0 11 30.0000000  0 12G29G18G24G14G 6G31G 5G30G22G 9G21G12
 126921964.95447  98900215.91347  24152458.6984   24152462.6314   24152458.4924
        43.000          39.000
 119435206.89347  93066389.29047  22727768.7874   22727770.3004   22727769.3494
        50.000          42.000
 121561595.74147  94723309.78947  23132412.0114   23132416.5724   23132411.9984
        47.000          40.000
 118861871.76447  92619631.14547  22618670.5324   22618672.4724   22618670.5924
        48.000          43.000
 125571157.57047  97847643.83847  23895403.2564   23895407.9724   23895403.1704
        43.000          38.000
 111732720.19047  87064457.73847  21262027.3494   21262028.9694   21262027.2004
        53.000          48.000
 123667324.69747  96364133.65647  23533118.5234   23533122.9744   23533118.6164
        45.000          39.000
 119290142.23447  92953344.16047  22700168.4394   22700171.3474   22700168.1174
        49.000          43.000
 122426095.62247  95396958.23047  23296911.8634   23296911.8104   23296911.8744
        48.000          41.000
 138840752.92257  90395371.38857  24517597.4315   24517603.0385   24517596.9185
        39.000          33.000
 105564323.68347  82257911.62047  20088225.4544   20088226.9474   20088225.8724
        54.000          49.000
 128852196.53147 100404307.05347  24519757.6454   24519759.8814   24519757.2994
        43.000          38.000
 09  1 30  0 12  0.0000000  0 11G29G18G24G14G 6G31G 5G30G22G21G12
 126985179.27047  98949473.84247  24164488.1144   24164491.7794   24164487.2884
        44.000          39.000
 119397175.79247  93036754.67347  22720531.3664   22720533.2734   22720531.7664
        49.000          42.000
 121647564.04247  94790298.08147  23148771.2834   23148775.4174   23148771.4274
        47.000          41.000
 118902655.03447  92651410.32747  22626431.1544   22626433.1704   22626431.4544
        48.000          43.000
 125555665.41647  97835572.06347  23892455.2044   23892459.6384   23892455.6894
        43.000          38.000
 111664504.79847  87011302.92247  21249046.2054   21249047.8214   21249045.7044
        53.000          48.000
 123671522.14647  96367404.44947  23533917.1444   23533921.7354   23533917.5734
        44.000          39.000
 119266712.17647  92935087.00247  22695709.6504   22695712.7944   22695709.4714
        49.000          43.000
 122377409.85947  95359021.29247  23287647.1484   23287647.2174   23287647.2444
        48.000          41.000
 105594646.63847  82281539.90247  20093995.6984   20093997.2864   20093996.1084
        54.000          49.000
 128868891.39047 100417316.09047  24522934.3754   24522936.7644   24522933.8384
        43.000          38.000
 09  1 30  0 12 30.0000000  0 11G29G18G24G14G 6G31G 5G30G22G21G12
 127048201.46547  98998582.07047  24176480.7234   24176484.5374   24176480.4984
        43.000          39.000
 119359149.96047  93007124.16747  22713295.2854   22713297.1314   22713295.6284
        49.000          42.000
 121733807.27947  94857500.61647  23165182.6924   23165186.8614   23165182.9164
        47.000          40.000
 118943508.84647  92683244.48447  22634205.4064   22634207.5664   22634205.7854
        48.000          43.000
 125540386.07647  97823666.12747  23889547.5864   23889551.8704   23889547.9864
        43.000          38.000
 111596736.31747  86958496.34447  21236150.4864   21236151.9964   21236149.9884
        54.000          48.000
 123675991.93047  96370887.44347  23534768.3194   23534771.9354   23534768.4324
        45.000          39.000
 119243419.12947  92916936.60647  22691277.1844   22691280.5044   22691277.0264
        50.000          43.000
 122328567.29847  95320962.16947  23278352.5644   23278352.7844   23278352.7334
        48.000          41.000
 105625570.04247  82305636.07147  20099880.1754   20099881.8384   20099880.5914
        54.000          49.000
 128885824.84947 100430511.04447  24526156.8214   24526159.0844   24526156.5574
        44.000          38.000
 09  1 30  0 13  0.0000000  0 11G29G18G24G14G 6G31G 5G30G22G21G12
 127111031.25947  99047540.34847  24188436.8784   24188440.7204   24188436.6134
        43.000          39.000
 119321132.70047  92977500.33547  22706060.7904   22706062.5454   22706061.2564
        49.000          42.000
 121820324.18047  94924916.38747  23181646.0874   23181650.3724   23181646.2434
        47.000          40.000
 118984431.27247  92715132.11247  22641992.6404   22641994.8224   22641992.9134
        48.000          43.000
 125525318.90347  97811925.52647  23886680.7134   23886685.0204   23886680.6254
        43.000          38.000
 111529417.97147  86906040.52747  21223340.2604   21223341.7224   21223340.2074
        53.000          48.000
 123680736.51147  96374584.58247  23535670.9914   23535674.8214   23535671.3764
        45.000          39.000
 119220266.55447  92898895.66547  22686871.7804   22686874.5114   22686871.4124
        50.000          43.000
 122279570.18147  95282782.62547  23269028.4034   23269028.9694   23269028.5554
        47.000          41.000
 105657093.45847  82330199.77647  20105878.8784   20105880.5754   20105879.2634
        54.000          49.000
 128902999.29147 100443893.77247  24529424.8924   24529427.4444   24529424.9674
        44.000          38.000
 09  1 30  0 13 30.0000000  0 11G29G18G24G14G 6G31G 5G30G22G21G12
 127173664.45247  99096345.46447  24200355.6214   24200358.8244   24200355.1914
        43.000          39.000
 119283123.00847  92947882.40147  22698827.8994   22698829.5384   22698828.1254
        49.000          42.000
 121907109.34047  94992541.18847  23198161.2634   23198165.6974   23198161.1004
        46.000          40.000
 119025417.29747  92747069.29747  22649791.8474   22649794.1354   22649792.1704
        48.000          42.000
 125510459.49147  97800346.80147  23883853.2684   23883856.7664   23883853.2384
        44.000          38.000
 111462549.31247  86853935.11747  21210615.4174   21210617.1394   21210614.7624
        53.000          48.000
 123685755.00147  96378495.13647  23536626.0994   23536629.6874   23536626.3954
        46.000          39.000
 119197253.62247  92880963.55247  22682492.1054   22682495.2194   22682491.9334
        49.000          43.000
 122230416.85447  95244481.34247  23259675.1694   23259675.3554   23259674.9034
        48.000          41.000
 105689213.11047  82355228.08447  20111991.0364   20111992.7394   20111991.4644
        54.000          49.000
 128920413.28247 100457463.17247  24532738.7334   24532740.9994   24532738.5414
        44.000          38.000
 09  1 30  0 14  0.0000000  0 11G29G18G24G14G 6G31G 5G30G22G21G12
 127236101.08647  99144997.38947  24212237.7224   24212240.7214   24212237.4044
        44.000          39.000
 119245124.22047  92918272.97247  22691596.4394   22691598.4634   22691596.8274
        49.000          42.000
 121994161.40747  95060373.97147  23214726.4354   23214730.9554   23214726.6074
        47.000          40.000
 119066465.29947  92779054.77147  22657603.2064   22657605.4064   22657603.2644
        49.000          43.000
 125495807.37747  97788929.60347  23881064.6044   23881069.1504   23881064.8854
        43.000          38.000
 111396133.43647  86802182.51947  21197976.7954   21197978.6164   21197976.3184
        53.000          48.000
 123691049.84147  96382621.04147  23537633.6194   23537637.4094   23537634.1524
        45.000          39.000
 119174383.47847  92863142.68147  22678140.1854   22678143.3874   22678140.0494
        49.000          43.000
 122181109.44747  95206060.01447  23250292.0794   23250292.4444   23250292.1374
        47.000          41.000
 105721928.58247  82380720.67347  20118216.5884   20118218.1714   20118216.9194
        54.000          49.000
 128938068.70347 100471220.68147  24536098.5224   24536101.1194   24536098.1774
        43.000          38.000
 09  1 30  0 14 30.0000000  0 11G29G18G24G14G 6G31G 5G30G22G21G12
 127298342.94647  99193497.54747  24224081.9614   24224085.0184   24224081.5484
        44.000          39.000
 119207141.23747  92888675.85347  22684368.6294   22684370.6824   22684369.0404
        49.000          42.000
 122081480.55747  95128414.87647  23231343.1844   23231347.1704   23231343.3944
        47.000          40.000
 119107574.98247  92811088.31747  22665426.0184   22665428.3764   22665426.4194
        48.000          43.000
 125481363.43747  97777674.61847  23878316.8554   23878319.7834   23878316.6304
        43.000          38.000
 111330175.33647  86750786.63947  21185425.3404   21185427.0724   21185425.0914
        53.000          48.000
 123696625.29247  96386965.60247  23538694.1904   23538698.5434   23538694.7024
        45.000          40.000
 119151661.37047  92845437.16647  22673816.4684   22673819.4334   22673816.1914
        50.000          43.000
 122131652.13647  95167521.85747  23240880.7704   23240881.1274   23240880.7084
        47.000          41.000
 105755241.20447  82406678.57047  20124555.7864   20124557.4114   20124556.2534
        54.000          49.000
 128955969.66947 100485169.54847  24539504.5174   24539507.2684   24539504.0654
        43.000          38.000
 09  1 30  0 15  0.0000000  0 11G29G18G24G14G 6G31G 5G30G22G21G12
 127360385.37847  99241842.32847  24235888.2984   24235891.2474   24235887.8834
        44.000          39.000
 119169172.68447  92859089.98947  22677143.5374   22677145.4444   22677143.9294
        49.000          42.000
 122169060.78347  95196659.22047  23248008.8894   23248013.3724   23248008.8594
        46.000          40.000
 119148740.52947  92843165.37647  22673259.3084   22673261.7984   22673259.4104
        48.000          42.000
 125467122.86947  97766578.09747  23875606.1684   23875610.3874   23875606.3674
        43.000          38.000
 111264673.89147  86699746.58647  21172960.7104   21172962.5674   21172960.3644
        53.000          48.000
 123702479.40447  96391527.29247  23539808.5924   23539812.4374   23539808.9074
        45.000          40.000
 119129086.00547  92827846.02447  22669520.6364   22669523.7864   22669520.2614
        49.000          43.000
 122082042.94947  95128865.36647  23231440.3004   23231440.4694   23231440.3844
        48.000          41.000
 105789146.12347  82433098.00147  20131007.5704   20131009.2824   20131007.9434
        54.000          49.000
 128974114.22047 100499308.20447  24542957.7674   24542960.0544   24542957.3534
        43.000          38.000
 09  1 30  0 15 30.0000000  0 11G29G18G24G14G 6G31G 5G30G22G21G12
 127422230.26047  99290033.15347  24247656.8494   24247659.5924   24247656.4124
        45.000          39.000
 119131223.18347  92829518.95847  22669921.7564   22669923.8724   22669922.2054
        49.000          42.000
 122256902.42847  95265107.25647  23264724.1354   23264728.8784   23264724.1674
        46.000          40.000
 119189962.09647  92875286.10247  22681103.6594   22681105.6854   22681103.6604
        48.000          42.000
 125453086.49647  97755640.71147  23872935.4034   23872939.5104   23872935.3924
        44.000          38.000
 111199633.63747  86649065.90747  21160584.0514   21160585.7154   21160583.7264
        54.000          48.000
 123708616.62747  96396309.58647  23540976.2414   23540980.2864   23540976.6604
        46.000          40.000
 119106662.47847  92810373.18347  22665253.2984   22665256.4004   22665252.9584
        49.000          43.000
 122032285.65547  95090093.46247  23221972.1414   23221972.3774   23221972.0984
        48.000          41.000
 105823645.18647  82459980.39447  20137572.5754   20137574.3034   20137573.0164
        54.000          49.000
 128992506.28747 100513639.71847  24546457.7094   24546460.3364   24546456.9284
        43.000          37.000
 09  1 30  0 16  0.0000000  0 11G29G18G24G14G 6G31G 5G30G22G21G12
 127483874.61047  99338067.73047  24259387.3944   24259390.2434   24259387.6804
        45.000          39.000
 119093293.53147  92799963.39547  22662704.0684   22662706.3154   22662704.5324
        49.000          42.000
 122345001.20147  95333755.66847  23281488.9084   23281493.4324   23281488.7494
        46.000          40.000
 119231235.25447  92907447.03047  22688957.4194   22688959.6704   22688957.7714
        48.000          42.000
 125439251.08047  97744859.92047  23870302.6284   23870306.4464   23870302.7984
        44.000          38.000
 111135054.98747  86598744.91947  21148295.1324   21148296.6014   21148294.7094
        53.000          48.000
 123715036.72847  96401312.30947  23542197.5974   23542202.0314   23542198.4834
        45.000          39.000
 119084391.12747  92793018.91647  22661015.1894   22661017.7434   22661014.8314
        49.000          43.000
 121982379.67647  95051205.70247  23212475.5024   23212475.1014   23212475.6044
        48.000          41.000
 105858734.61247  82487322.81247  20144249.8844   20144251.6214   20144250.2394
        55.000          49.000
 129011145.30847 100528163.66847  24550004.2254   24550006.8694   24550004.6024
        44.000          37.000
 09  1 30  0 16 30.0000000  0 11G29G18G24G14G 6G31G 5G30G22G21G12
 127545319.29047  99385946.71547  24271079.6104   24271082.5004   24271079.1884
        44.000          39.000
 119055387.76147  92770426.43447  22655491.0734   22655493.0874   22655491.5314
        49.000          43.000
 122433356.71647  95402604.11647  23298302.4304   23298306.6894   23298302.6094
        46.000          40.000
 119272559.51547  92939647.77147  22696821.2574   22696823.5134   22696821.5634
        48.000          42.000
 125425617.14347  97734236.11847  23867708.7864   23867711.5084   23867708.4034
        45.000          38.000
 111070942.60247  86548787.25447  21136095.0684   21136096.2454   21136094.7124
        54.000          48.000
 123721743.53147  96406538.43647  23543474.2594   23543478.2504   23543474.8664
        45.000          39.000
 119062276.27047  92775786.60647  22656806.7454   22656809.4964   22656806.1544
        50.000          43.000
 121932328.46747  95012204.76847  23202950.6044   23202950.8464   23202950.8514
        48.000          41.000
 105894415.82747  82515126.36047  20151039.8934   20151041.3784   20151040.3254
        54.000          49.000
 129030034.68247 100542882.70347  24553598.6154   24553600.8894   24553598.4824
        42.000          37.000
 09  1 30  0 17  0.0000000  0 11G29G18G24G14G 6G31G 5G30G22G21G12
 127606561.35947  99433667.83147  24282733.5704   24282736.9224   24282733.4154
        43.000          39.000
 119017506.12547  92740908.28747  22648282.2874   22648284.3694   22648282.8554
        49.000          42.000
 122521964.35347  95471649.03247  23315164.0164   23315167.9644   23315164.0684
        46.000          39.000
 119313930.30947  92971884.77147  22704694.1204   22704696.1984   22704694.2624
        48.000          42.000
 125412180.83047  97723766.30147  23865151.5334   23865155.1734   23865151.5974
        44.000          38.000
 111007296.36747  86499192.82147  21123983.6974   21123984.8504   21123983.2444
        54.000          48.000
 123728736.38647  96411987.46147  23544804.9304   23544808.4364   23544805.5134
        45.000          39.000
 119040318.35147  92758676.57047  22652628.3794   22652631.2864   22652628.1124
        50.000          43.000
 121882131.45247  94973090.22147  23193398.4294   23193398.4944   23193398.7034
        48.000          41.000
 105930684.90447  82543387.98847  20157941.3594   20157943.2854   20157941.6664
        54.000          49.000
 129049173.54847 100557796.14547  24557240.0474   24557243.1264   24557239.7414
        42.000          37.000
 09  1 30  0 17 30.0000000  0 11G29G18G24G14G 6G31G 5G30G22G21G12
 127667602.49447  99481232.34847  24294349.2224   24294352.4834   24294348.5844
        43.000          39.000
 118979653.64147  92711412.85947  22641079.4814   22641081.1114   22641079.7734
        49.000          43.000
 122610824.27547  95540890.54747  23332073.1294   23332077.6484   23332073.1934
        46.000          39.000
 119355347.40947  93004157.84447  22712575.1954   22712577.6224   22712575.3564
        47.000          42.000
 125398942.97647  97713451.12447  23862632.4744   23862635.7624   23862632.4054
        44.000          38.000
 110944120.65747  86449965.03147  21111961.6994   21111962.7554   21111961.3424
        54.000          48.000
 123736019.38147  96417662.56447  23546190.5914   23546194.3744   23546191.2144
        46.000          39.000
 119018521.68547  92741692.18747  22648480.6374   22648483.6494   22648480.5694
        50.000          43.000
 121831792.61047  94933865.17147  23183819.2024   23183819.2664   23183819.4494
        48.000          41.000
 105967543.04347  82572108.61847  20164955.2984   20164957.1654   20164955.6624
        54.000          49.000
 129068565.60747 100572906.89047  24560930.1314   24560932.6984   24560930.0564
        43.000          37.000
 09  1 30  0 18  0.0000000  0 11G29G18G24G14G 6G31G 5G30G22G21G12
 127728437.90647  99528636.58047  24305925.7884   24305928.9874   24305925.6714
        43.000          38.000
 118941828.75247  92681938.93347  22633881.2884   22633883.6344   22633881.8614
        49.000          42.000
 122699930.63647  95610324.06647  23349029.5914   23349033.9334   23349029.8814
        46.000          39.000
 119396804.84547  93036462.35447  22720464.4494   22720466.4454   22720464.6084
        48.000          42.000
 125385898.55547  97703286.68247  23860149.8714   23860153.2864   23860149.5704
        43.000          38.000
 110881414.48847  86401103.11147  21100028.9684   21100030.1434   21100028.6374
        54.000          48.000
 123743590.59847  96423562.26547  23547631.6394   23547634.9334   23547632.1964
        45.000          39.000
 118996885.42047  92724832.79947  22644363.4414   22644366.1824   22644363.0314
        50.000          43.000
 121781309.65247  94894527.81947  23174212.6994   23174212.8104   23174212.7714
        47.000          41.000
 106004985.73247  82601284.75047  20172080.5414   20172082.1374   20172080.8534
        55.000          49.000
 129088208.96047 100588213.42947  24564668.6084   24564671.5804   24564668.2364
        42.000          37.000
 09  1 30  0 18 30.0000000  0 11G29G18G24G14G 6G31G 5G30G22G21G12
 127789072.44347  99575884.29047  24317464.3134   24317467.2204   24317463.9204
        43.000          38.000
 118904039.51747  92652492.78747  22626690.1674   22626692.0484   22626690.4764
        49.000          42.000
 122789286.51547  95679952.04747  23366033.5434   23366037.7094   23366033.4204
        46.000          39.000
 119438305.92447  93068800.89647  22728361.7884   22728363.9234   22728361.9954
        48.000          42.000
 125373051.77847  97693276.23847  23857705.3514   23857708.9224   23857705.6674
        44.000          38.000
 110819185.35347  86352612.90647  21088186.9344   21088188.4804   21088186.5164
        54.000          48.000
 123751457.35347  96429692.25847  23549128.3804   23549131.9544   23549128.6894
        46.000          39.000
 118975417.44247  92708104.54947  22640277.8554   22640280.9274   22640277.8204
        50.000          43.000
 121730689.57747  94855083.63447  23164579.5904   23164580.5154   23164579.7764
        47.000          41.000
 106043016.74947  82630919.31247  20179317.7164   20179319.2574   20179318.1524
        54.000          49.000
 129108110.22947 100603720.96547  24568455.6884   24568458.1214   24568455.8684
        43.000          37.000
 09  1 30  0 19  0.0000000  0 11G29G18G24G14G 6G31G 5G30G22G21G12
 127849499.13347  99622970.03247  24328962.9844   24328966.6124   24328962.8064
        44.000          38.000
 118866282.18447  92623071.50147  22619505.2504   22619507.0794   22619505.6074
        50.000          42.000
 122878883.70747  95749768.05047  23383082.8454   23383087.0844   23383082.7654
        46.000          40.000
 119479842.21147  93101166.85547  22736265.6894   22736267.8264   22736265.9294
        48.000          42.000
 125360395.07647  97683413.91447  23855297.1264   23855300.3384   23855296.6324
        44.000          38.000
 110757429.80947  86304491.73447  21076435.1664   21076436.9474   21076434.8564
        54.000          48.000
 123759615.22947  96436049.10347  23550680.7204   23550683.9934   23550680.9084
        46.000          39.000
 118954113.95547  92691504.47247  22636224.3274   22636226.5954   22636223.7894
        50.000          43.000
 121679927.89047  94815529.07747  23154920.3254   23154920.8104   23154920.1644
        47.000          41.000
 106081628.86247  82661006.68047  20186665.1944   20186667.0504   20186665.4634
        55.000          49.000
 129128264.80047 100619425.85947  24572291.0494   24572293.1154   24572290.9104
        42.000          37.000
 09  1 30  0 19 30.0000000  0 11G29G18G24G14G 6G31G 5G30G22G21G12
 127909721.14847  99669896.30047  24340422.6564   24340426.3394   24340422.1394
        43.000          38.000
 118828562.64647  92593679.65647  22612327.7244   22612329.2134   22612328.0984
        50.000          42.000
 122968723.16147  95819772.82147  23400179.0024   23400183.2114   23400179.0974
        46.000          39.000
 119521414.66947  93133560.98747  22744176.8814   22744179.0604   22744177.2604
        48.000          42.000
 125347930.34747  97673701.15847  23852925.1004   23852928.2294   23852925.3364
        44.000          38.000
 110696153.51247  86256744.00447  21064774.6264   21064776.2644   21064774.1504
        54.000          48.000
 123768069.54147  96442636.93147  23552289.4074   23552293.4884   23552289.7024
        45.000          40.000
 118932980.97547  92675037.24847  22632202.6024   22632205.4104   22632202.5994
        50.000          43.000
 121629030.06247  94775868.45047  23145234.9884   23145234.3724   23145235.2054
        48.000          41.000
 106120824.44647  82691548.70247  20194124.1254   20194125.7034   20194124.6704
        55.000          49.000
 129148677.67847 100635332.05147  24576175.9484   24576177.9074   24576175.6994
        42.000          37.000
 09  1 30  0 20  0.0000000  0 11G29G18G24G14G 6G31G 5G30G22G21G12
 127969735.97247  99716661.12447  24351842.9524   24351846.0894   24351842.5474
        44.000          38.000
 118790881.75347  92564317.91947  22605157.5104   22605158.5824   22605158.0584
        50.000          42.000
 123058800.88047  95889963.25347  23417320.3064   23417324.2984   23417320.2514
        45.000          39.000
 119563019.23647  93165980.15147  22752094.3084   22752096.3514   22752094.6634
        48.000          42.000
 125335654.33047  97664135.46747  23850589.0014   23850592.2644   23850588.4224
        44.000          39.000
 110635356.76647  86209369.94547  21053205.5284   21053206.9304   21053205.1614
        54.000          48.000
 123776820.12147  96449455.61747  23553954.6124   23553958.3684   23553954.8144
        46.000          40.000
 118912019.43547  92658703.62047  22628214.0404   22628216.6964   22628213.6434
        50.000          43.000
 121577995.64347  94736101.40147  23135523.5594   23135523.2454   23135523.3954
        48.000          41.000
 106160600.35947  82722542.92547  20201693.1164   20201694.6344   20201693.4714
        55.000          49.000
 129169348.28547 100651439.06347  24580108.7414   24580111.1084   24580108.9554
        42.000          37.000
 09  1 30  0 20 30.0000000  0 11G29G18G24G14G 6G31G 5G30G22G21G12
 128029543.79847  99763264.63147  24363224.3074   24363227.7454   24363224.3624
        42.000          38.000
 118753243.12247  92534989.12447  22597994.6584   22597996.1424   22597995.2474
        49.000          42.000
 123149115.81447  95960338.53947  23434506.2004   23434511.0684   23434506.3294
        47.000          39.000
 119604655.11047  93198423.71247  22760016.7134   22760019.0484   22760017.1164
        47.000          42.000
 125323567.05847  97654716.84747  23848288.7314   23848292.1804   23848288.9724
        44.000          38.000
 110575043.07847  86162372.29347  21041728.1924   21041729.4614   21041727.8094
        54.000          48.000
 123785869.98847  96456507.49947  23555676.9624   23555680.6084   23555677.3174
        46.000          40.000
 118891233.11647  92642506.53047  22624258.3934   22624261.1454   22624257.9124
        50.000          43.000
 121526827.67947  94696230.27947  23125786.3954   23125786.1624   23125786.4134
        48.000          41.000
 106200956.26247  82753989.09447  20209372.6054   20209374.1234   20209372.9284
        54.000          49.000
 129190279.65247 100667749.28247  24584091.8894   24584094.2214   24584091.9684
        42.000          37.000
 09  1 30  0 21  0.0000000  0 11G29G18G24G14G 6G31G 5G30G22G21G12
 128089143.15447  99809705.70547  24374565.1274   24374568.4224   24374564.7584
        42.000          37.000
 118715648.43747  92505694.58047  22590840.8624   22590842.0484   22590841.2594
        49.000          42.000
 123239664.92547  96030896.28747  23451737.5014   23451742.0644   23451737.4354
        46.000          39.000
 119646319.07447  93230889.14347  22767944.9814   22767947.3534   22767945.1704
        48.000          42.000
 125311666.09247  97645443.39747  23846023.7104   23846027.2854   23846023.7874
        44.000          38.000
 110515213.80047  86115752.10347  21030343.1644   21030344.4634   21030342.8604
        54.000          48.000
 123795219.95747  96463793.25047  23557455.9134   23557459.8354   23557456.6324
        45.000          39.000
 118870623.24347  92626446.93347  22620336.3364   22620339.3494   22620336.1384
        50.000          43.000
 121475526.83947  94656255.61247  23116024.4864   23116024.0744   23116024.6174
        48.000          41.000
