     2.11           OBSERVATION DATA    G (GPS)             RINEX VERSION / TYPE
teqc  2008Oct2      gpsops              20090122 00:09:56UTCPGM / RUN BY / DATE
    30.0000                                                 INTERVAL
     1     1                                                WAVELENGTH FACT L1/2
     7    L1    L2    P1    P2    C1    S1    S2            # / TYPES OF OBSERV
Linux 2.4.20-8|Pentium IV|gcc -static|Linux|486/DX+         COMMENT
     2.10           OBSERVATION DATA    GPS                 COMMENT
soc2rnx ver 1.20    gpsops              22-Jan-2009 00:09:47COMMENT
S1, if present, is the SNR for the C/A data stream on L1.   COMMENT
 SNR is mapped to RINEX snr flag value [1,4-9]              COMMENT
    SNR:   >316  >100  >31.6  >10  >3.2    >0 bad=0         COMMENT
L1 & L2:      9     8     7     6     5     4     1         COMMENT
                                                            COMMENT
This data is provided as a public service by NASA/JPL.      COMMENT
No warranty is expressed or implied regarding suitability   COMMENT
for use.  For further information, contact:                 COMMENT
Dave Stowers, NASA/JPL m/s 238-600                          COMMENT
4800 Oak Grove Drive, Pasadena CA 91109 USA                 COMMENT
                                                            COMMENT
Forced Modulo Decimation to 30 seconds                      COMMENT
  2009     1    21     0     0    0.0000000     GPS         TIME OF FIRST OBS
GGN                 JPL                                     OBSERVER / AGENCY
CR519992104         ASH701945B_M    SCIT                    ANT # / TYPE
   -33801.4662 -6377516.5323   -82154.3508                  APPROX POSITION XYZ
        0.0083        0.0000        0.0000                  ANTENNA: DELTA H/E/N
ZR220013847         ASHTECH UZ-12       CQ00                REC # / TYPE / VERS
GLPS                                                        MARKER NAME
42005M002                                                   MARKER NUMBER
                                                            END OF HEADER
 09  1 21  0  0  0.0000000  0 12G 9G14G 5G 6G22G29G24G18G31G12G30G21
 119469628.53147  93093186.96847  22734337.1974   22734343.0664   22734337.8314
        47.000          41.000
 115702902.32747  90158086.71847  22017546.9354   22017549.4524   22017545.7154
        50.000          44.000
 124153698.02047  96743121.23947  23625679.2174   23625684.9144   23625679.6244
        45.000          39.000
 128185093.95247  99884447.01647  24392844.0564   24392850.3994   24392844.9004
        43.000          37.000
 126246146.84147  98373616.11647  24023848.0264   24023848.6674   24023846.8984
        46.000          40.000
 120206659.80547  93667512.59247  22874577.5184   22874582.4364   22874576.5044
        49.000          43.000
 114852777.71047  89495657.39747  21855765.0174   21855772.1904   21855765.5554
        51.000          45.000
 122813453.68547  95698777.93447  23370638.4084   23370640.8374   23370638.7554
        47.000          40.000
 120102023.57447  93585976.51947  22854667.1174   22854670.6614   22854666.7564
        49.000          43.000
 128178238.33647  99879116.80847  24391532.1164   24391538.4364   24391531.2864
        44.000          39.000
 121841698.82347  94941558.95947  23185723.2984   23185728.7264   23185722.9434
        47.000          41.000
 105523345.75047  82225961.62847  20080441.0044   20080443.9204   20080441.4874
        54.000          49.000
 09  1 21  0  0 30.0000000  0 12G 9G14G 5G 6G22G29G24G18G31G12G30G21
 119550994.46247  93156588.99047  22749820.8564   22749825.7034   22749820.6394
        46.000          41.000
 115724248.89147  90174720.40147  22021608.1114   22021611.9264   22021608.3944
        50.000          44.000
 124140894.79547  96733144.69047  23623242.6814   23623249.0844   23623243.0864
        45.000          39.000
 128143869.75147  99852324.25047  24384999.1474   24385006.1664   24384999.1324
        42.000          37.000
 126217039.78447  98350935.34547  24018308.4324   24018310.3344   24018308.2894
        45.000          39.000
 120281849.73047  93726102.12747  22888884.6544   22888889.4614   22888884.6184
        48.000          43.000
 114902659.10747  89534525.98847  21865257.3284   21865263.5364   21865257.2924
        51.000          45.000
 122784174.26247  95675962.80847  23365066.7474   23365069.0424   23365067.2384
        47.000          40.000
 120003392.73347  93509121.38047  22835897.8304   22835901.5784   22835897.7634
        49.000          43.000
 128180090.60847  99880560.15847  24391884.1594   24391890.5294   24391883.7474
        44.000          38.000
 121815692.70047  94921294.47047  23180775.0184   23180780.1404   23180774.2224
        48.000          41.000
 105494992.87547  82203868.47747  20075045.4984   20075048.2384   20075045.9324
        54.000          49.000
 09  1 21  0  1  0.0000000  0 12G 9G14G 5G 6G22G29G24G18G31G12G30G21
 119632760.67147  93220302.92647  22765380.5014   22765385.2044   22765380.4344
        46.000          41.000
 115745913.23047  90191601.69847  22025730.8094   22025734.3254   22025730.9314
        50.000          44.000
 124128166.08647  96723226.23447  23620820.3744   23620826.6364   23620820.6364
        45.000          39.000
 128102949.11847  99820438.04347  24377212.7084   24377219.6664   24377212.8464
        42.000          38.000
 126187706.88747  98328078.60247  24012726.1854   24012728.1294   24012726.1284
        46.000          39.000
 120357004.00147  93784663.88347  22903186.0324   22903190.9054   22903185.6204
        48.000          43.000
 114952988.95147  89573744.03147  21874835.0814   21874840.7644   21874835.2604
        51.000          45.000
 122754731.61947  95653020.49847  23359463.7334   23359465.9414   23359464.2024
        48.000          40.000
 119904936.58047  93432402.35247  22817162.2674   22817165.7834   22817162.3014
        48.000          43.000
 128182011.19047  99882056.74047  24392249.2594   24392255.2544   24392249.3734
        43.000          38.000
 121789614.20847  94900973.57947  23175812.4984   23175817.6844   23175812.5664
        48.000          41.000
 105467201.44747  82182212.81047  20069756.9554   20069759.7174   20069757.2574
        54.000          49.000
 09  1 21  0  1 30.0000000  0 12G 9G14G 5G 6G22G29G24G18G31G12G30G21
 119714921.77147  93284324.58047  22781015.3294   22781019.7924   22781015.3084
        47.000          41.000
 115767889.94347  90208726.40047  22029912.7234   22029916.3844   22029912.7684
        50.000          44.000
 124115511.10847  96713365.24847  23618411.9864   23618418.1894   23618412.3474
        45.000          39.000
 128062329.21547  99788786.14747  24369482.7454   24369489.6084   24369482.9144
        41.000          37.000
 126158145.12547  98305043.51647  24007100.5994   24007102.4524   24007100.5934
        45.000          39.000
 120432117.43747  93843193.82447  22917479.5504   22917484.3894   22917479.3484
        48.000          43.000
 115003763.37447  89613308.49347  21884497.1754   21884502.8164   21884497.2044
        51.000          45.000
 122725123.84047  95629949.51647  23353829.6894   23353832.3814   23353830.0644
        48.000          40.000
 119806655.02047  93355819.36647  22798460.0404   22798463.4524   22798459.1174
        48.000          43.000
 128183999.20847  99883605.87147  24392627.8564   24392634.3354   24392627.3504
        44.000          38.000
 121763462.37847  94880595.54647  23170835.7954   23170840.7124   23170835.4234
        48.000          41.000
 105439970.48547  82160993.87347  20064575.1144   20064577.7884   20064575.5564
        54.000          49.000
 09  1 21  0  2  0.0000000  0 12G 9G14G 5G 6G22G29G24G18G31G12G30G21
 119797477.64447  93348653.84547  22796725.4784   22796729.8384   22796725.2364
        48.000          41.000
 115790179.49847  90226094.88047  22034154.3574   22034157.8534   22034154.6504
        50.000          44.000
 124102934.23347  96703565.11247  23616018.9374   23616024.8494   23616019.4994
        46.000          39.000
 128022011.94447  99757370.11047  24361810.7674   24361817.4294   24361810.9474
        42.000          37.000
 126128356.97547  98281832.01947  24001431.9724   24001433.9584   24001432.2084
        46.000          39.000
 120507190.08347  93901691.97447  22931765.5374   22931770.4434   22931765.0134
        48.000          42.000
 115054983.55747  89653220.29647  21894244.0934   21894249.4554   21894244.3644
        51.000          45.000
 122695354.68047  95606752.77447  23348164.2894   23348167.7754   23348164.9094
        47.000          40.000
 119708553.25747  93279376.48847  22779791.7914   22779795.2554   22779791.1624
        49.000          43.000
 128186058.75647  99885210.75147  24393019.7464   24393025.9274   24393019.0524
        42.000          38.000
 121737241.32447  94860163.56247  23165846.0834   23165851.6654   23165845.7194
        48.000          42.000
 105413304.12047  82140214.88147  20059500.6344   20059503.3734   20059501.0974
        54.000          49.000
 09  1 21  0  2 30.0000000  0 12G 9G14G 5G 6G22G29G24G18G31G12G30G21
 119880423.02847  93413286.62847  22812509.3694   22812513.6444   22812509.3854
        48.000          41.000
 115812776.08947  90243702.61447  22038454.1894   22038457.8864   22038454.4814
        50.000          44.000
 124090434.60047  96693825.16247  23613640.4784   23613646.1484   23613641.1244
        46.000          39.000
 127981993.81447  99726187.13647  24354195.4934   24354202.2464   24354195.9514
        41.000          37.000
 126098339.54647  98258441.85347  23995719.7884   23995722.1764   23995720.1334
        45.000          39.000
 120582216.60647  93960154.20247  22946042.6624   22946047.1974   22946042.3724
        48.000          42.000
 115106645.02847  89693475.96647  21904074.7234   21904080.2254   21904074.8804
        51.000          45.000
 122665422.21947  95583428.78447  23342468.7624   23342471.9114   23342469.2984
        48.000          40.000
 119610631.23947  93203073.68547  22761157.5324   22761161.1664   22761157.4414
        49.000          43.000
 128188188.65947  99886870.44047  24393424.8864   24393430.9064   24393424.1924
        43.000          38.000
 121710949.58147  94839676.50747  23160843.0954   23160848.1824   23160842.7174
        48.000          42.000
 105387200.85747  82119874.66847  20054533.4144   20054536.1604   20054533.8374
        54.000          49.000
 09  1 21  0  3  0.0000000  0 12G 9G14G 5G 6G22G29G24G18G31G12G30G21
 119963761.06247  93478225.36547  22828368.1954   22828372.3624   22828368.0334
        47.000          41.000
 115835682.85847  90261552.04847  22042813.0314   22042816.8504   22042813.3054
        50.000          44.000
 124078019.68047  96684151.22647  23611277.9044   23611283.9434   23611278.6274
        46.000          39.000
 127942279.72247  99695241.10047  24346638.0294   24346644.8744   24346638.1034
        42.000          37.000
 126068098.44247  98234877.41547  23989965.1774   23989967.2594   23989965.0824
        45.000          39.000
 120657200.38347  94018583.11847  22960311.6804   22960316.2054   22960311.3044
        48.000          42.000
 115158752.30747  89734079.01747  21913990.4764   21913996.1734   21913990.5904
        51.000          45.000
 122635333.06247  95559982.68647  23336743.2434   23336746.3374   23336743.7804
        47.000          40.000
 119512897.42347  93126917.51447  22742559.2714   22742562.8484   22742558.6444
        48.000          43.000
 128190396.16347  99888590.60647  24393844.4824   24393850.8294   24393843.7194
        43.000          38.000
 121684594.47447  94819140.07747  23155827.6914   23155833.0164   23155827.3924
        48.000          41.000
 105361668.05947  82099978.96547  20049674.7524   20049677.3464   20049675.1484
        54.000          49.000
 09  1 21  0  3 30.0000000  0 12G 9G14G 5G 6G22G29G24G18G31G12G30G21
 120047485.23147  93543464.99447  22844300.1454   22844304.3084   22844300.3154
        48.000          41.000
 115858893.48547  90279638.24747  22047230.0534   22047233.6924   22047230.3164
        50.000          44.000
 124065687.48247  96674541.74947  23608931.2414   23608936.8724   23608931.7924
        46.000          39.000
 127902865.35947  99664528.58147  24339138.5494   24339144.6604   24339138.7414
        43.000          37.000
 126037629.48547  98211135.42247  23984167.1854   23984169.0504   23984167.3634
        44.000          39.000
 120732135.24147  94076973.92147  22974571.3944   22974575.8884   22974571.2044
        48.000          43.000
 115211300.17147  89775025.37947  21923990.0194   21923995.9454   21923990.0804
        51.000          45.000
 122605084.42147  95536412.30947  23330986.9374   23330990.2684   23330987.4674
        47.000          40.000
 119415350.41147  93050906.92047  22723996.5324   22724000.2304   22723996.3344
        49.000          43.000
 128192679.15147  99890369.57047  24394279.1734   24394285.3404   24394278.5004
        44.000          38.000
 121658174.07747  94798552.76447  23150800.1704   23150804.9624   23150799.3864
        48.000          41.000
 105336703.02047  82080525.68147  20044924.0154   20044926.7994   20044924.3394
        54.000          49.000
 09  1 21  0  4  0.0000000  0 12G 9G14G 5G 6G22G29G24G18G31G12G30G21
 120131594.43647  93609004.65247  22860305.9884   22860310.0234   22860305.9134
        47.000          41.000
 115882407.04147  90297960.50047  22051704.3964   22051708.2194   22051704.6844
        50.000          44.000
 124053441.77747  96664999.67547  23606600.7434   23606606.7154   23606601.3004
        45.000          39.000
 127863751.83847  99634050.52247  24331695.1864   24331701.5164   24331694.8074
        43.000          37.000
 126006934.58347  98187217.35447  23978325.9664   23978327.4164   23978326.0514
        46.000          38.000
 120807020.42247  94135326.01047  22988821.6294   22988826.1514   22988821.3534
        48.000          42.000
 115264289.19847  89816315.50147  21934073.4234   21934079.6794   21934073.6014
        51.000          45.000
 122574679.27247  95512719.99847  23325200.9884   23325204.0694   23325201.4234
        47.000          40.000
 119317994.91247  92975045.55047  22705470.6654   22705474.1934   22705469.9624
        49.000          43.000
 128195041.33947  99892210.26147  24394729.2474   24394735.0744   24394728.9444
        44.000          39.000
 121631691.73247  94777917.21447  23145760.3984   23145765.6154   23145760.4764
        48.000          42.000
 105312308.93047  82061517.28847  20040281.9584   20040284.6854   20040282.3864
        54.000          49.000
 09  1 21  0  4 30.0000000  0 12G 9G14G 5G 6G22G29G24G18G31G12G30G21
 120216085.10047  93674841.54747  22876383.8544   22876388.3314   22876383.9404
        47.000          41.000
 115906219.75847  90316515.87547  22056236.0094   22056239.9234   22056236.0634
        50.000          44.000
 124041283.36447  96655525.59847  23604287.1874   23604293.2784   23604287.4284
        45.000          39.000
 127824937.39847  99603805.49447  24324309.4044   24324315.2904   24324308.8894
        42.000          37.000
 125976012.68347  98163122.41547  23972441.4974   23972443.2024   23972441.8524
        44.000          38.000
 120881852.54247  94193636.75947  23003061.6864   23003065.9294   23003061.2304
        47.000          42.000
 115317716.85847  89857947.42447  21944240.3724   21944246.5824   21944240.4554
        51.000          45.000
 122544117.14547  95488905.35247  23319385.0374   23319387.9264   23319385.8824
        46.000          40.000
 119220832.42247  92899334.58747  22686981.1154   22686984.7274   22686981.1814
        49.000          43.000
 128197483.10847  99894112.96247  24395193.9654   24395200.1694   24395193.5764
        44.000          39.000
 121605147.89847  94757233.71847  23140709.5814   23140714.4114   23140708.9624
        48.000          42.000
 105288485.99847  82042953.95147  20035748.5504   20035751.2664   20035748.9434
        54.000          49.000
 09  1 21  0  5  0.0000000  0 12G 9G14G 5G 6G22G29G24G18G31G12G30G21
 120300956.41447  93740975.05047  22892534.1944   22892538.3384   22892534.1604
        47.000          41.000
 115930330.95747  90335303.82247  22060824.4514   22060828.1204   22060824.5524
        51.000          45.000
 124029216.05147  96646122.51847  23601990.7884   23601996.5444   23601991.4304
        45.000          39.000
 127786423.33747  99573794.54447  24316979.7174   24316986.1604   24316979.4194
        42.000          37.000
 125944865.47647  98138851.92547  23966514.3734   23966516.3384   23966514.2064
        45.000          38.000
 120956631.24447  94251905.88647  23017291.3474   23017296.0794   23017290.9664
        48.000          42.000
 115371583.37347  89899921.30547  21954490.8414   21954497.1714   21954491.0534
        51.000          45.000
 122513401.22347  95464970.85847  23313540.0764   23313542.7054   23313540.4744
        47.000          40.000
 119123867.45647  92823777.52747  22668529.2624   22668533.0754   22668528.3784
        49.000          43.000
 128200008.10447  99896080.51347  24395674.5434   24395680.7154   24395674.2644
        44.000          39.000
 121578546.33447  94736505.26247  23135647.4704   23135652.3454   23135647.2994
        48.000          42.000
 105265237.66947  82024838.35547  20031324.6714   20031327.3664   20031325.0364
        54.000          49.000
 09  1 21  0  5 30.0000000  0 12G 9G14G 5G 6G22G29G24G18G31G12G30G21
 120386204.62747  93807402.23947  22908756.5584   22908760.4934   22908756.5464
        47.000          40.000
 115954737.12547  90354321.61447  22065468.7184   22065472.3294   22065468.9224
        50.000          44.000
 124017240.70047  96636791.11147  23599711.5594   23599717.9144   23599712.0304
        45.000          39.000
 127748207.81947  99544016.22947  24309707.6464   24309714.1514   24309707.2834
        42.000          37.000
 125913491.92247  98114405.05447  23960544.2784   23960545.5004   23960544.0804
        45.000          38.000
 121031352.90547  94310130.56447  23031510.6294   23031515.2434   23031510.0754
        47.000          42.000
 115425886.43247  89942235.35547  21964824.4464   21964830.3874   21964824.4924
        51.000          44.000
 122482531.76547  95440916.73547  23307665.9774   23307668.5654   23307666.3684
        47.000          40.000
 119027101.90447  92748375.87147  22650115.4964   22650118.7644   22650115.1174
        49.000          43.000
 128202617.12847  99898113.54147  24396171.0844   24396176.5714   24396170.9444
        44.000          39.000
 121551887.46447  94715732.14447  23130574.3334   23130579.3634   23130574.0364
        48.000          42.000
 105242564.16747  82007170.67647  20027009.9774   20027012.7064   20027010.3634
        54.000          49.000
 09  1 21  0  6  0.0000000  0 12G 9G14G 5G 6G22G29G24G18G31G12G30G21
 120471827.17147  93874121.12147  22925049.8164   22925053.8754   22925050.0354
        47.000          40.000
 115979435.30747  90373566.94547  22070168.6344   22070172.3874   22070168.9134
        51.000          44.000
 124005359.10847  96627532.77147  23597450.4344   23597457.0204   23597451.0084
        45.000          39.000
 127710290.23247  99514470.07647  24302491.9744   24302498.7264   24302491.9104
        42.000          37.000
 125881891.93147  98089781.72547  23954531.0634   23954532.4764   23954530.7104
        45.000          38.000
 121106015.38247  94368309.11647  23045718.2014   23045722.8854   23045718.0634
        47.000          42.000
 115480624.58347  89984888.44147  21975240.8584   21975246.6514   21975241.1024
        51.000          44.000
 122451509.68647  95416743.67447  23301762.5064   23301765.6274   23301763.0564
        47.000          40.000
 118930538.37047  92673131.62347  22631739.9284   22631743.0984   22631739.9224
        50.000          43.000
 128205311.37147  99900212.96947  24396683.5294   24396689.0064   24396683.2524
        44.000          38.000
 121525173.04247  94694915.72547  23125490.9824   23125495.6084   23125490.5564
        48.000          41.000
 105220466.78747  81989951.91847  20022805.1374   20022807.7604   20022805.5474
        54.000          50.000
 09  1 21  0  6 30.0000000  0 12G 9G14G 5G 6G22G29G24G18G31G12G30G21
 120557825.07347  93941132.48547  22941414.5634   22941418.8934   22941414.9424
        46.000          40.000
 116004426.61947  90393040.68347  22074924.4094   22074928.0664   22074924.6744
        50.000          44.000
 123993576.95547  96618351.89247  23595208.4834   23595214.9264   23595208.9904
        45.000          39.000
 127672673.45047  99485158.30947  24295334.0684   24295340.0924   24295334.0174
        42.000          37.000
 125850069.17247  98064984.81447  23948475.2524   23948476.9484   23948475.3354
        45.000          39.000
 121180620.03347  94426442.61247  23059915.0944   23059919.5904   23059915.0374
        47.000          42.000
 115535800.14647  90027882.35647  21985740.2294   21985746.1154   21985740.3044
        51.000          44.000
 122420339.76547  95392455.43547  23295830.9844   23295834.3444   23295831.2544
        47.000          40.000
 118834183.33147  92598049.83047  22613404.2104   22613407.3614   22613404.0084
        49.000          43.000
 128208096.71547  99902383.38447  24397213.5944   24397219.4924   24397213.2644
        43.000          38.000
 121498408.44847  94674060.21747  23120397.5964   23120402.5514   23120396.8614
        48.000          41.000
 105198950.58447  81973186.03247  20018710.5694   20018713.4154   20018710.8814
        54.000          49.000
 09  1 21  0  7  0.0000000  0 12G 9G14G 5G 6G22G29G24G18G31G12G30G21
 120644190.68547  94008430.38547  22957849.3294   22957854.0224   22957849.4854
        46.000          41.000
 116029703.38147  90412736.86047  22079734.4164   22079738.0334   22079734.5574
        50.000          45.000
 123981891.03547  96609245.98147  23592984.8894   23592991.2014   23592985.1234
        45.000          39.000
 127635351.92647  99456076.61047  24288231.2304   24288238.0844   24288232.3434
        42.000          37.000
 125818018.71447  98040010.46647  23942376.8594   23942378.1784   23942376.9844
        46.000          39.000
 121255159.32647  94484525.18347  23074099.5014   23074104.1054   23074099.2364
        47.000          42.000
 115591406.35447  90071211.83647  21996322.1164   21996327.8834   21996322.3334
        51.000          44.000
 122389018.10447  95368048.95247  23289870.6674   23289873.5744   23289871.4274
        47.000          40.000
 118738033.92647  92523128.27247  22595107.5554   22595110.7474   22595107.0144
        49.000          43.000
 128210969.56747  99904621.98947  24397759.9694   24397766.1834   24397759.5854
        44.000          39.000
 121471590.14147  94653162.84647  23115294.0544   23115299.5554   23115293.8914
        48.000          42.000
 105178011.66347  81956869.96747  20014726.1444   20014728.7624   20014726.5214
        54.000          49.000
 09  1 21  0  7 30.0000000  0 12G 9G14G 5G 6G22G29G24G18G31G12G30G21
 120730924.66447  94076015.30547  22974354.3834   22974358.8514   22974354.7974
        47.000          40.000
 116055266.04347  90432655.81547  22084598.6684   22084602.3494   22084599.0794
        50.000          44.000
 123970306.43647  96600219.04247  23590780.1774   23590786.4504   23590780.8394
        45.000          39.000
 127598327.84747  99427226.70447  24281186.0874   24281192.7514   24281186.1354
        43.000          37.000
 125785743.65747  98014861.12947  23936234.5094   23936236.3824   23936234.5994
        44.000          39.000
 121329634.20347  94542557.56147  23088271.2904   23088276.1434   23088270.8804
        47.000          42.000
 115647444.90147  90114878.21647  22006985.8984   22006991.6454   22006986.0864
        51.000          44.000
 122357548.83747  95343527.44747  23283882.7634   23283885.2084   23283883.2064
        47.000          41.000
 118642096.81147  92448372.13447  22576851.2554   22576854.4574   22576850.8104
        50.000          43.000
 128213934.69847  99906932.52147  24398323.9644   24398329.7724   24398323.9384
        44.000          38.000
 121444722.99147  94632227.42447  23110181.3904   23110187.0144   23110181.2244
        48.000          41.000
 105157654.55547  81941007.27747  20010852.1884   20010855.0144   20010852.6554
        54.000          49.000
 09  1 21  0  8  0.0000000  0 12G 9G14G 5G 6G22G29G24G18G31G12G30G21
 120818025.64647  94143886.21147  22990929.2104   22990933.5144   22990929.4424
        46.000          40.000
 116081113.81547  90452796.93547  22089517.4144   22089520.8314   22089517.6124
        51.000          44.000
 123958826.61847  96591273.74647  23588595.6724   23588602.2074   23588596.0534
        45.000          39.000
 127561602.19747  99398609.30847  24274197.7144   24274203.8364   24274197.7254
        43.000          37.000
 125753245.45147  97989537.88847  23930050.2874   23930051.7824   23930049.8764
        46.000          39.000
 121404044.04247  94600539.27847  23102430.9014   23102435.6664   23102430.4244
        47.000          42.000
 115703915.92047  90158881.58047  22017732.0714   22017737.5374   22017732.2394
        51.000          44.000
 122325934.99447  95318893.28347  23277867.0084   23277869.6564   23277867.5144
        47.000          41.000
 118546375.94747  92373784.51747  22558635.9214   22558639.3364   22558635.6274
        49.000          44.000
 128216995.50647  99909317.57547  24398906.6664   24398912.6264   24398906.4084
        43.000          39.000
 121417810.20347  94611256.43947  23105060.2494   23105065.0434   23105059.8014
        47.000          41.000
 105137881.88247  81925599.98347  20007089.7044   20007092.3994   20007090.1184
        54.000          49.000
 09  1 21  0  8 30.0000000  0 12G 9G14G 5G 6G22G29G24G18G31G12G30G21
 120905487.94547  94212038.67947  23007572.4424   23007576.9754   23007572.4504
        46.000          41.000
 116107240.98747  90473155.77047  22094489.0264   22094492.7634   22094489.5014
        50.000          44.000
 123947450.92247  96582409.59447  23586431.1734   23586437.7004   23586431.2804
        45.000          39.000
 127525171.56147  99370221.81547  24267265.4244   24267272.1284   24267265.4884
        43.000          37.000
 125720521.68847  97964038.89947  23923823.3404   23923824.8224   23923823.3964
        45.000          39.000
 121478383.92347  94658466.47947  23116577.5524   23116581.9864   23116577.0664
        47.000          42.000
 115760815.06647  90203218.55647  22028559.8034   22028565.1684   22028559.8624
        51.000          44.000
 122294174.62147  95294144.95947  23271822.4444   23271825.6604   23271822.9174
        47.000          41.000
 118450871.11547  92299365.22647  22540461.8324   22540465.3624   22540461.4814
        49.000          44.000
 128220150.81647  99911776.29747  24399507.1844   24399512.9674   24399506.7764
        44.000          38.000
 121390851.04847  94590249.31247  23099929.8374   23099934.7334   23099929.2014
        47.000          41.000
 105118692.06847  81910646.86547  20003437.9884   20003440.7014   20003438.3314
        54.000          50.000
 09  1 21  0  9  0.0000000  0 12G 9G14G 5G 6G22G29G24G18G31G12G30G21
 120993311.21447  94280472.41847  23024284.7494   23024289.3324   23024284.7824
        48.000          40.000
 116133647.26447  90493732.09147  22099513.8844   22099517.7114   22099514.0404
        50.000          44.000
 123936183.44647  96573629.75747  23584286.6704   23584293.5424   23584286.9904
        45.000          39.000
 127489037.32347  99342065.27747  24260389.4904   24260395.2664   24260389.4064
        42.000          37.000
 125687574.54347  97938365.84847  23917553.6414   23917555.5814   23917553.5754
        46.000          39.000
 121552653.56947  94716338.93947  23130710.2504   23130715.0094   23130710.0024
        47.000          42.000
 115818142.91647  90247889.58147  22039468.7744   22039474.5404   22039468.8974
        51.000          44.000
 122262271.74447  95269285.57747  23265751.5914   23265754.7524   23265752.0934
        48.000          41.000
 118355587.76447  92225118.51647  22522329.9244   22522333.5274   22522329.4174
        49.000          44.000
 128223404.78147  99914311.91147  24400125.7724   24400132.0854   24400125.3114
        44.000          39.000
 121363849.48047  94569209.13047  23094791.5554   23094796.6884   23094791.1734
        48.000          41.000
 105100088.44747  81896150.52147  19999897.9224   19999900.6064   19999898.2344
        54.000          50.000
 09  1 21  0  9 30.0000000  0 12G 9G14G 5G 6G22G29G24G18G31G12G30G21
 121081491.60847  94349184.43747  23041064.8854   23041069.1774   23041065.2304
        47.000          40.000
 116160328.67547  90514522.80547  22104591.4554   22104595.1454   22104591.5904
        51.000          44.000
 123925024.83147  96564934.77047  23582163.2644   23582169.2424   23582163.6764
        45.000          39.000
 127453197.44847  99314138.11647  24253568.5184   24253575.8064   24253568.4654
        42.000          37.000
 125654402.89847  97912517.86647  23911240.9594   23911242.5984   23911241.0874
        45.000          39.000
 121626849.74347  94774154.16047  23144829.3934   23144833.9074   23144829.4244
        47.000          41.000
 115875896.92847  90292892.68547  22050458.7364   22050464.6984   22050458.9894
        51.000          44.000
 122230225.72247  95244314.64847  23259653.6294   23259656.6204   23259653.9964
        48.000          41.000
 118260527.03747  92151045.27747  22504240.3414   22504244.1194   22504239.9074
        50.000          44.000
 128226757.79347  99916924.70947  24400763.9124   24400769.7914   24400764.0514
        44.000          38.000
 121336806.07247  94548136.36947  23089645.3964   23089650.6024   23089645.4024
        48.000          41.000
 105082071.07947  81882110.99847  19996469.4494   19996472.0204   19996469.7864
        54.000          50.000
 09  1 21  0 10  0.0000000  0 12G 9G14G 5G 6G22G29G24G18G31G12G30G21
 121170028.09547  94418173.94247  23057912.9484   23057917.0734   23057913.1084
        48.000          40.000
 116187283.97747  90535526.93947  22109720.9494   22109724.5734   22109721.2204
        50.000          44.000
 123913978.55547  96556327.29547  23580060.9344   23580067.6504   23580061.1594
        45.000          39.000
 127417652.65847  99286440.86947  24246805.1174   24246811.5834   24246805.5604
        41.000          37.000
 125621009.02147  97886496.72647  23904886.3114   23904887.6384   23904886.5384
        46.000          39.000
 121700971.83147  94831911.64247  23158934.6394   23158938.6354   23158934.9884
        48.000          41.000
 115934076.97947  90338227.75847  22061530.0484   22061536.1244   22061530.2644
        51.000          44.000
 122198039.45747  95219234.44247  23253529.0214   23253532.1514   23253529.4304
        48.000          41.000
 118165693.00347  92077148.67247  22486194.0114   22486197.6984   22486193.6184
        49.000          44.000
 128230213.17747  99919617.24247  24401421.7564   24401426.9434   24401420.8344
        44.000          38.000
 121309724.00047  94527033.46847  23084491.8744   23084496.8744   23084491.2784
        48.000          42.000
 105064642.63147  81868530.37147  19993152.8484   19993155.5594   19993153.2814
        54.000          50.000
 09  1 21  0 10 30.0000000  0 12G 9G14G 5G 6G22G29G24G18G31G12G30G21
 121258918.31147  94487439.08247  23074828.0294   23074831.8544   23074828.2944
        46.000          40.000
 116214511.68147  90556743.33547  22114902.0264   22114905.7174   22114902.2314
        50.000          44.000
 123903047.43847  96547809.56847  23577980.8044   23577987.5424   23577981.4324
        45.000          39.000
 127382403.13647  99258973.71847  24240096.7904   24240103.0914   24240096.6144
        42.000          36.000
 125587392.77347  97860302.31147  23898489.5924   23898490.9854   23898489.9444
        45.000          39.000
 121775018.24847  94889610.16547  23173025.5554   23173029.2994   23173025.5154
        47.000          41.000
 115992682.29947  90383894.22047  22072682.4444   22072688.0534   22072682.5294
        51.000          44.000
 122165715.18847  95194046.69947  23247377.9954   23247380.8754   23247378.2704
        48.000          41.000
 118071089.65247  92003431.82347  22468191.8494   22468195.4124   22468191.1934
        50.000          44.000
 128233773.38647  99922391.48147  24402098.7914   24402105.0284   24402098.7704
        44.000          38.000
 121282605.84147  94505902.45147  23079331.4354   23079336.6334   23079331.0754
        47.000          42.000
 105047805.16547  81855410.25147  19989948.7424   19989951.5324   19989949.0624
        54.000          50.000
 09  1 21  0 11  0.0000000  0 12G 9G14G 5G 6G22G29G24G18G31G12G30G21
 121348157.58047  94556976.21947  23091809.5074   23091813.6084   23091809.8854
        46.000          40.000
 116242006.55747  90578167.92147  22120134.0774   22120137.8814   22120134.2874
        50.000          44.000
 123892230.96147  96539381.15247  23575922.5164   23575929.2354   23575922.8654
        44.000          39.000
 127347445.66347  99231734.12747  24233445.4874   24233451.1974   24233445.4854
        43.000          37.000
 125553552.10147  97833932.98147  23892049.8194   23892051.4264   23892049.6704
        45.000          39.000
 121848984.31847  94947246.08047  23187100.6544   23187104.8284   23187100.4614
        47.000          41.000
 116051708.84347  90429888.90947  22083914.7354   22083920.4964   22083914.7394
        51.000          44.000
 122133251.20147  95168750.09247  23241200.2204   23241203.1194   23241200.6764
        48.000          41.000
 117976717.34547  91929895.00747  22450233.2624   22450237.0954   22450233.1524
        50.000          44.000
 128237437.16747  99925246.42347  24402796.5854   24402801.4924   24402795.9354
        44.000          38.000
 121255451.09347  94484742.91847  23074163.9174   23074169.2314   23074163.5464
        48.000          41.000
 105031556.83447  81842749.20647  19986856.6464   19986859.5654   19986856.9834
        54.000          50.000
 09  1 21  0 11 30.0000000  0 12G 9G14G 5G 6G22G29G24G18G31G12G30G21
 121437746.05947  94626785.45247  23108857.9574   23108861.9384   23108858.0614
        47.000          40.000
 116269768.89147  90599800.91847  22125417.0144   22125421.0064   22125417.3124
        51.000          44.000
 123881534.21747  96531046.05947  23573886.9784   23573893.9404   23573887.5664
        45.000          39.000
 127312782.45947  99204723.81947  24226849.3644   24226855.3274   24226849.7894
        42.000          37.000
 125519490.63647  97807391.62847  23885567.7994   23885569.6404   23885567.8724
        45.000          39.000
 121922871.09947  95004820.20647  23201160.5884   23201165.3354   23201160.2774
        47.000          42.000
 116111158.10747  90476212.98147  22095227.5894   22095233.2954   22095227.6474
        50.000          44.000
 122100652.47647  95143348.48447  23234996.7724   23234999.8354   23234997.1994
        48.000          41.000
 117882581.70747  91856542.60647  22432319.7804   22432323.5844   22432319.2284
        50.000          44.000
 128241210.43247  99928186.67347  24403514.2094   24403519.7914   24403514.0884
        44.000          38.000
 121228264.76347  94463558.76847  23068990.2884   23068995.9524   23068989.9104
        48.000          41.000
 105015902.27947  81830550.83747  19983877.8614   19983880.6194   19983878.3254
        54.000          50.000
 09  1 21  0 12  0.0000000  0 12G 9G14G 5G 6G22G29G24G18G31G12G30G21
 121527678.38747  94696862.62547  23125971.3484   23125975.9494   23125971.1214
        46.000          40.000
 116297793.42247  90621638.21747  22130750.0624   22130753.6564   22130750.3224
        51.000          44.000
 123870956.41747  96522803.66447  23571874.6704   23571880.5664   23571874.9564
        46.000          39.000
 127278409.99747  99177940.08647  24220307.7274   24220314.3684   24220308.3264
        42.000          37.000
 125485205.78447  97780676.22947  23879043.6674   23879045.5464   23879043.3344
        45.000          39.000
 121996673.79647  95062328.81547  23215204.8184   23215209.3564   23215204.5794
        47.000          42.000
 116171025.80347  90522863.11047  22106619.9864   22106625.9924   22106620.2364
        50.000          44.000
 122067917.35847  95117840.58847  23228767.4704   23228770.6734   23228767.9344
        48.000          41.000
 117788683.04247  91783374.85547  22414451.6144   22414455.2094   22414450.9344
        50.000          44.000
 128245091.18947  99931210.69447  24404253.0654   24404258.4564   24404253.2404
        44.000          38.000
 121201045.60647  94442349.07247  23063810.6804   23063816.2714   23063810.6904
        48.000          42.000
 105000839.53547  81818813.62547  19981011.6854   19981014.3394   19981012.1484
        54.000          50.000
 09  1 21  0 12 30.0000000  0 12G 9G14G 5G 6G22G29G24G18G31G12G30G21
 121617953.24147  94767206.69947  23143150.0084   23143154.6334   23143150.2794
        46.000          40.000
 116326078.84747  90643678.81747  22136132.6834   22136136.2134   22136133.0794
        50.000          44.000
 123860500.98447  96514656.56847  23569884.9674   23569891.1834   23569885.0054
        45.000          39.000
 127244328.95447  99151383.40947  24213823.2914   24213828.3404   24213823.1864
        43.000          37.000
 125450699.14247  97753787.99147  23872476.7824   23872478.7464   23872477.2254
        45.000          39.000
 122070391.57947  95119771.25447  23229232.5014   23229237.4624   23229232.2304
        46.000          42.000
 116231311.94547  90569839.30447  22118092.0944   22118098.1434   22118092.2914
        50.000          44.000
 122035048.76547  95092228.69347  23222512.4094   23222515.8224   23222513.0914
        47.000          41.000
 117695025.33847  91710394.87247  22396629.1234   22396632.6584   22396629.2894
        50.000          44.000
 128249082.80647  99934321.09647  24405011.6444   24405018.5694   24405011.3164
        43.000          38.000
 121173797.12747  94421116.50747  23058626.0754   23058630.9474   23058625.4384
        49.000          42.000
 104986371.09447  81807539.50447  19978258.3944   19978261.0704   19978258.8504
        54.000          50.000
 09  1 21  0 13  0.0000000  0 12G 9G14G 5G 6G22G29G24G18G31G12G30G21
 121708569.98747  94837817.18647  23160394.1124   23160398.3114   23160393.7694
        46.000          40.000
 116354624.76347  90665922.39147  22141564.6914   22141568.3254   22141564.8494
        50.000          44.000
 123850172.15147  96506608.14447  23567919.4144   23567925.7734   23567919.4804
        45.000          39.000
 127210540.86347  99125055.00747  24207393.6724   24207399.0764   24207393.5314
        42.000          37.000
 125415973.32047  97726728.94247  23865868.8044   23865870.9644   23865868.6364
        45.000          39.000
 122144024.85347  95177147.84747  23243244.3894   23243249.3904   23243244.5444
        46.000          41.000
 116292016.84847  90617141.80747  22129643.9574   22129649.7954   22129643.8854
        50.000          44.000
 122002050.26147  95066515.55047  23216233.5734   23216236.2514   23216233.9704
        47.000          41.000
 117601613.66147  91637606.60347  22378853.2754   22378857.0314   22378852.7574
        50.000          45.000
 128253189.70947  99937521.32947  24405794.1334   24405799.8264   24405794.0524
        44.000          38.000
 121146523.48247  94399864.32347  23053435.7844   23053440.7854   23053435.5104
        48.000          42.000
 104972500.56947  81796731.29047  19975618.7934   19975621.5904   19975619.1714
        54.000          50.000
 09  1 21  0 13 30.0000000  0 12G 9G14G 5G 6G22G29G24G18G31G12G30G21
 121799522.36147  94908689.19347  23177701.3834   23177705.9144   23177701.4304
        46.000          40.000
 116383425.26147  90688364.33647  22147045.2864   22147048.6544   22147045.6804
        50.000          44.000
 123839968.62947  96498657.35247  23565977.3164   23565984.2794   23565977.9334
        45.000          39.000
 127177041.37647  99098951.50347  24201018.7024   24201024.2734   24201018.5064
        43.000          37.000
 125381024.99947  97699496.51947  23859218.3824   23859219.9074   23859218.0204
        46.000          39.000
 122217568.05147  95234454.23947  23257239.3974   23257244.3644   23257239.0894
        47.000          42.000
 116353135.46147  90664766.68147  22141274.3104   22141280.5104   22141274.5574
        50.000          44.000
 121968919.54247  95040699.40047  23209928.2344   23209931.9354   23209928.8444
        47.000          40.000
 117508447.24147  91565009.43647  22361124.1194   22361127.8884   22361123.4174
        50.000          45.000
 128257409.95947  99940809.85847  24406596.5584   24406603.0044   24406596.7094
        43.000          38.000
 121119223.25347  94378591.44447  23048240.6474   23048245.8614   23048240.5074
        48.000          42.000
 104959225.03747  81786386.70847  19973092.5394   19973095.2984   19973092.9714
        54.000          50.000
 09  1 21  0 14  0.0000000  0 12G 9G14G 5G 6G22G29G24G18G31G12G30G21
 121890810.96647  94979823.21347  23195073.1444   23195077.0824   23195073.3214
        46.000          40.000
 116412480.75047  90711004.97647  22152574.2254   22152578.0204   22152574.5294
        50.000          44.000
 123829895.47247  96490808.17447  23564060.4444   23564067.2034   23564061.3394
        45.000          39.000
 127143832.95147  99073074.78247  24194698.8564   24194704.6074   24194698.7544
        42.000          37.000
 125345857.85547  97672093.59647  23852526.2814   23852527.7374   23852525.9924
        45.000          39.000
 122291022.36247  95291691.36947  23271217.3474   23271222.1714   23271217.2734
        47.000          42.000
 116414669.50547  90712715.26147  22152983.9574   22152990.0044   22152984.2784
        51.000          44.000
 121935661.30347  95014783.90047  23203599.7994   23203602.8994   23203600.2884
        47.000          41.000
 117415532.73447  91492608.56347  22343443.0514   22343446.6044   22343442.3804
        50.000          44.000
 128261748.63447  99944190.67147  24407422.2204   24407428.9284   24407422.2534
        43.000          38.000
 121091901.44047  94357301.73647  23043041.5274   23043046.8604   23043041.3604
        48.000          42.000
 104946548.35447  81776508.76447  19970680.3014   19970682.8724   19970680.6824
        54.000          49.000
 09  1 21  0 14 30.0000000  0 12G 9G14G 5G 6G22G29G24G18G31G12G30G21
 121982430.94347  95051215.44347  23212508.0114   23212511.4294   23212507.9634
        45.000          39.000
 116441786.18747  90733840.38047  22158150.7994   22158154.7124   22158150.8094
        50.000          44.000
 123819952.51347  96483060.44047  23562168.6554   23562174.7794   23562169.1634
        45.000          39.000
 127110912.53747  99047422.49847  24188434.3444   24188441.0434   24188433.9484
        42.000          37.000
 125310469.76047  97644518.49147  23845792.0794   23845793.8934   23845792.3844
        45.000          39.000
 122364383.48447  95348855.91147  23285177.7384   23285182.4364   23285177.3864
        46.000          41.000
 116476615.18447  90760984.60847  22164772.3344   22164777.9004   22164772.3854
        51.000          44.000
 121902274.83447  94988768.46647  23197246.8174   23197249.6334   23197247.0544
        48.000          40.000
 117322870.31947  91420404.13147  22325809.9334   22325813.3044   22325809.6314
        50.000          44.000
 128266205.56447  99947663.64047  24408270.6674   24408276.8994   24408270.9004
        43.000          38.000
 121064557.70947  94335994.95247  23037838.3964   23037843.5494   23037837.9034
        49.000          42.000
 104934470.27547  81767097.26347  19968381.9784   19968384.5954   19968382.3424
        54.000          50.000
 09  1 21  0 15  0.0000000  0 12G 9G14G 5G 6G22G29G24G18G31G12G30G21
 122074380.54647  95122864.51847  23230005.3304   23230008.8924   23230005.4544
        45.000          39.000
 116471340.24747  90756869.51147  22163774.7184   22163778.5214   22163774.8944
        50.000          44.000
 123810142.78147  96475416.49747  23560301.8414   23560307.9314   23560302.4144
        45.000          39.000
 127078280.40747  99021994.83647  24182224.7504   24182230.8624   24182224.7064
        42.000          37.000
 125274862.19047  97616772.35447  23839016.6614   23839017.9854   23839016.2104
        46.000          39.000
 122437650.42247  95405947.04547  23299119.8444   23299124.7664   23299119.6434
        46.000          41.000
 116538971.60647  90809574.00247  22176638.0214   22176643.8054   22176638.3164
        51.000          44.000
 121868762.73547  94962655.15247  23190869.8354   23190872.5724   23190870.2524
        47.000          41.000
 117230463.86547  91348399.13247  22308225.7204   22308229.2964   22308224.7954
        50.000          45.000
 128270782.89147  99951230.41747  24409141.1124   24409147.2104   24409141.0404
        42.000          38.000
 121037195.09747  94314673.44647  23032631.4874   23032636.4554   23032631.2944
        49.000          42.000
 104922992.12547  81758153.23947  19966197.8594   19966200.5474   19966198.2834
        54.000          50.000
 09  1 21  0 15 30.0000000  0 12G 9G14G 5G 6G22G29G24G18G31G12G30G21
 122166658.06447  95194769.13047  23247565.0954   23247568.8894   23247565.3824
        45.000          39.000
 116501141.29047  90780091.10847  22169445.9124   22169449.4114   22169445.7864
        50.000          44.000
 123800469.47847  96467878.86847  23558461.0654   23558467.3424   23558461.7864
        45.000          39.000
 127045936.75647  98996792.00047  24176070.1014   24176075.6884   24176070.5124
        43.000          37.000
 125239036.55847  97588856.31247  23832199.3714   23832200.5874   23832199.3334
        46.000          39.000
 122510822.26447  95462964.09247  23313044.1624   23313048.5454   23313043.9044
        46.000          41.000
 116601738.49247  90858483.23447  22188582.3404   22188587.9794   22188582.5504
        50.000          44.000
 121835127.26747  94936445.69447  23184468.8334   23184471.8734   23184469.3594
        48.000          41.000
 117138317.10647  91276596.51947  22290690.4754   22290694.1394   22290690.6494
        50.000          45.000
 128275483.79447  99954893.47347  24410036.2724   24410042.3084   24410036.0004
        43.000          38.000
 121009816.61147  94293339.57247  23027421.3674   23027426.5534   23027421.0144
        48.000          42.000
 104912116.03747  81749678.35547  19964128.0484   19964130.8844   19964128.4364
        54.000          49.000
 09  1 21  0 16  0.0000000  0 12G 9G14G 5G 6G22G29G24G18G31G12G30G21
 122259259.32847  95266925.99147  23265186.3114   23265190.0014   23265186.6264
        45.000          39.000
 116531185.52447  90803502.19947  22175162.9484   22175166.6704   22175163.0144
        50.000          44.000
 123790933.39147  96460448.17347  23556646.4714   23556652.5424   23556647.4234
        45.000          39.000
 127013879.50247  98971812.30347  24169969.5104   24169975.3504   24169970.2314
        44.000          38.000
 125202991.91447  97560769.60747  23825340.0414   23825341.7114   23825340.0904
        46.000          39.000
 122583895.66547  95519904.42447  23326949.6554   23326953.9344   23326949.3234
        46.000          41.000
 116664912.83547  90907709.98347  22200604.1264   22200609.8244   22200604.3164
        50.000          44.000
 121801368.83247  94910140.43747  23178044.5244   23178048.0304   23178045.2194
        47.000          40.000
 117046432.01447  91204997.78547  22273205.5044   22273209.1164   22273204.7564
        50.000          45.000
 128280308.88547  99958653.32247  24410954.2824   24410960.0754   24410954.1314
        43.000          38.000
 120982423.05547  94271993.95447  23022208.8394   23022213.4904   23022208.7494
        49.000          42.000
 104901841.42147  81741672.15047  19962172.8434   19962175.6284   19962173.1794
        54.000          49.000
 09  1 21  0 16 30.0000000  0 12G 9G14G 5G 6G22G29G24G18G31G12G30G21
 122352182.05447  95339333.35647  23282869.0154   23282872.9354   23282869.0654
        45.000          39.000
 116561470.09347  90827100.56247  22180925.6004   22180929.6024   22180925.8774
        50.000          44.000
 123781536.43147  96453125.87047  23554858.6884   23554864.1014   23554859.0294
        45.000          39.000
 126982107.86347  98947055.16247  24163923.6294   24163929.8704   24163923.7464
        43.000          38.000
 125166728.54747  97532512.47447  23818439.1264   23818440.6514   23818439.3924
        45.000          39.000
 122656868.75847  95576766.59347  23340835.8684   23340840.1594   23340835.8474
        46.000          41.000
 116728492.73447  90957252.73847  22212702.9904   22212708.3824   22212703.1894
        50.000          44.000
 121767488.71147  94883740.34147  23171597.6814   23171600.7054   23171597.9734
        47.000          40.000
 116954811.06447  91133604.88047  22255770.8214   22255774.1834   22255770.0334
        51.000          45.000
 128285259.90047  99962511.28847  24411895.9374   24411902.4204   24411895.2004
        42.000          38.000
 120955016.44047  94250638.15347  23016993.5334   23016998.2324   23016993.0214
        49.000          42.000
 104892169.41847  81734135.51847  19960332.2204   19960335.1594   19960332.5174
        54.000          49.000
 09  1 21  0 17  0.0000000  0 12G 9G14G 5G 6G22G29G24G18G31G12G30G21
 122445426.51847  95411991.43147  23300612.5824   23300616.5334   23300612.8954
        45.000          39.000
 116591995.66047  90850886.72247  22186734.9364   22186738.4294   22186734.9324
        50.000          44.000
 123772284.10247  96445916.28147  23553097.7444   23553103.9324   23553098.5764
        45.000          39.000
 126950624.22947  98922522.43347  24157932.3564   24157938.9334   24157932.5234
        43.000          37.000
 125130250.31847  97504087.90747  23811497.5284   23811499.2224   23811497.6024
        46.000          39.000
 122729743.18047  95633551.88247  23354703.5204   23354707.5504   23354703.3714
        47.000          41.000
 116792480.25347  91007113.12247  22224879.0704   22224884.9674   22224879.2544
        50.000          44.000
 121733491.90947  94857249.33547  23165127.8954   23165130.9754   23165128.3344
        47.000          40.000
 116863460.64947  91062422.78047  22238387.3974   22238390.6274   22238387.1394
        51.000          45.000
 128290341.87547  99966471.30547  24412862.7834   24412869.4364   24412862.2954
        42.000          38.000
 120927601.62347  94229275.96147  23011776.4664   23011781.4664   23011776.0974
        48.000          42.000
 104883104.30447  81727071.78647  19958607.3544   19958610.0504   19958607.6964
        54.000          49.000
 09  1 21  0 17 30.0000000  0 12G 9G14G 5G 6G22G29G24G18G31G12G30G21
 122538984.91447  95484894.12447  23318416.1124   23318420.4324   23318416.5384
        46.000          40.000
 116622754.85547  90874854.92647  22192588.0704   22192591.7824   22192588.1914
        50.000          44.000
 123763173.25947  96438816.93347  23551363.7254   23551370.4964   23551364.2774
        46.000          39.000
 126919422.61747  98898209.46647  24151995.3334   24152001.4694   24151994.9804
        43.000          38.000
 125093552.71347  97475492.40447  23804514.3644   23804515.7504   23804514.3944
        46.000          39.000
 122802511.48247  95690254.45647  23368550.7514   23368554.9674   23368550.6734
        46.000          41.000
 116856868.33447  91057285.62747  22237131.8684   22237137.8784   22237131.9384
        50.000          43.000
 121699374.84147  94830664.62047  23158636.2284   23158639.0664   23158636.5934
        47.000          40.000
 116772378.32147  90991449.58247  22221054.7064   22221058.2554   22221054.5784
        50.000          45.000
 128295551.41347  99970530.69147  24413854.2244   24413860.2604   24413853.4564
        43.000          38.000
 120900175.84747  94207905.23447  23006557.6324   23006562.7874   23006557.2954
        48.000          42.000
 104874641.43147  81720477.33247  19956996.8324   19956999.6124   19956997.1754
        54.000          49.000
 09  1 21  0 18  0.0000000  0 12G 9G14G 5G 6G22G29G24G18G31G12G30G21
 122632858.06147  95558042.09347  23336280.0194   23336283.9304   23336280.1414
        46.000          40.000
 116653748.33547  90899005.68447  22198486.0874   22198489.8904   22198486.3834
        50.000          44.000
 123754209.54047  96431832.23547  23549658.3884   23549664.3694   23549658.9094
        45.000          39.000
 126888505.82147  98874118.43947  24146111.9134   24146117.6034   24146111.9974
        43.000          38.000
 125056639.68247  97446729.03147  23797489.6014   23797491.3204   23797489.5494
        45.000          39.000
 122875175.59547  95746875.87947  23382378.1724   23382382.1894   23382377.8684
        46.000          41.000
 116921659.09347  91107771.91347  22249461.2134   22249466.8294   22249461.4314
        50.000          43.000
 121665142.35647  94803989.94547  23152121.9964   23152124.6754   23152122.6594
        48.000          40.000
 116681570.66347  90920690.40047  22203774.8554   22203777.8754   22203774.1084
        51.000          45.000
 128300894.16247  99974693.89747  24414872.0094   24414877.1654   24414871.6994
        44.000          39.000
 120872744.76247  94186530.37147  23001337.5574   23001342.7454   23001337.5664
        49.000          42.000
 104866785.30547  81714355.66647  19955501.8704   19955504.7154   19955502.2204
        54.000          49.000
 09  1 21  0 18 30.0000000  0 12G 9G14G 5G 6G22G29G24G18G31G12G30G21
 122727042.61047  95631432.71047  23354202.9154   23354206.4724   23354202.9074
        45.000          40.000
 116684972.94747  90923336.55447  22204428.0894   22204431.5874   22204428.0284
        50.000          44.000
 123745394.34447  96424963.25547  23547980.5574   23547987.0914   23547980.6874
        45.000          39.000
 126857872.31547  98850248.16847  24140282.0804   24140289.0964   24140281.8744
        43.000          37.000
 125019510.80447  97417797.46647  23790423.9104   23790425.8484   23790423.8714
        45.000          39.000
 122947732.98747  95803414.13547  23396185.3274   23396189.2904   23396185.0874
        46.000          41.000
 116986849.73547  91158569.78647  22261866.1314   22261872.2244   22261866.3414
        50.000          43.000
 121630795.33747  94777226.04347  23145585.9794   23145588.9804   23145586.2254
        47.000          41.000
 116591039.72047  90850146.84447  22186547.1814   22186550.4194   22186546.7364
        50.000          45.000
 128306371.06347  99978961.64347  24415913.9964   24415919.3694   24415913.2344
        42.000          38.000
 120845309.38047  94165152.15547  22996116.8674   22996121.6654   22996116.4744
        49.000          42.000
 104859535.76247  81708706.66447  19954122.3654   19954125.0014   19954122.7224
        54.000          49.000
 09  1 21  0 19  0.0000000  0 12G 9G14G 5G 6G22G29G24G18G31G12G30G21
 122821535.57747  95705063.65247  23372184.3114   23372188.1664   23372184.0824
        46.000          40.000
 116716425.85447  90947845.31747  22210413.2214   22210416.8284   22210413.1514
        50.000          44.000
 123736729.70347  96418211.61347  23546331.5804   23546338.2084   23546331.8554
        45.000          39.000
 126827521.07847  98826597.81847  24134507.0554   24134512.5394   24134507.4394
        43.000          37.000
 124982166.76447  97388698.24847  23783318.3384   23783319.4044   23783318.3444
        46.000          40.000
 123020181.59447  95859867.60947  23409971.8124   23409976.2174   23409971.7674
        47.000          41.000
 117052438.52547  91209677.92047  22274347.4134   22274353.8044   22274347.5954
        49.000          43.000
 121596335.72247  94750374.41647  23139028.3444   23139031.1834   23139028.6264
        47.000          41.000
 116500788.48647  90779821.24447  22169372.6654   22169375.9674   22169372.2204
        51.000          45.000
 128311984.10947  99983335.50547  24416981.8184   24416987.8354   24416981.3954
        43.000          38.000
 120817872.04947  94143772.42447  22990895.8064   22990900.7374   22990895.4914
        49.000          42.000
 104852893.85747  81703531.14047  19952858.6444   19952861.1124   19952859.0834
        54.000          49.000
 09  1 21  0 19 30.0000000  0 12G 9G14G 5G 6G22G29G24G18G31G12G30G21
 122916334.46547  95778932.96547  23390223.5814   23390227.9634   23390223.7974
        45.000          39.000
 116748104.95247  90972530.33347  22216441.5584   22216445.2914   22216441.5604
        50.000          44.000
 123728217.91847  96411579.07547  23544711.8934   23544718.5834   23544712.2294
        45.000          39.000
 126797451.61947  98803167.07347  24128784.8154   24128791.0014   24128784.7544
        42.000          37.000
 124944608.02147  97359431.71647  23776170.8774   23776172.6384   23776170.9844
        45.000          39.000
 123092519.91847  95916235.16447  23423737.3754   23423741.2964   23423737.3224
        46.000          41.000
 117118424.17147  91261095.29347  22286903.9094   22286910.1064   22286904.0244
        49.000          43.000
 121561765.11647  94723436.29247  23132449.7274   23132452.8314   23132450.0844
        47.000          41.000
 116410820.05547  90709716.00447  22152252.3664   22152255.6014   22152251.9094
        51.000          45.000
 128317734.82247  99987816.61047  24418076.2124   24418081.6914   24418075.8184
        43.000          39.000
 120790435.25947  94122393.11947  22985674.5454   22985679.6714   22985674.0144
        49.000          42.000
 104846860.44447  81698829.77047  19951710.4074   19951712.9954   19951710.7594
        54.000          49.000
 09  1 21  0 20  0.0000000  0 12G 9G14G 5G 6G22G29G24G18G31G12G30G21
 123011435.62947  95853037.81247  23408320.7154   23408324.7514   23408321.1374
        44.000          39.000
 116780006.53947  90997388.71247  22222512.3254   22222515.7984   22222512.2384
        50.000          44.000
 123719860.15847  96405066.52147  23543122.0774   23543127.4584   23543122.2624
        45.000          39.000
 126767662.08347  98779954.44147  24123116.3404   24123122.2004   24123116.3344
        43.000          37.000
 124906834.40947  97329997.74947  23768982.6004   23768984.7544   23768982.3954
        45.000          39.000
 123164745.16547  95972514.61147  23437480.9554   23437485.2784   23437481.2314
        46.000          41.000
 117184804.10047  91312819.88747  22299535.7604   22299541.8834   22299535.9134
        49.000          43.000
 121527084.16547  94696412.19147  23125850.3134   23125853.2834   23125850.8274
        47.000          41.000
 116321136.39147  90639832.66247  22135186.1374   22135189.3964   22135185.9284
        51.000          45.000
 128323624.28347  99992405.82747  24419197.0304   24419202.9994   24419196.4904
        44.000          39.000
 120762999.84847  94101014.89047  22980453.6804   22980458.9804   22980453.5834
        49.000          42.000
 104841435.53147  81694602.55747  19950678.1084   19950680.7444   19950678.5364
        54.000          49.000
 09  1 21  0 20 30.0000000  0 12G 9G14G 5G 6G22G29G24G18G31G12G30G21
 123106837.30447  95927376.83947  23426475.3274   23426478.9074   23426475.5504
        45.000          38.000
 116812128.72047  91022418.99247  22228624.7944   22228628.5304   22228625.1804
        50.000          44.000
 123711659.29647  96398676.24447  23541561.2714   23541567.0444   23541561.7614
        45.000          39.000
