     2.11           OBSERVATION DATA    G (GPS)             RINEX VERSION / TYPE
teqc  2013Mar15     gpsops              20140510 00:23:21UTCPGM / RUN BY / DATE
Linux 2.4.21-27.ELsmp|Opteron|gcc -static|Linux x86_64|=+   COMMENT
BIT 2 OF LLI FLAGS DATA COLLECTED UNDER A/S CONDITION       COMMENT
GLPS                                                        MARKER NAME
42005M002                                                   MARKER NUMBER
GGN                 JPL                                     OBSERVER / AGENCY
ZR220013847         ASHTECH UZ-12       CQ00                REC # / TYPE / VERS
CR519992104         ASH701945B_M    SCIT                    ANT # / TYPE
   -33801.4662 -6377516.5323   -82154.3508                  APPROX POSITION XYZ
        0.0083        0.0000        0.0000                  ANTENNA: DELTA H/E/N
     1     1                                                WAVELENGTH FACT L1/2
     7    L1    L2    P1    P2    C1    S1    S2            # / TYPES OF OBSERV
    30.0000                                                 INTERVAL
                                                            COMMENT
This data is provided as a public service by NASA/JPL.      COMMENT
No warranty is expressed or implied regarding suitability   COMMENT
for use.  For further information, contact:                 COMMENT
Dave Stowers, NASA/JPL m/s 238-600                          COMMENT
4800 Oak Grove Drive, Pasadena CA 91109 USA                 COMMENT
                                                            COMMENT
Forced Modulo Decimation to 30 seconds                      COMMENT
 SNR is mapped to RINEX snr flag value [0-9]                COMMENT
  L1 & L2: min(max(int(snr_dBHz/6), 0), 9)                  COMMENT
pseudorange smoothing corrections not applied               COMMENT
  2014     5     9     0     0    0.0000000     GPS         TIME OF FIRST OBS
                                                            END OF HEADER
 14  5  9  0  0  0.0000000  0 11G20G07G10G08G11G01G28G13G09G17G04
  -5547680.26447  -4275599.60146  23618319.2244   23618329.2014   23618320.533
        43.0004         38.0004
 -23906506.21249 -18597686.41748  20141509.5924   20141515.9224   20141509.141
        54.0004         49.0004
  -5760467.77346  -4477941.32446  24581705.9174   24581717.5984   24581706.143
        41.0004         36.0004
 -17608916.73148 -13708832.92248  20391136.3014   20391144.3074   20391136.363
        53.0004         49.0004
  -3292893.21346  -2529569.23145  24498027.8974   24498038.7674   24498026.470
        39.0004         34.0004
 -10632481.79647  -8256446.19747  22808818.4264   22808831.7484   22808817.823
        46.0004         42.0004
    201746.32447    156979.35546  24088214.7034   24088223.9204   24088214.664
        43.0004         39.0004
  -5947104.27747  -4580303.12946  23274772.7314   23274781.9294   23274772.415
        44.0004         39.0004
 -11590567.89448  -9023296.71848  20459908.8944   20459916.3874   20459908.722
        53.0004         48.0004
 -16744813.00148 -12985149.27247  22180073.0354   22180081.7254   22180072.628
        51.0004         46.0004
 -19446318.70648 -15097670.15347  22189321.0204   22189330.1814   22189320.369
        48.0004         43.0004
 14  5  9  0  0 30.0000000  0 11G20G07G10G08G11G01G28G13G09G17G04
  -5548232.22047  -4276029.64846  23618213.3544   23618223.6874   23618214.276
        43.0004         38.0004
 -23894339.92249 -18588206.16148  20143824.7094   20143831.0714   20143824.058
        54.0004         49.0004
  -5803384.83346  -4511383.01846  24573539.1994   24573550.9214   24573539.880
        41.0004         36.0004
 -17664852.62548 -13752419.27348  20380492.2334   20380500.3594   20380492.145
        53.0004         49.0004
  -3188135.82246  -2447940.10645  24517960.3704   24517973.9444   24517961.042
        39.0004         34.0004
 -10547362.27147  -8190119.33747  22825016.2144   22825029.1564   22825016.200
        46.0004         42.0004
    166463.48747    129486.37646  24081499.8084   24081510.1674   24081500.235
        43.0004         39.0004
  -5866296.85347  -4517336.26746  23290151.0814   23290159.1294   23290150.095
        44.0004         39.0004
 -11643564.20448  -9064592.48848  20449823.8414   20449831.5804   20449823.824
        53.0004         48.0004
 -16710423.85848 -12958352.53047  22186617.2724   22186625.5204   22186616.614
        51.0004         46.0004
 -19536547.41348 -15167978.12147  22172150.6824   22172159.2214   22172149.494
        48.0004         44.0004
 14  5  9  0  1  0.0000000  0 11G20G07G10G08G11G01G28G13G09G17G04
  -5548638.34747  -4276346.06946  23618136.8874   23618146.8674   23618137.805
        43.0004         38.0004
 -23881569.33649 -18578255.02148  20146254.7684   20146261.1754   20146254.409
        54.0004         49.0004
  -5846547.53946  -4545016.12846  24565325.4874   24565338.2974   24565326.583
        41.0004         37.0004
 -17720275.83348 -13795606.13248  20369945.3524   20369953.4764   20369945.555
        53.0004         49.0004
  -3083308.72946  -2366256.66545  24537906.1294   24537922.8524   24537909.357
        38.0004         33.0004
 -10461906.61847  -8123530.55347  22841278.6304   22841290.1254   22841277.940
        46.0004         42.0004
    130918.03447    101788.74646  24074736.1284   24074746.1174   24074736.112
        43.0004         39.0004
  -5785574.06147  -4454435.34346  23305510.8434   23305519.1994   23305510.759
        44.0004         39.0004
 -11696047.69148  -9105488.65848  20439836.4854   20439844.3344   20439836.417
        53.0004         48.0004
 -16675834.47348 -12931399.76847  22193198.5944   22193208.1734   22193198.766
        50.0004         46.0004
 -19626525.80848 -15238091.03647  22155028.3774   22155037.0854   22155027.794
        48.0004         44.0004
 14  5  9  0  1 30.0000000  0 11G20G07G10G08G11G01G28G13G09G17G04
  -5548898.24247  -4276548.55246  23618087.2914   23618096.7904   23618087.761
        43.0004         38.0004
 -23868196.15449 -18567834.32548  20148799.5804   20148805.8744   20148798.839
        54.0004         49.0004
  -5889957.46847  -4578841.88146  24557064.9464   24557077.5554   24557066.089
        42.0004         37.0004
 -17775185.08349 -13838392.49148  20359496.0954   20359504.6624   20359496.496
        54.0004         49.0004
  -2978415.63946  -2284521.78045  24557871.0664   24557878.3954   24557869.674
        38.0004         33.0004
 -10376118.70347  -8056682.87347  22857602.7774   22857615.3124   22857602.502
        46.0004         42.0004
     95109.47747     73886.09746  24067922.2874   24067931.9484   24067921.850
        44.0004         39.0004
  -5704939.53947  -4391603.19346  23320854.9834   23320864.6104   23320855.098
        43.0004         39.0004
 -11748017.72448  -9145984.73148  20429947.0524   20429954.7114   20429946.824
        53.0004         49.0004
 -16641048.75648 -12904294.02747  22199818.4794   22199826.9544   22199818.049
        50.0004         46.0004
 -19716252.72348 -15308008.00647  22137952.9114   22137961.7134   22137953.247
        48.0004         44.0004
 14  5  9  0  2  0.0000000  0 11G20G07G10G08G11G01G28G13G09G17G04
  -5549012.18947  -4276637.28546  23618064.8394   23618075.9634   23618066.116
        42.0004         38.0004
 -23854222.57749 -18556945.79048  20151458.3224   20151465.0684   20151457.826
        54.0004         49.0004
  -5933616.08047  -4612861.43646  24548755.8084   24548768.2634   24548757.459
        42.0004         37.0004
 -17829579.44049 -13880777.64948  20349145.3714   20349153.1784   20349145.796
        54.0004         49.0004
                  -2202739.11545                  24577848.9574   24577841.728
                        32.0004
 -10290002.84947  -7989579.64846  22873990.6824   22874003.3154   22873989.650
        46.0004         41.0004
     59036.52847     45777.43646  24061058.2044   24061067.1614   24061057.540
        44.0004         39.0004
  -5624397.30547  -4328842.96946  23336181.7644   23336190.8024   23336180.760
        43.0004         39.0004
 -11799474.04948  -9186080.50948  20420155.0404   20420162.9664   20420154.883
        53.0004         49.0004
 -16606071.38648 -12877038.93347  22206475.1524   22206483.5744   22206474.106
        50.0004         46.0004
 -19805727.51848 -15377728.50847  22120926.5644   22120935.8454   22120926.123
        48.0004         44.0004
 14  5  9  0  2 30.0000000  0 11G20G07G10G08G11G01G28G13G09G17G04
  -5548974.61047  -4276607.96746  23618072.3784   23618082.4134   23618072.980
        42.0004         38.0004
 -23839645.19349 -18545586.75548  20154232.2474   20154238.9824   20154231.935
        54.0004         49.0004
  -5977519.79446  -4647071.93746  24540400.4644   24540415.9254   24540402.519
        41.0004         37.0004
 -17883452.74649 -13922756.78448  20338893.6104   20338901.4964   20338893.800
        54.0004         49.0004
                  -2120907.49445                  24597838.1364   24597825.823
                        32.0004
 -10203557.96247  -7922220.03547  22890440.1804   22890452.2844   22890439.689
        46.0004         42.0004
     22703.34947     17466.00046  24054142.3084   24054153.1744   24054143.043
        44.0004         39.0004
  -5543946.36047  -4266153.86946  23351491.5124   23351499.3594   23351490.501
        43.0004         39.0004
 -11850410.78948  -9225771.41248  20410462.1154   20410469.9534   20410461.915
        53.0004         48.0004
 -16570901.02848 -12849633.45147  22213167.6254   22213175.6974   22213167.149
        50.0004         46.0004
 -19894943.68348 -15447247.47547  22103949.1654   22103957.9314   22103949.443
        49.0004         44.0004
 14  5  9  0  3  0.0000000  0 11G20G07G10G08G11G01G28G13G09G17G04
  -5548785.39147  -4276460.49046  23618108.6524   23618118.2434   23618108.758
        42.0004         37.0004
 -23824465.60949 -18533758.47748  20157120.9334   20157127.5384   20157120.498
        54.0004         49.0004
  -6021670.01346  -4681474.54046  24532001.0394   24532012.6544   24532001.310
        41.0004         37.0004
 -17936803.92549 -13964329.07448  20328741.0404   20328749.3314   20328741.307
        54.0004         49.0004
                                                                  24617821.678

 -10116788.10047  -7854607.19847  22906951.8154   22906964.8564   22906951.871
        46.0004         42.0004
    -13891.40447    -11049.26546  24047179.3474   24047190.6494   24047179.740
        43.0004         39.0004
  -5463590.49447  -4203538.85546  23366781.0444   23366790.8184   23366782.067
        43.0004         39.0004
 -11900827.56348  -9265057.15248  20400868.1804   20400875.8344   20400867.845
        53.0004         48.0004
 -16535541.99648 -12822080.96347  22219895.7874   22219904.5094   22219895.238
        50.0004         46.0004
 -19983900.30648 -15516564.20447  22087021.5124   22087030.3674   22087021.045
        49.0004         44.0004
 14  5  9  0  3 30.0000000  0 11G20G07G10G08G11G01G28G13G09G17G04
  -5548442.46747  -4276193.24646  23618173.5774   23618183.9894   23618174.692
        42.0004         38.0004
 -23808684.02549 -18521461.10048  20160124.0284   20160130.5464   20160123.822
        54.0004         49.0004
  -6066066.27847  -4716068.86746  24523551.4604   24523564.2704   24523552.863
        42.0004         37.0004
 -17989630.07149 -14005492.24248  20318688.2854   20318696.4914   20318688.950
        54.0004         49.0004
                                                                  24637827.457

 -10029695.48447  -7786742.86747  22923526.4884   22923539.0354   22923524.698
        46.0004         42.0004
    -50746.04147    -39767.02946  24040165.0164   24040177.1494   24040165.881
        43.0004         39.0004
  -5383331.55547  -4140999.34946  23382056.0574   23382063.0674   23382055.262
        43.0004         39.0004
 -11950721.97048  -9303935.84648  20391373.6404   20391381.5114   20391373.489
        53.0004         49.0004
 -16499996.69248 -12794383.30647  22226659.9424   22226668.2334   22226659.322
        50.0004         46.0004
 -20072594.41548 -15585676.37347  22070143.4614   22070153.0914   22070143.334
        49.0004         44.0004
 14  5  9  0  4  0.0000000  0 11G20G07G10G08G11G01G28G13G09G17G04
  -5547944.23147  -4275804.98846  23618268.2824   23618279.0894   23618268.587
        42.0004         38.0004
 -23792300.95849 -18508695.04448  20163241.7934   20163248.2194   20163241.441
        54.0004         49.0004
  -6110708.64647  -4750854.94446  24515057.2374   24515069.7384   24515057.344
        42.0004         37.0004
 -18041928.76949 -14046244.41348  20308736.1904   20308744.4024   20308736.798
        54.0004         49.0004
                                                                  24657842.984

  -9942282.82447  -7718629.15947  22940159.4384   22940171.9334   22940159.182
        46.0004         42.0004
    -87860.39247    -68687.17046  24033101.3764   24033112.4064   24033103.700
        43.0004         39.0004
  -5303171.92847  -4078537.26046  23397308.8614   23397317.0894   23397309.339
        43.0004         39.0004
 -12000092.20548  -9342406.09648  20381978.4424   20381986.1184   20381978.532
        53.0004         48.0004
 -16464268.24648 -12766542.95447  22233458.7754   22233467.3764   22233458.209
        50.0004         46.0004
 -20161023.68948 -15654582.18547  22053315.6174   22053324.7804   22053315.634
        49.0004         44.0004
 14  5  9  0  4 30.0000000  0 11G20G07G10G08G11G01G28G13G09G17G04
  -5547288.28847  -4275293.85646  23618393.8634   23618400.9464   23618394.111
        42.0004         37.0004
 -23775315.50749 -18495459.59248  20166473.8534   20166480.3704   20166473.501
        54.0004         49.0004
  -6155595.80847  -4785831.78046  24506516.6464   24506528.4624   24506515.909
        42.0004         37.0004
 -18093696.33749 -14086582.71048  20298885.0544   20298893.4954   20298885.531
        54.0004         49.0004
                                                                  24677868.253

  -9854551.80747  -7650267.37747  22956854.8334   22956867.4494   22956853.571
        46.0004         42.0004
   -125232.69747    -97808.31146  24025990.9094   24026001.8324   24025991.596
        43.0004         39.0004
  -5223113.07247  -4016153.67946  23412543.4064   23412553.0684   23412543.841
        44.0004         39.0004
 -12048935.57348  -9380465.79348  20372683.5004   20372691.6534   20372683.866
        53.0004         48.0004
 -16428358.41448 -12738561.26047  22240292.2134   22240301.5124   22240291.912
        50.0004         46.0004
 -20249184.70848 -15723278.96347  22036539.6464   22036547.8174   22036538.908
        49.0004         44.0004
 14  5  9  0  5  0.0000000  0 10G20G07G10G08G01G28G13G09G17G04
  -5546472.49047  -4274658.13546  23618547.5964   23618559.0114   23618549.184
        42.0004         37.0004
 -23757728.42149 -18481755.33348  20169820.5574   20169826.8924   20169820.214
        54.0004         49.0004
  -6200727.71847  -4820999.31746  24497926.7774   24497939.7734   24497927.481
        42.0004         37.0004
 -18144930.30149 -14126505.21648  20289135.8304   20289143.3754   20289136.176
        54.0004         49.0004
  -9766504.66847  -7581659.26246  22973608.7084   22973621.9754   22973608.873
        46.0004         41.0004
   -162862.21047   -127129.88246  24018830.9694   24018840.2194   24018831.057
        43.0004         39.0004
  -5143156.92647  -3953850.12946  23427758.8274   23427768.1384   23427758.582
        44.0004         39.0004
 -12097249.85248  -9418113.21648  20363490.1184   20363497.7344   20363489.798
        53.0004         48.0004
 -16392269.76748 -12710440.23647  22247159.3634   22247168.3254   22247159.173
        50.0004         46.0004
 -20337074.41748 -15791764.32647  22019813.9564   22019822.5844   22019814.035
        49.0004         44.0004
 14  5  9  0  5 30.0000000  0 10G20G07G10G08G01G28G13G09G17G04
  -5545496.94547  -4273897.94346  23618734.0664   23618744.2314   23618734.582
        42.0004         37.0004
 -23739541.51149 -18467583.68048  20173281.4664   20173287.8064   20173281.242
        54.0004         49.0004
  -6246105.97447  -4856358.82546  24489292.6524   24489304.0964   24489292.400
        42.0004         37.0004
 -18195629.80249 -14166011.25248  20279488.3214   20279496.1224   20279488.441
        54.0004         49.0004
  -9678145.69147  -7512808.16746  22990423.3344   22990436.0454   22990422.648
        46.0004         41.0004
   -200749.81547   -156652.57446  24011621.0294   24011631.6474   24011620.920
        44.0004         39.0004
  -5063307.51147  -3891629.74646  23442953.5634   23442961.6864   23442953.844
        44.0004         39.0004
 -12145034.80848  -9455348.17648  20354396.6674   20354404.4644   20354396.572
        53.0004         48.0004
 -16356006.27948 -12682182.96547  22254060.7004   22254069.1254   22254059.969
        50.0004         46.0004
 -20424691.83548 -15860037.51047  22003140.8054   22003150.4194   22003140.881
        49.0004         44.0004
 14  5  9  0  6  0.0000000  0 10G20G07G10G08G01G28G13G09G17G04
  -5544356.70747  -4273009.41846  23618950.9604   23618960.1144   23618951.638
        42.0004         37.0004
 -23720752.24949 -18452942.65848  20176856.8544   20176863.2154   20176856.423
        54.0004         49.0004
  -6291727.12047  -4891907.58946  24480609.1424   24480622.4434   24480610.334
        42.0004         37.0004
 -18245789.31349 -14205096.52448  20269943.0364   20269950.7374   20269943.404
        54.0004         49.0004
  -9589474.42847  -7443713.74646  23007296.7044   23007309.7154   23007296.096
        46.0004         41.0004
   -238891.87847   -186373.54746  24004362.5504   24004372.9124   24004362.563
        43.0004         39.0004
  -4983563.87747  -3829491.78746  23458128.4294   23458136.3064   23458128.254
        43.0004         39.0004
 -12192285.34248  -9492166.69848  20345404.6964   20345412.6194   20345404.921
        53.0004         49.0004
 -16319567.89148 -12653789.42047  22260994.3674   22261003.3194   22260994.017
        50.0004         46.0004
 -20512031.44448 -15928094.23247  21986521.0584   21986529.9654   21986520.421
        49.0004         44.0004
 14  5  9  0  6 30.0000000  0 10G20G07G10G08G01G28G13G09G17G04
  -5543050.71447  -4271991.75746  23619199.3634   23619208.8684   23619200.154
        42.0004         37.0004
 -23701361.59549 -18437833.01448  20180546.9444   20180553.1864   20180546.545
        54.0004         49.0004
  -6337591.78547  -4927646.10946  24471880.6984   24471894.3984   24471882.214
        42.0004         38.0004
 -18295406.87649 -14243759.49048  20260500.8984   20260508.9144   20260501.051
        54.0004         49.0004
  -9500494.02247  -7374378.41846  23024228.5194   23024241.9974   23024228.522
        46.0004         41.0004
   -277288.16847   -216292.60246  23997055.6184   23997065.8614   23997055.985
        43.0004         39.0004
  -4903928.68247  -3767438.31046  23473282.7004   23473290.0194   23473282.490
        43.0004         39.0004
 -12239000.31848  -9528567.90248  20336515.7124   20336523.3504   20336515.281
        53.0004         49.0004
 -16282958.08248 -12625262.30447  22267961.4054   22267969.9804   22267960.795
        50.0004         46.0004
 -20599091.32748 -15995932.97647  21969954.2194   21969961.9814   21969953.840
        49.0004         44.0004
 14  5  9  0  7  0.0000000  0 10G20G07G10G08G01G28G13G09G17G04
  -5541579.90147  -4270845.64546  23619478.8784   23619490.0074   23619480.084
        42.0004         37.0004
 -23681372.90149 -18422257.36848  20184350.3874   20184356.5034   20184350.129
        54.0004         49.0004
  -6383702.31647  -4963576.21146  24463107.4114   24463119.8844   24463107.652
        42.0004         38.0004
 -18344482.80349 -14282000.40548  20251161.8434   20251170.1454   20251162.359
        54.0004         49.0004
  -9411209.74447  -7304806.31846  23041219.7634   23041232.3144   23041218.685
        46.0004         41.0004
   -315940.66647   -246411.31646  23989700.6644   23989709.8704   23989700.448
        43.0004         39.0004
  -4824406.87447  -3705473.19546  23488414.6474   23488422.5204   23488414.246
        43.0004         39.0004
 -12285180.58648  -9564552.45048  20327727.5054   20327735.2244   20327727.547
        53.0004         49.0004
 -16246181.82248 -12596605.45747  22274959.2384   22274968.1074   22274958.726
        50.0004         46.0004
 -20685871.43648 -16063553.72247  21953440.3434   21953448.6084   21953439.534
        49.0004         45.0004
 14  5  9  0  7 30.0000000  0 10G20G07G10G08G01G28G13G09G17G04
  -5539939.06946  -4269567.07046  23619792.8324   23619802.9474   23619792.956
        41.0004         37.0004
 -23660783.24449 -18406213.43948  20188268.7004   20188274.7564   20188268.212
        54.0004         49.0004
  -6430055.33047  -4999695.26646  24454285.8574   24454298.7924   24454286.939
        42.0004         38.0004
 -18393011.36949 -14319814.80448  20241927.2814   20241935.2154   20241927.501
        54.0004         49.0004
  -9321620.80247  -7234996.81746  23058267.5094   23058280.8274   23058267.074
        46.0004         41.0004
   -354845.14447   -276726.36946  23982297.8254   23982308.6554   23982297.093
        44.0004         39.0004
  -4744997.40047  -3643595.61246  23503526.6814   23503534.5934   23503525.786
        43.0004         39.0004
 -12330820.74548  -9600116.13448  20319042.4434   20319050.3614   20319042.537
        53.0004         49.0004
 -16209238.44748 -12567818.40947  22281989.3674   22281998.2644   22281988.938
        50.0004         46.0004
 -20772365.92448 -16130951.90447  21936980.6024   21936989.1714   21936980.219
        49.0004         45.0004
 14  5  9  0  8  0.0000000  0 10G20G07G10G08G01G28G13G09G17G04
  -5538127.87646  -4268155.74246  23620136.0424   23620144.6754   23620136.864
        41.0004         37.0004
 -23639594.02849 -18389702.32248  20192300.7064   20192306.8444   20192300.165
        54.0004         49.0004
  -6476651.71847  -5036003.96746  24445419.3124   24445430.5384   24445419.806
        42.0004         38.0004
 -18440991.38049 -14357201.76248  20232797.0414   20232805.0944   20232797.258
        54.0004         49.0004
  -9231730.96947  -7164952.84846  23075372.8654   23075385.6014   23075372.756
        46.0004         41.0004
   -394001.97647   -307238.06746  23974845.3324   23974855.7384   23974845.573
        43.0004         39.0004
  -4665703.30047  -3581807.92646  23518616.9014   23518622.6754   23518615.034
        43.0004         39.0004
 -12375920.21448  -9635258.50748  20310460.1064   20310467.6454   20310460.299
        53.0004         49.0004
 -16172131.88648 -12538904.23647  22289050.4294   22289059.5064   22289050.191
        50.0004         46.0004
 -20858573.27148 -16198126.34147  21920575.2734   21920584.3044   21920575.596
        49.0004         45.0004
 14  5  9  0  8 30.0000000  0 10G20G07G10G08G01G28G13G09G17G04
  -5536143.68946  -4266609.61546  23620515.3674   23620523.1204   23620514.639
        41.0004         36.0004
 -23617805.35949 -18372724.09148  20196447.1354   20196453.1954   20196446.666
        54.0004         49.0004
  -6523489.94447  -5072501.10946  24436506.5084   24436519.1744   24436506.874
        42.0004         38.0004
 -18488419.14949 -14394158.39848  20223771.7984   20223779.4804   20223771.806
        54.0004         49.0004
  -9141541.93547  -7094675.74346  23092535.5444   23092548.1494   23092534.670
        46.0004         41.0004
   -433409.53847   -337945.14646  23967346.4664   23967356.3184   23967346.891
        43.0004         39.0004
  -4586526.01847  -3520111.25046  23533682.8754   23533689.9664   23533682.041
        43.0004         38.0004
 -12420476.43448  -9669977.56248  20301981.5364   20301989.2994   20301981.706
        53.0004         49.0004
 -16134864.09648 -12509864.39147  22296142.4254   22296151.1064   22296141.928
        50.0004         45.0004
 -20944489.95548 -16265074.28847  21904225.9244   21904234.6434   21904225.657
        49.0004         45.0004
 14  5  9  0  9  0.0000000  0 10G20G07G10G08G01G28G13G09G17G04
  -5533985.14446  -4264927.61546  23620925.3384   23620936.3264   23620924.662
        41.0004         37.0004
 -23595418.48449 -18355279.72948  20200707.1204   20200712.8694   20200706.499
        54.0004         49.0004
  -6570570.45647  -5109187.04446  24427546.4074   24427557.2654   24427547.264
        42.0004         38.0004
 -18535292.94449 -14430683.37548  20214851.7554   20214860.0194   20214852.146
        54.0004         49.0004
  -9051056.69947  -7024167.83546  23109754.2504   23109767.5254   23109753.645
        45.0004         41.0004
   -473067.59947   -368847.41746  23959800.6364   23959810.0284   23959800.620
        43.0004         39.0004
  -4507468.35447  -3458507.79046  23548725.6194   23548734.4554   23548725.660
        43.0004         38.0004
 -12464487.89548  -9704272.13248  20293606.3224   20293613.5674   20293606.255
        53.0004         49.0004
 -16097438.04548 -12480701.22747  22303264.1544   22303272.9744   22303264.137
        50.0004         46.0004
 -21030113.94248 -16331794.15747  21887932.9954   21887940.4164   21887932.598
        49.0004         45.0004
 14  5  9  0  9 30.0000000  0 10G20G07G10G08G01G28G13G09G17G04
  -5531649.59247  -4263107.69946  23621369.3214   23621380.1234   23621369.786
        42.0004         37.0004
 -23572432.65949 -18337368.65648  20205081.0614   20205087.1234   20205080.436
        54.0004         49.0004
  -6617892.11047  -5146060.88946  24418541.0664   24418551.7334   24418542.799
        42.0004         38.0004
 -18581609.21949 -14466773.90348  20206037.7844   20206045.7934   20206038.117
        54.0004         49.0004
  -8960276.99247  -6953430.45846  23127029.7374   23127042.3784   23127028.834
        45.0004         41.0004
   -512974.56647   -399943.63946  23952205.4124   23952214.4904   23952206.304
        43.0004         39.0004
  -4428531.07647  -3396998.14346  23563745.9654   23563756.0394   23563746.574
        43.0004         38.0004
 -12507952.11148  -9738140.27348  20285335.5134   20285343.1384   20285335.500
        53.0004         49.0004
 -16059855.75648 -12451416.33747  22310416.0784   22310424.7354   22310415.814
        50.0004         45.0004
 -21115441.81548 -16398283.29247  21871695.0564   21871703.3094   21871694.741
        49.0004         45.0004
 14  5  9  0 10  0.0000000  0 10G20G07G10G08G01G28G13G09G17G04
  -5529135.80247  -4261148.91446  23621847.1514   23621857.4774   23621847.465
        42.0004         37.0004
 -23548848.92349 -18318991.67648  20209568.9054   20209574.8214   20209568.326
        54.0004         49.0004
  -6665454.84047  -5183122.58746  24409489.9274   24409503.3624   24409490.785
        42.0004         37.0004
 -18627366.11849 -14502428.56648  20197330.9614   20197338.6584   20197331.021
        54.0004         49.0004
  -8869205.68847  -6882465.87746  23144359.4934   23144373.5124   23144359.318
        45.0004         41.0004
   -553129.25347   -431232.87246  23944564.4034   23944574.3934   23944564.785
        43.0004         39.0004
  -4349716.71447  -3335584.27046  23578744.5994   23578752.8624   23578744.451
        43.0004         38.0004
 -12550867.50648  -9771580.76148  20277168.5594   20277176.5704   20277168.725
        53.0004         49.0004
 -16022119.79948 -12422011.69447  22317596.8974   22317604.9104   22317596.404
        50.0004         45.0004
 -21200470.96348 -16464539.65747  21855514.7524   21855522.4444   21855514.351
        49.0004         45.0004
 14  5  9  0 10 30.0000000  0 10G20G07G10G08G01G28G13G09G17G04
  -5526444.27047  -4259051.62746  23622361.4374   23622369.0654   23622360.755
        42.0004         37.0004
 -23524670.50649 -18300151.30748  20214169.9334   20214175.9344   20214169.515
        54.0004         49.0004
  -6713260.81547  -5220373.81346  24400393.6484   24400405.2034   24400393.215
        42.0004         37.0004
 -18672563.47949 -14537647.22048  20188730.0544   20188738.0534   20188730.193
        54.0004         49.0004
  -8777847.75447  -6811277.94746  23161744.5314   23161757.2124   23161744.317
        45.0004         40.0004
   -593533.33547   -462716.45546  23936875.7064   23936885.6404   23936875.980
        43.0004         38.0004
  -4271029.72647  -3274269.65246  23593719.4414   23593727.3134   23593718.028
        43.0004         38.0004
 -12593234.75048  -9804594.12048  20269106.7094   20269113.8294   20269106.522
        53.0004         49.0004
 -15984235.51548 -12392491.46447  22324806.2934   22324814.4094   22324805.508
        50.0004         45.0004
 -21285201.31648 -16530563.19447  21839391.0414   21839399.1604   21839390.445
        49.0004         45.0004
 14  5  9  0 11  0.0000000  0 10G20G07G10G08G01G28G13G09G17G04
  -5523569.37247  -4256811.44346  23622906.0824   23622916.1104   23622907.100
        42.0004         37.0004
 -23499894.14349 -18280844.99948  20218884.5654   20218890.8724   20218883.995
        54.0004         49.0004
  -6761305.61247  -5257811.13146  24391250.6164   24391262.0434   24391250.940
        42.0004         37.0004
 -18717195.34949 -14572425.24148  20180236.9574   20180244.7654   20180237.259
        54.0004         49.0004
  -8686201.90847  -6739865.66846  23179184.7834   23179196.9784   23179183.383
        45.0004         40.0004
   -634182.10047   -494390.71446  23929141.1724   23929150.1964   23929140.289
        43.0004         39.0004
  -4192468.17147  -3213052.76046  23608668.7414   23608677.8204   23608668.457
        43.0004         38.0004
 -12635048.18648  -9837175.93948  20261149.5704   20261157.1544   20261149.497
        53.0004         49.0004
 -15946201.46548 -12362854.54047  22332043.2754   22332052.3304   22332042.989
        50.0004         45.0004
 -21369626.31948 -16596348.80847  21823324.5314   21823333.5214   21823324.681
        49.0004         45.0004
 14  5  9  0 11 30.0000000  0 10G20G07G10G08G01G28G13G09G17G04
  -5520510.39347  -4254427.84746  23623490.4074   23623498.8484   23623490.138
        42.0004         37.0004
 -23474521.47349 -18261074.04648  20223712.9064   20223719.1694   20223712.289
        54.0004         49.0004
  -6809589.80847  -5295435.01246  24382062.5534   24382073.0434   24382062.845
        42.0004         37.0004
 -18761260.42649 -14606761.59848  20171851.5084   20171859.1674   20171851.519
        54.0004         49.0004
  -8594271.62147  -6668231.74446  23196678.3244   23196690.1514   23196677.845
        45.0004         40.0004
   -675075.55347   -526255.64246  23921358.1294   23921369.6744   23921358.549
        43.0004         38.0004
  -4114034.90447  -3151935.83746  23623593.6224   23623599.4924   23623593.433
        43.0004         37.0004
 -12676307.00348  -9869325.59148  20253298.4974   20253305.6024   20253298.305
        53.0004         49.0004
 -15908021.15648 -12333103.64547  22339308.7854   22339318.0724   22339308.825
        50.0004         45.0004
 -21453744.41648 -16661895.26147  21807318.0434   21807325.6694   21807317.816
        50.0004         45.0004
 14  5  9  0 12  0.0000000  0 10G20G07G10G08G01G28G13G09G17G04
  -5517266.19147  -4251899.91246  23624107.5434   23624115.3684   23624106.353
        42.0004         37.0004
 -23448553.28049 -18240839.04048  20228654.2214   20228660.5644   20228653.868
        54.0004         49.0004
  -6858113.62547  -5333245.60246  24372827.2284   24372838.9924   24372828.964
        42.0004         37.0004
 -18804756.80149 -14640654.82048  20163574.4264   20163581.9434   20163574.821
        54.0004         49.0004
  -8502059.99047  -6596378.58546  23214225.5254   23214238.7144   23214225.109
        45.0004         41.0004
   -716213.34847   -558310.94346  23913530.4694   23913539.8444   23913530.118
        43.0004         39.0004
  -4035732.60447  -3090920.97846  23638493.5864   23638501.9304   23638493.105
        42.0004         38.0004
 -12717009.99148  -9901042.12848  20245552.8234   20245560.0614   20245552.480
        53.0004         49.0004
 -15869698.14448 -12303241.55147  22346601.4494   22346610.7964   22346601.313
        50.0004         45.0004
 -21537553.26248 -16727200.74647  21791369.5734   21791377.6044   21791369.202
        50.0004         45.0004
 14  5  9  0 12 30.0000000  0 10G20G07G10G08G01G28G13G09G17G04
  -5513833.03947  -4249224.75146  23624759.6254   23624769.4084   23624760.659
        42.0004         37.0004
 -23421989.22049 -18220139.73048  20233709.3474   20233715.5534   20233708.870
        54.0004         49.0004
  -6906874.98147  -5371241.28546  24363550.0914   24363562.3594   24363549.720
        42.0004         37.0004
 -18847680.30449 -14674101.64648  20155405.9254   20155413.9354   20155406.266
        54.0004         49.0004
  -8409567.80347  -6524306.81346  23231826.0174   23231837.7844   23231825.526
        45.0004         40.0004
   -757592.74247   -590554.50546  23905655.7814   23905665.5664   23905655.772
        43.0004         39.0004
  -3957561.23547  -3030008.15046  23653368.6604   23653377.1894   23653368.803
        42.0004         38.0004
 -12757153.73249  -9932322.89448  20237913.6134   20237921.0134   20237913.494
        54.0004         49.0004
 -15831232.89948 -12273268.62247  22353921.6544   22353930.0964   22353920.934
        50.0004         45.0004
 -21621048.62548 -16792261.96847  21775480.5144   21775489.3584   21775480.709
        50.0004         45.0004
 14  5  9  0 13  0.0000000  0 10G20G07G10G08G01G28G13G09G17G04
  -5510214.03247  -4246404.75246  23625448.4744   23625457.6484   23625448.330
        42.0004         37.0004
 -23394835.00449 -18198980.55348  20238876.4474   20238882.7834   20238876.297
        54.0004         49.0004
  -6955877.81247  -5409425.13946  24354223.7104   24354235.0934   24354225.235
        42.0004         37.0004
 -18890033.46649 -14707104.05148  20147347.1134   20147354.3464   20147347.158
        54.0004         49.0004
  -8316802.52247  -6452022.26346  23249479.7514   23249490.9474   23249478.333
        45.0004         40.0004
   -799217.38947   -622989.18646  23897734.7064   23897744.9674   23897734.591
        43.0004         39.0004
  -3879527.83747  -2969202.80246  23668218.4154   23668226.3614   23668218.263
        42.0004         38.0004
 -12796741.48349  -9963170.41648  20230380.1644   20230387.4084   20230380.024
        54.0004         49.0004
 -15792632.89648 -12243190.69347  22361267.0134   22361275.0914   22361266.548
        50.0004         45.0004
 -21704232.78348 -16857080.67547  21759650.7414   21759660.1424   21759650.696
        50.0004         45.0004
 14  5  9  0 13 30.0000000  0 10G20G07G10G08G01G28G13G09G17G04
  -5506402.71447  -4243434.92446  23626173.3504   23626183.8284   23626174.384
        42.0004         37.0004
 -23367086.21949 -18177358.08048  20244157.1484   20244162.8794   20244156.520
        54.0004         49.0004
  -7005117.07947  -5447793.23646  24344854.5644   24344864.1714   24344854.928
        42.0004         37.0004
 -18931809.35249 -14739656.63348  20139396.7444   20139404.3784   20139397.101
        54.0004         49.0004
  -8223761.94647  -6379523.18446  23267184.6404   23267196.8694   23267183.639
        45.0004         40.0004
   -841081.68747   -655610.61746  23889768.9184   23889776.9714   23889767.915
        43.0004         39.0004
  -3801629.45547  -2908502.67946  23683042.9254   23683048.9764   23683041.599
        42.0004         38.0004
 -12835767.08549  -9993579.90648  20222953.5394   20222961.1604   20222953.581
        54.0004         49.0004
 -15753896.06048 -12213006.13147  22368638.3414   22368646.4444   22368637.715
        50.0004         45.0004
 -21787098.20048 -16921651.02347  21743882.2714   21743891.1224   21743881.767
        50.0004         45.0004
 14  5  9  0 14  0.0000000  0 11G20G07G10G26G08G01G28G13G09G17G04
  -5502401.35847  -4240316.99346  23626934.1194   23626943.8374   23626934.967
        42.0004         37.0004
 -23338747.59349 -18155275.98648  20249549.5024   20249555.5344   20249549.003
        54.0004         49.0004
  -7054596.64647  -5486348.56346  24335437.6324   24335451.4174   24335439.192
        42.0004         37.0004
   -808812.35448   -613193.95446  24199872.1894   24199885.4924   24199870.732
        51.0004         36.0004
 -18973009.84349 -14771760.85948  20131556.8834   20131563.8554   20131557.180
        54.0004         49.0004
  -8130452.78547  -6306814.81046  23284940.8614   23284952.7274   23284939.917
        45.0004         40.0004
   -883188.66747   -688421.15046  23881756.6504   23881764.6954   23881755.340
        43.0004         38.0004
  -3723871.99347  -2847912.35246  23697838.7074   23697847.1844   23697838.286
        42.0004         37.0004
 -12874232.66849 -10023553.01648  20215634.0474   20215641.5274   20215633.959
        54.0004         49.0004
 -15715028.91948 -12182720.03647  22376034.5424   22376042.9674   22376033.790
        50.0004         45.0004
 -21869646.35648 -16985974.14847  21728173.8114   21728182.0304   21728173.792
        50.0004         45.0004
 14  5  9  0 14 30.0000000  0 11G20G07G10G26G08G01G28G13G09G17G04
  -5498205.49547  -4237047.50846  23627734.0224   23627743.7204   23627734.046
        42.0004         37.0004
 -23309817.04749 -18132732.65648  20255054.6714   20255061.1904   20255053.983
        54.0004         49.0004
  -7104312.40447  -5525087.91446  24325977.2364   24325987.8604   24325978.235
        42.0004         37.0004
   -832386.30547   -631563.13246  24195383.8314   24195398.3814   24195383.606
        46.0004         36.0004
 -19013629.58449 -14803412.54448  20123827.1434   20123834.4464   20123827.319
        54.0004         49.0004
  -8036874.33147  -6233896.58646  23302747.2274   23302760.4524   23302746.899
        45.0004         40.0004
   -925534.00547   -721417.42346  23873697.2694   23873707.0764   23873697.088
        43.0004         38.0004
  -3646254.26347  -2787430.90946  23712610.2674   23712615.9804   23712608.682
        42.0004         38.0004
 -12912133.43049 -10053086.01148  20208421.0454   20208429.2384   20208421.603
        54.0004         49.0004
 -15676030.53348 -12152331.66447  22383455.8974   22383464.7414   22383454.845
        50.0004         45.0004
 -21951871.44648 -17050045.54247  21712527.4584   21712535.3784   21712526.456
        50.0004         45.0004
 14  5  9  0 15  0.0000000  0 11G20G07G10G26G08G01G28G13G09G17G04
  -5493812.22547  -4233624.19046  23628569.7624   23628578.7624   23628569.545
        42.0004         37.0004
 -23280294.54449 -18109728.06048  20260672.3354   20260678.6384   20260672.035
        54.0004         49.0004
  -7154262.99747  -5564010.26546  24316472.4914   24316482.3354   24316473.044
        42.0004         37.0004
   -855590.91347   -649644.47746  24190968.8164   24190984.2584   24190968.733
        42.0004         36.0004
 -19053665.33149 -14834609.17448  20116208.4184   20116215.8974   20116208.853
        54.0004         49.0004
  -7943028.28447  -6160769.86146  23320606.2494   23320618.8294   23320605.724
        45.0004         40.0004
   -968115.77247   -754597.91846  23865593.0474   23865604.1504   23865594.063
        43.0004         39.0004
  -3568777.41947  -2727059.24146  23727351.8914   23727360.8634   23727351.588
        42.0004         38.0004
 -12949467.02949 -10082177.05648  20201317.1824   20201324.5994   20201317.252
        54.0004         49.0004
 -15636903.33848 -12121842.93247  22390901.0764   22390909.2264   22390900.639
        50.0004         45.0004
 -22033770.03148 -17113862.50447  21696941.5994   21696950.2424   21696941.660
        50.0004         45.0004
 14  5  9  0 15 30.0000000  0 11G20G07G10G26G08G01G28G13G09G17G04
  -5489220.49947  -4230046.25046  23629444.4524   23629451.9354   23629444.912
        42.0004         37.0004
 -23250182.12449 -18086263.78648  20266402.7674   20266408.7744   20266402.275
        54.0004         49.0004
  -7204449.46747  -5603116.43046  24306921.5144   24306932.8374   24306922.175
        42.0004         37.0004
   -878428.41946   -667439.81346  24186623.7644   24186636.8124   24186622.424
        41.0004         36.0004
 -19093116.20949 -14865350.06448  20108701.0174   20108708.6694   20108701.315
        54.0004         49.0004
  -7848918.52047  -6087437.64446  23338514.3984   23338527.2024   23338514.252
        44.0004         40.0004
  -1010934.11647   -787962.77146  23857446.0864   23857455.5284   23857446.252
        43.0004         38.0004
  -3491444.28147  -2666799.55446  23742068.2924   23742076.5714   23742067.423
        42.0004         38.0004
 -12986232.98349 -10110825.78448  20194320.8054   20194328.2944   20194320.728
        54.0004         49.0004
 -15597650.82748 -12091256.53847  22398370.7754   22398379.2064   22398369.976
        50.0004         45.0004
 -22115340.64048 -17177423.90747  21681419.8414   21681427.6724   21681419.027
        50.0004         45.0004
 14  5  9  0 16  0.0000000  0 11G20G07G10G26G08G01G28G13G09G17G04
  -5484425.84747  -4226310.19446  23630355.1714   23630366.9104   23630356.229
        42.0004         37.0004
 -23219477.48049 -18062338.04448  20272245.6954   20272251.9964   20272245.142
        54.0004         49.0004
  -7254868.15147  -5642403.52846  24297326.2934   24297339.3144   24297327.203
        42.0004         37.0004
   -900896.65346   -684947.40046  24182346.2184   24182362.1314   24182346.866
        41.0004         36.0004
 -19131977.00849 -14895631.15948  20101306.2454   20101313.7404   20101306.179
        54.0004         49.0004
  -7754544.58747  -6013899.58146  23356473.9374   23356487.1484   23356472.822
        44.0004         40.0004
  -1053984.92847   -821508.77246  23849253.9544   23849262.8634   23849253.822
        43.0004         39.0004
  -3414253.38847  -2606650.71046  23756757.8224   23756764.0594   23756756.742
        42.0004         38.0004
 -13022426.75249 -10139028.65148  20187433.5424   20187440.7994   20187433.454
        54.0004         49.0004
 -15558272.49848 -12060572.11247  22405864.4694   22405872.2614   22405863.836
        50.0004         45.0004
 -22196577.42348 -17240725.20147  21665960.9104   21665968.6164   21665960.411
        50.0004         45.0004
 14  5  9  0 16 30.0000000  0 11G20G07G10G26G08G01G28G13G09G17G04
  -5479430.80447  -4222417.98946  23631306.5104   23631316.2574   23631307.411
        42.0004         38.0004
 -23188185.86548 -18037954.92348  20278199.8104   20278206.4924   20278199.573
        53.0004         49.0004
  -7305522.46647  -5681874.25346  24287686.4254   24287699.3734   24287687.847
        42.0004         37.0004
   -923000.40346   -702170.96146  24178140.2654   24178155.9884   24178139.826
        41.0004         36.0004
 -19170249.44449 -14925453.78548  20094022.9624   20094030.8714   20094023.438
        54.0004         49.0004
  -7659912.87147  -5940160.64546  23374480.6974   23374494.1914   23374480.652
        44.0004         39.0004
  -1097270.96647   -855238.07646  23841016.2214   23841025.7504   23841016.241
        43.0004         38.0004
  -3337211.01347  -2546617.57946  23771417.9334   23771425.8904   23771417.247
        42.0004         38.0004
 -13058050.74349 -10166787.53848  20180654.1884   20180661.5904   20180654.149
        54.0004         49.0004
 -15518774.79548 -12029794.67047  22413379.9334   22413387.3234   22413379.578
        49.0004         45.0004
 -22277481.82748 -17303767.48047  21650565.4864   21650572.9774   21650564.963
        50.0004         45.0004
 14  5  9  0 17  0.0000000  0 11G20G07G10G26G08G01G28G13G09G17G04
  -5474232.09247  -4218367.06946  23632296.5174   23632305.7064   23632296.289
        42.0004         38.0004
 -23156307.18848 -18013114.35148  20284266.4994   20284272.5324   20284265.990
        53.0004         49.0004
  -7356410.49847  -5721527.07546  24278004.5184   24278015.2744   24278004.896
        42.0004         37.0004
   -944739.55646   -719110.40446  24174003.5994   24174020.7444   24174003.816
        41.0004         36.0004
 -19207930.35949 -14954815.48548  20086852.4524   20086860.1074   20086852.797
        54.0004         49.0004
  -7565024.89947  -5866222.03146  23392537.6994   23392550.3734   23392536.981
        44.0004         40.0004
  -1140789.82147   -889148.79346  23832735.1564   23832744.0074   23832735.126
        43.0004         39.0004
  -3260317.69647  -2486700.61546  23786049.7954   23786058.5784   23786049.663
        42.0004         38.0004
 -13093102.18449 -10194100.28448  20173983.9154   20173991.4384   20173984.017
        54.0004         49.0004
 -15479159.03148 -11998925.23647  22420918.7294   22420927.4494   22420918.006
        49.0004         45.0004
 -22358050.26748 -17366547.98147  21635233.7004   21635241.5604   21635233.298
        50.0004         45.0004
 14  5  9  0 17 30.0000000  0 11G20G07G10G26G08G01G28G13G09G17G04
  -5468828.36247  -4214156.40646  23633324.8914   23633333.7074   23633325.753
        42.0004         37.0004
 -23123842.48848 -17987817.13548  20290444.0534   20290450.2114   20290443.454
        53.0004         49.0004
  -7407531.90247  -5761361.75246  24268275.6884   24268286.8654   24268276.366
        42.0004         38.0004
   -966115.30946   -735766.70646  24169936.2544   24169950.0944   24169935.720
        41.0004         36.0004
 -19245017.82049 -14983714.75748  20079795.2714   20079802.4714   20079795.362
        54.0004         49.0004
  -7469883.48147  -5792085.92346  23410642.8914   23410655.6434   23410642.078
        44.0004         40.0004
  -1184540.72547   -923240.31746  23824409.4174   23824419.1204   23824409.858
        43.0004         39.0004
  -3183575.30547  -2426901.24646  23800653.1774   23800660.8044   23800652.877
        42.0004         37.0004
 -13127580.01849 -10220966.06848  20167423.0754   20167430.5064   20167423.023
        54.0004         49.0004
 -15439428.19948 -11967966.13847  22428479.3134   22428488.9784   22428478.697
        49.0004         45.0004
 -22438280.11548 -17429064.64147  21619966.2604   21619974.3104   21619965.739
        50.0004         46.0004
 14  5  9  0 18  0.0000000  0 11G20G07G10G26G08G01G28G13G09G17G04
  -5463215.95347  -4209783.13546  23634390.5534   23634401.1934   23634392.020
        42.0004         37.0004
 -23090790.76848 -17962062.50648  20296734.0614   20296739.8324   20296733.361
        53.0004         49.0004
  -7458883.73247  -5801375.98646  24258503.5224   24258515.2554   24258504.688
        42.0004         38.0004
   -987126.55646   -752138.97146  24165937.8784   24165952.7844   24165937.584
        41.0004         37.0004
 -19281507.78149 -15012148.44348  20072850.8644   20072858.5614   20072851.280
        54.0004         49.0004
  -7374489.17047  -5717752.76546  23428794.7774   23428808.6364   23428795.121
        44.0004         40.0004
  -1228520.50547   -957510.18446  23816041.0294   23816049.5834   23816040.769
        43.0004         38.0004
  -3106983.37047  -2367219.11646  23815229.2284   23815236.0264   23815227.733
        42.0004         37.0004
 -13161480.61349 -10247382.05348  20160972.2104   20160979.5024   20160972.212
        54.0004         49.0004
 -15399582.63248 -11936917.63547  22436062.5174   22436070.7134   22436060.954
        49.0004         45.0004
 -22518166.77348 -17491313.89347  21604764.3684   21604771.8694   21604764.032
        50.0004         46.0004
 14  5  9  0 18 30.0000000  0 11G20G07G10G26G08G01G28G13G09G17G04
  -5457395.12947  -4205247.47446  23635500.7034   23635509.3154   23635501.086
        42.0004         37.0004
 -23057155.08448 -17935852.83748  20303134.2624   20303140.5224   20303133.954
        53.0004         49.0004
  -7510467.84147  -5841571.20146  24248687.5994   24248698.9384   24248688.127
        43.0004         38.0004
  -1007776.38046   -768229.61046  24162007.9514   24162023.2284   24162007.608
        41.0004         37.0004
 -19317400.47249 -15040116.72848  20066021.1954   20066028.4664   20066021.466
        54.0004         49.0004
  -7278846.57747  -5643226.12946  23446996.0134   23447009.0234   23446995.076
        44.0004         39.0004
  -1272729.86447   -991958.95446  23807628.0484   23807637.0254   23807627.735
        43.0004         38.0004
  -3030546.03047  -2307657.44446  23829774.2894   23829781.6394   23829773.693
        42.0004         37.0004
 -13194804.67649 -10273348.79848  20154630.5274   20154637.6864   20154630.542
        54.0004         49.0004
 -15359626.98048 -11905783.35347  22443665.0094   22443674.1624   22443664.533
        49.0004         45.0004
 -22597709.68348 -17553295.28447  21589627.1884   21589635.7954   21589627.084
        50.0004         46.0004
 14  5  9  0 19  0.0000000  0 11G20G07G10G26G08G01G28G13G09G17G04
  -5451366.31847  -4200549.74946  23636647.5864   23636655.6574   23636646.935
        42.0004         37.0004
 -23022938.80948 -17909190.75748  20309645.4154   20309651.3474   20309645.147
        53.0004         49.0004
  -7562285.82547  -5881948.67146  24238827.2334   24238837.4004   24238827.982
        43.0004         38.0004
  -1028068.17246   -784041.27746  24158148.2684   24158160.7074   24158146.202
        41.0004         37.0004
 -19352695.96149 -15067619.65348  20059304.3604   20059311.7014   20059304.284
        54.0004         49.0004
  -7182960.63447  -5568509.89246  23465241.6674   23465255.6454   23465241.230
        44.0004         39.0004
  -1317169.89447  -1026587.47046  23799170.8054   23799179.9004   23799170.478
        43.0004         38.0004
  -2954267.39147  -2248219.43346  23844288.9674   23844297.6284   23844289.031
        42.0004         37.0004
 -13227552.98449 -10298866.89948  20148398.7294   20148405.8534   20148398.596
        54.0004         49.0004
 -15319566.13548 -11874567.10547  22451288.1634   22451296.6484   22451287.808
        50.0004         45.0004
 -22676908.73948 -17615008.73947  21574556.4044   21574564.4074   21574556.057
        50.0004         46.0004
 14  5  9  0 19 30.0000000  0 11G20G07G10G26G08G01G28G13G09G17G04
  -5445123.25247  -4195685.06646  23637834.3284   23637846.0994   23637835.813
        42.0004         37.0004
 -22988137.92548 -17882073.13748  20316267.7134   20316273.8844   20316267.263
        53.0004         49.0004
  -7614332.40447  -5922504.25446  24228922.4004   24228933.2204   24228923.557
        43.0004         38.0004
  -1047998.25546   -799571.09246  24154355.5334   24154368.9064   24154353.310
        41.0004         37.0004
 -19387387.60149 -15094652.05148  20052702.8444   20052710.5284   20052703.012
        54.0004         49.0004
  -7086829.23347  -5493602.38846  23483535.0084   23483548.3194   23483534.237
        44.0004         39.0004
  -1361834.88247  -1061391.30746  23790670.3514   23790680.6824   23790671.702
        43.0004         38.0004
  -2878144.39047  -2188902.69446  23858774.2144   23858782.7264   23858773.984
        42.0004         37.0004
 -13259719.59949 -10323931.73248  20142277.3964   20142284.7064   20142277.425
        54.0004         49.0004
 -15279397.65948 -11843266.98647  22458931.4864   22458940.7704   22458931.448
        50.0004         45.0004
 -22755756.61248 -17676448.54747  21559552.2544   21559559.7204   21559551.583
        50.0004         46.0004
 14  5  9  0 20  0.0000000  0 11G20G07G10G26G08G01G28G13G09G17G04
  -5438665.80847  -4190653.34446  23639063.8594   23639073.2784   23639063.892
        42.0004         37.0004
 -22952755.55848 -17854502.42048  20323001.0884   20323007.0644   20323000.410
        53.0004         49.0004
  -7666608.28947  -5963238.52146  24218974.1944   24218985.8674   24218974.658
        43.0004         38.0004
  -1067569.16946   -814821.02746  24150630.7094   24150643.5654   24150629.310
        41.0004         37.0004
 -19421474.91049 -15121213.54448  20046215.9224   20046223.9414   20046216.216
        54.0004         49.0004
  -6990456.48447  -5418506.80046  23501874.6734   23501887.4724   23501873.989
        44.0004         39.0004
  -1406725.09847  -1096370.64546  23782129.0704   23782137.2394   23782129.403
        43.0004         39.0004
  -2802180.18747  -2129709.69646  23873229.9074   23873237.2444   23873230.363
        42.0004         37.0004
 -13291305.02949 -10348543.69948  20136266.8284   20136274.0494   20136266.918
        54.0004         49.0004
 -15239125.75248 -11811886.27347  22466594.9464   22466604.7804   22466595.056
        50.0004         45.0004
 -22834252.29448 -17737613.93047  21544614.5844   21544622.3884   21544614.502
        50.0004         46.0004
 14  5  9  0 20 30.0000000  0 11G20G07G10G26G08G01G28G13G09G17G04
  -5431992.84947  -4185453.68446  23640334.2634   23640341.9884   23640334.568
        42.0004         37.0004
 -22916793.38348 -17826479.90148  20329844.0904   20329850.3534   20329843.754
        53.0004         49.0004
  -7719113.57147  -6004151.53946  24208982.5394   24208993.6934   24208984.018
        43.0004         38.0004
  -1086782.59746   -829792.41746  24146973.8864   24146986.1194   24146972.537
        41.0004         36.0004
 -19454956.47449 -15147303.02448  20039844.7344   20039852.1884   20039845.231
        54.0004         49.0004
  -6893845.62947  -5343225.67946  23520258.3824   23520272.6284   23520258.192
        44.0004         39.0004
  -1451839.81147  -1131524.91346  23773544.0934   23773552.9154   23773544.593
        43.0004         39.0004
  -2726377.24647  -2070642.37246  23887655.2504   23887662.2154   23887654.646
        42.0004         37.0004
 -13322308.25149 -10372701.99748  20130367.2754   20130374.3154   20130367.447
        54.0004         49.0004
 -15198753.90248 -11780427.67847  22474278.4454   22474286.1194   22474277.871
        50.0004         45.0004
 -22912393.63948 -17798503.20447  21529744.9554   21529752.6074   21529744.704
        50.0004         46.0004
 14  5  9  0 21  0.0000000  0 11G20G07G10G26G08G01G28G13G09G17G04
  -5425103.08247  -4180085.09646  23641645.0054   23641655.1794   23641644.769
        42.0004         37.0004
 -22880252.75548 -17798006.64148  20336797.4754   20336803.3994   20336797.009
        53.0004         49.0004
  -7771847.81047  -6045242.96646  24198949.0014   24198958.5624   24198949.274
        43.0004         39.0004
  -1105640.02646   -844486.39446  24143385.3884   24143398.2924   24143383.570
        41.0004         36.0004
 -19487830.87449 -15172919.39048  20033588.8444   20033596.4534   20033589.004
        54.0004         49.0004
  -6796999.67947  -5267761.37846  23538688.4734   23538701.0634   23538687.846
        44.0004         39.0004
  -1497177.98847  -1166853.30446  23764916.3694   23764925.3964   23764916.471
        43.0004         39.0004
  -2650737.45647  -2011702.17846  23902049.0424   23902054.7184   23902048.206
        42.0004         37.0004
 -13352728.43249 -10396405.98248  20124578.5634   20124586.0084   20124578.448
        54.0004         49.0004
 -15158284.80348 -11748893.30947  22481978.7404   22481987.7794   22481978.842
        50.0004         45.0004
 -22990178.47848 -17859114.68547  21514942.8294   21514950.9294   21514942.385
        51.0004         46.0004
 14  5  9  0 21 30.0000000  0 11G20G07G10G26G08G01G28G13G09G17G04
  -5417993.58547  -4174545.27446  23642998.7414   23643007.3394   23642998.137
        42.0004         37.0004
 -22843133.92848 -17769082.83648  20343861.3684   20343867.1114   20343860.787
        53.0004         49.0004
  -7824808.96247  -6086511.20346  24188868.5644   24188880.5484   24188870.167
        43.0004         38.0004
  -1124141.12546   -858902.72446  24139864.1134   24139878.3854   24139863.237
        41.0004         37.0004
 -19520095.03049 -15198060.24548  20027449.2194   20027457.1804   20027449.472
        54.0004         49.0004
  -6699919.88247  -5192114.86346  23557162.3664   23557175.1404   23557161.649
        44.0004         40.0004
  -1542737.21047  -1202353.93146  23756246.1264   23756256.1034   23756247.447
        43.0004         39.0004
  -2575261.21547  -1952889.41346  23916409.9004   23916417.5044   23916410.537
        42.0004         37.0004
 -13382562.78949 -10419653.48048  20118901.3554   20118908.4684   20118901.235
        54.0004         49.0004
 -15117719.46148 -11717283.94647  22489698.7834   22489707.4374   22489697.726
        50.0004         45.0004
 -23067602.94648 -17919445.35447  21500208.9964   21500216.6774   21500209.060
        51.0004         46.0004
 14  5  9  0 22  0.0000000  0 11G20G07G10G26G08G01G28G13G09G17G04
  -5410662.39247  -4168832.71646  23644393.0764   23644402.8584   23644394.030
        42.0004         37.0004
 -22805437.99148 -17739709.33548  20351034.7154   20351040.2564   20351033.745
        53.0004         49.0004
  -7877996.13447  -6127955.55646  24178748.6124   24178758.5024   24178749.625
        43.0004         38.0004
  -1142287.06046   -873042.28246  24136409.0034   24136425.6734   24136410.014
        41.0004         37.0004
 -19551746.87749 -15222723.96648  20021426.0134   20021433.5694   20021426.283
        54.0004         49.0004
  -6602608.85047  -5116288.16046  23575679.6844   23575693.9364   23575679.360
        44.0004         39.0004
  -1588516.34747  -1238025.92646  23747534.3304   23747545.0364   23747535.194
        43.0004         39.0004
  -2499950.35047  -1894205.51346  23930741.2074   23930749.8414   23930742.040
        42.0004         37.0004
 -13411810.10749 -10442443.54648  20113335.6564   20113343.1574   20113335.540
        54.0004         49.0004
 -15077060.45048 -11685601.59047  22497435.2204   22497443.9304   22497434.933
        50.0004         45.0004
 -23144664.60748 -17979493.31747  21485545.1664   21485552.7294   21485544.261
        51.0004         46.0004
 14  5  9  0 22 30.0000000  0 11G20G07G10G26G08G01G28G13G09G17G04
  -5403109.62647  -4162947.53746  23645830.0584   23645841.2064   23645831.300
        42.0004         37.0004
 -22767167.89648 -17709888.43648  20358316.8604   20358322.7064   20358316.501
        53.0004         49.0004
  -7931410.67547  -6169577.07546  24168582.7014   24168595.8094   24168584.643
        43.0004         38.0004
  -1160080.72346   -886907.36146  24133024.8114   24133040.7524   24133025.015
        41.0004         36.0004
 -19582786.34949 -15246910.52248  20015519.3054   20015526.9364   20015519.744
        54.0004         49.0004
  -6505070.87847  -5040284.64246  23594240.5444   23594254.2104   23594240.281
        44.0004         40.0004
  -1634515.62847  -1273869.46446  23738781.8494   23738791.2304   23738781.854
        43.0004         39.0004
  -2424808.09447  -1835653.01246  23945041.0814   23945050.8064   23945040.942
        42.0004         37.0004
 -13440470.95849 -10464776.62248  20107881.4174   20107888.6174   20107881.543
        54.0004         49.0004
 -15036312.08748 -11653849.61647  22505190.1134   22505198.1784   22505188.941
        50.0004         45.0004
 -23221362.30648 -18039257.67647  21470949.6204   21470957.1764   21470949.862
        51.0004         46.0004
 14  5  9  0 23  0.0000000  0 11G20G07G10G26G08G01G28G13G09G17G04
  -5395333.15747  -4156888.01046  23647310.5364   23647319.1234   23647310.297
        42.0004         37.0004
 -22728324.23548 -17679620.60348  20365708.6094   20365714.6114   20365708.059
        53.0004         49.0004
  -7985050.88247  -6211374.44546  24158375.7744   24158387.1254   24158376.439
        43.0004         38.0004
  -1177522.69946   -900498.39746  24129704.1254   24129721.0164   24129703.964
        41.0004         37.0004
 -19613210.91549 -15270617.92648  20009729.8344   20009737.1684   20009730.205
        54.0004         49.0004
  -6407308.02547  -4964105.88246  23612844.7734   23612857.8084   23612844.357
        44.0004         40.0004
  -1680733.26147  -1309883.17546  23729987.2174   23729996.3334   23729986.651
        43.0004         39.0004
  -2349835.40647  -1777232.64946  23959306.7064   23959315.5554   23959307.467
        42.0004         37.0004
