     2.11           OBSERVATION DATA    G (GPS)             RINEX VERSION / TYPE
teqc  2013Mar15     gpsops              20140528 00:23:08UTCPGM / RUN BY / DATE
Linux 2.4.21-27.ELsmp|Opteron|gcc -static|Linux x86_64|=+   COMMENT
BIT 2 OF LLI FLAGS DATA COLLECTED UNDER A/S CONDITION       COMMENT
GLPS                                                        MARKER NAME
42005M002                                                   MARKER NUMBER
GGN                 JPL                                     OBSERVER / AGENCY
ZR220013847         ASHTECH UZ-12       CQ00                REC # / TYPE / VERS
CR519992104         ASH701945B_M    SCIT                    ANT # / TYPE
   -33801.4662 -6377516.5323   -82154.3508                  APPROX POSITION XYZ
        0.0083        0.0000        0.0000                  ANTENNA: DELTA H/E/N
     1     1                                                WAVELENGTH FACT L1/2
     7    L1    L2    P1    P2    C1    S1    S2            # / TYPES OF OBSERV
    30.0000                                                 INTERVAL
                                                            COMMENT
This data is provided as a public service by NASA/JPL.      COMMENT
No warranty is expressed or implied regarding suitability   COMMENT
for use.  For further information, contact:                 COMMENT
Dave Stowers, NASA/JPL m/s 238-600                          COMMENT
4800 Oak Grove Drive, Pasadena CA 91109 USA                 COMMENT
                                                            COMMENT
Forced Modulo Decimation to 30 seconds                      COMMENT
 SNR is mapped to RINEX snr flag value [0-9]                COMMENT
  L1 & L2: min(max(int(snr_dBHz/6), 0), 9)                  COMMENT
pseudorange smoothing corrections not applied               COMMENT
  2014     5    27     0     0    0.0000000     GPS         TIME OF FIRST OBS
                                                            END OF HEADER
 14  5 27  0  0  0.0000000  0 10G20G28G10G08G26G02G06G17G04G07
  -2167188.07346  -1646588.27145  23995428.2734   23995439.8784   23995430.344
        39.0004         34.0004
  -7939270.87347  -6187684.54047  22683559.8594   22683569.1954   22683561.319
        47.0004         42.0004
 -12884230.94847 -10027473.96646  22964185.9614   22964193.4134   22964186.544
        46.0004         41.0004
 -17739152.53248 -13810188.01348  20137269.3324   20137275.7624   20137269.747
        53.0004         48.0004
  -2089671.72647  -1559609.72946  24100847.1374   24100856.7324   24100846.222
        43.0004         38.0004
  -9103730.73747  -7087005.49447  22601992.6534   22601996.9624   22601992.528
        47.0004         42.0004
  -2517245.12047  -1952338.72446  24438855.8524   24438868.7114   24438855.224
        43.0004         39.0004
 -10260888.76847  -7951911.56747  23320483.8384   23320492.4704   23320483.027
        47.0004         43.0004
 -27044898.51748 -20828547.49048  20439755.0024   20439761.1724   20439754.847
        53.0004         48.0004
 -15497926.04548 -12065144.29647  21637374.7254   21637379.4864   21637373.942
        50.0004         45.0004
 14  5 27  0  0 30.0000000  0 10G20G28G10G08G26G02G06G17G04G07
  -2130409.07946  -1617929.28145  24002427.7704   24002437.7534   24002429.605
        39.0004         34.0004
  -7998378.10347  -6233742.01147  22672313.8114   22672323.0584   22672313.619
        47.0004         42.0004
 -12954643.03547 -10082340.42046  22950788.4394   22950795.0364   22950788.156
        46.0004         41.0004
 -17697917.52048 -13778056.79748  20145116.4864   20145122.5954   20145116.586
        53.0004         48.0004
  -2079694.82047  -1551835.38946  24102745.4574   24102755.1954   24102744.389
        43.0004         38.0004
  -9173614.89347  -7141460.59447  22588693.9844   22588698.0634   22588694.466
        47.0004         42.0004
  -2416215.75447  -1873614.60346  24458081.2604   24458095.2594   24458080.547
        43.0004         39.0004
 -10222739.40747  -7922184.80947  23327743.9154   23327752.6954   23327742.796
        47.0004         43.0004
 -27073512.89248 -20850844.38348  20434309.9544   20434316.1214   20434309.720
        53.0004         48.0004
 -15410625.08048 -11997117.53847  21653987.9194   21653992.1624   21653987.222
        50.0004         45.0004
 14  5 27  0  1  0.0000000  0 10G20G28G10G08G26G02G06G17G04G07
  -2093290.09446  -1589005.38645  24009491.0084   24009503.4264   24009492.783
        39.0004         34.0004
  -8057497.28847  -6279808.79647  22661063.2254   22661071.0214   22661063.280
        47.0004         42.0004
 -13025132.78847 -10137267.41046  22937373.4514   22937380.9414   22937374.433
        46.0004         41.0004
 -17656066.65248 -13745445.70248  20153080.1594   20153086.0734   20153080.597
        53.0004         48.0004
  -2069547.24447  -1543928.04946  24104675.8284   24104685.7604   24104675.945
        43.0004         38.0004
  -9243142.29447  -7195637.70347  22575464.1284   22575466.8104   22575463.999
        47.0004         43.0004
  -2315116.34447  -1794835.90046  24477320.4754   24477333.7514   24477319.104
        43.0004         39.0004
 -10184722.92447  -7892561.59547  23334975.3004   23334987.1184   23334976.085
        47.0004         42.0004
 -27101578.95248 -20872714.02548  20428969.2744   20428975.2664   20428968.970
        53.0004         48.0004
 -15322990.78348 -11928831.04347  21670663.4224   21670668.5774   21670662.811
        50.0004         45.0004
 14  5 27  0  1 30.0000000  0 10G20G28G10G08G26G02G06G17G04G07
  -2055832.26646  -1559817.43545  24016619.2004   24016627.8214   24016620.815
        39.0004         34.0004
  -8116627.64047  -6325884.31147  22649811.7304   22649818.0894   22649811.098
        47.0004         42.0004
 -13095699.74347 -10192254.54046  22923945.3904   22923952.7104   22923945.686
        46.0004         41.0004
 -17613603.25248 -13712357.31048  20161160.7124   20161166.7334   20161161.157
        53.0004         48.0004
  -2059232.80047  -1535890.69046  24106639.0934   24106647.6104   24106637.773
        42.0004         38.0004
  -9312312.81447  -7249536.73147  22562301.4674   22562304.8514   22562301.470
        47.0004         43.0004
  -2213950.95747  -1716005.78046  24496570.3074   24496583.7644   24496570.410
        43.0004         39.0004
 -10146842.36447  -7863044.29747  23342185.4214   23342195.5794   23342184.980
        47.0004         42.0004
 -27129097.69548 -20894157.17848  20423732.9074   20423738.8164   20423731.822
        53.0004         48.0004
 -15235027.72248 -11860288.37747  21687402.0474   21687406.8674   21687401.735
        50.0004         45.0004
 14  5 27  0  2  0.0000000  0 10G20G28G10G08G26G02G06G17G04G07
  -2018035.66646  -1530365.48745  24023815.5504   24023823.9634   24023811.916
        38.0004         33.0004
  -8175767.08847  -6371966.88147  22638556.7184   22638565.7944   22638557.087
        47.0004         42.0004
 -13166342.26147 -10247300.55346  22910502.5294   22910509.0924   22910502.754
        46.0004         41.0004
 -17570529.72148 -13678793.48748  20169357.4884   20169363.4234   20169357.910
        53.0004         48.0004
  -2048754.06947  -1527725.30646  24108633.2494   24108642.0504   24108632.582
        42.0004         38.0004
  -9381125.07848  -7303156.59547  22549205.9924   22549210.7964   22549206.372
        48.0004         43.0004
  -2112722.44147  -1637126.45746  24515833.6674   24515847.3814   24515833.235
        43.0004         39.0004
 -10109099.82047  -7833634.54447  23349367.3264   23349377.5244   23349367.288
        47.0004         42.0004
 -27156068.86848 -20915173.65548  20418599.9514   20418606.1584   20418600.200
        53.0004         49.0004
 -15146739.31948 -11791492.18247  21704203.0484   21704207.8414   21704202.654
        50.0004         45.0004
 14  5 27  0  2 30.0000000  0 10G20G28G10G08G26G02G06G17G04G07
  -1979899.19346  -1500648.76845  24031068.6774   24031077.9054   24031071.225
        38.0004         34.0004
  -8234912.66947  -6418054.24747  22627302.3564   22627309.6824   22627302.161
        47.0004         42.0004
 -13237057.34247 -10302403.11746  22897044.2544   22897052.1684   22897046.101
        46.0004         41.0004
 -17526847.11148 -13644755.05648  20177669.8674   20177676.1474   20177670.030
        53.0004         48.0004
  -2038112.70947  -1519433.22846  24110656.8354   24110666.1584   24110656.734
        42.0004         38.0004
  -9449576.50748  -7356495.29247  22536181.6394   22536184.2524   22536180.441
        48.0004         43.0004
  -2011432.71047  -1558199.43346  24535109.1024   24535122.9514   24535108.499
        43.0004         38.0004
 -10071496.15247  -7804333.00947  23356523.1134   23356533.3654   23356523.239
        47.0004         42.0004
 -27182491.02548 -20935762.33048  20413572.1984   20413578.0164   20413571.778
        53.0004         49.0004
 -15058127.99448 -11722444.36347  21721065.8934   21721069.8104   21721064.826
        50.0004         45.0004
 14  5 27  0  3  0.0000000  0 10G20G28G10G08G26G02G06G17G04G07
  -9818508.92546  -7608656.31245  24038392.4444   24038404.4514   24038394.265
        39.0004         34.0004
  -8294047.35947  -6464133.13047  22616049.2514   22616056.6114   22616049.354
        47.0004         42.0004
 -13307829.21547 -10357549.93646  22883577.8804   22883584.9494   22883578.926
        46.0004         41.0004
 -17482543.74448 -13610232.92248  20186100.6084   20186106.6174   20186101.087
        53.0004         48.0004
  -2027297.07647  -1511005.34146  24112714.4984   24112725.2194   24112715.309
        42.0004         38.0004
  -9517651.71448  -7409540.82547  22523226.3134   22523230.6054   22523226.514
        48.0004         43.0004
  -1910070.39147  -1479215.84846  24554397.9144   24554410.9964   24554396.901
        43.0004         38.0004
 -10034019.34747  -7775130.31847  23363655.2624   23363665.5454   23363654.342
        47.0004         42.0004
 -27208350.19048 -20955912.30548  20408651.3944   20408657.3424   20408651.088
        53.0004         49.0004
 -14969182.93048 -11653136.48547  21737990.8694   21737995.3874   21737990.441
        50.0004         45.0004
 14  5 27  0  3 30.0000000  0 10G20G28G10G08G26G02G06G17G04G07
  -9779699.87846  -7578415.43545  24045780.9394   24045785.4724   24045780.219
        39.0004         34.0004
  -8353204.41047  -6510229.43047  22604792.3274   22604800.3994   22604791.938
        47.0004         43.0004
 -13378691.39147 -10412767.11747  22870092.9234   22870100.1364   22870094.363
        46.0004         42.0004
 -17437657.10448 -13575256.28648  20194642.1154   20194648.1704   20194642.435
        53.0004         48.0004
  -2016345.17547  -1502471.27146  24114798.9904   24114809.1014   24114798.650
        42.0004         38.0004
  -9585384.97348  -7462319.90747  22510336.0284   22510340.2844   22510336.713
        48.0004         43.0004
  -1808673.67047  -1400205.46046  24573692.5124   24573706.2984   24573691.832
        43.0004         38.0004
  -9996706.65447  -7746055.51547  23370755.5924   23370764.9234   23370754.882
        47.0004         43.0004
 -27233681.07848 -20975650.64048  20403831.0414   20403836.6844   20403830.743
        53.0004         49.0004
 -14879942.86048 -11583598.73647  21754973.3724   21754977.3804   21754972.322
        50.0004         45.0004
 14  5 27  0  4  0.0000000  0 10G20G28G10G08G26G02G06G17G04G07
  -9740545.22246  -7547905.28645  24053226.8044   24053241.3484   24053228.676
        38.0004         34.0004
  -8412354.95847  -6556320.65747  22593536.0824   22593543.2744   22593535.828
        47.0004         43.0004
 -13449615.18847 -10468032.29947  22856596.3724   22856604.2724   22856597.863
        46.0004         42.0004
 -17392162.51948 -13539805.92548  20203299.9654   20203305.5214   20203300.005
        53.0004         48.0004
  -2005232.70547  -1493812.08046  24116912.9004   24116924.1984   24116913.648
        42.0004         38.0004
  -9652747.82548  -7514810.36847  22497517.6874   22497522.1584   22497518.295
        48.0004         43.0004
  -1707218.35747  -1321149.40546  24592999.4794   24593013.1634   24592998.404
        43.0004         38.0004
  -9959533.05147  -7717089.09847  23377829.9444   23377839.3144   23377829.111
        47.0004         43.0004
 -27258456.75848 -20994956.33548  20399116.4764   20399122.5534   20399116.155
        53.0004         49.0004
 -14790384.04348 -11513812.60647  21772015.0414   21772020.3814   21772014.455
        50.0004         45.0004
 14  5 27  0  4 30.0000000  0 10G20G28G10G08G26G02G06G17G04G07
  -9701047.92046  -7517128.15445  24060745.8554   24060759.5884   24060746.354
        38.0004         34.0004
  -8471499.18047  -6602406.95847  22582280.0844   22582289.6304   22582281.017
        47.0004         43.0004
 -13520601.69547 -10523346.35947  22843088.7654   22843095.7754   22843088.891
        46.0004         42.0004
 -17346064.80248 -13503885.59048  20212071.5934   20212077.5734   20212071.786
        53.0004         48.0004
  -1993964.85947  -1485031.80346  24119057.7534   24119068.1184   24119057.494
        42.0004         38.0004
  -9719741.55048  -7567013.19747  22484769.8634   22484773.8244   22484769.639
        48.0004         43.0004
  -1605709.98947  -1242052.00846  24612316.1244   24612328.7594   24612314.390
        43.0004         38.0004
  -9922502.89147  -7688234.43847  23384876.6264   23384886.1164   23384875.434
        47.0004         43.0004
 -27282679.80348 -21013831.41748  20394507.3144   20394512.5314   20394506.684
        53.0004         49.0004
 -14700512.45048 -11443782.76047  21789117.0024   21789121.8224   21789116.898
        50.0004         45.0004
 14  5 27  0  5  0.0000000  0 10G20G28G10G08G26G02G06G17G04G07
  -9661206.56246  -7486082.90245  24068326.6874   24068340.2104   24068327.191
        38.0004         34.0004
  -8530633.76247  -6648485.73247  22571027.7374   22571035.7424   22571028.241
        47.0004         43.0004
 -13591647.60947 -10578706.71647  22829569.4924   22829576.0804   22829569.206
        46.0004         42.0004
 -17299365.20848 -13467496.26348  20220958.0274   20220963.8924   20220958.468
        53.0004         48.0004
  -1982542.84147  -1476131.40446  24121230.8704   24121241.3264   24121230.779
        42.0004         38.0004
  -9786363.55148  -7618926.37347  22472091.2044   22472095.3204   22472091.573
        48.0004         43.0004
  -1504149.94847  -1162914.34346  24631641.2944   24631655.0184   24631640.947
        43.0004         38.0004
  -9885616.91547  -7659492.12647  23391895.6094   23391903.8924   23391894.460
        47.0004         43.0004
 -27306348.30448 -21032274.37848  20390003.2014   20390008.9654   20390002.428
        53.0004         49.0004
 -14610330.36148 -11373510.96947  21806278.2634   21806283.4434   21806277.777
        50.0004         45.0004
 14  5 27  0  5 30.0000000  0 10G20G28G10G08G26G02G06G17G04G07
  -9621025.55746  -7454773.01545  24075977.0464   24075983.6554   24075975.032
        39.0004         34.0004
  -8589760.07047  -6694558.05747  22559776.4784   22559784.6104   22559776.584
        47.0004         43.0004
 -13662755.21047 -10634115.13247  22816038.0814   22816044.3174   22816038.742
        46.0004         42.0004
 -17252070.52448 -13430643.22448  20229957.7424   20229964.0114   20229958.403
        53.0004         48.0004
  -1970973.52947  -1467116.23346  24123433.7784   24123442.7184   24123433.022
        42.0004         38.0004
  -9852616.67648  -7670552.10447  22459484.4174   22459488.1014   22459484.624
        48.0004         43.0004
  -1402545.31247  -1083741.92846  24650976.0874   24650988.9374   24650975.168
        42.0004         38.0004
  -9848881.18847  -7630866.89447  23398886.1814   23398895.2364   23398885.125
        47.0004         42.0004
 -27329466.83448 -21050288.79348  20385603.6414   20385609.5004   20385603.259
        53.0004         49.0004
 -14519845.39748 -11303003.16847  21823496.7494   21823501.0254   21823496.542
        49.0004         45.0004
 14  5 27  0  6  0.0000000  0 10G20G28G10G08G26G02G06G17G04G07
  -9580502.48746                  24083687.5344                   24083685.842
        39.0004
  -8648873.74447  -6740620.54747  22548526.9284   22548534.7744   22548527.166
        47.0004         42.0004
 -13733920.32247 -10689568.36247  22802496.0624   22802502.4804   22802495.608
        46.0004         42.0004
 -17204180.60648 -13393326.37148  20239071.1654   20239076.9344   20239071.479
        53.0004         48.0004
  -1959257.11247  -1457986.42846  24125661.1364   24125672.3424   24125661.561
        42.0004         38.0004
  -9918497.26348  -7721887.54947  22446948.2654   22446952.0454   22446948.035
        48.0004         43.0004
  -1300896.52847  -1004535.10646  24670319.3604   24670333.4644   24670318.909
        42.0004         37.0004
  -9812295.23647  -7602358.35647  23405847.6714   23405857.8514   23405846.804
        47.0004         42.0004
 -27352032.56648 -21067872.45548  20381309.6824   20381315.1054   20381309.001
        53.0004         49.0004
 -14429058.59448 -11232260.17147  21840773.1724   21840777.4644   21840772.621
        50.0004         45.0004
 14  5 27  0  6 30.0000000  0 10G20G28G10G08G26G02G06G17G04G07
  -9539636.53146  -7391352.91745  24091463.2384   24091473.0464   24091463.482
        39.0004         34.0004
  -8707971.53247  -6786670.65547  22537280.7644   22537288.8034   22537281.208
        47.0004         43.0004
 -13805140.41947 -10745064.44747  22788941.9904   22788949.0304   22788943.383
        46.0004         42.0004
 -17155697.00648 -13355546.90048  20248297.4694   20248302.9234   20248297.474
        53.0004         48.0004
  -1947395.42147  -1448743.44246  24127919.4034   24127928.2534   24127920.012
        42.0004         38.0004
  -9984003.48448  -7772931.27547  22434481.4244   22434485.3824   22434482.468
        48.0004         44.0004
  -1199205.55347   -925295.41246  24689671.9804   24689685.2124   24689670.059
        42.0004         37.0004
  -9775859.63147  -7573966.97847  23412781.5664   23412791.6044   23412780.869
        47.0004         42.0004
 -27374044.90248 -21085024.89848  20377120.6564   20377126.4764   20377120.349
        53.0004         49.0004
 -14337972.62148 -11161284.04847  21858105.4884   21858110.8414   21858105.603
        49.0004         45.0004
 14  5 27  0  7  0.0000000  0 10G20G28G10G08G26G02G06G17G04G07
  -9498428.28146  -7359242.59145  24099302.0384   24099312.8364   24099303.424
        38.0004         34.0004
  -8767051.55847  -6832706.91847  22526038.6714   22526046.4794   22526038.684
        47.0004         43.0004
 -13876413.66647 -10800601.94047  22775378.1924   22775385.9944   22775379.639
        46.0004         42.0004
 -17106622.46148 -13317306.95848  20257635.6114   20257641.4324   20257636.135
        53.0004         48.0004
  -1935391.13347  -1439389.33546  24130204.6564   24130213.4054   24130202.879
        42.0004         38.0004
 -10049134.12948  -7823682.36047  22422087.9944   22422092.3394   22422087.814
        48.0004         44.0004
  -1097475.23147   -846025.03946  24709028.1684   24709043.0164   24709028.790
        42.0004         37.0004
  -9739576.81947  -7545694.65947  23419685.5484   23419695.3464   23419685.052
        47.0004         42.0004
 -27395503.86148 -21101746.14348  20373036.9574   20373042.9164   20373036.668
        53.0004         49.0004
 -14246590.75848 -11090077.36947  21875495.6704   21875500.6894   21875495.095
        49.0004         45.0004
 14  5 27  0  7 30.0000000  0 10G20G28G10G08G26G02G06G17G04G07
  -9456878.05446  -7326865.74445  24107211.1544   24107217.5274   24107211.428
        38.0004         34.0004
  -8826111.42347  -6878727.47147  22514799.2454   22514806.7714   22514799.802
        47.0004         43.0004
 -13947738.55347 -10856179.66447  22761806.7094   22761812.9694   22761807.169
        46.0004         42.0004
 -17056959.34348 -13278608.38848  20267086.3804   20267092.2774   20267086.508
        53.0004         48.0004
  -1923247.11247  -1429926.33846  24132513.8054   24132523.5184   24132514.109
        42.0004         38.0004
 -10113888.07948  -7874139.90347  22409766.1904   22409769.5514   22409765.797
        48.0004         44.0004
   -995708.50747   -766726.31246  24728395.2004   24728408.4984   24728394.605
        42.0004         37.0004
  -9703449.25547  -7517543.30847  23426560.1704   23426569.1384   23426559.677
        47.0004         42.0004
 -27416409.39248 -21118036.14048  20369058.6054   20369064.6654   20369058.462
        53.0004         49.0004
 -14154916.72348 -11018643.01947  21892940.0084   21892944.8824   21892940.122
        49.0004         45.0004
 14  5 27  0  8  0.0000000  0 10G20G28G10G08G26G02G06G17G04G07
  -9414985.73946  -7294222.34945  24115182.2004   24115190.0894   24115180.943
        38.0004         33.0004
  -8885148.75547  -6924730.45847  22503566.1444   22503572.4234   22503565.518
        47.0004         43.0004
 -14019113.12747 -10911796.12147  22748224.4954   22748231.0384   22748224.802
        46.0004         42.0004
 -17006710.18148 -13239453.15648  20276648.1424   20276654.5734   20276648.579
        53.0004         48.0004
  -1910965.88947  -1420356.43246  24134851.9264   24134861.4794   24134851.250
        42.0004         38.0004
 -10178264.26448  -7924303.08147  22397514.9534   22397518.4854   22397515.697
        48.0004         44.0004
   -893908.16746   -687401.40246  24747766.8824   24747779.6524   24747767.034
        41.0004         37.0004
  -9667477.97847  -7489513.73247  23433404.9334   23433415.0254   23433404.954
        46.0004         42.0004
 -27436761.76448 -21133895.10748  20365186.0994   20365191.9444   20365185.635
        53.0004         49.0004
 -14062953.97348 -10946983.68747  21910439.9574   21910444.9854   21910439.860
        49.0004         45.0004
 14  5 27  0  8 30.0000000  0 10G20G28G10G08G26G02G06G17G04G07
  -9372748.58646  -7261310.28945  24123219.9534   24123228.4734   24123220.547
        38.0004         34.0004
  -8944158.27047  -6970711.77747  22492336.1684   22492343.5374   22492335.965
        47.0004         43.0004
 -14090532.17247 -10967447.22947  22734633.8414   22734640.8094   22734634.345
        47.0004         42.0004
 -16955874.65748 -13199841.01948  20286322.2354   20286327.5194   20286322.411
        53.0004         48.0004
  -1898546.97747  -1410679.23446  24137214.2984   24137223.3924   24137214.375
        42.0004         38.0004
 -10242258.34848  -7974168.51947  22385338.1164   22385341.2064   22385337.623
        48.0004         44.0004
   -792073.97347   -608050.10746  24767145.9464   24767158.4694   24767144.769
        42.0004         37.0004
  -9631662.21147  -7461605.32047  23440221.1874   23440231.2294   23440221.183
        47.0004         42.0004
 -27456557.75648 -21149320.52848  20361418.9114   20361424.6784   20361418.548
        53.0004         49.0004
 -13970702.66748 -10875099.51347  21927996.1964   21927999.8774   21927994.619
        49.0004         45.0004
 14  5 27  0  9  0.0000000  0 10G20G28G10G08G26G02G06G17G04G07
  -9330170.10046  -7228132.22145  24131324.7444   24131328.1384   24131322.477
        39.0004         34.0004
  -9003140.66047  -7016671.94147  22481111.4774   22481118.7754   22481111.923
        47.0004         43.0004
 -14161997.01847 -11023134.01347  22721034.3324   22721040.7674   22721034.835
        46.0004         42.0004
 -16904458.30548 -13159776.28948  20296105.9944   20296111.9594   20296106.654
        53.0004         48.0004
  -1885996.04547  -1400899.18246  24139602.4664   24139613.3474   24139602.478
        42.0004         38.0004
 -10305871.88548  -8023737.43947  22373231.4094   22373237.0964   22373231.598
        48.0004         44.0004
   -690211.67647   -528676.92146  24786529.2784   24786542.2934   24786528.268
        42.0004         37.0004
  -9596006.56947  -7433821.69647  23447005.6254   23447016.2064   23447005.487
        47.0004         42.0004
 -27475800.51648 -21164314.86248  20357756.9644   20357763.2174   20357756.659
        53.0004         49.0004
 -13878169.26348 -10802995.52047  21945603.6454   21945608.9554   21945602.739
        49.0004         45.0004
 14  5 27  0  9 30.0000000  0 10G20G28G10G08G26G02G06G17G04G07
  -9287247.60646  -7194686.08745  24139489.6694   24139497.6674   24139491.039
        38.0004         34.0004
  -9062091.13147  -7062607.25047  22469892.9724   22469903.8044   22469893.964
        47.0004         43.0004
 -14233503.15047 -11078852.99347  22707426.4274   22707432.9584   22707427.369
        46.0004         42.0004
 -16852461.31148 -13119259.11048  20306001.2614   20306006.6224   20306001.389
        53.0004         48.0004
  -1873313.35747  -1391016.44046  24142015.1674   24142026.1014   24142015.955
        42.0004         37.0004
 -10369101.26348  -8073007.01347  22361199.3014   22361203.9094   22361200.442
        48.0004         43.0004
   -588321.52447   -449282.01346  24805918.6014   24805930.6484   24805917.654
        42.0004         37.0004
  -9560510.01047  -7406162.03446  23453760.8204   23453771.2654   23453760.132
        46.0004         41.0004
 -27494487.61948 -21178876.21548  20354201.3004   20354206.9014   20354200.693
        53.0004         49.0004
 -13785354.76248 -10730672.48947  21963265.3724   21963270.3674   21963265.131
        49.0004         44.0004
 14  5 27  0 10  0.0000000  0 10G20G28G10G08G26G02G06G17G04G07
                  -7160971.71345                  24147732.6144   24147721.759
                        33.0004
  -9121006.66247  -7108515.31847  22458682.3224   22458690.2424   22458682.649
        47.0004         43.0004
 -14305048.08147 -11134602.20047  22693812.7714   22693819.5304   22693813.335
        47.0004         42.0004
 -16799885.53748 -13078290.93548  20316005.6034   20316011.6404   20316006.083
        53.0004         48.0004
  -1860500.70247  -1381032.44046  24144453.4374   24144463.8494   24144454.072
        42.0004         38.0004
 -10431945.12148  -8121976.17447  22349241.2744   22349245.3134   22349241.191
        48.0004         43.0004
   -486405.64646   -369867.07846  24825312.2054   24825327.6124   24825311.645
        41.0004         37.0004
  -9525173.83747  -7378627.33547  23460485.2724   23460494.8224   23460484.799
        46.0004         42.0004
 -27512618.59548 -21193004.22148  20350750.7194   20350756.1764   20350750.302
        53.0004         49.0004
 -13692261.87248 -10658132.53347  21980980.1094   21980985.2714   21980979.877
        49.0004         44.0004
 14  5 27  0 10 30.0000000  0 10G20G28G10G08G26G02G06G17G04G07
  -9200375.99346                  24156016.4954                   24156020.613
        38.0004
  -9179890.89648  -7154399.00747  22447478.2444   22447484.7844   22447477.221
        48.0004         43.0004
 -14376636.05747 -11190384.93847  22680188.7904   22680196.1954   22680189.977
        47.0004         42.0004
 -16746739.82048 -13036878.64748  20326119.1514   20326124.5914   20326119.214
        53.0004         48.0004
  -1847566.99947  -1370954.10546  24146915.2174   24146924.1004   24146914.775
        42.0004         38.0004
 -10494408.24848  -8170648.66947  22337354.0274   22337358.7054   22337354.386
        48.0004         43.0004
   -384472.95846   -290439.03546  24844710.8494   24844723.0904   24844708.795
        41.0004         37.0004
  -9490006.25647  -7351224.00547  23467177.4174   23467187.0204   23467176.450
        46.0004         42.0004
 -27530199.76348 -21206703.80548  20347404.9644   20347410.5434   20347404.516
        53.0004         49.0004
 -13598900.52448 -10585383.39147  21998746.8574   21998752.1034   21998746.001
        49.0004         44.0004
 14  5 27  0 11  0.0000000  0 10G20G28G10G08G26G02G06G17G04G07
  -9156421.37846  -7092743.56945  24164387.3774   24164390.3814   24164385.544
        38.0004         34.0004
  -9238729.36447  -7200247.05047  22436280.2814   22436288.1074   22436280.626
        47.0004         43.0004
 -14448252.78547 -11246190.09047  22666561.1034   22666568.0084   22666562.261
        47.0004         42.0004
 -16693014.81348 -12995014.96648  20336342.3204   20336347.8694   20336342.758
        53.0004         48.0004
  -1834502.57847  -1360773.93146  24149400.5154   24149410.4544   24149400.179
        42.0004         38.0004
 -10556477.25448  -8219014.05647  22325543.1824   22325547.0994   22325543.427
        48.0004         44.0004
   -282513.95146   -210990.48346  24864111.0784   24864125.2734   24864111.090
        41.0004         37.0004
  -9454996.62647  -7323943.74547  23473838.9264   23473849.6044   23473838.776
        46.0004         42.0004
 -27547218.78748 -21219965.34948  20344166.3534   20344171.9504   20344166.438
        53.0004         49.0004
 -13505261.63148 -10512417.97847  22016565.8024   22016570.0884   22016564.873
        49.0004         44.0004
 14  5 27  0 11 30.0000000  0 10G20G28G10G08G26G02G06G17G04G07
  -9112126.33646  -7058227.92045  24172811.9134   24172819.8134   24172813.839
        38.0004         33.0004
  -9297528.74247  -7246064.63747  22425091.4504   22425097.4494   22425091.276
        47.0004         43.0004
 -14519905.83247 -11302023.53747  22652925.9304   22652933.4944   22652926.548
        47.0004         42.0004
 -16638722.15448 -12952708.95848  20346674.1854   20346679.4714   20346674.276
        53.0004         48.0004
  -1821319.20147  -1350501.04346  24151910.2164   24151919.2604   24151909.277
        42.0004         38.0004
 -10618160.19548  -8267078.61147  22313805.2504   22313809.6344   22313805.188
        48.0004         44.0004
   -180540.48646   -131530.66746  24883516.4384   24883530.6694   24883516.352
        41.0004         36.0004
  -9420156.33447  -7296795.44847  23480468.7264   23480480.0634   23480468.507
        47.0004         42.0004
 -27563685.30948 -21232796.38148  20341032.7834   20341038.8104   20341032.446
        53.0004         49.0004
 -13411357.79648 -10439246.11347  22034433.7854   22034439.2884   22034434.545
        49.0004         44.0004
 14  5 27  0 12  0.0000000  0 10G20G28G10G08G26G02G06G17G04G07
  -9067487.14346  -7023444.15745  24181310.1894   24181317.6314   24181309.681
        39.0004         34.0004
  -9356282.72347  -7291846.84447  22413910.4624   22413917.6554   22413910.934
        47.0004         43.0004
 -14591589.04347 -11357880.49447  22639285.9144   22639292.5814   22639285.935
        47.0004         42.0004
 -16583860.54048 -12909959.60748  20357113.7374   20357119.5954   20357114.005
        53.0004         48.0004
  -1808015.41647  -1340134.35046  24154441.2984   24154450.8914   24154441.644
        42.0004         38.0004
 -10679451.83648  -8314838.26147  22302141.7544   22302146.2844   22302141.764
        48.0004         44.0004
    -78551.28846    -52058.57446  24902924.6754   24902938.0184   24902924.113
        41.0004         36.0004
  -9385482.40147  -7269776.77747  23487067.3884   23487077.4844   23487067.250
        47.0004         42.0004
 -27579595.54448 -21245193.93548  20338005.1844   20338010.7914   20338004.951
        53.0004         49.0004
 -13317188.31248 -10365867.24947  22052354.9694   22052359.0544   22052353.552
        49.0004         44.0004
 14  5 27  0 12 30.0000000  0 10G20G28G10G08G26G02G06G17G04G07
  -9022503.57246  -6988392.00845  24189868.4934   24189876.2604   24189868.536
        39.0004         34.0004
  -9414987.99847  -7337591.09847  22402739.2034   22402745.8614   22402739.505
        47.0004         43.0004
 -14663299.51747 -11413758.70447  22625639.1084   22625645.7834   22625639.464
        47.0004         42.0004
 -16528431.78248 -12866768.32848  20367661.3374   20367667.1044   20367661.844
        52.0004         48.0004
  -1794593.16447  -1329675.33646  24156994.8284   24157005.6644   24156994.786
        43.0004         38.0004
 -10740350.46648  -8362291.66547  22290553.0044   22290557.6604   22290553.652
        48.0004         44.0004
     23451.73246     27424.26446  24922334.5684   24922350.2274   24922334.523
        40.0004         36.0004
  -9350975.98447  -7242888.64647  23493634.0714   23493644.0124   23493633.577
        47.0004         42.0004
 -27594948.87248 -21257157.53748  20335083.5404   20335089.3844   20335083.384
        53.0004         49.0004
 -13222755.93048 -10292283.54347  22070323.6984   22070329.0694   22070324.230
        49.0004         44.0004
 14  5 27  0 13  0.0000000  0 10G20G28G10G08G26G02G06G17G04G07
  -8977177.56746  -6953073.06345  24198494.3024   24198503.0814   24198494.682
        38.0004         33.0004
  -9473644.46547  -7383297.32947  22391577.2414   22391583.8764   22391577.574
        47.0004         43.0004
 -14735037.28647 -11469658.16847  22611987.9914   22611994.1474   22611989.104
        47.0004         42.0004
 -16472440.74048 -12823138.90548  20378315.9084   20378322.1674   20378316.277
        52.0004         48.0004
  -1781057.00047  -1319127.56446  24159571.4524   24159580.2294   24159571.894
        43.0004         38.0004
 -10800856.78348  -8409439.37747  22279040.0894   22279042.9284   22279039.139
        48.0004         44.0004
    125463.86046    106914.20845  24941746.9864   24941761.5034   24941746.964
        40.0004         35.0004
  -9316640.46147  -7216133.66947  23500167.4854   23500177.4054   23500167.402
        47.0004         42.0004
 -27609747.46748 -21268688.87948  20332267.6194   20332273.0894   20332267.142
        53.0004         49.0004
 -13128066.07648 -10218499.19947  22088342.5434   22088348.3624   22088342.819
        49.0004         44.0004
 14  5 27  0 13 30.0000000  0 10G20G28G10G08G26G02G06G17G04G07
  -8931508.28446  -6917486.61645  24207186.6134   24207191.0534   24207184.531
        38.0004         34.0004
  -9532248.04848  -7428962.35447  22380425.0614   22380433.3734   22380425.600
        48.0004         43.0004
 -14806798.93947 -11525576.25547  22598331.8874   22598338.7674   22598332.540
        47.0004         42.0004
 -16415889.02948 -12779072.59848  20389077.5394   20389083.3394   20389077.898
        52.0004         48.0004
  -1767408.23447  -1308492.04446  24162167.7814   24162178.1744   24162167.765
        43.0004         38.0004
 -10860968.49848  -8456279.60947  22267599.6134   22267603.5874   22267600.437
        48.0004         44.0004
    227483.73446    186410.20845  24961161.3094   24961175.3054   24961160.789
        40.0004         35.0004
  -9282476.51347  -7189512.38147  23506668.3174   23506679.2994   23506668.440
        47.0004         42.0004
 -27623990.29548 -21279787.15748  20329557.0744   20329563.2174   20329556.957
        53.0004         49.0004
 -13033120.74448 -10144515.77747  22106410.9434   22106415.5934   22106410.160
        49.0004         44.0004
 14  5 27  0 14  0.0000000  0 10G20G28G10G08G26G02G06G17G04G07
  -8885494.92246  -6881632.06345  24215942.7394   24215945.9084   24215941.776
        38.0004         34.0004
  -9590795.20748  -7474583.41847  22369283.3104   22369290.3974   22369284.540
        48.0004         43.0004
 -14878581.23947 -11581510.43147  22584670.7424   22584679.0864   22584672.064
        47.0004         42.0004
 -16358778.16648 -12734570.58648  20399945.1804   20399951.3384   20399945.516
        52.0004         48.0004
  -1753648.29647  -1297769.89946  24164786.6514   24164796.4684   24164786.533
        43.0004         38.0004
 -10920683.71448  -8502810.86847  22256235.8194   22256240.9894   22256236.757
        48.0004         44.0004
    329509.81146    265910.99745  24980576.5244   24980589.9214   24980575.450
        40.0004         35.0004
  -9248484.52547  -7163025.08447  23513137.4264   23513147.6974   23513136.660
        46.0004         42.0004
 -27637676.66448 -21290451.83348  20326952.7654   20326958.7764   20326952.383
        53.0004         49.0004
 -12937922.56948 -10070335.33047  22124527.0514   22124530.1564   22124525.555
        49.0004         44.0004
 14  5 27  0 14 30.0000000  0 10G20G28G10G08G26G02G06G17G04G07
  -8839137.91256  -6845509.72655  24224761.5685   24224769.0635   24224761.536
        38.0004         33.0004
  -9649284.06148  -7520159.06247  22358153.7544   22358161.5964   22358154.076
        48.0004         43.0004
 -14950382.36647 -11637459.26847  22571008.7724   22571014.8504   22571009.435
        47.0004         43.0004
 -16301111.06248 -12689635.14248  20410919.0924   20410924.7194   20410919.533
        52.0004         48.0004
  -1739780.11147  -1286963.40946  24167425.2864   24167434.4164   24167425.412
        43.0004         38.0004
 -10980001.31348  -8549032.29847  22244948.4394   22244953.6024   22244949.124
        49.0004         44.0004
    431539.18946    345414.41145  24999991.1434   25000004.1584   24999991.249
        39.0004         35.0004
  -9214666.19947  -7136673.12247  23519572.7614   23519582.8994   23519572.119
        46.0004         42.0004
 -27650806.82148 -21300683.09448  20324454.0094   20324459.7274   20324453.671
        53.0004         49.0004
 -12842474.88048  -9995960.47147  22142688.8924   22142693.6804   22142689.232
        48.0004         44.0004
 14  5 27  0 15  0.0000000  0 10G20G28G10G08G26G02G06G17G04G07
  -8792436.81346  -6809119.30045  24233649.2964   24233656.6884   24233650.340
        38.0004         34.0004
  -9707710.60748  -7565686.14347  22347035.4154   22347041.8064   22347035.777
        48.0004         43.0004
 -15022199.25347 -11693420.39047  22557342.5034   22557348.8744   22557343.233
        47.0004         43.0004
 -16242889.45348 -12644267.61248  20421998.1934   20422003.8034   20421998.404
        52.0004         48.0004
  -1725805.16147  -1276073.72846  24170084.2304   24170094.1844   24170084.253
        43.0004         38.0004
 -11038919.35548  -8594942.38747  22233737.6724   22233740.2124   22233737.400
        49.0004         44.0004
    533570.19446    424919.06645  25019408.2004   25019419.6574   25019406.958
        39.0004         34.0004
  -9181022.66347  -7110457.34847  23525974.9584   23525984.3664   23525974.621
        46.0004         42.0004
 -27663380.48648 -21310480.71748  20322061.4324   20322067.0084   20322061.083
        53.0004         49.0004
 -12746779.87648  -9921392.89247  22160899.6934   22160904.7274   22160898.716
        48.0004         44.0004
 14  5 27  0 15 30.0000000  0  9G28G10G08G26G02G06G17G04G07
  -9766065.52748  -7611157.41147  22335930.6544   22335937.9414   22335930.866
        48.0004         43.0004
 -15094022.96947 -11749386.83847  22543674.6704   22543680.1954   22543675.183
        47.0004         43.0004
 -16184109.29548 -12598464.85548  20433183.8184   20433189.4964   20433183.992
        52.0004         48.0004
  -1711719.12847  -1265097.48146  24172765.5874   24172774.9984   24172765.168
        43.0004         38.0004
 -11097429.75948  -8640534.83347  22222601.7994   22222605.7024   22222602.989
        48.0004         44.0004
    635607.15646    504428.34945  25038825.1164   25038839.3454   25038823.882
        39.0004         34.0004
  -9147548.54847  -7084373.58946  23532344.4724   23532354.8214   23532344.328
        46.0004         41.0004
 -27675390.79248 -21319839.36848  20319776.1404   20319781.5214   20319775.872
        53.0004         49.0004
 -12650834.25348  -9846630.02447  22179156.4324   22179160.3654   22179156.648
        48.0004         44.0004
 14  5 27  0 16  0.0000000  0 10G20G28G10G08G26G02G06G17G04G07
  -8698004.95446  -6735536.06945  24251619.6124   24251628.0824   24251619.210
        38.0004         33.0004
  -9824368.98748  -7656588.59947  22324836.3524   22324843.3384   22324836.579
        48.0004         43.0004
 -15165873.70647 -11805374.32947  22530001.6984   22530007.6594   22530002.561
        47.0004         43.0004
 -16124795.96248 -12552246.63548  20444470.7124   20444476.0594   20444470.880
        52.0004         48.0004
  -1697547.04947  -1254054.20146  24175462.8444   24175471.7674   24175461.942
        43.0004         38.0004
 -11155553.93448  -8685826.32547  22211541.6784   22211545.4184   22211542.251
        49.0004         44.0004
    737625.05046    583922.81445  25058240.6004   25058254.9084   25058237.328
        39.0004         34.0004
  -9114267.49247  -7058440.25646  23538676.9284   23538687.5694   23538677.406
        46.0004         41.0004
 -27686860.61048 -21328776.85948  20317593.4554   20317598.9054   20317592.864
        53.0004         49.0004
 -12554663.72348  -9771691.90347  22197457.2164   22197461.6394   22197457.414
        48.0004         44.0004
 14  5 27  0 16 30.0000000  0 10G20G28G10G08G26G02G06G17G04G07
  -8650274.59246  -6698343.63945  24260706.1374   24260709.7354   24260701.801
        38.0004         33.0004
  -9882595.35048  -7701959.69747  22313755.3054   22313763.0194   22313756.485
        48.0004         43.0004
 -15237726.31947 -11861363.29747  22516327.7694   22516335.6814   22516329.965
        47.0004         43.0004
 -16064929.23148 -12505597.19248  20455862.6934   20455868.4364   20455863.338
        52.0004         48.0004
  -1683268.35547  -1242927.81846  24178179.0714   24178188.4764   24178178.962
        43.0004         38.0004
 -11213267.79848  -8730798.09147  22200559.5324   22200563.5684   22200559.922
        49.0004         44.0004
    839644.32546    663418.34745  25077649.3754   25077665.9744   25077651.008
        39.0004         34.0004
  -9081158.15547  -7032640.74946  23544979.1714   23544988.4494   23544978.101
        46.0004         41.0004
 -27697767.28248 -21337275.53648  20315517.7464   20315523.2434   20315517.210
        53.0004         49.0004
 -12458248.63548  -9696563.22947  22215804.6774   22215809.4734   22215804.634
        48.0004         44.0004
 14  5 27  0 17  0.0000000  0 10G20G28G10G08G26G02G06G17G04G07
                  -6660882.93345                  24269861.1164   24269849.610
                        33.0004
  -9940747.78548  -7747273.19347  22302690.4614   22302697.4854   22302690.269
        48.0004         43.0004
 -15309584.61147 -11917356.67747  22502655.6514   22502661.8394   22502655.289
        47.0004         43.0004
 -16004517.63348 -12458523.18548  20467358.9494   20467364.4054   20467359.048
        52.0004         48.0004
  -1668891.44347  -1231724.91046  24180915.1194   24180924.2964   24180915.250
        43.0004         38.0004
 -11270576.17448  -8775453.90247  22189653.8654   22189657.6024   22189653.463
        49.0004         44.0004
    941656.50546    742908.35645  25097062.1504   25097080.4654   25097063.265
        38.0004         33.0004
  -9048227.65947  -7006980.58546  23551245.3384   23551255.2884   23551244.000
        46.0004         41.0004
 -27708116.94548 -21345340.17948  20313548.3964   20313554.1564   20313548.033
        53.0004         49.0004
 -12361598.08848  -9621251.07847  22234197.0814   22234201.7894   22234196.615
        48.0004         44.0004
 14  5 27  0 17 30.0000000  0 10G20G28G10G08G26G02G06G17G04G07
  -8553783.15946  -6623155.59045  24279061.1694   24279070.4504   24279064.392
        38.0004         33.0004
  -9998825.65948  -7792528.59647  22291637.5694   22291645.5194   22291638.442
        48.0004         43.0004
 -15381448.23147 -11973354.21947  22488979.6354   22488985.5974   22488979.875
        47.0004         43.0004
 -15943566.18348 -12411028.51048  20478957.6584   20478963.0194   20478957.669
        52.0004         48.0004
  -1654420.86047  -1220449.01746  24183668.1464   24183677.3304   24183668.547
        43.0004         38.0004
 -11327479.97448  -8819794.44247  22178825.2104   22178829.7844   22178825.783
        49.0004         44.0004
  -6833442.85646  -5315610.63945  25116474.7784   25116485.7924   25116473.290
        38.0004         33.0004
  -9015479.59447  -6981462.58846  23557475.8684   23557485.7394   23557475.737
        46.0004         41.0004
 -27717912.16748 -21352972.78648  20311684.4934   20311689.9704   20311683.919
        53.0004         49.0004
 -12264717.46448  -9545759.62347  22252632.9464   22252637.2484   22252632.121
        48.0004         43.0004
 14  5 27  0 18  0.0000000  0 10G20G28G10G08G26G02G06G17G04G07
  -8505022.63646  -6585160.39045  24288339.5194   24288350.2504   24288342.644
        38.0004         33.0004
 -10056824.52548  -7837722.43247  22280601.6404   22280608.3324   22280601.340
        48.0004         43.0004
 -15453313.55247 -12029353.07647  22475304.6414   22475309.6914   22475304.298
        47.0004         43.0004
 -15882075.86948 -12363113.94248  20490658.3784   20490664.1194   20490659.016
        52.0004         48.0004
  -1639857.50447  -1209100.83246  24186439.7464   24186447.9234   24186439.398
        43.0004         38.0004
 -11383976.73448  -8863817.82647  22168074.3824   22168079.2134   22168074.392
        49.0004         44.0004
  -6731454.63046  -5236139.28645  25135878.7224   25135894.5244   25135880.813
        38.0004         33.0004
  -8982913.69947  -6956086.54046  23563673.0234   23563682.3574   23563672.837
        46.0004         41.0004
 -27727151.77148 -21360172.45048  20309926.2144   20309931.9254   20309925.748
        53.0004         49.0004
 -12167608.54148  -9470090.29947  22271111.4754   22271116.3144   22271111.492
        48.0004         43.0004
 14  5 27  0 18 30.0000000  0 10G20G28G10G08G26G02G06G17G04G07
                  -6546898.89745                  24297697.6954   24297685.753
                        33.0004
 -10114743.44148  -7882853.95647  22269579.1474   22269587.0274   22269579.291
        48.0004         43.0004
 -15525179.65447 -12085352.55747  22461628.1374   22461634.4614   22461628.769
        47.0004         43.0004
 -15820050.98248 -12314782.82148  20502461.9324   20502466.3754   20502461.932
        52.0004         48.0004
  -1625205.00547  -1197683.18646  24189227.7184   24189236.6814   24189227.564
        43.0004         38.0004
 -11440066.33148  -8907523.92747  22157400.0894   22157404.8374   22157401.263
        49.0004         44.0004
  -6629482.67146  -5156680.62645  25155292.1104   25155298.7214   25155286.311
        37.0004         33.0004
  -8950533.01347  -6930854.81046  23569834.5164   23569844.9434   23569834.919
        46.0004         41.0004
 -27735837.03848 -21366940.16148  20308273.3994   20308279.4054   20308272.979
        53.0004         49.0004
 -12070275.66548  -9394246.45147  22289632.8394   22289638.4894   22289632.655
        48.0004         43.0004
 14  5 27  0 19  0.0000000  0 10G20G28G10G08G26G02G06G17G04G07
  -8406475.07546  -6508370.17045  24307095.3444   24307106.5144   24307095.947
        37.0004         33.0004
 -10172577.73448  -7927919.55047  22258573.5384   22258581.4064   22258574.055
        48.0004         44.0004
 -15597042.14147 -12141349.20447  22447952.9164   22447958.8194   22447953.230
        47.0004         43.0004
 -15757492.47248 -12266035.89448  20514365.7444   20514371.6814   20514366.024
        52.0004         48.0004
  -1610464.13647  -1186196.67146  24192034.2604   24192042.2514   24192032.944
        43.0004         38.0004
 -11495746.00148  -8950910.60147  22146805.1244   22146809.4394   22146805.690
        49.0004         44.0004
                  -5077235.07245                  25174699.2894   25174687.320
                        33.0004
  -8918336.72047  -6905766.76946  23575961.7004   23575971.4484   23575961.526
        46.0004         41.0004
 -27743966.99648 -21373275.16748  20306726.0964   20306731.8314   20306725.884
        53.0004         49.0004
 -11972720.30548  -9318229.24447  22308198.0124   22308201.2034   22308197.072
        48.0004         43.0004
 14  5 27  0 19 30.0000000  0 10G20G28G10G08G26G02G06G17G04G07
                  -6469574.49445                  24316579.6074   24316570.926
                        32.0004
 -10230325.00548  -7972917.34947  22247584.9084   22247590.7674   22247585.261
        48.0004         43.0004
 -15668898.95348 -12197341.43847  22434279.3964   22434285.6284   22434279.294
        48.0004         43.0004
 -15694403.71948 -12216875.79048  20526371.4874   20526377.0414   20526371.693
        52.0004         48.0004
  -1595637.48547  -1174643.33246  24194854.5224   24194861.6904   24194854.483
        43.0004         38.0004
 -11551015.08648  -8993977.34747  22136288.4324   22136291.5924   22136288.158
        49.0004         44.0004
                  -4997804.72455                  25194097.6555   25194085.415
                        32.0004
  -8886326.46347  -6880823.67846  23582053.1604   23582062.1634   23582052.678
        46.0004         41.0004
 -27751541.93248 -21379177.68648  20305284.7554   20305290.3964   20305284.562
        53.0004         49.0004
 -11874945.96948  -9242041.40947  22326802.4414   22326808.4094   22326803.167
        48.0004         43.0004
 14  5 27  0 20  0.0000000  0 10G20G28G10G08G26G02G06G17G04G07
                                                                  24326110.766

 -10287982.45648  -8017845.15047  22236612.4884   22236619.0734   22236613.289
        48.0004         43.0004
 -15740747.17848 -12253326.98847  22420607.0244   22420613.8294   22420607.064
        48.0004         43.0004
 -15630786.95548 -12167304.25148  20538476.9904   20538482.7284   20538477.277
        52.0004         48.0004
  -1580727.06347  -1163024.71046  24197691.2064   24197700.9594   24197691.225
        43.0004         38.0004
 -11605872.15848  -9036723.04547  22125848.0874   22125852.5634   22125848.740
        49.0004         44.0004
                  -4918391.19245                  25213493.9074   25213478.099
                        32.0004
  -8854503.29647  -6856026.37746  23588108.8404   23588118.1734   23588108.374
        46.0004         41.0004
 -27758562.07249 -21384647.89448  20303948.5694   20303954.7704   20303948.508
        54.0004         49.0004
 -11776955.52648  -9165685.17747  22345449.4734   22345454.7314   22345450.195
        48.0004         43.0004
 14  5 27  0 20 30.0000000  0  9G20G28G10G08G26G02G17G04G07
  -8256083.58346  -6391182.10445  24335714.4344   24335724.3614   24335713.700
        37.0004         32.0004
 -10345546.68948  -8062700.30247  22225658.6624   22225664.9834   22225658.893
        48.0004         44.0004
 -15812584.40948 -12309303.96547  22406936.1514   22406941.7194   22406936.998
        48.0004         43.0004
 -15566644.54148 -12117323.11248  20550682.8334   20550688.7014   20550683.415
        52.0004         48.0004
  -1565734.84647  -1151342.34446  24200545.0174   24200553.1844   24200545.099
        43.0004         38.0004
 -11660315.55648  -9079146.39047  22115488.3494   22115492.2044   22115488.716
        49.0004         44.0004
  -8822868.01847  -6831375.48747  23594128.6724   23594138.9994   23594128.479
        46.0004         42.0004
 -27765027.28449 -21389685.69548  20302718.5784   20302724.3474   20302718.294
        54.0004         49.0004
 -11678751.75148  -9089162.72847  22364138.2834   22364142.7354   22364137.782
        48.0004         43.0004
 14  5 27  0 21  0.0000000  0  9G20G28G10G08G26G02G17G04G07
                  -6351587.60745                  24345390.9504   24345383.535
                        32.0004
 -10403017.34148  -8107482.54247  22214722.3344   22214728.6354   22214722.637
        48.0004         44.0004
 -15884410.49148 -12365272.26947  22393268.4544   22393274.8774   22393268.726
        48.0004         43.0004
 -15501982.08148 -12066936.74348  20562987.7294   20562993.9034   20562987.947
        52.0004         48.0004
  -1550665.94747  -1139600.24546  24203410.7584   24203419.6904   24203410.761
        43.0004         38.0004
 -11714347.11548  -9121248.83147  22105206.1504   22105210.7524   22105206.965
        49.0004         45.0004
  -8791424.27647  -6806873.85646  23600112.6174   23600123.0864   23600111.905
        46.0004         41.0004
 -27770940.84148 -21394293.63548  20301593.1604   20301598.7734   20301592.663
        53.0004         49.0004
 -11580340.36948  -9012478.47047  22382865.2834   22382869.5844   22382864.841
        48.0004         43.0004
 14  5 27  0 21 30.0000000  0  9G20G28G10G08G26G02G17G04G07
                  -6311726.93845                  24355126.2434   24355118.552
                        32.0004
 -10460389.53848  -8152188.06947  22203805.0464   22203811.9774   22203805.108
        48.0004         44.0004
 -15956221.25348 -12421228.62447  22379602.3124   22379609.3274   22379603.670
        48.0004         43.0004
 -15436800.26748 -12016145.68547  20575391.2994   20575396.8794   20575391.923
        52.0004         47.0004
  -1535520.57847  -1127798.53746  24206294.5104   24206302.7454   24206294.135
        43.0004         38.0004
 -11767963.55248  -9163027.79347  22095003.8074   22095007.0304   22095003.860
        49.0004         44.0004
  -8760171.37647  -6782520.93146  23606059.4874   23606069.5474   23606059.395
        46.0004         41.0004
 -27776301.15748 -21398470.47848  20300572.9424   20300578.8934   20300572.920
        53.0004         49.0004
 -11481722.55148  -8935633.37647  22401631.9204   22401635.9734   22401631.075
        48.0004         43.0004
 14  5 27  0 22  0.0000000  0  9G20G28G10G08G26G02G17G04G07
  -8102617.10646  -6271597.91855  24364918.5134   24364925.1185   24364919.066
        37.0004         33.0004
 -10517657.37448  -8196812.26747  22192907.7434   22192914.0664   22192907.435
        49.0004         44.0004
 -16028010.78948 -12477168.43647  22365942.3974   22365949.0914   22365942.675
        48.0004         43.0004
 -15371098.82748 -11964949.71947  20587894.0554   20587899.6304   20587894.318
        52.0004         47.0004
  -1520297.76247  -1115936.49246  24209190.8284   24209199.5754   24209190.374
        43.0004         38.0004
 -11821160.50348  -9204479.89147  22084881.3214   22084884.2024   22084880.846
        49.0004         44.0004
  -8729107.39747  -6758315.20946  23611970.5914   23611980.1554   23611970.547
        46.0004         41.0004
 -27781105.26048 -21402213.90948  20299658.9264   20299664.3644   20299658.582
        53.0004         49.0004
 -11382898.22848  -8858627.35647  22420436.4904   22420440.6434   22420436.298
        48.0004         43.0004
 14  5 27  0 22 30.0000000  0  9G20G28G10G08G26G02G17G04G07
                  -6231206.62445                  24374785.2964   24374781.840
                        32.0004
 -10574825.41848  -8241358.69847  22182028.2804   22182033.5664   22182028.392
        49.0004         44.0004
 -16099783.96748 -12533095.50547  22352284.4874   22352290.1384   22352284.516
        48.0004         43.0004
 -15304887.55248 -11913356.48447  20600493.2004   20600499.1974   20600493.821
        52.0004         47.0004
  -1505007.30647  -1104021.72946  24212100.0584   24212108.7534   24212099.508
        43.0004         38.0004
 -11873944.31948  -9245610.06447  22074836.5304   22074839.8124   22074836.368
        49.0004         45.0004
  -8698241.02747  -6734263.47946  23617845.2574   23617854.0824   23617844.543
        46.0004         41.0004
 -27785360.95248 -21405530.00448  20298849.1534   20298854.5934   20298848.702
        53.0004         49.0004
 -11283877.63448  -8781468.39947  22439279.8394   22439285.1754   22439279.484
        48.0004         43.0004
 14  5 27  0 23  0.0000000  0  8G28G10G08G26G02G17G04G07
 -10631870.72548  -8285809.50047  22171173.0964   22171179.2734   22171173.138
        49.0004         44.0004
 -16171518.38148 -12588992.36847  22338633.5574   22338639.1724   22338633.884
        48.0004         43.0004
 -15238149.55948 -11861352.82347  20613193.2454   20613199.1304   20613193.849
        52.0004         47.0004
  -1489631.65047  -1092040.57446  24215026.7434   24215035.3904   24215025.685
        42.0004         38.0004
 -11926293.80948  -9286401.80147  22064874.7814   22064878.1314   22064875.013
        49.0004         44.0004
  -8667553.20447  -6710350.86446  23623684.3194   23623694.3294   23623683.790
        46.0004         41.0004
 -27789048.92948 -21408403.72748  20298147.4554   20298153.0874   20298147.126
        53.0004         49.0004
 -11184644.23448  -8704143.63247  22458162.7614   22458168.1084   22458163.025
        48.0004         43.0004
 14  5 27  0 23 30.0000000  0  8G28G10G08G26G02G17G04G07
 -10688821.17548  -8330186.38447  22160335.7164   22160341.5304   22160335.511
        48.0004         44.0004
 -16243242.02548 -12644880.84847  22324984.1854   22324990.7754   22324985.084
        48.0004         43.0004
 -15170918.35048 -11808964.83247  20625987.0214   20625992.6354   20625987.355
        52.0004         47.0004
  -1474203.19847  -1080018.28746  24217960.6214   24217970.5684   24217961.100
        42.0004         38.0004
 -11978238.67948  -9326878.24647  22054988.9904   22054993.4544   22054989.772
        49.0004         45.0004
  -8637075.23347  -6686601.77346  23629484.5664   23629493.6844   23629484.011
        46.0004         41.0004
 -27792199.87448 -21410858.98148  20297547.8504   20297553.1424   20297547.172
        53.0004         49.0004
 -11085231.24048  -8626678.90547  22477081.5014   22477085.0624   22477080.480
        48.0004         43.0004
 14  5 27  0 24  0.0000000  0  8G28G10G08G26G02G17G04G07
 -10745657.56148  -8374474.38047  22149519.4554   22149528.0454   22149520.092
        48.0004         44.0004
 -16314936.21848 -12700746.38047  22311341.8194   22311347.7674   22311342.190
        48.0004         43.0004
 -15103180.89448 -11756182.36247  20638876.8374   20638882.9024   20638877.307
        52.0004         47.0004
  -1458708.47047  -1067944.35546  24220910.3414   24220918.5714   24220910.153
        42.0004         38.0004
 -12029761.79348  -9367026.05447  22045185.4504   22045188.8704   22045185.505
        49.0004         45.0004
  -8606792.65847  -6663004.96746  23635247.1014   23635256.3134   23635246.228
        46.0004         41.0004
 -27794798.43448 -21412883.80748  20297052.9594   20297058.8004   20297052.898
        53.0004         49.0004
 -10985625.97548  -8549064.36947  22496035.5344   22496040.3244   22496035.141
        48.0004         43.0004
 14  5 27  0 24 30.0000000  0  9G28G10G08G26G02G17G04G05G07
 -10802378.68548  -8418672.56847  22138725.8404   22138731.8704   22138725.929
        48.0004         44.0004
 -16386599.98548 -12756588.19847  22297703.8804   22297710.2764   22297704.802
        48.0004         43.0004
 -15034941.06248 -11703008.43447  20651862.8344   20651868.1744   20651862.896
        52.0004         47.0004
  -1443151.05847  -1055821.56746  24223871.1794   24223879.1574   24223870.532
        42.0004         38.0004
 -12080863.44748  -9406845.45347  22035459.3764   22035463.1084   22035460.429
        49.0004         45.0004
  -8576707.37647  -6639561.88846  23640970.8734   23640982.1004   23640971.297
        46.0004         41.0004
 -27796846.66749 -21414479.80948  20296663.2164   20296668.9054   20296662.932
        54.0004         49.0004
   -975037.22346   -722093.42746  25487220.1754   25487228.6974   25487218.322
        40.0004         36.0004
 -10885832.71448  -8471303.34147  22515025.6074   22515029.5304   22515025.195
        48.0004         43.0004
 14  5 27  0 25  0.0000000  0  9G28G10G08G26G02G17G04G05G07
 -10858981.76048  -8462778.77047  22127955.5744   22127961.5744   22127954.931
        48.0004         44.0004
 -16458231.13348 -12812404.61247  22284073.5534   22284079.8784   22284073.906
        48.0004         43.0004
 -14966202.54748 -11649445.91947  20664943.4254   20664948.4874   20664943.287
        52.0004         47.0004
  -1427533.78747  -1043652.16746  24226842.8794   24226849.7354   24226842.017
        42.0004         37.0004
 -12131543.28748  -9446336.16947  22025816.1854   22025819.8604   22025816.740
        49.0004         45.0004
  -8546821.45647  -6616274.13846  23646658.7164   23646668.4364   23646657.783
        46.0004         41.0004
 -27798345.47249 -21415647.68348  20296378.2974   20296383.4054   20296377.860
        54.0004         49.0004
  -1054940.26446   -784355.25045  25472015.0654   25472020.9774   25472013.639
