     2.11           OBSERVATION DATA    G (GPS)             RINEX VERSION / TYPE
teqc  2013Mar15     gpsops              20140508 00:23:28UTCPGM / RUN BY / DATE
Linux 2.4.21-27.ELsmp|Opteron|gcc -static|Linux x86_64|=+   COMMENT
BIT 2 OF LLI FLAGS DATA COLLECTED UNDER A/S CONDITION       COMMENT
GLPS                                                        MARKER NAME
42005M002                                                   MARKER NUMBER
GGN                 JPL                                     OBSERVER / AGENCY
ZR220013847         ASHTECH UZ-12       CQ00                REC # / TYPE / VERS
CR519992104         ASH701945B_M    SCIT                    ANT # / TYPE
   -33801.4662 -6377516.5323   -82154.3508                  APPROX POSITION XYZ
        0.0083        0.0000        0.0000                  ANTENNA: DELTA H/E/N
     1     1                                                WAVELENGTH FACT L1/2
     7    L1    L2    P1    P2    C1    S1    S2            # / TYPES OF OBSERV
    30.0000                                                 INTERVAL
                                                            COMMENT
This data is provided as a public service by NASA/JPL.      COMMENT
No warranty is expressed or implied regarding suitability   COMMENT
for use.  For further information, contact:                 COMMENT
Dave Stowers, NASA/JPL m/s 238-600                          COMMENT
4800 Oak Grove Drive, Pasadena CA 91109 USA                 COMMENT
                                                            COMMENT
Forced Modulo Decimation to 30 seconds                      COMMENT
 SNR is mapped to RINEX snr flag value [0-9]                COMMENT
  L1 & L2: min(max(int(snr_dBHz/6), 0), 9)                  COMMENT
pseudorange smoothing corrections not applied               COMMENT
  2014     5     7     0     0    0.0000000     GPS         TIME OF FIRST OBS
                                                            END OF HEADER
 14  5  7  0  0  0.0000000  0 12G09G01G20G13G10G07G28G08G23G17G04G11
 -11061162.98648  -8563048.51348  20638040.3284   20638047.7374   20638040.261
        52.0004         48.0004
 -12176952.80347  -9452419.40747  22553959.9424   22553972.1664   22553959.318
        47.0004         43.0004
  -5421647.15347  -4178769.03346  23628843.6574   23628853.5504   23628844.438
        43.0004         38.0004
  -7333461.76947  -5659445.32846  23016922.7474   23016930.4994   23016922.378
        44.0004         40.0004
  -5318587.90946  -4142039.31046  24705657.8284   24705671.8984   24705657.929
        41.0004         36.0004
 -24158318.70249 -18777458.84048  20119798.8364   20119804.5384   20119798.267
        54.0004         49.0004
     45353.69447     33966.43246  24190684.4534   24190696.7774   24190684.439
        42.0004         38.0004
 -18181255.19348 -14149248.19148  20585555.9134   20585564.4124   20585556.431
        53.0004         48.0004
   1835214.46546   1467746.64745  25268871.0324   25268877.7614   25268870.336
        40.0004         35.0004
 -15880537.03748 -12317506.09247  22079472.2414   22079480.8994   22079471.891
        51.0004         46.0004
 -17554536.21347 -13628231.60047  22472355.5154   22472362.4694   22472354.361
        47.0004         43.0004
  -5083326.30646  -3934348.26046  24175544.4964   24175554.8454   24175544.776
        41.0004         36.0004
 14  5  7  0  0 30.0000000  0 12G09G01G20G13G10G07G28G08G23G17G04G11
 -11122148.96748  -8610569.94848  20626434.7534   20626442.3254   20626434.722
        52.0004         48.0004
 -12097622.00147  -9390603.21947  22569055.7504   22569069.2514   22569055.469
        47.0004         42.0004
  -5424194.88047  -4180754.21646  23628359.6854   23628368.9524   23628360.494
        43.0004         38.0004
  -7251587.30547  -5595646.99946  23032502.7984   23032511.0194   23032502.853
        44.0004         40.0004
  -5357439.57646  -4172313.16646  24698266.0804   24698277.5864   24698265.233
        41.0004         36.0004
 -24156051.76749 -18775692.34748  20120229.5414   20120236.0664   20120229.250
        54.0004         49.0004
     14489.56047      9916.64146  24184810.6124   24184820.8534   24184811.296
        43.0004         38.0004
 -18245449.99748 -14199270.01848  20573340.2554   20573347.9664   20573340.573
        53.0004         48.0004
   1914736.86246   1529712.22346  25284002.2074   25284009.9054   25284002.556
        40.0004         36.0004
 -15849853.93448 -12293597.18347  22085310.9444   22085319.3454   22085310.440
        51.0004         46.0004
 -17648394.96947 -13701368.17347  22454494.1384   22454501.5124   22454493.961
        47.0004         43.0004
  -4980030.09246  -3853857.65146  24195200.6354   24195213.8334   24195201.224
        41.0004         36.0004
 14  5  7  0  1  0.0000000  0 12G09G01G20G13G10G07G28G08G23G17G04G11
 -11182663.68648  -8657724.15948  20614918.9734   20614926.8764   20614919.166
        52.0004         48.0004
 -12017920.72647  -9328498.35847  22584221.8534   22584235.5624   22584221.895
        47.0004         42.0004
  -5426630.56947  -4182652.11446  23627896.0674   23627905.3694   23627896.330
        43.0004         38.0004
  -7169762.14647  -5531887.08846  23048075.0014   23048081.4474   23048073.629
        44.0004         40.0004
  -5396540.82146  -4202781.51046  24690822.8004   24690835.6524   24690824.486
        41.0004         36.0004
 -24153186.62649 -18773459.71848  20120775.2104   20120780.8224   20120774.773
        54.0004         49.0004
    -16649.71447    -14347.56246  24178884.7604   24178896.1574   24178885.333
        43.0004         38.0004
 -18309184.40248 -14248933.08748  20561211.8234   20561220.1104   20561212.254
        53.0004         48.0004
   1994027.73746   1591497.36145  25299090.7824   25299098.1464   25299091.102
        40.0004         35.0004
 -15818931.08448 -12269501.45047  22091195.8434   22091204.3384   22091195.119
        51.0004         46.0004
 -17742050.87948 -13774346.67847  22436672.2614   22436679.9434   22436671.402
        48.0004         43.0004
  -4876625.37746  -3773282.51246  24214877.3684   24214889.0444   24214878.969
        41.0004         36.0004
 14  5  7  0  1 30.0000000  0 11G09G01G20G13G10G07G28G08G17G04G11
 -11242703.87548  -8704508.61248  20603493.4464   20603501.5344   20603493.771
        52.0004         48.0004
 -11937850.43147  -9266105.93547  22599458.5564   22599471.2544   22599459.007
        47.0004         42.0004
  -5428950.78447  -4184460.01646  23627453.6404   23627463.7234   23627454.466
        43.0004         38.0004
  -7087988.07247  -5468166.98746  23063634.2134   23063642.7724   23063634.603
        44.0004         39.0004
  -5435891.04046  -4233443.86346  24683336.1564   24683348.1134   24683336.525
        41.0004         36.0004
 -24149722.47549 -18770760.33148  20121434.3204   20121440.3104   20121433.827
        54.0004         49.0004
    -48062.71547    -38825.05946  24172908.4524   24172917.9484   24172907.333
        43.0004         38.0004
 -18372454.81948 -14298234.61348  20549172.1084   20549180.0944   20549172.424
        53.0004         48.0004
 -15787770.24748 -12245220.27947  22097124.5534   22097133.7864   22097124.760
        50.0004         46.0004
 -17835500.34048 -13847164.32547  22418889.0164   22418897.7634   22418887.994
        48.0004         43.0004
  -4773113.77146  -3692624.05646  24234575.4964   24234588.2044   24234576.093
        41.0004         36.0004
 14  5  7  0  2  0.0000000  0 11G09G01G20G13G10G07G28G08G17G04G11
 -11302267.75348  -8750921.90948  20592158.8494   20592166.8174   20592158.936
        52.0004         48.0004
 -11857414.19947  -9203428.38147  22614766.2564   22614777.5634   22614765.742
        47.0004         42.0004
  -5431154.97847  -4186177.51446  23627035.0394   23627045.7324   23627035.010
        43.0004         38.0004
  -7006268.32347  -5404489.19546  23079186.5054   23079192.8064   23079185.644
        44.0004         40.0004
  -5475490.92646  -4264300.73046  24675799.8634   24675813.1824   24675800.459
        41.0004         36.0004
 -24145659.62049 -18767594.41748  20122207.5014   20122213.1294   20122206.954
        54.0004         49.0004
    -79749.94247    -63516.23246  24166878.5544   24166887.8404   24166877.301
        42.0004         38.0004
 -18435258.93648 -14347172.78948  20537220.8774   20537228.8534   20537221.075
        53.0004         48.0004
 -15756375.07348 -12220756.49547  22103099.5404   22103107.7724   22103098.997
        50.0004         46.0004
 -17928741.51948 -13919819.66447  22401146.3754   22401154.1364   22401145.121
        48.0004         43.0004
  -4669498.77046  -3611885.03646  24254293.5364   24254302.9934   24254293.511
        41.0004         36.0004
 14  5  7  0  2 30.0000000  0 11G09G01G20G13G10G07G28G08G17G04G11
 -11361352.49248  -8796961.84848  20580915.5864   20580923.1544   20580915.636
        53.0004         48.0004
 -11776613.82247  -9140467.06947  22630142.3144   22630154.5264   22630141.667
        47.0004         42.0004
  -5433240.88247  -4187802.85946  23626638.5424   23626647.4004   23626638.407
        43.0004         38.0004
  -6924604.85347  -5340855.28846  23094726.0324   23094732.9304   23094725.952
        44.0004         40.0004
  -5515340.06946  -4295351.83446  24668216.5204   24668229.6194   24668217.122
        41.0004         37.0004
 -24140997.10949 -18763961.24248  20123094.2674   20123100.7244   20123094.027
        54.0004         49.0004
   -111711.00347    -88420.76946  24160795.6114   24160806.1174   24160795.691
        43.0004         38.0004
 -18497593.05648 -14395744.73148  20525358.7334   20525366.7924   20525359.288
        53.0004         49.0004
 -15724747.20848 -12196111.40147  22109117.2224   22109126.6604   22109116.975
        50.0004         46.0004
 -18021771.47348 -13992310.40647  22383441.9024   22383449.9354   22383442.509
        48.0004         43.0004
  -4565782.43946  -3531067.08346  24274030.3964   24274039.0814   24274029.889
        41.0004         36.0004
 14  5  7  0  3  0.0000000  0 11G09G01G20G13G10G07G28G08G17G04G11
 -11419954.85348  -8842625.90748  20569763.5664   20569771.3564   20569763.546
        53.0004         48.0004
 -11695450.51147  -9077222.94847  22645586.1364   22645599.6624   22645585.848
        47.0004         42.0004
  -5435205.59547  -4189333.75446  23626263.6014   23626272.8044   23626264.830
        43.0004         38.0004
  -6842999.05647  -5277266.28846  23110255.9774   23110262.4704   23110254.443
        44.0004         39.0004
  -5555437.84946  -4326596.66246  24660587.2534   24660599.1384   24660586.453
        41.0004         36.0004
 -24135734.10449 -18759860.14748  20124096.1504   20124101.8134   20124095.759
        54.0004         49.0004
   -143943.56447   -113536.86246  24154660.6664   24154672.3004   24154661.495
        43.0004         38.0004
 -18559453.36948 -14443947.47348  20513587.1994   20513595.1084   20513587.691
        53.0004         49.0004
 -15692888.43648 -12171286.37447  22115180.1064   22115188.5814   22115179.837
        50.0004         46.0004
 -18114585.94648 -14064633.25647  22365780.6624   22365788.6984   22365779.877
        48.0004         43.0004
  -4461966.48746  -3450171.47346  24293785.7884   24293796.5314   24293785.217
        41.0004         36.0004
 14  5  7  0  3 30.0000000  0 11G09G01G20G13G10G07G28G08G17G04G11
 -11478073.47348  -8887913.03048  20558704.1304   20558711.7474   20558703.906
        53.0004         48.0004
 -11613927.48047  -9013698.52747  22661099.7764   22661111.8564   22661099.314
        47.0004         42.0004
  -5437048.27847  -4190769.56446  23625913.6724   23625922.0544   23625914.091
        43.0004         38.0004
  -6761454.38647  -5213724.94346  23125771.6204   23125779.4594   23125771.988
        44.0004         40.0004
  -5595785.12146  -4358035.91446  24652908.7844   24652918.6224   24652907.965
        41.0004         37.0004
 -24129870.92649 -18755291.38748  20125211.7564   20125217.5814   20125211.202
        54.0004         49.0004
   -176448.08447   -138864.88046  24148475.4364   24148487.0094   24148475.624
        43.0004         38.0004
 -18620838.05748 -14491779.59448  20501905.8624   20501914.0584   20501906.280
        53.0004         49.0004
 -15660802.45748 -12146284.30447  22121285.7254   22121294.4654   22121285.852
        51.0004         46.0004
 -18207183.72448 -14136787.24947  22348160.0144   22348167.6144   22348159.347
        48.0004         43.0004
  -4358054.42646  -3369200.96846  24313559.2064   24313570.7204   24313558.576
        41.0004         36.0004
 14  5  7  0  4  0.0000000  0 11G09G01G20G13G10G07G28G08G17G04G11
 -11535704.96048  -8932820.56648  20547737.0544   20547745.1044   20547737.056
        53.0004         48.0004
 -11532046.18547  -8949894.94847  22676682.0774   22676694.3204   22676681.053
        47.0004         42.0004
  -5438766.16547  -4192108.14346  23625586.9424   23625595.3764   23625587.058
        43.0004         38.0004
  -6679972.00947  -5150232.11546  23141278.0684   23141284.4534   23141277.855
        44.0004         39.0004
  -5636380.81046  -4389668.73946  24645181.4164   24645195.6374   24645183.515
        41.0004         36.0004
 -24123406.45349 -18750254.08148  20126441.8554   20126447.5424   20126441.362
        54.0004         49.0004
   -209223.51747   -164404.01246  24142238.4254   24142250.2524   24142239.017
        43.0004         38.0004
 -18681743.21948 -14539238.06748  20490316.5734   20490323.8034   20490316.424
        53.0004         49.0004
 -15628491.19248 -12121106.69047  22127434.8234   22127444.0154   22127434.494
        51.0004         46.0004
 -18299561.06148 -14208769.46347  22330579.7714   22330588.3344   22330580.188
        48.0004         43.0004
  -4254048.02246  -3288156.95846  24333350.9184   24333362.1164   24333350.246
        40.0004         36.0004
 14  5  7  0  4 30.0000000  0 11G09G01G20G13G10G07G28G08G17G04G11
 -11592847.50748  -8977347.10648  20536862.9844   20536871.2104   20536862.979
        53.0004         48.0004
 -11449809.65747  -8885814.55447  22692330.9474   22692343.2544   22692330.218
        47.0004         42.0004
  -5440357.86147  -4193348.38146  23625283.7164   23625292.8954   23625284.128
        43.0004         38.0004
  -6598555.00947  -5086790.24946  23156770.9634   23156778.9174   23156770.969
        44.0004         39.0004
  -5677225.77146  -4421495.78846  24637409.5044   24637422.0324   24637410.555
        41.0004         37.0004
 -24116341.08749 -18744748.57048  20127786.3544   20127792.0974   20127785.749
        54.0004         49.0004
   -242269.95247   -190154.32546  24135950.1744   24135960.6954   24135950.301
        43.0004         38.0004
 -18742166.73848 -14586321.22548  20478817.5844   20478825.8724   20478817.963
        53.0004         49.0004
 -15595956.87448 -12095755.26447  22133625.9794   22133634.8974   22133625.323
        51.0004         46.0004
 -18391715.86348 -14280578.28247  22313043.9754   22313051.2644   22313043.385
        48.0004         43.0004
  -4149950.42746  -3207041.87846  24353158.0664   24353171.1104   24353159.167
        41.0004         36.0004
 14  5  7  0  5  0.0000000  0 11G09G01G20G13G10G07G28G08G17G04G11
 -11649497.72748  -9021490.02748  20526083.0804   20526090.1934   20526083.048
        53.0004         48.0004
 -11367219.05047  -8821458.26047  22708048.1184   22708059.4754   22708046.767
        47.0004         42.0004
  -5441820.77047  -4194488.27046  23625004.8894   23625014.6894   23625005.602
        43.0004         38.0004
  -6517204.70347  -5023400.31846  23172251.8964   23172258.8584   23172251.168
        44.0004         39.0004
  -5718318.59547  -4453515.98246  24629589.4994   24629603.3424   24629591.023
        42.0004         37.0004
 -24108673.64749 -18738773.89048  20129245.4774   20129251.5624   20129244.755
        54.0004         49.0004
   -275585.80647   -216114.54646  24129609.8274   24129620.1284   24129610.431
        43.0004         39.0004
 -18802104.43348 -14633025.82648  20467412.1204   20467419.6634   20467412.535
        53.0004         49.0004
 -15563202.09748 -12070232.04947  22139858.8054   22139867.0764   22139858.334
        51.0004         46.0004
 -18483644.28248 -14352210.70447  22295551.3144   22295558.4834   22295549.846
        48.0004         43.0004
  -4045763.42246  -3125857.14746  24372985.9994   24372993.6054   24372985.557
        40.0004         36.0004
 14  5  7  0  5 30.0000000  0 11G09G01G20G13G10G07G28G08G17G04G11
 -11705654.93948  -9065248.77648  20515396.5394   20515403.7814   20515396.212
        53.0004         48.0004
 -11284278.42347  -8756829.21847  22723830.5504   22723843.1354   22723830.132
        47.0004         42.0004
  -5443154.59447  -4195527.57946  23624751.4254   23624761.5004   23624752.033
        43.0004         38.0004
  -6435925.38647  -4960065.71746  23187717.9934   23187725.7184   23187718.061
        44.0004         39.0004
  -5759661.04847  -4485730.69346  24621724.2444   24621735.1874   24621724.481
        42.0004         37.0004
 -24100406.02349 -18732331.53348  20130818.6924   20130824.5314   20130818.303
        54.0004         49.0004
   -309171.92147   -242285.36946  24123218.5414   24123228.8804   24123218.985
        43.0004         38.0004
 -18861555.03148 -14679350.86948  20456098.7924   20456106.3074   20456099.337
        53.0004         49.0004
 -15530230.69148 -12044540.03147  22146133.0454   22146142.4784   22146132.678
        51.0004         46.0004
 -18575345.48648 -14423666.06047  22278100.2764   22278107.4984   22278099.824
        48.0004         43.0004
  -3941491.12246  -3044605.92846  24392826.3914   24392838.8704   24392827.643
        40.0004         36.0004
 14  5  7  0  6  0.0000000  0 11G09G01G20G13G10G07G28G08G17G04G11
 -11761314.46848  -9108619.72948  20504804.6214   20504812.1804   20504804.546
        53.0004         48.0004
 -11200987.76447  -8691927.43647  22739680.1384   22739692.2284   22739679.463
        47.0004         42.0004
  -5444354.94047  -4196462.88746  23624523.4844   23624531.1564   23624523.949
        43.0004         38.0004
  -6354716.85947  -4896786.26346  23203172.0624   23203179.0434   23203171.443
        44.0004         39.0004
  -5801250.74247  -4518138.05546  24613809.5604   24613820.8474   24613809.102
        42.0004         37.0004
 -24091535.35049 -18725419.26448  20132506.6834   20132512.1274   20132506.325
        54.0004         49.0004
   -343025.53347   -268664.63746  24116775.9374   24116786.4724   24116776.271
        43.0004         38.0004
 -18920513.14848 -14725292.15948  20444878.9904   20444887.1174   20444879.542
        53.0004         49.0004
 -15497042.74548 -12018679.28247  22152448.3634   22152457.3624   22152448.138
        51.0004         46.0004
 -18666814.21348 -14494940.28147  22260693.3554   22260702.0914   22260693.569
        48.0004         43.0004
  -3837133.77046  -2963288.44445  24412686.3664   24412698.0874   24412686.095
        40.0004         35.0004
 14  5  7  0  6 30.0000000  0 11G09G01G20G13G10G07G28G08G17G04G11
 -11816475.40748  -9151602.16948  20494307.7794   20494315.3364   20494307.704
        53.0004         48.0004
 -11117350.83747  -8626755.83547  22755596.7594   22755607.3694   22755595.217
        46.0004         42.0004
  -5445421.64747  -4197294.03946  23624320.2904   23624329.3794   23624320.668
        43.0004         38.0004
  -6273582.78147  -4833564.84346  23218610.4554   23218617.6664   23218610.271
        44.0004         39.0004
  -5843089.15747  -4550739.21546  24605846.3754   24605857.5284   24605847.425
        42.0004         37.0004
 -24082062.98449 -18718038.15148  20134309.0714   20134314.7164   20134308.584
        54.0004         49.0004
   -377147.43447   -295252.96946  24110284.2034   24110293.8204   24110283.060
        43.0004         38.0004
 -18978977.45048 -14770848.65948  20433753.6224   20433761.4704   20433753.613
        53.0004         48.0004
 -15463642.56648 -11992653.16047  22158804.2144   22158813.5744   22158803.678
        50.0004         46.0004
 -18758049.40648 -14566032.51647  22243332.9294   22243340.7874   22243332.368
        48.0004         43.0004
  -3732695.26946  -2881907.74746  24432558.7974   24432570.1564   24432559.760
        40.0004         36.0004
 14  5  7  0  7  0.0000000  0 11G09G01G20G13G10G07G28G08G17G04G11
 -11871129.02748  -9194189.29848  20483907.6744   20483914.6834   20483907.661
        53.0004         48.0004
 -11033363.34147  -8561311.05447  22771577.1964   22771590.6544   22771577.640
        46.0004         42.0004
  -5446346.33947  -4198014.55846  23624145.3324   23624152.2494   23624145.048
        43.0004         38.0004
  -6192518.95547  -4770398.14546  23234037.2334   23234043.0254   23234036.169
        44.0004         39.0004
  -5885169.58647  -4583528.96446  24597838.3734   24597849.7094   24597839.712
        42.0004         37.0004
 -24071982.36149 -18710183.06648  20136227.2994   20136232.7534   20136227.038
        54.0004         49.0004
   -411530.50547   -322044.79646  24103739.3554   24103750.4304   24103740.167
        43.0004         38.0004
 -19036938.60848 -14816013.10448  20422724.1574   20422731.6194   20422724.487
        53.0004         49.0004
 -15430026.09948 -11966458.49947  22165201.1584   22165210.6744   22165201.029
        50.0004         46.0004
 -18849041.64848 -14636935.43847  22226016.5794   22226025.3284   22226016.500
        48.0004         43.0004
  -3628171.72746  -2800460.75945  24452449.2144   24452462.1694   24452450.133
        40.0004         35.0004
 14  5  7  0  7 30.0000000  0 11G09G01G20G13G10G07G28G08G17G04G11
 -11925285.43148  -9236388.98248  20473601.6694   20473608.9644   20473601.452
        53.0004         48.0004
 -10949040.05247  -8495604.60046  22787623.7434   22787636.4444   22787623.413
        46.0004         41.0004
  -5447139.26447  -4198632.38346  23623993.4474   23624001.8544   23623993.108
        43.0004         38.0004
  -6111539.92747  -4707297.52446  23249445.9664   23249453.1284   23249445.801
        44.0004         39.0004
  -5927504.12647  -4616516.72146  24589782.5524   24589796.2254   24589783.292
        42.0004         37.0004
 -24061305.71449 -18701863.54748  20138258.7244   20138264.5014   20138258.538
        54.0004         49.0004
   -446186.55747   -349049.33746  24097145.1784   24097154.6524   24097145.638
        43.0004         39.0004
 -19094406.31548 -14860793.03748  20411788.4574   20411795.9284   20411788.540
        53.0004         48.0004
 -15396208.34148 -11940106.99647  22171637.0614   22171645.0924   22171636.354
        50.0004         46.0004
 -18939800.62048 -14707656.59447  22208745.3584   22208754.1114   22208745.938
        48.0004         43.0004
  -3523577.96646  -2718959.04345  24472354.7994   24472365.9534   24472354.173
        40.0004         35.0004
 14  5  7  0  8  0.0000000  0 11G09G01G20G13G10G07G28G08G17G04G11
 -11978934.77048  -9278193.55448  20463392.4194   20463400.0724   20463392.449
        53.0004         48.0004
 -10864375.63447  -8429632.35246  22803735.7744   22803747.9654   22803734.289
        46.0004         41.0004
  -5447791.12147  -4199140.30946  23623869.1284   23623878.7254   23623870.424
        43.0004         39.0004
  -6030640.51047  -4644258.94146  23264840.6994   23264849.5534   23264841.036
        44.0004         39.0004
  -5970085.22447  -4649696.60246  24581680.5134   24581689.4654   24581680.134
        42.0004         37.0004
 -24050025.40749 -18693073.64348  20140405.7024   20140411.1874   20140405.251
        54.0004         49.0004
   -481107.22647   -376260.06846  24090499.4474   24090510.2334   24090500.035
        43.0004         39.0004
 -19151369.87148 -14905180.12648  20400948.5334   20400956.3784   20400949.220
        53.0004         49.0004
 -15362184.08348 -11913594.58347  22178111.5374   22178119.5684   22178110.993
        50.0004         46.0004
 -19030315.94948 -14778187.89647  22191520.5894   22191530.0754   22191521.508
        48.0004         43.0004
  -3418909.04546  -2637398.78145  24492274.5634   24492282.3704   24492271.445
        39.0004         34.0004
 14  5  7  0  8 30.0000000  0 11G09G01G20G13G10G07G28G08G17G04G11
 -12032077.66548  -9319603.50348  20453279.3494   20453287.1874   20453279.670
        53.0004         48.0004
 -10779375.26547  -8363398.32346  22819909.9664   22819921.8514   22819909.850
        46.0004         41.0004
  -5448302.92047  -4199539.08746  23623770.7014   23623779.9334   23623771.683
        43.0004         38.0004
  -5949825.53047  -4581286.15946  23280219.0264   23280227.4104   23280219.417
        44.0004         39.0004
  -6012915.12946  -4683070.36346  24573530.3264   24573539.8524   24573530.499
        41.0004         37.0004
 -24038144.42949 -18683815.68348  20142666.2964   20142671.9464   20142666.063
        54.0004         49.0004
   -516294.40847   -403678.46746  24083805.1894   24083814.2814   24083803.989
        43.0004         38.0004
 -19207829.26348 -14949174.36048  20390204.6434   20390212.3404   20390205.068
        53.0004         49.0004
 -15327958.84048 -11886925.55147  22184623.7844   22184632.8294   22184623.525
        50.0004         46.0004
 -19120587.46148 -14848529.22447  22174344.2904   22174349.9954   22174342.732
        48.0004         44.0004
  -3314170.14446  -2555783.95945  24512202.2454   24512215.6884   24512202.306
        39.0004         34.0004
 14  5  7  0  9  0.0000000  0 11G09G01G20G13G10G07G28G08G17G04G11
 -12084709.30348  -9360615.07048  20443264.2984   20443271.1834   20443264.295
        53.0004         48.0004
 -10694038.86747  -8296902.46746  22836150.0394   22836161.1274   22836149.090
        46.0004         41.0004
  -5448669.91147  -4199825.03046  23623701.2144   23623709.8024   23623702.916
        43.0004         38.0004
  -5869094.92547  -4518379.09546  23295582.3394   23295589.3194   23295582.133
        43.0004         39.0004
  -6055991.60247  -4716636.26146  24565331.9754   24565343.3794   24565333.116
        42.0004         37.0004
 -24025660.16649 -18674087.62848  20145041.9644   20145047.6234   20145041.613
        54.0004         49.0004
   -551745.11847   -431302.21246  24077057.3184   24077068.4254   24077057.758
        43.0004         39.0004
 -19263779.22948 -14992771.64348  20379557.9654   20379565.0034   20379558.183
        53.0004         49.0004
 -15293532.39548 -11860099.73747  22191175.4054   22191183.8704   22191175.002
        50.0004         46.0004
 -19210610.19348 -14918676.67947  22157212.2014   22157219.9494   22157212.629
        48.0004         44.0004
  -3209361.36146  -2474114.70345  24532148.1254   24532159.4634   24532147.160
        39.0004         34.0004
 14  5  7  0  9 30.0000000  0 11G09G01G20G13G10G07G28G08G17G04G11
 -12136827.59048  -9401226.62448  20433346.4704   20433354.0674   20433346.315
        53.0004         48.0004
 -10608369.00847  -8230146.75946  22852451.7054   22852463.8774   22852450.823
        46.0004         41.0004
  -5448890.65547  -4199997.00546  23623660.6884   23623669.2284   23623660.163
        43.0004         38.0004
  -5788450.95247  -4455539.55146  23310927.6754   23310934.6114   23310928.365
        43.0004         39.0004
  -6099314.76847  -4750394.35946  24557088.4164   24557099.3704   24557088.629
        42.0004         37.0004
 -24012572.94349 -18663889.73148  20147532.2474   20147538.0114   20147532.097
        54.0004         49.0004
   -587458.85047   -459130.90846  24070261.3084   24070272.4074   24070261.131
        43.0004         39.0004
 -19319217.30049 -15035970.04948  20369007.9954   20369015.5484   20369008.299
        54.0004         49.0004
 -15258907.79948 -11833119.52447  22197764.2594   22197772.9594   22197763.596
        50.0004         46.0004
 -19300381.69548 -14988628.37347  22140128.5124   22140138.0564   22140129.129
        48.0004         44.0004
  -3104485.50246  -2392393.14045  24552108.8214   24552113.1544   24552104.549
        38.0004         33.0004
 14  5  7  0 10  0.0000000  0 11G09G01G20G13G10G07G28G08G17G04G11
 -12188432.38048  -9441438.04648  20423526.2514   20423533.6164   20423526.178
        53.0004         49.0004
 -10522369.96047  -8163134.55246  22868816.3914   22868827.9594   22868816.156
        46.0004         41.0004
  -5448965.45747  -4200055.25946  23623646.0694   23623654.1104   23623645.715
        43.0004         38.0004
  -5707897.98647  -4392770.92346  23326256.3414   23326263.8404   23326256.629
        43.0004         39.0004
  -6142886.31347  -4784346.01046  24548796.5164   24548806.8704   24548796.824
        42.0004         38.0004
 -23998884.82149 -18653223.60248  20150137.2004   20150142.8534   20150136.840
        54.0004         49.0004
   -623436.92147   -487165.60146  24063413.9944   24063424.6134   24063415.186
        43.0004         39.0004
 -19374142.45949 -15078768.77348  20358555.9674   20358563.7604   20358556.562
        54.0004         49.0004
 -15224089.57448 -11805988.42747  22204389.2964   22204398.2104   22204389.167
        50.0004         46.0004
 -19389900.91448 -15058383.48047  22123094.0734   22123102.1544   22123094.365
        48.0004         44.0004
  -2999546.85046  -2310622.68445  24572071.1654   24572082.2834   24572073.138
        38.0004         33.0004
 14  5  7  0 10 30.0000000  0 11G09G01G20G13G10G07G28G08G17G04G11
 -12239518.54048  -9481245.34248  20413804.8084   20413812.2144   20413804.761
        53.0004         48.0004
 -10436041.44447  -8095865.60146  22885244.4184   22885257.0994   22885243.762
        46.0004         41.0004
  -5448889.51847  -4199996.06146  23623660.9574   23623668.6424   23623661.089
        43.0004         38.0004
  -5627435.35647  -4330072.67446  23341568.8344   23341575.4234   23341567.273
        43.0004         39.0004
  -6186703.00647  -4818488.70946  24540458.5444   24540471.6664   24540458.613
        42.0004         37.0004
 -23984592.99949 -18642087.05848  20152856.2664   20152862.1954   20152856.213
        54.0004         49.0004
   -659675.66047   -515403.39746  24056518.9094   24056529.2974   24056518.798
        43.0004         39.0004
 -19428549.23349 -15121163.57948  20348202.6504   20348210.0794   20348203.095
        54.0004         49.0004
 -15189076.95048 -11778705.84347  22211052.7914   22211060.9104   22211052.512
        50.0004         46.0004
 -19479162.64148 -15127937.95247  22106108.3044   22106115.6894   22106108.453
        49.0004         44.0004
                  -2228803.16945                  24592066.7264   24592054.292
                        32.0004
 14  5  7  0 11  0.0000000  0 11G09G01G20G13G10G07G28G08G17G04G11
 -12290085.76548  -9520648.28048  20404182.0014   20404189.4744   20404182.068
        53.0004         48.0004
 -10349387.41447  -8028343.01246  22901734.0904   22901746.4764   22901733.961
        46.0004         41.0004
  -5448662.19947  -4199818.91146  23623702.3964   23623714.7334   23623703.773
        42.0004         38.0004
  -5547066.47647  -4267447.47646  23356861.1494   23356867.6194   23356861.428
        43.0004         39.0004
  -6230766.53947  -4852823.72746  24532074.0104   24532084.4074   24532073.880
        42.0004         37.0004
 -23969699.34349 -18630481.55248  20155690.7444   20155696.4824   20155690.305
        54.0004         49.0004
   -696176.08647   -543845.09946  24049574.1344   24049582.0894   24049572.799
        43.0004         38.0004
 -19482436.77449 -15163153.77848  20337948.0864   20337955.5994   20337948.687
        54.0004         49.0004
 -15153874.89848 -11751275.65847  22217750.9564   22217760.1514   22217750.922
        50.0004         46.0004
 -19568165.60048 -15197290.77547  22089171.8294   22089179.9854   22089171.629
        49.0004         44.0004
                                                                  24612046.833

 14  5  7  0 11 30.0000000  0 11G09G01G20G13G10G07G28G08G17G04G11
 -12340130.69048  -9559644.22248  20394658.9584   20394666.2624   20394659.057
        53.0004         49.0004
 -10262409.03847  -7960567.68046  22918285.4244   22918297.8024   22918285.447
        46.0004         41.0004
  -5448280.83247  -4199521.71646  23623775.4554   23623784.7494   23623776.129
        42.0004         38.0004
  -5466792.55647  -4204896.28046  23372138.1754   23372143.6554   23372137.106
        43.0004         38.0004
  -6275075.33947  -4887349.87046  24523641.2714   24523652.4034   24523641.945
        42.0004         37.0004
 -23954202.67549 -18618406.16948  20158639.4084   20158645.0084   20158639.165
        54.0004         49.0004
   -732935.94647   -572488.96446  24042577.9014   24042586.9004   24042577.767
        43.0004         38.0004
 -19535800.78049 -15204736.03248  20327793.1524   20327800.5084   20327793.745
        54.0004         49.0004
 -15118484.59248 -11723698.78347  22224485.8924   22224494.7504   22224485.336
        50.0004         46.0004
 -19656905.86048 -15266438.90747  22072284.9574   22072292.4134   22072284.535
        49.0004         44.0004
                                                                  24632049.496

 14  5  7  0 12  0.0000000  0 11G09G01G20G13G10G07G28G08G17G04G11
 -12389653.37948  -9598233.22948  20385234.7224   20385241.5984   20385234.790
        53.0004         49.0004
 -10175110.79247  -7892543.11146  22934898.4394   22934910.3924   22934897.613
        46.0004         41.0004
  -5447745.89147  -4199104.85946  23623876.8584   23623886.7404   23623877.584
        42.0004         38.0004
  -5386617.96147  -4142422.46946  23387393.0144   23387399.6864   23387393.881
        43.0004         39.0004
  -6319631.03147  -4922068.39046  24515161.8084   24515174.4534   24515163.195
        42.0004         37.0004
 -23938105.32249 -18605862.71348  20161702.6204   20161708.1914   20161702.379
        54.0004         49.0004
   -769956.96747   -601336.32146  24035532.2244   24035543.2994   24035532.485
        43.0004         38.0004
 -19588640.65849 -15245909.87248  20317738.1114   20317745.3364   20317738.591
        54.0004         49.0004
 -15082910.66348 -11695978.81247  22231255.3274   22231263.5854   22231254.585
        50.0004         46.0004
 -19745382.69748 -15335381.77547  22055448.4964   22055455.1244   22055447.799
        49.0004         44.0004
                                                                  24652063.209

 14  5  7  0 12 30.0000000  0 11G09G01G20G13G10G07G28G08G17G04G11
 -12438649.27548  -9636411.75048  20375910.9014   20375918.3184   20375911.024
        53.0004         49.0004
 -10087492.95547  -7824269.51046  22951571.3144   22951583.4904   22951570.772
        46.0004         41.0004
  -5447053.02047  -4198564.95246  23624009.8254   23624018.2954   23624009.877
        42.0004         37.0004
  -5306542.37447  -4080025.81946  23402632.2684   23402638.7854   23402632.118
        43.0004         39.0004
  -6364431.37647  -4956977.53846  24506637.5194   24506648.6374   24506637.865
        42.0004         37.0004
 -23921405.53249 -18592849.83148  20164880.5964   20164886.5074   20164880.074
        54.0004         49.0004
   -807235.90147   -630384.66246  24028437.7704   24028448.3464   24028438.707
        43.0004         39.0004
 -19640951.66449 -15286671.60848  20307783.7884   20307791.2004   20307784.048
        54.0004         49.0004
 -15047153.17448 -11668115.81847  22238059.3594   22238068.0894   22238059.089
        50.0004         46.0004
 -19833591.18848 -15404115.54947  22038662.2884   22038670.8264   22038662.411
        49.0004         44.0004
                                                                  24672085.880

 14  5  7  0 13  0.0000000  0 10G09G01G20G13G10G07G28G08G17G04
 -12487116.54448  -9674178.35848  20366687.9644   20366695.4004   20366688.022
        53.0004         49.0004
  -9999558.20947  -7755748.95146  22968304.8554   22968317.4164   22968304.515
        46.0004         41.0004
  -5446200.55447  -4197900.68446  23624169.6594   23624180.8184   23624171.594
        42.0004         38.0004
  -5226568.35347  -4017708.29646  23417849.9634   23417856.5774   23417850.448
        44.0004         39.0004
  -6409476.69047  -4992077.56546  24498064.7254   24498074.9104   24498065.502
        42.0004         37.0004
 -23904103.69649 -18579367.82248  20168173.3704   20168178.5214   20168172.820
        54.0004         49.0004
   -844772.08647   -659633.46946  24021294.2494   24021305.2494   24021295.557
        43.0004         39.0004
 -19692731.27349 -15327019.26048  20297930.4034   20297937.6114   20297930.725
        54.0004         49.0004
 -15011215.55948 -11640112.45747  22244897.8264   22244906.8044   22244897.877
        50.0004         46.0004
 -19921529.08848 -15472638.46747  22021928.4724   22021935.7294   22021928.066
        49.0004         44.0004
 14  5  7  0 13 30.0000000  0 10G09G01G20G13G10G07G28G08G17G04
 -12535055.05048  -9711532.93648  20357565.6894   20357572.6944   20357565.499
        53.0004         49.0004
  -9911310.85447  -7686984.80746  22985098.1444   22985110.1434   22985097.470
        46.0004         41.0004
  -5445188.84347  -4197112.33546  23624364.9634   23624371.7384   23624364.228
        42.0004         37.0004
  -5146700.05147  -3955473.16046  23433049.1014   23433056.4104   23433048.615
        44.0004         39.0004
  -6454768.16047  -5027369.41346  24489445.1454   24489457.4074   24489447.113
        42.0004         37.0004
 -23886201.80149 -18565418.23448  20171579.6074   20171585.1064   20171579.045
        54.0004         49.0004
   -882566.69147   -689083.64746  24014102.8704   24014113.3544   24014102.797
        43.0004         38.0004
 -19743978.69149 -15366952.22648  20288177.9754   20288185.2044   20288178.513
        54.0004         49.0004
 -14975101.92248 -11611971.94147  22251770.4934   22251779.0904   22251769.926
        50.0004         46.0004
 -20009195.42348 -15540949.76547  22005246.4064   22005254.1934   22005245.703
        49.0004         44.0004
 14  5  7  0 14  0.0000000  0 10G09G01G20G13G10G07G28G08G17G04
 -12582460.12248  -9748471.85148  20348544.4684   20348551.7664   20348544.645
        53.0004         49.0004
  -9822750.60847  -7617976.85146  23001950.1434   23001963.0504   23001949.674
        46.0004         41.0004
  -5444013.26847  -4196196.27346  23624588.8014   23624596.3534   23624587.980
        42.0004         37.0004
  -5066936.74747  -3893319.83046  23448227.3774   23448233.9164   23448227.139
        43.0004         39.0004
  -6500302.73647  -5062850.67946  24480781.6054   24480790.7104   24480781.454
        42.0004         37.0004
 -23867697.91549 -18550999.56148  20175101.0664   20175106.3634   20175100.536
        54.0004         49.0004
   -920616.24447   -718732.50946  24006862.2534   24006872.0644   24006862.481
        43.0004         39.0004
 -19794688.51649 -15406466.28148  20278528.2894   20278535.3394   20278528.659
        54.0004         49.0004
 -14938812.05648 -11583694.09647  22258677.0504   22258685.0124   22258675.756
        50.0004         46.0004
 -20096584.61048 -15609045.12147  21988616.3054   21988623.2194   21988615.799
        49.0004         44.0004
 14  5  7  0 14 30.0000000  0 10G09G01G20G13G10G07G28G08G17G04
 -12629331.29448  -9784994.74148  20339625.2724   20339632.1824   20339625.223
        53.0004         49.0004
  -9733881.45447  -7548728.19746  23018861.8474   23018872.9964   23018860.752
        46.0004         41.0004
  -5442673.12547  -4195152.01046  23624842.0514   23624850.1574   23624843.702
        42.0004         37.0004
  -4987281.75947  -3831250.89946  23463384.7664   23463392.1924   23463384.924
        43.0004         39.0004
  -6546081.89647  -5098522.53746  24472070.1784   24472081.5164   24472070.223
        42.0004         38.0004
 -23848593.47549 -18536112.92148  20178736.3134   20178741.4824   20178735.879
        54.0004         49.0004
   -958921.49547   -748580.60346  23999573.6364   23999582.7944   23999573.330
        43.0004         39.0004
 -19844859.85349 -15445560.74448  20268980.9324   20268988.4184   20268981.288
        54.0004         49.0004
 -14902350.10948 -11555282.16847  22265614.1964   22265623.3634   22265613.913
        50.0004         46.0004
 -20183695.63848 -15676923.72747  21972039.3694   21972046.8654   21972039.693
        49.0004         44.0004
 14  5  7  0 15  0.0000000  0 10G09G01G20G13G10G07G28G08G17G04
 -12675666.07848  -9821099.66748  20330808.1954   20330814.8874   20330807.869
        53.0004         49.0004
  -9644705.22147  -7479240.25046  23035831.7664   23035843.6104   23035830.428
        46.0004         41.0004
  -5441166.48947  -4193977.98246  23625130.2394   23625137.4344   23625129.835
        42.0004         37.0004
  -4907736.39547  -3769267.38546  23478522.3614   23478528.9594   23478521.423
        43.0004         38.0004
  -6592104.68047  -5134384.22346  24463310.3784   24463323.1324   24463311.499
        42.0004         38.0004
 -23828888.37349 -18520758.23248  20182486.0444   20182491.2134   20182485.581
        54.0004         49.0004
   -997480.71447   -778626.59146  23992235.9744   23992245.2204   23992235.380
        43.0004         39.0004
 -19894489.26149 -15484232.91748  20259536.4734   20259543.7754   20259536.884
        54.0004         49.0004
 -14865717.61748 -11526737.34047  22272585.4594   22272594.3214   22272585.398
        50.0004         46.0004
 -20270525.14148 -15744582.96047  21955516.9874   21955524.0134   21955516.029
        49.0004         44.0004
 14  5  7  0 15 30.0000000  0 10G09G01G20G13G10G07G28G08G17G04
 -12721462.97748  -9856785.45948  20322092.9274   20322100.2584   20322093.074
        53.0004         49.0004
  -9555224.85647  -7409515.32646  23052858.1344   23052871.4694   23052857.958
        46.0004         41.0004
  -5439491.49847  -4192672.79746  23625448.4294   23625457.5834   23625448.849
        42.0004         37.0004
  -4828303.83147  -3707371.76846  23493637.0754   23493643.6204   23493636.858
        43.0004         38.0004
  -6638371.06447  -5170435.74346  24454507.0924   24454517.4894   24454507.815
        42.0004         38.0004
 -23808583.56449 -18504936.23448  20186349.8114   20186354.8584   20186349.466
        54.0004         49.0004
  -1036293.59947   -808870.25746  23984850.0544   23984860.1364   23984849.461
        43.0004         39.0004
 -19943574.74849 -15522481.25748  20250195.8864   20250203.0194   20250196.155
        54.0004         49.0004
 -14828918.27048 -11498062.49747  22279587.9554   22279596.7074   22279587.904
        50.0004         46.0004
 -20357070.82148 -15812021.03547  21939047.5444   21939054.4044   21939046.732
        49.0004         45.0004
 14  5  7  0 16  0.0000000  0 10G09G01G20G13G10G07G28G08G17G04
 -12766718.61348  -9892049.49248  20313480.9374   20313488.6684   20313481.004
        53.0004         49.0004
  -9465441.42347  -7339554.23746  23069944.6264   23069956.0394   23069943.160
        46.0004         41.0004
  -5437645.08347  -4191234.01846  23625799.0214   23625809.2194   23625799.828
        42.0004         37.0004
  -4748984.43347  -3645564.33246  23508731.5254   23508738.7554   23508731.358
        43.0004         38.0004
  -6684879.37547  -5206675.75846  24445657.6604   24445667.0384   24445657.390
        42.0004         38.0004
 -23787677.97349 -18488646.10148  20190327.9234   20190332.8224   20190327.621
        54.0004         49.0004
  -1075358.00047   -839309.90646  23977414.6864   23977424.8574   23977415.796
        43.0004         39.0004
 -19992112.40249 -15560302.71348  20240959.4394   20240966.2954   20240959.642
        54.0004         49.0004
 -14791953.27048 -11469258.57747  22286622.7664   22286631.5744   22286622.019
        50.0004         46.0004
 -20443328.66248 -15879234.81747  21922632.8734   21922639.6954   21922632.424
        49.0004         45.0004
 14  5  7  0 16 30.0000000  0 10G09G01G20G13G10G07G28G08G17G04
 -12811433.13248  -9926891.87448  20304972.1514   20304979.3264   20304972.316
        53.0004         49.0004
  -9375359.53147  -7269360.59346  23087085.2074   23087097.8264   23087085.290
        46.0004         41.0004
  -5435627.60647  -4189661.97146  23626183.2014   23626190.9884   23626184.117
        42.0004         37.0004
  -4669782.27447  -3583848.23646  23523803.1134   23523807.8884   23523803.081
        43.0004         38.0004
  -6731631.26247  -5243105.56746  24436760.2424   24436771.2704   24436760.972
        42.0004         38.0004
 -23766173.77249 -18471889.51848  20194419.8694   20194424.9824   20194419.512
        54.0004         49.0004
  -1114674.83847   -869946.28546  23969933.3004   23969943.0344   23969933.988
        43.0004         38.0004
 -20040101.63449 -15597696.83248  20231827.2214   20231834.3104   20231827.547
        54.0004         49.0004
 -14754827.11348 -11440329.07447  22293687.4564   22293695.4764   22293687.089
        50.0004         46.0004
 -20529297.71348 -15946223.56447  21906273.5534   21906279.9504   21906272.536
        49.0004         45.0004
 14  5  7  0 17  0.0000000  0 10G09G01G20G13G10G07G28G08G17G04
 -12855603.57148  -9961310.29848  20296566.9154   20296573.4264   20296566.759
        53.0004         49.0004
  -9284980.55047  -7198935.44746  23104284.5864   23104295.8184   23104283.360
        45.0004         41.0004
  -5433436.37347  -4187954.51346  23626598.6174   23626608.5634   23626599.575
        42.0004         37.0004
  -4590698.33647  -3522224.26446  23538853.1374   23538857.8564   23538852.124
        43.0004         38.0004
  -6778625.45547  -5279724.19046  24427816.8614   24427828.5634   24427818.021
        42.0004         38.0004
 -23744071.02749 -18454666.53348  20198626.0344   20198631.4204   20198625.589
        54.0004         49.0004
  -1154242.21847   -900777.88946  23962403.9854   23962413.7724   23962404.646
        43.0004         39.0004
 -20087539.15049 -15634661.04048  20222800.2224   20222807.0314   20222800.507
        54.0004         49.0004
 -14717541.21748 -11411275.09647  22300782.7504   22300790.9114   22300782.201
        50.0004         45.0004
 -20614974.63848 -16012984.68747  21889970.5284   21889976.1734   21889969.494
        49.0004         45.0004
 14  5  7  0 17 30.0000000  0 10G09G01G20G13G10G07G28G08G17G04
 -12899226.95948  -9995302.44748  20288265.4684   20288272.2914   20288265.443
        53.0004         49.0004
  -9194306.14247  -7128280.09646  23121538.6574   23121551.3524   23121538.715
        45.0004         40.0004
  -5431068.55847  -4186109.47646  23627050.1784   23627060.6674   23627051.037
        42.0004         37.0004
  -4511733.69447  -3460693.26346  23553879.0894   23553883.3244   23553878.275
        43.0004         38.0004
  -6825860.83247  -5316530.76146  24418828.0224   24418838.6854   24418829.243
        42.0004         38.0004
 -23721369.32649 -18436976.83348  20202945.8374   20202951.2404   20202945.432
        54.0004         49.0004
  -1194058.44747   -931803.39046  23954827.9684   23954837.3004   23954827.909
        43.0004         39.0004
 -20134421.26749 -15671192.47148  20213878.9774   20213885.7164   20213879.032
        54.0004         49.0004
 -14680097.11548 -11382097.84547  22307907.9514   22307917.0734   22307907.570
        50.0004         46.0004
 -20700355.92848 -16079515.44147  21873721.8364   21873728.9474   21873721.167
        49.0004         45.0004
 14  5  7  0 18  0.0000000  0 10G09G01G20G13G10G07G28G08G17G04
 -12942302.86948 -10028867.99348  20280068.0884   20280075.0314   20280068.099
        53.0004         49.0004
  -9103339.99447  -7057397.41846  23138850.3934   23138861.9024   23138849.312
        45.0004         41.0004
  -5428523.26347  -4184126.14046  23627534.8964   23627543.6344   23627535.439
        42.0004         37.0004
  -4432891.63647  -3399257.77346  23568881.9674   23568886.9884   23568881.125
        43.0004         38.0004
  -6873337.95747  -5353525.69646  24409794.1354   24409803.0614   24409794.539
        42.0004         38.0004
 -23698070.23049 -18418821.62948  20207379.5104   20207384.6834   20207378.976
        54.0004         49.0004
  -1234123.58147   -963022.84846  23947204.2614   23947213.2504   23947203.407
        43.0004         39.0004
 -20180746.83349 -15707290.21548  20205062.8124   20205070.2294   20205063.182
        54.0004         49.0004
 -14642498.87448 -11352800.48547  22315062.6364   22315070.8544   22315062.108
        50.0004         45.0004
 -20785439.66848 -16145814.34347  21857530.5084   21857538.0234   21857530.180
        49.0004         45.0004
 14  5  7  0 18 30.0000000  0 10G09G01G20G13G10G07G28G08G17G04
 -12984829.43048 -10062005.47448  20271975.8164   20271982.5184   20271975.544
        53.0004         49.0004
  -9012084.66847  -6986289.40846  23156215.0534   23156227.3974   23156214.463
        45.0004         41.0004
  -5425798.90647  -4182003.25646  23628054.7844   23628061.3804   23628054.476
        42.0004         37.0004
  -4354173.80947  -3337919.08346  23583860.7344   23583867.2974   23583860.549
        43.0004         38.0004
  -6921056.32747  -5390708.60346  24400712.5714   24400724.2864   24400713.610
        42.0004         37.0004
 -23674174.25749 -18400201.32848  20211926.6474   20211931.9964   20211926.408
        54.0004         49.0004
  -1274436.84547   -994435.65546  23939531.5664   23939542.7734   23939532.391
        44.0004         39.0004
 -20226513.31149 -15742952.31548  20196354.2274   20196361.3584   20196354.328
        54.0004         49.0004
 -14604749.09948 -11323385.04547  22322246.4174   22322253.7834   22322245.529
        50.0004         45.0004
 -20870223.63148 -16211879.63747  21841395.9174   21841404.1204   21841396.309
        49.0004         45.0004
 14  5  7  0 19  0.0000000  0 10G09G01G20G13G10G07G28G08G17G04
 -13026803.54148 -10094712.47448  20263988.3604   20263994.7184   20263988.095
        53.0004         49.0004
  -8920541.32647  -6914956.97846  23173635.0554   23173647.8024   23173634.447
        45.0004         40.0004
  -5422892.45447  -4179738.49246  23628606.7194   23628616.5734   23628607.041
        42.0004         37.0004
  -4275581.16347  -3276677.94546  23598815.6784   23598822.0834   23598815.988
        43.0004         38.0004
  -6969014.24847  -5428078.18146  24391587.0184   24391596.8024   24391587.042
        42.0004         37.0004
 -23649680.77249 -18381115.43148  20216587.5864   20216592.9364   20216586.944
        54.0004         49.0004
  -1314996.06047  -1026040.12546  23931813.2254   23931821.8154   23931813.699
        44.0004         39.0004
 -20271717.04949 -15778175.90748  20187752.0474   20187759.2684   20187752.321
        54.0004         49.0004
 -14566848.85448 -11293852.35647  22329457.5694   22329466.6154   22329457.548
        50.0004         45.0004
 -20954703.27448 -16277707.81647  21825320.7934   21825327.7534   21825320.124
        49.0004         45.0004
 14  5  7  0 19 30.0000000  0 10G09G01G20G13G10G07G28G08G17G04
 -13068224.39548 -10126988.36548  20256106.1144   20256112.8014   20256105.947
        53.0004         49.0004
  -8828713.62847  -6843402.95846  23191109.1614   23191121.8544   23191108.863
        45.0004         40.0004
  -5419803.17547  -4177331.27246  23629194.5754   23629203.5994   23629195.249
        42.0004         37.0004
  -4197116.89247  -3215536.83046  23613746.9584   23613753.4054   23613747.263
        42.0004         38.0004
  -7017212.72147  -5465635.19846  24382414.5624   24382423.9674   24382415.243
        42.0004         37.0004
 -23624591.67649 -18361565.42148  20221361.8064   20221367.1374   20221361.321
        54.0004         49.0004
  -1355801.06047  -1057836.11646  23924049.2114   23924057.6264   23924048.851
        44.0004         39.0004
 -20316356.97249 -15812960.16648  20179256.8844   20179264.4214   20179257.656
        54.0004         49.0004
 -14528802.02648 -11264205.44447  22336697.8654   22336706.1864   22336697.654
        50.0004         45.0004
 -21038877.54848 -16343298.03947  21809302.9444   21809309.2344   21809302.523
        49.0004         45.0004
 14  5  7  0 20  0.0000000  0 10G09G01G20G13G10G07G28G08G17G04
 -13109087.37948 -10158829.55048  20248329.9194   20248336.7974   20248329.662
        53.0004         49.0004
  -8736600.97747  -6771626.90046  23208638.5214   23208650.2724   23208637.135
        45.0004         41.0004
  -5416526.12147  -4174777.71646  23629817.6744   23629828.7214   23629818.843
        42.0004         37.0004
  -4118779.80847  -3154494.82946  23628653.7774   23628659.0474   23628654.225
        42.0004         38.0004
  -7065647.74347  -5503376.54946  24373196.9854   24373207.4324   24373198.456
        42.0004         37.0004
 -23598904.47349 -18341549.35648  20226249.6824   20226255.2104   20226249.243
        54.0004         49.0004
  -1396848.02147  -1089820.62046  23916237.0014   23916246.2514   23916237.715
        44.0004         39.0004
 -20360427.42849 -15847300.68248  20170870.8504   20170877.6864   20170871.084
        54.0004         49.0004
 -14490607.79848 -11234443.67347  22343966.4384   22343974.7964   22343965.987
        50.0004         45.0004
 -21122740.37748 -16408645.57947  21793344.6964   21793351.6554   21793343.849
        49.0004         45.0004
 14  5  7  0 20 30.0000000  0 10G09G01G20G13G10G07G28G08G17G04
 -13149396.26748 -10190238.96948  20240659.3044   20240666.0944   20240659.092
        53.0004         49.0004
  -8644211.23547  -6699634.93846  23226219.2754   23226230.8614   23226218.385
        45.0004         40.0004
  -5413064.74447  -4172080.54846  23630477.4414   23630486.7144   23630477.965
        42.0004         38.0004
  -4040576.95447  -3093557.42546  23643535.6704   23643542.6204   23643535.839
        42.0004         37.0004
  -7114324.49647  -5541306.26046  24363934.8074   24363944.2264   24363934.697
        42.0004         37.0004
 -23572625.02749 -18321071.80748  20231250.5994   20231255.6924   20231250.041
        54.0004         49.0004
  -1438141.04947  -1121996.86046  23908378.9534   23908388.7694   23908379.484
        44.0004         39.0004
 -20403931.37449 -15881199.77248  20162592.3784   20162599.2924   20162592.751
        54.0004         49.0004
 -14452274.38048 -11204573.44147  22351260.5364   22351269.0194   22351260.526
        50.0004         45.0004
 -21206294.33148 -16473752.43547  21777443.9154   21777452.5454   21777443.720
        49.0004         45.0004
 14  5  7  0 21  0.0000000  0 10G09G01G20G13G10G07G28G08G17G04
 -13189146.39248 -10221212.99648  20233094.8264   20233101.6594   20233094.836
        53.0004         49.0004
  -8551544.30847  -6627426.99846  23243852.8714   23243864.8604   23243852.353
        45.0004         40.0004
  -5409414.90447  -4169236.52346  23631170.2754   23631180.8074   23631171.753
        42.0004         38.0004
  -3962507.71747  -3032724.14546  23658391.9884   23658397.3184   23658390.962
        42.0004         37.0004
  -7163239.89447  -5579421.93046  24354626.0834   24354635.6514   24354626.599
        42.0004         37.0004
 -23545751.48149 -18300131.32248  20236364.6884   20236369.9404   20236364.054
        54.0004         49.0004
  -1479676.53847  -1154362.03646  23900475.8484   23900484.6464   23900475.530
        44.0004         39.0004
 -20446863.68349 -15914653.42448  20154422.5204   20154429.4054   20154422.650
        54.0004         49.0004
 -14413801.58948 -11174594.60947  22358581.2024   22358590.7154   22358581.372
        50.0004         45.0004
 -21289534.50448 -16538614.78947  21761603.5954   21761610.9244   21761603.817
        49.0004         45.0004
 14  5  7  0 21 30.0000000  0 10G09G01G20G13G10G07G28G08G17G04
 -13228335.22848 -10251749.65248  20225637.5494   20225644.0124   20225637.526
        53.0004         49.0004
  -8458601.88647  -6555004.38946  23261540.1644   23261551.3044   23261539.305
        45.0004         40.0004
  -5405573.81947  -4166243.48146  23631903.0754   23631911.5424   23631903.044
        42.0004         38.0004
  -3884572.92147  -2971995.61446  23673221.7664   23673228.8014   23673222.253
        42.0004         38.0004
  -7212392.32947  -5617722.30746  24345272.7514   24345279.7084   24345272.795
        42.0004         37.0004
 -23518283.87249 -18278727.93448  20241591.6444   20241596.5364   20241591.278
        54.0004         49.0004
  -1521452.71247  -1186914.75946  23892525.8984   23892535.7804   23892525.782
        44.0004         39.0004
 -20489221.39349 -15947659.34248  20146362.0684   20146368.5774   20146362.294
        54.0004         49.0004
 -14375190.98748 -11144508.38947  22365929.2574   22365937.3624   22365929.073
        50.0004         45.0004
 -21372457.04048 -16603229.63947  21745824.1714   21745831.4964   21745823.773
        49.0004         45.0004
 14  5  7  0 22  0.0000000  0 10G09G01G20G13G10G07G28G08G17G04
 -13266961.70349 -10281848.10348  20218287.0414   20218294.0374   20218287.118
        54.0004         49.0004
  -8365387.03247  -6482369.47446  23279278.1814   23279290.6104   23279277.517
        45.0004         40.0004
  -5401540.24647  -4163100.44746  23632669.5134   23632679.4544   23632670.146
        42.0004         38.0004
  -3806775.42347  -2911374.08346  23688026.0954   23688032.9424   23688026.602
        42.0004         37.0004
  -7261781.87147  -5656207.43646  24335873.3994   24335883.0814   24335874.501
        42.0004         37.0004
 -23490223.33549 -18256862.52648  20246931.0824   20246935.9354   20246930.858
        54.0004         49.0004
  -1563468.77247  -1219654.40646  23884530.5204   23884539.3554   23884529.697
        43.0004         39.0004
 -20531002.61749 -15980216.04548  20138411.3924   20138418.2694   20138411.613
        54.0004         49.0004
 -14336445.77048 -11114317.27847  22373302.1754   22373310.4244   22373301.777
        50.0004         45.0004
 -21455059.97548 -16667595.44147  21730105.4004   21730112.4684   21730105.267
        50.0004         45.0004
 14  5  7  0 22 30.0000000  0 10G09G01G20G13G10G07G28G08G17G04
 -13305024.79849 -10311507.56148  20211044.3424   20211050.1234   20211043.922
        54.0004         49.0004
  -8271903.03447  -6409524.82846  23297067.7484   23297078.9864   23297066.761
        45.0004         40.0004
  -5397313.16447  -4159806.62346  23633476.3214   23633484.7424   23633475.655
        42.0004         38.0004
  -3729117.64247  -2850861.40146  23702805.4964   23702810.9434   23702804.333
        42.0004         38.0004
  -7311408.88847  -5694877.60146  24326430.2544   24326440.4104   24326430.831
        42.0004         37.0004
 -23461571.40949 -18234536.29448  20252383.4544   20252388.3064   20252382.820
        54.0004         49.0004
  -1605724.35247  -1252580.68746  23876488.9424   23876499.3154   23876488.894
        43.0004         38.0004
 -20572205.84149 -16012322.36448  20130570.4754   20130577.3104   20130570.906
        54.0004         49.0004
 -14297569.35948 -11084023.93447  22380700.4694   22380708.4364   22380699.892
        50.0004         45.0004
 -21537341.36748 -16731710.70247  21714447.1124   21714454.8484   21714447.485
        50.0004         45.0004
 14  5  7  0 23  0.0000000  0 10G09G01G20G13G10G07G28G08G17G04
 -13342521.36849 -10340725.56648  20203908.3404   20203915.0494   20203908.402
        54.0004         49.0004
  -8178150.79547  -6336471.17046  23314907.5914   23314919.7884   23314907.014
        45.0004         40.0004
  -5392888.75347  -4156359.04746  23634315.3214   23634325.6984   23634316.845
        42.0004         38.0004
  -3651599.71247  -2790457.70046  23717555.4274   23717560.4514   23717555.197
        42.0004         38.0004
  -7361271.25147  -5733731.15246  24316942.2444   24316951.4164   24316941.856
        42.0004         37.0004
 -23432327.46648 -18211748.75048  20257947.7984   20257953.1244   20257947.652
        53.0004         49.0004
  -1648216.99147  -1285691.68246  23868402.7864   23868412.2644   23868402.587
        43.0004         39.0004
