     2.11           OBSERVATION DATA    G (GPS)             RINEX VERSION / TYPE
teqc  2008Oct2      gpsops              20090119 00:09:32UTCPGM / RUN BY / DATE
    30.0000                                                 INTERVAL
     1     1                                                WAVELENGTH FACT L1/2
     7    L1    L2    P1    P2    C1    S1    S2            # / TYPES OF OBSERV
Linux 2.4.20-8|Pentium IV|gcc -static|Linux|486/DX+         COMMENT
     2.10           OBSERVATION DATA    GPS                 COMMENT
soc2rnx ver 1.20    gpsops              19-Jan-2009 00:09:25COMMENT
S1, if present, is the SNR for the C/A data stream on L1.   COMMENT
 SNR is mapped to RINEX snr flag value [1,4-9]              COMMENT
    SNR:   >316  >100  >31.6  >10  >3.2    >0 bad=0         COMMENT
L1 & L2:      9     8     7     6     5     4     1         COMMENT
                                                            COMMENT
This data is provided as a public service by NASA/JPL.      COMMENT
No warranty is expressed or implied regarding suitability   COMMENT
for use.  For further information, contact:                 COMMENT
Dave Stowers, NASA/JPL m/s 238-600                          COMMENT
4800 Oak Grove Drive, Pasadena CA 91109 USA                 COMMENT
                                                            COMMENT
Forced Modulo Decimation to 30 seconds                      COMMENT
  2009     1    18     0     0    0.0000000     GPS         TIME OF FIRST OBS
GGN                 JPL                                     OBSERVER / AGENCY
CR519992104         ASH701945B_M    SCIT                    ANT # / TYPE
   -33801.4662 -6377516.5323   -82154.3508                  APPROX POSITION XYZ
        0.0083        0.0000        0.0000                  ANTENNA: DELTA H/E/N
ZR220013847         ASHTECH UZ-12       CQ00                REC # / TYPE / VERS
GLPS                                                        MARKER NAME
42005M002                                                   MARKER NUMBER
                                                            END OF HEADER
 09  1 18  0  0  0.0000000  0 12G 6G21G31G 5G22G 9G24G18G30G29G14G12
 129270988.78347 100730612.59047  24599474.5844   24599478.5374   24599473.4614
        41.000          36.000
 106393342.04547  82903886.49647  20245991.1244   20245993.8244   20245991.3284
        55.000          49.000
 122596601.33847  95529805.55347  23329366.0124   23329369.9944   23329365.7204
        47.000          41.000
 124452863.12547  96976240.33047  23682602.7644   23682609.5954   23682604.0174
        45.000          39.000
 126891212.74847  98876265.85847  24146596.5304   24146599.0744   24146596.4274
        43.000          38.000
 117597866.36847  91634684.45647  22378141.1144   22378145.9914   22378140.8164
        49.000          43.000
 113769913.59447  88651849.54347  21649719.2214   21649724.9474   21649719.1124
        52.000          46.000
 123472850.94747  96212605.55147  23496105.2174   23496108.1494   23496105.8514
        47.000          40.000
 122451012.02347  95416354.19647  23301667.2354   23301671.3594   23301666.3984
        47.000          41.000
 118387769.76047  92250193.27747  22528455.3594   22528459.2024   22528455.3024
        49.000          44.000
 115307771.46547  89850190.61947  21942354.9734   21942358.7474   21942354.9984
        50.000          45.000
 128168760.60447  99871739.75547  24389721.5104   24389726.1664   24389721.1334
        44.000          39.000
 09  1 18  0  0 30.0000000  0 12G 6G21G31G 5G22G 9G24G18G30G29G14G12
 129222300.56647 100692673.66047  24590209.3154   24590213.9194   24590208.8744
        42.000          37.000
 106351798.87947  82871515.21147  20238085.3394   20238088.1664   20238085.7714
        54.000          49.000
 122494603.73647  95450326.95247  23309956.7874   23309960.7894   23309956.2634
        48.000          41.000
 124438894.69347  96965355.85847  23679945.1994   23679951.6784   23679945.6074
        45.000          39.000
 126867696.25947  98857941.34447  24142121.8464   24142124.1364   24142121.5484
        44.000          38.000
 117668753.08347  91689920.89747  22391630.2074   22391634.5794   22391630.3404
        49.000          43.000
 113808528.18247  88681938.81547  21657067.2954   21657073.2194   21657067.4994
        52.000          46.000
 123447994.02247  96193236.53047  23491375.5694   23491378.1534   23491376.1264
        47.000          40.000
 122427352.26147  95397918.00447  23297163.9194   23297169.4414   23297163.5614
        47.000          41.000
 118463228.58047  92308992.32747  22542815.0824   22542818.9884   22542814.8124
        49.000          44.000
 115320448.55447  89860068.90747  21944767.2164   21944771.0604   21944767.7844
        50.000          44.000
 128169613.88447  99872404.69147  24389883.4674   24389888.6034   24389883.1674
        43.000          39.000
 09  1 18  0  1  0.0000000  0 12G 6G21G31G 5G22G 9G24G18G30G29G14G12
 129173916.47747 100654971.74047  24581001.2514   24581007.0624   24581001.4314
        42.000          37.000
 106310763.38147  82839539.51047  20230276.4524   20230279.1424   20230276.7644
        54.000          49.000
 122392706.39947  95370926.48547  23290566.3884   23290570.1394   23290565.8444
        47.000          42.000
 124424946.09547  96954486.82547  23677291.1984   23677297.2284   23677291.6534
        46.000          39.000
 126843952.37647  98839439.65447  24137603.9744   24137605.2724   24137603.9854
        43.000          38.000
 117740088.81547  91745507.23847  22405205.1694   22405209.2074   22405205.3514
        50.000          43.000
 113847607.94447  88712390.56247  21664504.0334   21664509.7604   21664504.1264
        52.000          46.000
 123422945.32147  96173718.06947  23486609.0584   23486611.7274   23486609.3734
        48.000          40.000
 122403575.17947  95379390.40547  23292639.3824   23292644.6624   23292638.8954
        47.000          41.000
 118538704.83847  92367804.97847  22557177.5744   22557181.5434   22557177.3454
        49.000          43.000
 115333494.82247  89870234.85747  21947249.5284   21947253.2864   21947249.6294
        51.000          45.000
 128170485.73847  99873084.09347  24390048.7244   24390054.1814   24390048.6134
        43.000          38.000
 09  1 18  0  1 30.0000000  0 12G 6G21G31G 5G22G 9G24G18G30G29G14G12
 129125839.99647 100617509.52547  24571852.9584   24571858.4654   24571853.0094
        42.000          37.000
 106270241.38647  82807963.93747  20222565.6304   20222568.1204   20222566.0854
        55.000          49.000
 122290915.47047  95291608.92747  23271196.3744   23271200.0224   23271195.9654
        47.000          42.000
 124411022.63347  96943637.38947  23674641.8034   23674647.4834   23674642.5254
        45.000          39.000
 126819983.94147  98820762.95347  24133042.3504   24133044.6494   24133042.2044
        43.000          38.000
 117811874.50347  91801444.17647  22418865.4094   22418869.4004   22418865.4854
        50.000          43.000
 113887155.41447  88743206.76247  21672029.8114   21672035.2394   21672029.8164
        52.000          46.000
 123397708.75947  96154053.21347  23481806.7024   23481809.5314   23481807.3024
        47.000          40.000
 122379685.54747  95360775.10047  23288093.6434   23288098.8424   23288093.1334
        48.000          41.000
 118614199.24947  92426631.75847  22571543.6064   22571547.8704   22571543.3104
        49.000          44.000
 115346911.29947  89880689.28747  21949802.9174   21949806.7154   21949803.2814
        50.000          44.000
 128171381.46047  99873782.09747  24390218.9544   24390224.2734   24390218.6374
        43.000          38.000
 09  1 18  0  2  0.0000000  0 12G 6G21G31G 5G22G 9G24G18G30G29G14G12
 129078068.61747 100580285.04447  24562762.3244   24562768.0034   24562762.5644
        43.000          37.000
 106230232.49247  82776788.18747  20214952.0304   20214954.6974   20214952.4574
        54.000          49.000
 122189231.23447  95212374.50947  23251846.4444   23251850.0094   23251846.3224
        48.000          42.000
 124397123.86147  96932807.20647  23671996.6984   23672002.7494   23671997.3564
        45.000          39.000
 126795788.39847  98801909.28247  24128437.6384   24128439.9554   24128437.3624
        44.000          38.000
 117884105.86747  91857728.39647  22432610.3814   22432614.3864   22432610.3744
        49.000          43.000
 113927167.34847  88774384.87847  21679643.8194   21679649.2934   21679643.9474
        52.000          46.000
 123372282.98147  96134240.92947  23476968.3234   23476970.6604   23476968.6764
        47.000          40.000
 122355682.67247  95342071.54947  23283526.2414   23283530.9134   23283525.5324
        48.000          41.000
 118689706.91447  92485468.87647  22585912.4204   22585916.6674   22585911.7464
        49.000          44.000
 115360693.29647  89891428.53447  21952425.5344   21952429.0044   21952425.8124
        50.000          44.000
 128172300.24847  99874498.05047  24390393.8494   24390399.1204   24390393.5434
        44.000          38.000
 09  1 18  0  2 30.0000000  0 12G 6G21G31G 5G22G 9G24G18G30G29G14G12
 129030602.49047 100543298.42547  24553729.7834   24553735.7314   24553729.9634
        42.000          37.000
 106190739.40047  82746014.35647  20207436.8474   20207439.3434   20207437.2184
        55.000          49.000
 122087656.70347  95133225.58047  23232517.0734   23232520.9044   23232516.8614
        47.000          42.000
 124383252.08547  96921998.05947  23669356.7554   23669363.5524   23669357.3164
        44.000          39.000
 126771365.38247  98782878.38647  24123791.1884   24123792.0274   24123790.9004
        45.000          39.000
 117956781.23047  91914358.58247  22446439.8334   22446444.1254   22446439.7634
        48.000          42.000
 113967643.52447  88805924.73947  21687345.9994   21687351.6864   21687346.0504
        52.000          46.000
 123346668.71247  96114281.77347  23472093.8204   23472096.7544   23472094.3634
        47.000          40.000
 122331568.22547  95323281.06947  23278937.0134   23278942.0344   23278937.0114
        47.000          41.000
 118765225.52747  92544314.52047  22600283.0454   22600287.1444   22600282.6804
        49.000          43.000
 115374838.94947  89902451.15247  21955117.0004   21955120.9224   21955117.2684
        50.000          44.000
 128173244.66247  99875233.97247  24390573.6624   24390578.7254   24390573.4804
        43.000          38.000
 09  1 18  0  3  0.0000000  0 12G 6G21G31G 5G22G 9G24G18G30G29G14G12
 128983443.09447 100506550.81947  24544755.9384   24544760.8734   24544755.6844
        42.000          37.000
 106151765.69847  82715645.25047  20200020.2804   20200023.0484   20200020.6674
        54.000          49.000
 121986196.02347  95054165.37147  23213209.6384   23213213.6914   23213208.9284
        47.000          42.000
 124369410.77647  96911212.65447  23666722.4144   23666728.9154   23666723.1364
        44.000          39.000
 126746716.48447  98763671.47247  24119100.3634   24119101.8434   24119100.8374
        45.000          39.000
 118029900.29147  91971334.51147  22460353.9704   22460357.9314   22460353.9774
        48.000          42.000
 114008584.64947  88837826.90347  21695136.9104   21695142.5474   21695137.0664
        52.000          46.000
 123320868.84647  96094178.00447  23467184.0764   23467186.9344   23467184.5504
        46.000          40.000
 122307345.16947  95304405.95247  23274327.3894   23274332.4924   23274327.0714
        47.000          41.000
 118840754.29547  92603168.08147  22614655.4474   22614659.8714   22614655.5914
        49.000          43.000
 115389347.36947  89913756.44247  21957878.2324   21957881.8904   21957878.4144
        51.000          45.000
 128174217.38847  99875991.95447  24390758.1624   24390764.0124   24390757.5794
        43.000          38.000
 09  1 18  0  3 30.0000000  0 12G 6G21G31G 5G22G 9G24G18G30G29G14G12
 128936589.36747 100470041.40647  24535839.8954   24535845.6504   24535839.1964
        42.000          37.000
 106113312.38847  82685681.64047  20192702.8974   20192705.3134   20192703.2834
        55.000          49.000
 121884850.95447  94975195.25447  23193924.0014   23193928.2374   23193923.5534
        47.000          42.000
 124355600.88047  96900451.73847  23664094.4424   23664100.9354   23664094.8874
        45.000          39.000
 126721840.47347  98744287.58647  24114366.7994   24114368.4394   24114367.1084
        45.000          39.000
 118103459.96747  92028653.77947  22474352.0384   22474356.0784   22474352.3324
        49.000          42.000
 114049989.15147  88870090.13547  21703016.0544   21703021.4784   21703016.2604
        52.000          46.000
 123294882.91247  96073929.23647  23462239.2994   23462242.4234   23462239.5914
        47.000          40.000
 122283014.28147  95285446.79947  23269697.6254   23269702.6234   23269697.3104
        47.000          41.000
 118916289.60047  92662026.73447  22629029.5464   22629034.0354   22629028.9934
        49.000          44.000
 115404215.98847  89925342.40747  21960707.9124   21960711.2794   21960707.9874
        51.000          45.000
 128175219.38247  99876772.77647  24390948.9554   24390954.7194   24390948.7484
        43.000          38.000
 09  1 18  0  4  0.0000000  0 12G 6G21G31G 5G22G 9G24G18G30G29G14G12
 128890042.00347 100433770.70347  24526982.2634   24526987.2854   24526982.0334
        41.000          37.000
 106075382.66847  82656126.02147  20185485.1134   20185487.5784   20185485.5724
        54.000          49.000
 121783625.51347  94896318.34947  23174661.3234   23174665.7564   23174661.2504
        47.000          42.000
 124341825.28447  96889717.54147  23661472.9904   23661479.7824   23661473.3394
        45.000          39.000
 126696738.00047  98724727.25247  24109589.8124   24109591.6314   24109589.7464
        45.000          39.000
 118177458.93847  92086315.36647  22488433.6984   22488437.4664   22488433.8754
        49.000          42.000
 114091857.03547  88902714.45147  21710983.2454   21710988.7634   21710983.2924
        52.000          46.000
 123268712.74647  96053536.91447  23457259.3454   23457262.0814   23457259.7204
        48.000          40.000
 122258577.60547  95266405.23247  23265047.0244   23265052.7864   23265047.0554
        47.000          41.000
 118991829.98347  92720889.34247  22643404.0964   22643409.0084   22643403.6624
        48.000          43.000
 115419442.89247  89937207.55247  21963605.2494   21963608.9944   21963605.3814
        51.000          45.000
 128176253.65147  99877578.73247  24391146.4914   24391151.3384   24391145.9684
        44.000          38.000
 09  1 18  0  4 30.0000000  0 12G 6G21G31G 5G22G 9G24G18G30G29G14G12
 128843798.20847 100397736.54547  24518181.8164   24518187.1064   24518181.3984
        42.000          37.000
 106037975.92547  82626977.92147  20178366.7254   20178369.3624   20178367.1164
        55.000          49.000
 121682519.73047  94817534.68747  23155421.3894   23155425.7804   23155420.7374
        47.000          42.000
 124328083.36747  96879009.56247  23658858.3824   23658864.8174   23658858.9144
        45.000          39.000
 126671406.39847  98704988.35147  24104769.3324   24104771.0044   24104769.2574
        45.000          39.000
 118251892.45247  92144315.55047  22502597.8844   22502602.0244   22502597.7184
        49.000          42.000
 114134184.98447  88935697.25547  21719038.1744   21719043.6224   21719038.3064
        52.000          46.000
 123242356.93747  96032999.94547  23452243.8074   23452246.8744   23452244.0394
        48.000          40.000
 122234034.22547  95247280.50947  23260376.5754   23260382.2274   23260376.3734
        47.000          41.000
 119067370.59147  92779752.12547  22657779.1794   22657784.1304   22657778.8334
        49.000          43.000
 115435023.67547  89949348.44847  21966570.2494   21966573.9934   21966570.5234
        51.000          45.000
 128177319.38247  99878409.20847  24391349.1444   24391353.5584   24391348.8714
        43.000          38.000
 09  1 18  0  5  0.0000000  0 12G 6G21G31G 5G22G 9G24G18G30G29G14G12
 128797861.94147 100361942.02547  24509440.6984   24509446.8744   24509440.5624
        42.000          37.000
 106001098.15547  82598241.99847  20171349.3014   20171351.6864   20171349.7324
        54.000          49.000
 121581540.23347  94738849.42847  23136205.7674   23136209.7074   23136204.8504
        47.000          42.000
 124314381.11347  96868332.50847  23656250.8484   23656257.0854   23656251.1654
        45.000          39.000
 126645849.62947  98685074.01747  24099906.1274   24099907.7144   24099906.1114
        45.000          39.000
 118326762.34947  92202655.75547  22516844.6994   22516849.1074   22516844.9234
        49.000          42.000
 114176976.14247  88969041.00447  21727180.8804   21727186.5554   21727180.9524
        52.000          45.000
 123215819.91147  96012321.76147  23447194.2584   23447197.2934   23447194.5524
        48.000          40.000
 122209389.93547  95228077.15147  23255687.3604   23255692.4684   23255686.8014
        47.000          41.000
 119142912.38747  92838615.84747  22672154.3004   22672159.2504   22672154.2054
        48.000          43.000
 115450960.03947  89961766.42447  21969602.7164   21969606.2804   21969603.0694
        51.000          45.000
 128178422.11947  99879268.52047  24391558.5424   24391564.1334   24391558.1984
        44.000          39.000
 09  1 18  0  5 30.0000000  0 12G 6G21G31G 5G22G 9G24G18G30G29G14G12
 128752230.21547 100326384.79447  24500757.0374   24500762.5034   24500757.0254
        41.000          37.000
 105964748.86347  82569917.88147  20164432.0064   20164434.5324   20164432.3264
        54.000          49.000
 121480687.27247  94660262.77047  23117014.2774   23117018.0524   23117013.9024
        48.000          42.000
 124300717.79747  96857685.79247  23653650.6164   23653657.2094   23653650.7784
        45.000          39.000
 126620064.05347  98664981.40347  24094999.5434   24095000.7124   24094999.4864
        45.000          39.000
 118402063.87447  92261332.30047  22531174.4314   22531178.5794   22531174.6134
        49.000          42.000
 114220227.11247  89002743.03647  21735411.0764   21735416.8204   21735411.1844
        52.000          45.000
 123189100.08847  95991501.14947  23442109.1414   23442112.5114   23442109.8184
        47.000          40.000
 122184643.32947  95208794.08547  23250978.0514   23250983.4194   23250977.9734
        48.000          41.000
 119218450.75147  92897476.86947  22686528.6914   22686533.7964   22686528.6254
        48.000          43.000
 115467247.14347  89974457.69447  21972701.9884   21972705.5164   21972702.0644
        51.000          45.000
 128179560.99847  99880155.99147  24391775.1984   24391781.0264   24391774.7274
        44.000          38.000
 09  1 18  0  6  0.0000000  0 12G 6G21G31G 5G22G 9G24G18G30G29G14G12
 128706905.10847 100291066.51047  24492132.6874   24492137.7704   24492132.6144
        42.000          37.000
 105928932.16447  82542008.76947  20157616.5074   20157618.9804   20157616.9214
        54.000          49.000
 121379965.57247  94581778.39347  23097847.5994   23097851.2094   23097847.5644
        48.000          42.000
 124287097.60147  96847072.67147  23651059.0334   23651065.5054   23651059.8004
        45.000          39.000
 126594052.21747  98644712.49047  24090049.3064   24090050.6464   24090049.1374
        45.000          39.000
 118477797.11447  92320345.24747  22545585.8554   22545590.0824   22545586.0344
        48.000          42.000
 114263939.23247  89036804.41347  21743729.2664   21743735.0914   21743729.2314
        52.000          45.000
 123162200.58047  95970540.50347  23436990.6114   23436993.8074   23436990.8704
        47.000          40.000
 122159798.27347  95189434.29547  23246250.2224   23246255.6294   23246250.1534
        47.000          41.000
 119293985.12447  92956334.79047  22700902.4614   22700907.3044   22700902.0964
        48.000          43.000
 115483884.58647  89987421.95947  21975868.0904   21975871.4284   21975868.4524
        51.000          45.000
 128180740.29047  99881074.94247  24392000.0224   24392005.0964   24391999.9484
        45.000          38.000
 09  1 18  0  6 30.0000000  0 12G 6G21G31G 5G22G 9G24G18G30G29G14G12
 128661883.88847 100255985.01047  24483565.0544   24483570.6244   24483564.7984
        42.000          36.000
 105893647.68547  82514514.37947  20150901.9474   20150904.6114   20150902.3424
        54.000          49.000
 121279375.68247  94503396.72647  23078706.1734   23078709.6734   23078705.5554
        48.000          43.000
 124273520.11647  96836492.82347  23648475.5714   23648481.1954   23648476.1644
        46.000          39.000
 126567811.28847  98624265.02847  24085055.9744   24085057.6074   24085056.0454
        45.000          39.000
 118553957.09747  92379690.73647  22560078.5084   22560082.4374   22560078.8484
        49.000          42.000
 114308109.09447  89071222.47047  21752134.5454   21752140.2194   21752134.7114
        51.000          45.000
 123135119.83847  95949438.65147  23431837.3214   23431840.3574   23431837.9074
        48.000          40.000
 122134854.18047  95169997.32047  23241503.4234   23241509.2194   23241503.2684
        47.000          41.000
 119369510.71347  93015185.87247  22715274.6334   22715279.5274   22715274.1464
        48.000          43.000
 115500868.15747  90000655.93447  21979099.9474   21979103.4254   21979099.9904
        51.000          45.000
 128181958.96647  99882024.56147  24392231.8594   24392237.4424   24392231.5984
        44.000          38.000
 09  1 18  0  7  0.0000000  0 12G 6G21G31G 5G22G 9G24G18G30G29G14G12
 128617169.35447 100221142.48447  24475055.6314   24475060.9644   24475055.9534
        42.000          36.000
 105858900.43347  82487438.60047  20144289.7494   20144292.4604   20144290.2334
        54.000          49.000
 121178923.20847  94425122.13547  23059590.6094   23059594.1744   23059590.0594
        48.000          43.000
 124259990.16147  96825950.03547  23645900.9984   23645907.1454   23645901.4094
        45.000          39.000
 126541344.06247  98603641.23947  24080019.3764   24080020.6854   24080019.2404
        45.000          39.000
 118630544.82947  92439369.53747  22574652.8894   22574656.5354   22574652.7934
        48.000          42.000
 114352738.89447  89105998.91547  21760627.1204   21760632.8824   21760627.1294
        52.000          45.000
 123107861.57347  95928198.45147  23426650.1474   23426652.7484   23426650.8114
        48.000          40.000
 122109815.37747  95150486.56447  23236738.5274   23236744.0964   23236738.3374
        48.000          41.000
 119445028.12347  93074030.57947  22729645.1914   22729649.9114   22729645.0084
        48.000          43.000
 115518198.10747  90014159.81347  21982397.4834   21982401.2504   21982397.7044
        51.000          45.000
 128183222.00147  99883008.76947  24392471.8394   24392477.3944   24392471.7994
        44.000          38.000
 09  1 18  0  7 30.0000000  0 12G 6G21G31G 5G22G 9G24G18G30G29G14G12
 128572758.93647 100186536.94747  24466605.6054   24466610.6314   24466605.6574
        41.000          37.000
 105824690.18947  82460781.28147  20137779.4184   20137782.6574   20137779.7204
        54.000          49.000
 121078608.44747  94346954.86547  23040501.1164   23040504.7814   23040501.1204
        49.000          43.000
 124246507.60647  96815444.15847  23643335.5624   23643341.3554   23643335.8434
        46.000          39.000
 126514648.37847  98582839.45347  24074939.2434   24074940.5944   24074938.9684
        45.000          39.000
 118707555.81447  92499378.13747  22589307.1754   22589311.2864   22589307.3294
        48.000          42.000
 114397825.39247  89141131.23147  21769206.7414   21769212.4944   21769206.7254
        51.000          45.000
 123080424.82147  95906819.17547  23421429.2134   23421432.1964   23421429.7584
        48.000          40.000
 122084681.38147  95130901.61847  23231956.0934   23231961.2554   23231955.5994
        48.000          41.000
 119520532.59947  93132865.20647  22744012.9334   22744017.7644   22744012.9224
        48.000          43.000
 115535870.13447  90027930.24847  21985760.5274   21985764.0534   21985760.8024
        51.000          45.000
 128184528.96447  99884027.19947  24392720.6654   24392726.1334   24392720.4734
        44.000          38.000
 09  1 18  0  8  0.0000000  0 12G 6G21G31G 5G22G 9G24G18G30G29G14G12
 128528655.01447 100152170.26347  24458212.8464   24458218.1734   24458212.5384
        42.000          37.000
 105791021.30647  82434545.79647  20131372.6694   20131375.5494   20131373.1114
        54.000          49.000
 120978437.36947  94268899.54947  23021438.9954   23021442.8114   23021438.6824
        48.000          42.000
 124233076.94647  96804978.71847  23640779.3164   23640785.5724   23640780.0384
        46.000          40.000
 126487726.44547  98561861.34947  24069815.9964   24069817.5464   24069816.3284
        45.000          39.000
 118784990.68647  92559717.02947  22604042.5874   22604046.9004   22604042.3474
        48.000          42.000
 114443370.27047  89176620.73247  21777874.0124   21777879.6014   21777874.1304
        52.000          45.000
 123052813.04747  95885303.51347  23416175.4504   23416178.2484   23416175.7674
        48.000          40.000
 122059456.17347  95111245.62047  23227156.3824   23227160.9624   23227156.1364
        48.000          41.000
 119596024.48347  93191690.02147  22758378.6764   22758383.2154   22758378.4434
        48.000          43.000
 115553884.68447  90041967.58047  21989188.4014   21989192.0444   21989188.3654
        51.000          45.000
 128185884.48347  99885083.44747  24392978.7794   24392984.1094   24392978.6464
        44.000          38.000
 09  1 18  0  8 30.0000000  0 12G 6G21G31G 5G22G 9G24G18G30G29G14G12
 128484854.70947 100118040.12047  24449877.5094   24449883.2684   24449878.2594
        41.000          37.000
 105757893.24947  82408731.73247  20125068.6844   20125071.4364   20125069.0694
        54.000          49.000
 120878409.94047  94190956.15747  23002404.4134   23002408.2584   23002403.4174
        48.000          42.000
 124219697.51947  96794553.19847  23638233.2414   23638239.5664   23638233.5964
        45.000          40.000
 126460575.19947  98540704.57547  24064649.2484   24064651.1574   24064649.6304
        44.000          39.000
 118862843.96947  92620381.97447  22618857.5174   22618861.9154   22618857.7474
        48.000          42.000
 114489369.87247  89212464.55247  21786627.4814   21786633.0314   21786627.6164
        51.000          45.000
 123025024.65047  95863650.23147  23410887.0094   23410889.7524   23410887.3334
        48.000          40.000
 122034138.93947  95091517.91147  23222338.0804   23222343.5264   23222337.9184
        48.000          41.000
 119671498.35747  93250500.81047  22772741.0474   22772745.3134   22772740.3834
        48.000          43.000
 115572236.45647  90056267.69047  21992680.7874   21992684.5414   21992680.9394
        51.000          45.000
 128187287.67647  99886176.87047  24393245.7264   24393250.9914   24393245.2834
        43.000          38.000
 09  1 18  0  9  0.0000000  0 12G 6G21G31G 5G22G 9G24G18G30G29G14G12
 128441358.38347 100084146.84047  24441600.4864   24441606.4374   24441600.2684
        41.000          36.000
 105725308.19147  82383340.78247  20118868.0944   20118870.6704   20118868.4594
        54.000          50.000
 120778529.43647  94113127.25047  22983397.8014   22983401.7324   22983397.5334
        48.000          43.000
 124206372.09347  96784169.76147  23635697.6894   23635703.7894   23635697.9484
        46.000          39.000
 126433196.02147  98519370.16147  24059438.9144   24059441.0904   24059438.7654
        45.000          39.000
 118941114.31347  92681371.88947  22633752.2604   22633756.2404   22633752.4154
        49.000          42.000
 114535824.06947  89248662.60747  21795467.1954   21795473.2164   21795467.3674
        51.000          45.000
 122997061.45547  95841860.73447  23405565.9884   23405568.6644   23405566.3044
        49.000          40.000
 122008731.81747  95071720.16347  23217503.0654   23217508.3924   23217502.8124
        47.000          41.000
 119746952.91947  93309296.53247  22787099.8464   22787103.9684   22787099.5484
        48.000          43.000
 115590923.82647  90070829.29547  21996236.7604   21996240.4574   21996236.9014
        51.000          45.000
 128188740.81047  99887309.18447  24393522.4394   24393527.8764   24393521.8834
        44.000          38.000
 09  1 18  0  9 30.0000000  0 12G 6G21G31G 5G22G 9G24G18G30G29G14G12
 128398167.96447 100050491.94647  24433381.9184   24433387.0994   24433382.1614
        42.000          36.000
 105693270.47547  82358376.33247  20112771.5104   20112774.0074   20112771.9834
        54.000          49.000
 120678801.07647  94035416.89947  22964420.0084   22964424.0464   22964419.6734
        48.000          43.000
 124193104.95147  96773831.75147  23633172.5774   23633179.3894   23633173.0934
        46.000          40.000
 126405590.45647  98497859.36547  24054186.1424   24054187.2104   24054186.3024
        45.000          39.000
 119019802.11247  92742687.10847  22648725.7774   22648729.6484   22648726.0244
        48.000          42.000
 114582733.99647  89285215.77647  21804393.8814   21804399.9194   21804394.1944
        51.000          45.000
 122968926.35347  95819937.28747  23400211.8044   23400214.8444   23400212.2794
        48.000          40.000
 121983238.62347  95051855.35847  23212652.1144   23212657.0154   23212651.7474
        48.000          42.000
 119822387.84847  93368076.96647  22801454.4834   22801458.8304   22801454.1954
        48.000          43.000
 115609946.63247  90085652.28047  21999856.4094   21999860.1994   21999856.7334
        50.000          44.000
 128190247.80547  99888483.47547  24393809.3324   24393814.5254   24393808.8484
        44.000          39.000
 09  1 18  0 10  0.0000000  0 12G 6G21G31G 5G22G 9G24G18G30G29G14G12
 128355281.72147 100017074.07447  24425220.7754   24425226.0904   24425221.1124
        42.000          37.000
 105661780.67147  82333838.82847  20106779.0604   20106781.7084   20106779.4694
        54.000          49.000
 120579226.25747  93957826.19547  22945471.6544   22945475.6514   22945471.1504
        49.000          43.000
 124179896.70847  96763539.61747  23630659.4754   23630665.8584   23630659.9844
        46.000          40.000
 126377756.93247  98476170.96847  24048889.4584   24048890.6114   24048889.4614
        46.000          39.000
 119098903.44147  92804324.55647  22663778.4774   22663782.0574   22663778.6994
        48.000          41.000
 114630097.54647  89322122.42347  21813406.9804   21813412.8494   21813407.0824
        51.000          45.000
 122940619.36047  95797879.88747  23394825.2934   23394828.4864   23394825.7174
        48.000          40.000
 121957659.82547  95031923.83247  23207784.9534   23207789.7274   23207784.7654
        48.000          41.000
 119897799.36347  93426839.15347  22815804.9074   22815809.2264   22815804.3864
        48.000          43.000
 115629301.56947  90100734.07247  22003539.7044   22003543.3384   22003539.9224
        50.000          45.000
 128191809.31247  99889700.26347  24394106.4644   24394111.5194   24394106.3414
        43.000          38.000
 09  1 18  0 10 30.0000000  0 12G 6G21G31G 5G22G 9G24G18G30G29G14G12
 128312698.60147  99983892.40347  24417117.3644   24417122.4624   24417117.7304
        43.000          37.000
 105630839.73547  82309729.00947  20100891.3714   20100893.8524   20100891.7684
        54.000          49.000
 120479807.07447  93880356.76047  22926552.7564   22926556.4504   22926552.2424
        48.000          43.000
 124166748.63347  96753294.39147  23628157.7224   23628163.6494   23628158.1294
        46.000          39.000
 126349694.80047  98454304.41147  24043549.1814   24043550.7054   24043549.3074
        45.000          39.000
 119178415.09847  92866281.72547  22678908.7914   22678912.7264   22678909.0274
        47.000          41.000
 114677912.58447  89359380.88347  21822505.9134   21822511.5564   21822506.0494
        51.000          45.000
 122912140.61347  95775688.66147  23389406.0454   23389408.3224   23389406.2764
        48.000          40.000
 121931996.15647  95011926.18447  23202901.3664   23202905.8354   23202901.0154
        47.000          41.000
 119973184.38247  93485580.69847  22830150.2994   22830154.5794   22830149.9594
        48.000          43.000
 115648985.54447  90116072.26147  22007285.3034   22007289.1834   22007285.6264
        50.000          45.000
 128193426.63347  99890960.52847  24394414.0304   24394418.4764   24394413.4404
        43.000          38.000
 09  1 18  0 11  0.0000000  0 12G 6G21G31G 5G22G 9G24G18G30G29G14G12
 128270419.65947  99950947.76247  24409072.5694   24409077.2244   24409072.7254
        43.000          37.000
 105600450.81047  82286049.33847  20095108.3874   20095111.0334   20095108.7124
        54.000          50.000
 120380547.35747  93803011.58947  22907664.1114   22907667.8624   22907663.6974
        49.000          43.000
 124153664.08947  96743098.66147  23625667.2994   23625673.6444   23625667.5524
        46.000          39.000
 126321405.65747  98432260.95447  24038166.0144   24038167.6884   24038165.7044
        46.000          39.000
 119258336.06347  92928557.83147  22694116.8264   22694121.0834   22694117.1364
        47.000          41.000
 114726179.49347  89396991.45347  21831690.7114   21831696.4774   21831690.7344
        51.000          45.000
 122883492.22647  95753365.25547  23383954.1854   23383956.6704   23383954.8274
        47.000          40.000
 121906250.96547  94991865.02047  23198001.9664   23198007.0864   23198001.3294
        48.000          42.000
 120048541.93747  93544300.84347  22844490.6374   22844495.0754   22844490.2034
        48.000          43.000
 115668997.43047  90131665.96047  22011093.5724   22011097.4434   22011093.8004
        50.000          45.000
 128195102.76447  99892266.61247  24394732.1754   24394737.8084   24394732.4794
        43.000          38.000
 09  1 18  0 11 30.0000000  0 12G 6G21G31G 5G22G 9G24G18G30G29G14G12
 128228443.63147  99918239.15147  24401083.7964   24401089.8574   24401083.7784
        41.000          37.000
 105570614.76847  82262800.47947  20089430.8244   20089433.5664   20089431.3044
        54.000          50.000
 120281449.39047  93725792.46347  22888806.1184   22888810.1984   22888805.8584
        48.000          43.000
 124140644.10147  96732953.24247  23623189.7154   23623196.0724   23623190.2034
        45.000          39.000
 126292888.30247  98410039.67647  24032739.5424   24032740.6994   24032739.6614
        46.000          39.000
 119338663.16647  92991150.40947  22709402.5014   22709406.7184   22709402.7344
        47.000          41.000
 114774896.51747  89434952.75347  21840961.2284   21840967.2764   21840961.2844
        51.000          45.000
 122854674.61047  95730909.96747  23378470.7044   23378472.9334   23378471.2384
        48.000          40.000
 121880424.87747  94971740.81747  23193087.5044   23193092.3394   23193087.0484
        48.000          41.000
 120123868.88847  93602997.13947  22858824.9634   22858829.3374   22858824.6204
        48.000          43.000
 115689333.77447  90147512.48847  22014963.3284   22014966.9864   22014963.5884
        50.000          44.000
 128196838.34347  99893619.01947  24395062.7334   24395068.6464   24395062.6324
        43.000          38.000
 09  1 18  0 12  0.0000000  0 12G 6G21G31G 5G22G 9G24G18G30G29G14G12
 128186771.75347  99885767.53847  24393154.2234   24393159.6024   24393154.1914
        43.000          37.000
 105541335.02447  82239985.10147  20083858.9794   20083861.8054   20083859.3404
        54.000          50.000
 120182517.83247  93648702.98547  22869980.1364   22869983.8974   22869979.2114
        48.000          43.000
 124127692.41847  96722861.03647  23620724.9414   23620731.4284   23620724.9484
        45.000          39.000
 126264144.02547  98387641.58147  24027269.9774   24027270.7214   24027269.8584
        46.000          39.000
 119419395.59947  93054058.83947  22724765.2494   22724769.7774   22724765.3054
        47.000          41.000
 114824064.15847  89473265.19747  21850317.4264   21850323.2834   21850317.4484
        51.000          45.000
 122825690.41647  95708324.90847  23372954.9104   23372957.0914   23372955.4264
        48.000          40.000
 121854521.21647  94951556.16247  23188158.0584   23188162.7654   23188158.4204
        48.000          41.000
 120199164.36247  93661668.90147  22873153.1704   22873157.4324   22873152.9354
        48.000          43.000
 115709993.67447  90163611.13247  22018894.4974   22018898.4794   22018894.6404
        50.000          44.000
 128198637.06747  99895020.66347  24395405.6174   24395410.5354   24395405.6484
        44.000          38.000
 09  1 18  0 12 30.0000000  0 12G 6G21G31G 5G22G 9G24G18G30G29G14G12
 128145403.03947  99853532.13047  24385282.6524   24385286.8104   24385282.6384
        42.000          37.000
 105512612.74847  82217604.10547  20078393.5134   20078396.1364   20078393.9764
        54.000          49.000
 120083754.56547  93571744.65347  22851186.2004   22851189.9564   22851186.2544
        49.000          43.000
 124114810.38547  96712823.11247  23618273.8694   23618279.7214   23618274.2394
        46.000          39.000
 126235172.52547  98365066.42647  24021756.5744   24021758.2234   24021756.5794
        46.000          40.000
 119500530.25447  93117280.68747  22740204.5864   22740208.8384   22740204.8074
        46.000          41.000
 114873680.39047  89511927.17847  21859759.3304   21859765.1844   21859759.5154
        51.000          45.000
 122796539.90447  95685610.21447  23367407.8924   23367409.7854   23367408.2504
        48.000          40.000
 121828540.91647  94931311.79347  23183214.2374   23183219.3354   23183213.7574
        48.000          42.000
 120274425.53347  93720313.94147  22887474.7624   22887479.2024   22887474.4364
        48.000          43.000
 115730974.51047  90179959.86047  22022886.9384   22022891.1324   22022887.1274
        50.000          44.000
 128200500.21347  99896472.48447  24395760.0574   24395765.4044   24395759.7814
        43.000          38.000
 09  1 18  0 13  0.0000000  0 12G 6G21G31G 5G22G 9G24G18G30G29G14G12
 128104336.73547  99821532.39147  24377466.9934   24377473.4734   24377466.8574
        42.000          37.000
 105484449.34647  82195658.60647  20073033.9194   20073036.6974   20073034.3094
        54.000          50.000
 119985161.98747  93494919.31847  22832424.7484   22832428.0014   22832424.6174
        49.000          43.000
 124101999.79547  96702840.83947  23615835.9784   23615842.6504   23615836.5604
        46.000          39.000
 126205973.43547  98342313.95047  24016200.3274   24016201.5194   24016200.2054
        45.000          39.000
 119582064.56347  93180813.93347  22755720.2784   22755724.5544   22755720.1874
        47.000          41.000
 114923744.26247  89550937.97147  21869286.0724   21869291.8374   21869286.1464
        51.000          45.000
 122767224.24947  95662766.84747  23361829.5014   23361831.4594   23361829.7934
        47.000          40.000
 121802485.47447  94911008.86547  23178256.0284   23178261.1864   23178255.7574
        48.000          41.000
 120349649.79447  93778930.21147  22901789.3524   22901793.9134   22901788.8174
        48.000          43.000
 115752273.43647  90196556.45147  22026940.1534   22026944.0334   22026940.3644
        50.000          44.000
 128202429.08347  99897975.51847  24396127.0414   24396131.6544   24396127.2044
        43.000          38.000
 09  1 18  0 13 30.0000000  0 12G 6G21G31G 5G22G 9G24G18G30G29G14G12
 128063573.82247  99789769.04447  24369710.7064   24369716.7754   24369711.3014
        41.000          37.000
 105456847.88747  82174150.97847  20067781.7694   20067784.3524   20067782.1464
        54.000          49.000
 119886744.36947  93418230.31547  22813696.7104   22813699.4544   22813696.5724
        49.000          43.000
 124089263.80847  96692916.72247  23613412.4854   23613418.4974   23613413.1164
        45.000          39.000
 126176547.91347  98319385.01447  24010600.0804   24010601.8414   24010600.4224
        45.000          39.000
 119663997.78347  93244658.02447  22771311.7294   22771316.0384   22771311.6354
        47.000          41.000
 114974255.92847  89590297.71047  21878898.0534   21878903.6894   21878898.4484
        51.000          45.000
 122737745.70447  95639796.54647  23356219.7724   23356222.1464   23356220.1894
        48.000          40.000
 121776357.86647  94890649.70147  23173283.9414   23173289.5164   23173283.9344
        48.000          41.000
 120424836.19247  93837516.98847  22916096.7454   22916101.3584   22916096.3044
        48.000          43.000
 115773889.42747  90213400.10247  22031053.6814   22031057.4024   22031053.9514
        50.000          44.000
 128204427.12147  99899532.45247  24396507.1614   24396512.1724   24396506.7534
        43.000          38.000
 09  1 18  0 14  0.0000000  0 12G 6G21G31G 5G22G 9G24G18G30G29G14G12
 128023111.27447  99758239.77147  24362010.2474   24362016.5994   24362010.5714
        43.000          37.000
 105429807.31747  82153080.41147  20062635.9364   20062638.5924   20062636.3504
        54.000          49.000
 119788502.23347  93341678.03647  22795001.8484   22795004.7244   22795001.0984
        49.000          43.000
 124076602.18947  96683050.55447  23611002.9924   23611008.9204   23611003.1294
        45.000          39.000
 126146893.46247  98296277.71347  24004957.2334   24004958.5414   24004957.3504
        45.000          39.000
 119746324.68647  93308808.89847  22786978.2414   22786982.2414   22786978.2924
        47.000          41.000
 115025211.74947  89630003.52447  21888594.7144   21888600.2624   21888594.8774
        51.000          45.000
 122708102.90747  95616698.27247  23350578.5214   23350581.7324   23350578.9614
        48.000          40.000
 121750157.44347  94870233.80847  23168298.2114   23168303.0944   23168297.5684
        48.000          41.000
 120499979.97047  93896070.54447  22930396.0124   22930400.8474   22930395.5124
        48.000          43.000
 115795817.60847  90230487.02447  22035226.5894   22035230.1104   22035226.8424
        51.000          44.000
 128206493.53847  99901142.68347  24396900.0804   24396905.4874   24396900.0544
        43.000          38.000
 09  1 18  0 14 30.0000000  0 12G 6G21G31G 5G22G 9G24G18G30G29G14G12
 127982951.11847  99726946.11847  24354369.4264   24354374.4124   24354369.8394
        42.000          37.000
 105403331.47447  82132449.89547  20057597.7754   20057600.5614   20057598.1634
        54.000          50.000
 119690440.50047  93265266.33047  22776341.2654   22776344.0634   22776340.6394
        49.000          43.000
 124064019.29047  96673245.73747  23608608.7384   23608614.2224   23608609.1964
        46.000          39.000
 126117012.46747  98272993.86847  23999271.2644   23999272.4414   23999271.3244
        46.000          39.000
 119829045.17947  93373266.46247  22802719.3524   22802723.4754   22802719.1984
        48.000          41.000
 115076612.51747  89670056.05647  21898376.1714   21898381.6994   21898376.4004
        51.000          45.000
 122678299.61747  95593474.93047  23344907.3064   23344909.7814   23344907.9994
        48.000          40.000
 121723888.16847  94849764.25947  23163299.2674   23163304.4734   23163298.8384
        48.000          42.000
 120575080.91347  93954590.72047  22944687.5484   22944692.0074   22944687.1414
        48.000          43.000
 115818057.71347  90247816.99147  22039458.6124   22039462.1454   22039458.9374
        50.000          44.000
 128208632.55147  99902809.48047  24397307.9124   24397312.0224   24397307.0894
        44.000          38.000
 09  1 18  0 15  0.0000000  0 12G 6G21G31G 5G22G 9G24G18G30G29G14G12
 127943092.27047  99695887.26947  24346783.3354   24346789.6464   24346783.3844
        43.000          37.000
 105377422.10647  82112260.78347  20052667.4094   20052670.1304   20052667.8144
        54.000          50.000
 119592561.70447  93188997.18147  22757715.1614   22757718.3064   22757714.9014
        49.000          43.000
 124051516.50647  96663503.33747  23606229.2854   23606235.3114   23606229.9444
        46.000          39.000
 126086904.52047  98249533.17047  23993541.7244   23993542.7284   23993542.0244
        45.000          39.000
 119912156.36847  93438028.45847  22818534.7454   22818539.2424   22818534.7444
        47.000          41.000
 115128456.64447  89710454.06147  21908241.7894   21908247.2664   21908241.7934
        51.000          45.000
 122648336.21547  95570126.83147  23339206.0944   23339208.6174   23339206.2804
        47.000          40.000
 121697551.69147  94829242.33547  23158287.5174   23158292.7704   23158287.3184
        48.000          42.000
 120650136.51647  94013075.56647  22958970.2584   22958974.8854   22958969.8924
        48.000          43.000
 115840606.60547  90265387.57747  22043749.7154   22043753.0534   22043749.8934
        50.000          44.000
 128210845.19847  99904533.64847  24397728.4084   24397733.2994   24397728.4084
        43.000          38.000
 09  1 18  0 15 30.0000000  0 12G 6G21G31G 5G22G 9G24G18G30G29G14G12
 127903536.27847  99665064.38547  24339256.8534   24339261.8704   24339257.3214
        42.000          37.000
 105352082.34047  82092515.51447  20047845.4724   20047848.1244   20047845.7864
        54.000          50.000
 119494870.52347  93112874.22247  22739124.9014   22739127.9854   22739124.4024
        49.000          43.000
 124039097.90547  96653826.54447  23603866.3754   23603872.1514   23603866.8754
        45.000          39.000
 126056571.65847  98225897.20747  23987769.8834   23987770.7524   23987769.4994
        45.000          39.000
 119995657.75447  93503094.50347  22834424.6024   22834428.8354   22834424.6754
        47.000          41.000
 115180744.74847  89751198.03047  21918192.0384   21918197.3894   21918192.1424
        51.000          45.000
 122618215.85647  95546656.42347  23333474.1554   23333476.7034   23333474.4174
        47.000          40.000
 121671151.36947  94808670.65947  23153263.6934   23153268.7624   23153263.1384
        48.000          42.000
 120725146.52447  94071524.89347  22973244.2724   22973248.7714   22973243.9324
        48.000          42.000
 115863463.92247  90283198.49547  22048099.1274   22048102.7854   22048099.4764
        51.000          45.000
 128213135.54447  99906318.36347  24398164.3484   24398168.5044   24398163.6354
        43.000          38.000
 09  1 18  0 16  0.0000000  0 12G 6G21G31G 5G22G 9G24G18G30G29G14G12
 127864278.92447  99634474.20947  24331786.3904   24331791.4994   24331786.1124
        42.000          37.000
 105327309.67347  82073212.14647  20043131.2594   20043134.1244   20043131.6394
        54.000          50.000
 119397365.99747  93036896.70747  22720570.3224   22720573.7764   22720569.7694
        49.000          43.000
 124026761.65047  96644213.92647  23601518.7924   23601524.3684   23601519.2344
        45.000          39.000
 126026010.18247  98202083.12147  23981953.6864   23981954.5854   23981953.7514
        45.000          39.000
 120079543.11247  93568459.76647  22850387.2474   22850391.2854   22850387.5684
        48.000          41.000
 115233471.84947  89792284.06947  21928225.5774   21928231.2294   21928225.6764
        51.000          45.000
 122587935.72447  95523061.51447  23327712.0404   23327714.5654   23327712.4544
        47.000          40.000
 121644685.18747  94788047.67347  23148227.6484   23148232.1704   23148227.3774
        48.000          42.000
 120800104.85247  94129933.93947  22987508.4874   22987512.9884   22987508.3714
        48.000          42.000
 115886623.63147  90301245.04847  22052506.4324   22052509.8174   22052506.6934
        50.000          44.000
 128215501.41947  99908161.93447  24398614.4374   24398619.3504   24398614.2834
        44.000          39.000
 09  1 18  0 16 30.0000000  0 12G 6G21G31G 5G22G 9G24G18G30G29G14G12
 127825322.92847  99604118.85747  24324372.6264   24324379.1094   24324372.9734
        42.000          37.000
 105303109.33847  82054354.75147  20038526.2054   20038528.8244   20038526.6614
        54.000          50.000
 119300054.48247  92961069.58947  22702052.7864   22702056.0014   22702052.4474
        49.000          43.000
 124014513.25747  96634669.76947  23599187.3544   23599193.9054   23599187.8484
        45.000          39.000
 125995223.57747  98178093.59847  23976095.6774   23976096.5614   23976095.7894
        45.000          39.000
 120163813.48447  93634125.00547  22866423.4404   22866427.8124   22866423.6924
        48.000          41.000
 115286640.18347  89833713.93247  21938343.0194   21938349.0574   21938342.9984
        51.000          45.000
 122557500.60647  95499345.84947  23321920.4434   23321922.4194   23321921.0884
        47.000          40.000
 121618158.23947  94767377.33147  23143179.5314   23143184.3924   23143179.3004
        48.000          42.000
 120875012.45247  94188303.45747  23001762.8764   23001766.9814   23001762.4504
        47.000          42.000
 115910086.65247  90319527.93647  22056971.1554   22056974.8694   22056971.2464
        51.000          45.000
 128217948.13147  99910068.49247  24399080.1854   24399084.8474   24399080.2324
        44.000          39.000
 09  1 18  0 17  0.0000000  0 12G 6G21G31G 5G22G 9G24G18G30G29G14G12
 127786666.13747  99573996.64647  24317016.9034   24317022.6164   24317016.4174
        42.000          36.000
 105279481.08247  82035943.13147  20034029.8264   20034032.5304   20034030.1724
        54.000          50.000
 119202936.89147  92885393.58347  22683571.7424   22683575.3104   22683571.7784
        49.000          43.000
 124002353.14047  96625194.39647  23596873.5524   23596879.7134   23596873.9274
        46.000          39.000
 125964209.82747  98153927.08047  23970193.4934   23970194.8674   23970193.4294
        44.000          38.000
 120248464.58247  93700086.93147  22882532.0564   22882536.4404   22882532.2884
        47.000          41.000
 115340246.68047  89875485.21847  21948543.9984   21948550.1574   21948544.0744
        51.000          45.000
 122526909.96947  95475508.99747  23316098.7584   23316101.3274   23316099.0814
        47.000          40.000
 121591570.94847  94746659.96447  23138120.2274   23138125.0454   23138119.8794
        48.000          42.000
 120949865.51647  94246630.47447  23016006.8164   23016011.4244   23016006.5304
        48.000          42.000
 115933848.81847  90338043.93647  22061492.8764   22061496.7044   22061493.2364
        51.000          45.000
 128220475.92747  99912038.23947  24399561.3554   24399566.4124   24399560.9804
        43.000          39.000
 09  1 18  0 17 30.0000000  0 12G 6G21G31G 5G22G 9G24G18G30G29G14G12
 127748309.20947  99544108.10047  24309717.8234   24309723.9664   24309717.6064
        42.000          37.000
 105256427.72247  82017979.48447  20029643.0124   20029645.7544   20029643.3784
        54.000          50.000
 119106017.69947  92809872.16647  22665128.8204   22665132.4044   22665127.7894
        49.000          43.000
 123990284.38047  96615790.18947  23594576.8844   23594583.1624   23594577.4594
        45.000          39.000
 125932970.49447  98129584.78947  23964248.5694   23964250.3734   23964248.3284
        45.000          39.000
 120333494.89747  93766344.35547  22898713.0044   22898716.5644   22898713.0344
        47.000          41.000
 115394291.43847  89917598.00347  21958828.4254   21958834.4364   21958828.4164
        51.000          45.000
 122496166.32647  95451552.91947  23310248.7574   23310250.9854   23310249.4094
        47.000          40.000
 121564925.84447  94725897.56847  23133049.6464   23133054.6794   23133049.5844
        48.000          42.000
 121024663.06547  94304914.24947  23030240.7194   23030244.9684   23030240.3994
        48.000          42.000
 115957908.63347  90356791.87547  22066071.5094   22066075.0854   22066071.6054
        51.000          45.000
 128223087.66147  99914073.37947  24400058.2324   24400063.2964   24400058.0004
        44.000          38.000
 09  1 18  0 18  0.0000000  0 12G 6G21G31G 5G22G 9G24G18G30G29G14G12
 127710251.24447  99514452.52747  24302475.2644   24302481.7314   24302475.6224
        42.000          37.000
 105233950.10547  82000464.46547  20025365.5554   20025368.2284   20025365.9254
        54.000          50.000
 119009298.97847  92734506.97447  22646723.4704   22646727.2274   22646723.5784
        49.000          43.000
 123978308.64247  96606458.48147  23592297.9154   23592304.1954   23592298.2784
        46.000          39.000
 125901505.51047  98105066.66247  23958261.6504   23958261.8404   23958261.4914
        45.000          39.000
 120418901.57247  93832895.03447  22914964.9954   22914968.7574   22914965.0894
        47.000          40.000
 115448772.67547  89960050.90147  21969195.7724   21969201.6914   21969195.9924
        51.000          45.000
 122465270.30547  95427478.10147  23304369.2074   23304372.0654   23304369.6524
        47.000          40.000
 121538224.77547  94705091.55747  23127968.5274   23127973.6484   23127968.3264
        48.000          41.000
 121099402.84347  94363152.99447  23044463.0974   23044467.5384   23044462.6654
        48.000          42.000
 115982263.27847  90375769.53947  22070705.8984   22070709.5614   22070706.3254
        50.000          45.000
 128225784.81247  99916175.08847  24400571.3484   24400576.2844   24400571.2844
        44.000          38.000
 09  1 18  0 18 30.0000000  0 12G 6G21G31G 5G22G 9G24G18G30G29G14G12
 127672491.29347  99485029.15447  24295290.8934   24295296.0724   24295290.3074
        42.000          37.000
 105212049.35847  81983398.95547  20021198.0874   20021200.8284   20021198.4904
        54.000          50.000
 118912783.44047  92659300.10447  22628357.3054   22628360.6854   22628356.8884
        49.000          43.000
 123966427.67447  96597200.63347  23590037.0464   23590042.9744   23590037.5414
        46.000          39.000
 125869814.62047  98080372.48147  23952230.7004   23952231.5214   23952230.5804
        45.000          39.000
 120504681.74347  93899736.75847  22931288.3504   22931292.0164   22931288.4114
        47.000          40.000
 115503688.72747  90002842.62047  21979645.9874   21979651.8804   21979646.2664
        51.000          44.000
 122434222.85047  95403285.28247  23298460.8104   23298463.7794   23298461.2824
        47.000          40.000
 121511469.08047  94684242.96347  23122876.7864   23122882.0004   23122876.6334
        48.000          41.000
 121174081.85047  94421344.39647  23058674.1354   23058678.3534   23058673.8684
        48.000          42.000
 116006909.81347  90394974.66447  22075395.9804   22075399.4034   22075396.1984
        51.000          45.000
 128228568.80047  99918344.46447  24401100.9644   24401106.2814   24401101.1404
        44.000          39.000
 09  1 18  0 19  0.0000000  0 12G 6G21G31G 5G22G 9G24G18G30G29G14G12
 127635030.31047  99455838.74247  24288161.8124   24288167.3874   24288161.7714
        43.000          37.000
 105190728.55547  81966785.34647  20017140.6874   20017143.4224   20017141.0204
        54.000          50.000
 118816474.98647  92584254.60147  22610030.4284   22610033.8874   22610030.0574
        50.000          44.000
 123954644.91747  96588019.30447  23587794.8234   23587801.0814   23587795.3514
        46.000          39.000
 125837898.96447  98055503.17647  23946157.3054   23946158.6554   23946157.3944
        46.000          39.000
 120590834.29247  93966868.65947  22947682.3724   22947686.4714   22947682.6184
        47.000          41.000
 115559039.54347  90045973.10547  21990178.7994   21990184.9174   21990178.8494
        51.000          44.000
 122403026.59147  95378976.52447  23292524.6694   23292527.3384   23292525.2484
        46.000          40.000
 121484661.82647  94663354.19647  23117775.8484   23117780.9104   23117775.2494
        48.000          41.000
 121248699.39247  94479487.90547  23072873.4294   23072877.6874   23072873.2074
        48.000          42.000
 116031847.38547  90414406.56147  22080141.3764   22080145.0434   22080141.7084
        51.000          45.000
 128231443.12447  99920584.22847  24401648.0534   24401653.4314   24401647.8184
        43.000          39.000
 09  1 18  0 19 30.0000000  0 12G 6G21G31G 5G22G 9G24G18G30G29G14G12
 127597866.66247  99426880.02347  24281089.5774   24281095.2764   24281090.0794
        42.000          37.000
 105169987.94947  81950623.84047  20013194.0094   20013196.5104   20013194.4074
        54.000          50.000
 118720375.89547  92509372.22747  22591743.3234   22591746.6714   22591742.6374
        49.000          44.000
 123942961.46147  96578915.34547  23585571.4604   23585577.2874   23585571.7894
        46.000          39.000
 125805758.04347  98030458.35247  23940041.2854   23940042.7554   23940041.6354
        45.000          39.000
 120677355.52847  94034287.82647  22964146.6814   22964151.4494   22964147.1104
        46.000          40.000
 115614822.80947  90089440.57847  22000794.2154   22000799.9584   22000794.4554
        51.000          44.000
 122371682.00547  95354552.18547  23286559.6624   23286562.3434   23286560.4494
        47.000          40.000
 121457804.16147  94642426.16347  23112664.9154   23112670.4224   23112664.6014
        48.000          41.000
 121323252.35247  94537581.07647  23087060.1854   23087064.4764   23087060.1334
        47.000          42.000
 116057072.41747  90434062.44947  22084941.6874   22084944.8174   22084942.1864
        51.000          45.000
 128234408.36847  99922894.85747  24402212.7024   24402217.3184   24402212.3504
        44.000          39.000
 09  1 18  0 20  0.0000000  0 12G 6G21G31G 5G22G 9G24G18G30G29G14G12
 127561000.80247  99398153.33547  24274074.2894   24274080.0064   24274073.8944
        42.000          37.000
 105149829.64347  81934916.07747  20009357.8694   20009360.6534   20009358.3004
        54.000          50.000
 118624489.71647  92434655.76647  22573497.0534   22573499.8764   22573496.7084
        50.000          44.000
 123931380.47447  96569891.23847  23583367.8104   23583373.7764   23583368.6944
        45.000          39.000
 125773392.89647  98005238.79647  23933882.1154   23933883.6874   23933882.0414
        45.000          39.000
 120764244.31547  94101993.39947  22980681.5204   22980685.4524   22980681.8964
        47.000          40.000
 115671038.36947  90133244.90047  22011491.6324   22011497.5704   22011491.8264
        51.000          44.000
 122340191.35447  95330014.02447  23280567.5974   23280570.1974   23280568.3324
        47.000          40.000
 121430898.95947  94621461.08347  23107545.1874   23107550.1934   23107544.9284
        48.000          42.000
 121397739.90547  94595623.29347  23101234.6774   23101239.2114   23101234.2894
        47.000          42.000
 116082583.45847  90453941.20347  22089796.3544   22089799.5384   22089796.7124
        51.000          44.000
 128237467.34147  99925278.48547  24402794.3364   24402799.3374   24402794.3074
        45.000          39.000
 09  1 18  0 20 30.0000000  0 12G 6G21G31G 5G22G 9G24G18G30G29G14G12
 127524430.31847  99369656.81347  24267115.6574   24267120.7374   24267115.4684
        43.000          37.000
 105130253.42047  81919661.87847  20005632.6614   20005635.2424   20005632.9914
        54.000          50.000
 118528817.86147  92360106.31747  22555290.7984   22555294.0374   22555290.6444
        50.000          44.000
