     2.11           OBSERVATION DATA    G (GPS)             RINEX VERSION / TYPE
teqc  2008Oct2      gpsops              20090124 00:10:01UTCPGM / RUN BY / DATE
    30.0000                                                 INTERVAL
     1     1                                                WAVELENGTH FACT L1/2
     7    L1    L2    P1    P2    C1    S1    S2            # / TYPES OF OBSERV
Linux 2.4.20-8|Pentium IV|gcc -static|Linux|486/DX+         COMMENT
     2.10           OBSERVATION DATA    GPS                 COMMENT
soc2rnx ver 1.20    gpsops              24-Jan-2009 00:09:53COMMENT
S1, if present, is the SNR for the C/A data stream on L1.   COMMENT
 SNR is mapped to RINEX snr flag value [1,4-9]              COMMENT
    SNR:   >316  >100  >31.6  >10  >3.2    >0 bad=0         COMMENT
L1 & L2:      9     8     7     6     5     4     1         COMMENT
                                                            COMMENT
This data is provided as a public service by NASA/JPL.      COMMENT
No warranty is expressed or implied regarding suitability   COMMENT
for use.  For further information, contact:                 COMMENT
Dave Stowers, NASA/JPL m/s 238-600                          COMMENT
4800 Oak Grove Drive, Pasadena CA 91109 USA                 COMMENT
                                                            COMMENT
Forced Modulo Decimation to 30 seconds                      COMMENT
  2009     1    23     0     0    0.0000000     GPS         TIME OF FIRST OBS
GGN                 JPL                                     OBSERVER / AGENCY
CR519992104         ASH701945B_M    SCIT                    ANT # / TYPE
   -33801.4662 -6377516.5323   -82154.3508                  APPROX POSITION XYZ
        0.0083        0.0000        0.0000                  ANTENNA: DELTA H/E/N
ZR220013847         ASHTECH UZ-12       CQ00                REC # / TYPE / VERS
GLPS                                                        MARKER NAME
42005M002                                                   MARKER NUMBER
                                                            END OF HEADER
 09  1 23  0  0  0.0000000  0 12G 6G30G 9G14G29G21G31G24G12G22G 5G18
 127561228.70147  99398333.60547  24274114.7144   24274120.6204   24274115.1934
        42.000          37.000
 121409849.26647  94605059.99147  23103538.9304   23103543.6314   23103538.9274
        48.000          41.000
 120854198.83847  94172093.12347  22997796.9054   22997799.3294   22997796.1244
        47.000          40.000
 116080670.06547  90452464.43447  22089421.4054   22089424.3404   22089422.0934
        50.000          44.000
 121410571.89247  94605626.55147  23103672.5154   23103676.1564   23103671.4854
        47.000          42.000
 105130383.06947  81919770.27547  20005652.3874   20005654.2014   20005652.8004
        54.000          50.000
 118494617.59347  92333458.08947  22548783.9114   22548785.9994   22548783.7054
        49.000          43.000
 115728414.55647  90177967.36847  22022397.7824   22022402.2804   22022398.3934
        51.000          44.000
 128202688.48647  99898174.45447  24396181.0174   24396183.9094   24396180.6974
        44.000          38.000
 125740452.18847  97979568.11047  23927616.1834   23927617.2474   23927616.2764
        45.000          39.000
 123976429.47947  96604991.05847  23591944.7184   23591950.0474   23591945.2994
        45.000          39.000
 122317273.58447  95312159.60647  23276203.3764   23276207.6004   23276204.5984
        47.000          40.000
 09  1 23  0  0 30.0000000  0 12G 6G30G 9G14G29G21G31G24G12G22G 5G18
 127524893.06647  99370020.13947  24267201.1284   24267205.2724   24267200.8594
        41.000          37.000
 121382882.07847  94584046.61147  23098408.1484   23098412.2244   23098407.5384
        48.000          42.000
 120941794.34847  94240349.36547  23014464.8604   23014467.9734   23014464.8104
        47.000          41.000
 116107025.28847  90473000.97647  22094436.9804   22094439.7124   22094437.1854
        50.000          44.000
 121484865.26347  94663517.44147  23117809.9914   23117813.3374   23117809.2854
        47.000          42.000
 105111474.78447  81905036.53747  20002054.2334   20002056.1314   20002054.5824
        54.000          50.000
 118399226.74147  92259127.59947  22530631.3504   22530633.8194   22530631.1594
        49.000          44.000
 115785491.26747  90222442.71347  22033259.2684   22033263.8144   22033259.5014
        51.000          44.000
 128205838.76347  99900629.25947  24396780.1934   24396784.2734   24396780.0794
        43.000          38.000
 125707644.58847  97954003.78547  23921373.3094   23921374.2464   23921373.1664
        45.000          39.000
 123965114.41147  96596174.14447  23589791.5554   23589796.3724   23589792.0644
        45.000          39.000
 122285432.05047  95287348.03347  23270144.9974   23270147.4624   23270145.2934
        47.000          41.000
 09  1 23  0  1  0.0000000  0 12G 6G30G 9G14G29G21G31G24G12G22G 5G18
 127488853.35547  99341937.22347  24260342.7554   24260346.5204   24260342.6184
        41.000          37.000
 121355872.98047  94563000.56747  23093268.3744   23093272.4464   23093268.3084
        48.000          42.000
 121029749.62947  94308885.96147  23031202.0194   23031205.0364   23031202.2464
        47.000          40.000
 116133658.09447  90493753.81047  22099505.1904   22099507.5894   22099505.3314
        50.000          44.000
 121559088.12047  94721353.40247  23131934.1204   23131937.4044   23131933.7284
        47.000          42.000
 105093153.12447  81890759.90347  19998567.7894   19998569.6434   19998568.1594
        54.000          50.000
 118304058.24647  92184970.37047  22512521.2724   22512523.8754   22512520.8294
        48.000          44.000
 115842995.97047  90267251.55647  22044202.1334   22044206.5964   22044202.2994
        51.000          44.000
 128209087.79247  99903161.02547  24397399.0174   24397402.7944   24397398.3674
        44.000          39.000
 125674613.45947  97928265.26447  23915087.6014   23915088.6444   23915087.3474
        45.000          39.000
 123953908.23647  96587442.05647  23587659.2534   23587663.3894   23587659.4924
        45.000          39.000
 122253447.31947  95262424.85447  23264058.6024   23264060.9324   23264058.9814
        47.000          41.000
 09  1 23  0  1 30.0000000  0 12G 6G30G 9G14G29G21G31G24G12G22G 5G18
 127453108.83447  99314084.36947  24253540.4384   24253545.8994   24253540.2954
        42.000          37.000
 121328823.71147  94541923.23947  23088120.9954   23088124.9424   23088120.8954
        48.000          42.000
 121118061.94847  94377700.76547  23048007.4684   23048010.2754   23048007.3654
        47.000          40.000
 116160565.75047  90514720.82747  22104625.7044   22104628.0994   22104625.9914
        50.000          44.000
 121633238.10847  94779132.57847  23146044.2744   23146048.0274   23146044.3014
        47.000          42.000
 105075419.08247  81876941.15647  19995193.1524   19995194.9204   19995193.5024
        54.000          50.000
 118209115.01247  92110988.68347  22494454.0434   22494456.9234   22494453.9074
        49.000          44.000
 115900927.06047  90312392.64747  22055225.7424   22055230.3804   22055225.7864
        50.000          44.000
 128212437.48447  99905771.23047  24398036.2824   24398039.8314   24398035.9674
        43.000          38.000
 125641358.96147  97902352.69247  23908759.1534   23908759.7614   23908759.5254
        44.000          39.000
 123942812.91647  96578796.36747  23585547.3404   23585552.1194   23585548.1554
        45.000          39.000
 122221320.95147  95237391.31647  23257945.3594   23257947.3534   23257945.7054
        48.000          41.000
 09  1 23  0  2  0.0000000  0 12G 6G30G 9G14G29G21G31G24G12G22G 5G18
 127417657.49247  99286459.94447  24246794.6884   24246799.4244   24246794.9074
        41.000          36.000
 121301734.77747  94520815.00047  23082966.4214   23082970.2334   23082965.8934
        48.000          42.000
 121206727.54847  94446790.84647  23064880.0544   23064882.9794   23064880.0044
        46.000          40.000
 116187744.42147  90535899.01147  22109797.5524   22109800.1734   22109797.8414
        50.000          44.000
 121707311.82147  94836852.32847  23160140.4954   23160143.4204   23160140.5484
        48.000          42.000
 105058272.84647  81863580.44247  19991930.2134   19991932.1824   19991930.6824
        54.000          50.000
 118114398.64047  92037183.75047  22476430.6084   22476433.0104   22476429.6834
        49.000          44.000
 115959281.80747  90357863.85947  22066330.5824   22066335.0044   22066330.5444
        50.000          44.000
 128215888.18047  99908460.12347  24398692.7914   24398696.5544   24398692.2814
        43.000          38.000
 125607879.95847  97876265.19147  23902388.8994   23902389.2034   23902389.0314
        46.000          39.000
 123931829.17347  96570237.61547  23583457.2344   23583462.2114   23583457.5544
        46.000          39.000
 122189053.08747  95212247.52847  23251804.9554   23251807.1614   23251805.4864
        47.000          41.000
 09  1 23  0  2 30.0000000  0 12G 6G30G 9G14G29G21G31G24G12G22G 5G18
 127382500.63947  99259065.01847  24240103.5624   24240108.4804   24240103.3774
        42.000          36.000
 121274609.79247  94499678.66447  23077804.3214   23077808.5594   23077803.9934
        47.000          42.000
 121295745.51147  94516155.51247  23081819.5514   23081821.9934   23081819.8094
        46.000          40.000
 116215193.20447  90557287.68347  22115021.0464   22115023.1424   22115021.1364
        50.000          44.000
 121781308.85047  94894512.30747  23174221.5474   23174224.8254   23174221.9334
        47.000          42.000
 105041717.51947  81850680.18047  19988779.7894   19988781.8894   19988780.1184
        54.000          49.000
 118019913.50447  91963559.00547  22458450.4104   22458453.1164   22458450.3734
        50.000          44.000
 116018060.78147  90403665.64147  22077515.7684   22077520.2414   22077515.6684
        50.000          44.000
 128219443.47847  99911230.52647  24399369.6034   24399372.9294   24399369.5774
        44.000          38.000
 125574178.52647  97850004.36647  23895975.9004   23895976.1964   23895975.7154
        45.000          39.000
 123920960.76947  96561768.74947  23581389.0124   23581393.9994   23581389.5014
        45.000          39.000
 122156646.69947  95186995.78247  23245638.5934   23245640.2384   23245639.0124
        48.000          41.000
 09  1 23  0  3  0.0000000  0 12G 6G30G 9G14G29G21G31G24G12G22G 5G18
 127347637.11447  99231898.62047  24233470.8054   24233474.3984   24233470.8524
        43.000          37.000
 121247450.67047  94478515.73547  23072636.1284   23072640.0064   23072636.0744
        47.000          41.000
 121385112.80747  94585792.38347  23098825.6434   23098828.1924   23098825.5464
        46.000          40.000
 116242909.35347  90578884.68247  22120295.0974   22120297.7024   22120295.2904
        50.000          44.000
 121855227.14447  94952110.94347  23188287.7914   23188291.2954   23188287.6034
        47.000          42.000
 105025753.94447  81838241.02047  19985742.0934   19985744.0204   19985742.4414
        54.000          50.000
 117925662.29447  91890116.54547  22440515.1034   22440517.6154   22440514.9704
        50.000          44.000
 116077262.11747  90449796.53847  22088781.4634   22088785.7204   22088781.1994
        50.000          44.000
 128223105.06247  99914083.77447  24400066.7074   24400069.6914   24400066.8354
        44.000          38.000
 125540254.74647  97823570.26247  23889519.6784   23889520.8634   23889519.6584
        45.000          39.000
 123910209.66947  96553391.27847  23579343.1644   23579348.1024   23579343.3844
        45.000          39.000
 122124102.77347  95161636.87947  23239445.5034   23239447.1314   23239446.0134
        48.000          41.000
 09  1 23  0  3 30.0000000  0 12G 6G30G 9G14G29G21G31G24G12G22G 5G18
 127313066.70747  99204960.64847  24226891.3744   24226896.4694   24226891.6674
        42.000          37.000
 121220259.68247  94457327.95247  23067461.8384   23067465.6044   23067461.6754
        48.000          41.000
 121474827.29447  94655699.78847  23115897.7924   23115900.7344   23115897.9594
        46.000          40.000
 116270890.58547  90600688.24347  22125619.7374   22125622.4454   22125619.7994
        50.000          44.000
 121929064.85647  95009646.78847  23202338.7044   23202342.5804   23202338.4604
        47.000          42.000
 105010383.33847  81826263.91547  19982817.1584   19982819.0944   19982817.5214
        54.000          49.000
 117831648.39047  91816858.98947  22422624.8074   22422627.3214   22422624.3074
        49.000          44.000
 116136884.33947  90496255.39747  22100127.1664   22100131.6834   22100127.3154
        50.000          44.000
 128226875.12447  99917021.53347  24400784.1954   24400787.1264   24400783.8214
        44.000          38.000
 125506109.48447  97796963.59747  23883022.1224   23883022.8584   23883021.8534
        45.000          39.000
 123899578.19147  96545107.02347  23577320.1984   23577324.8214   23577320.5574
        45.000          39.000
 122091423.11747  95136172.21947  23233226.6374   23233228.5194   23233227.1064
        48.000          41.000
 09  1 23  0  4  0.0000000  0 12G 6G30G 9G14G29G21G31G24G12G22G 5G18
 127278788.01647  99178249.98347  24220368.8204   24220372.7834   24220368.6624
        43.000          37.000
 121193038.21247  94436116.45047  23062281.9644   23062285.3784   23062281.7294
        48.000          42.000
 121564885.99147  94725875.40547  23133034.8894   23133038.5324   23133035.0334
        46.000          40.000
 116299133.85547  90622695.99347  22130994.2874   22130996.6254   22130994.6304
        50.000          44.000
 122002819.15847  95067117.62647  23216373.7224   23216377.5194   23216373.4554
        47.000          42.000
 104995606.37447  81814749.39147  19980005.2644   19980007.1044   19980005.7224
        54.000          49.000
 117737874.00347  91743788.07047  22404780.1914   22404782.8864   22404779.9704
        50.000          44.000
 116196925.60847  90543040.77147  22111552.7064   22111557.2074   22111552.8244
        50.000          44.000
 128230754.72247  99920044.67347  24401521.7584   24401525.7484   24401522.1544
        44.000          38.000
 125471742.09047  97770183.83947  23876482.4144   23876482.8994   23876482.3584
        46.000          39.000
 123889067.87647  96536917.16647  23575320.1484   23575324.7824   23575320.6964
        45.000          39.000
 122058608.41647  95110602.30947  23226982.2144   23226984.4654   23226982.7324
        48.000          41.000
 09  1 23  0  4 30.0000000  0 12G 6G30G 9G14G29G21G31G24G12G22G 5G18
 127244801.08547  99151766.65147  24213901.0064   24213905.0464   24213901.2354
        43.000          37.000
 121165788.88447  94414883.21547  23057096.6384   23057100.3504   23057096.3924
        48.000          42.000
 121655286.74947  94796317.55447  23150238.0084   23150241.5524   23150238.0064
        46.000          40.000
 116327637.25647  90644906.43947  22136418.1674   22136420.5254   22136418.3024
        50.000          44.000
 122076488.96447  95124522.62747  23230392.6964   23230396.0334   23230392.2534
        47.000          42.000
 104981424.77847  81803698.78347  19977306.6144   19977308.4164   19977306.9534
        54.000          49.000
 117644342.66147  91670906.56047  22386981.4674   22386984.3024   22386981.9284
        50.000          44.000
 116257385.10547  90590152.06747  22123057.5964   22123062.2224   22123057.5614
        50.000          44.000
 128234746.55147  99923155.24947  24402281.7874   24402285.1634   24402280.9284
        44.000          38.000
 125437153.57747  97743231.77847  23869899.6084   23869901.0284   23869900.2374
        45.000          39.000
 123878681.34547  96528823.76347  23573343.5044   23573348.4604   23573344.0314
        45.000          39.000
 122025660.85347  95084928.88147  23220712.5224   23220714.5744   23220712.8734
        48.000          41.000
 09  1 23  0  5  0.0000000  0 12G 6G30G 9G14G29G21G31G24G12G22G 5G18
 127211103.69047  99125508.93947  24207488.5104   24207492.5484   24207488.7814
        42.000          37.000
 121138511.95747  94393628.47647  23051906.1704   23051909.4344   23051905.7374
        48.000          42.000
 121746025.37647  94867022.97147  23167504.7804   23167508.2964   23167504.7634
        45.000          40.000
 116356396.70347  90667316.39147  22141891.2444   22141893.3594   22141891.4134
        50.000          44.000
 122150070.77847  95181859.07647  23244394.7724   23244398.2554   23244394.7504
        47.000          42.000
 104967838.18847  81793111.81847  19974721.0964   19974722.9664   19974721.4054
        54.000          49.000
 117551055.74347  91598215.49047  22369229.5864   22369232.4614   22369228.9014
        50.000          44.000
 116318259.81047  90637586.88047  22134641.6524   22134646.5434   22134641.7834
        50.000          44.000
 128238850.82447  99926353.44447  24403063.1964   24403066.1174   24403062.9294
        44.000          38.000
 125402342.88247  97716106.57947  23863275.9514   23863276.5554   23863275.7454
        45.000          39.000
 123868419.36247  96520827.41747  23571390.9294   23571395.8754   23571391.2814
        45.000          39.000
 121992580.49247  95059151.96447  23214417.6324   23214419.1574   23214418.0124
        48.000          40.000
 09  1 23  0  5 30.0000000  0 12G 6G30G 9G14G29G21G31G24G12G22G 5G18
 127177696.74347  99099477.55747  24201131.5534   24201136.0884   24201131.4954
        41.000          37.000
 121111211.39947  94372355.33447  23046710.7354   23046714.4274   23046710.3574
        48.000          42.000
 121837100.84147  94937990.86847  23184835.7184   23184839.2464   23184835.9714
        46.000          40.000
 116385411.31047  90689925.17747  22147411.9554   22147414.6964   22147412.4794
        50.000          44.000
 122223564.21547  95239126.64547  23258380.0324   23258383.9054   23258379.8614
        47.000          42.000
 104954849.26847  81782990.56847  19972249.5514   19972251.2274   19972249.9934
        54.000          49.000
 117458017.82747  91525718.45247  22351524.9164   22351527.7724   22351524.5544
        49.000          44.000
 116379549.81547  90685345.30947  22146304.7634   22146309.5594   22146304.9904
        50.000          44.000
 128243070.96447  99929641.91947  24403865.4534   24403869.2864   24403865.3724
        43.000          38.000
 125367311.85647  97688809.69447  23856609.7294   23856610.2874   23856609.3434
        45.000          39.000
 123858285.58247  96512930.97647  23569462.4654   23569467.5004   23569462.9814
        45.000          39.000
 121959370.55547  95033274.09047  23208097.8354   23208099.9024   23208098.2014
        47.000          40.000
 09  1 23  0  6  0.0000000  0 12G 6G30G 9G14G29G21G31G24G12G22G 5G18
 127144579.88047  99073672.21347  24194829.1214   24194834.0864   24194829.1434
        41.000          37.000
 121083889.37747  94351065.46947  23041511.6404   23041515.4764   23041511.2704
        48.000          42.000
 121928511.08047  95009219.63147  23202230.7104   23202233.7614   23202230.9524
        46.000          39.000
 116414678.68947  90712730.92647  22152981.5314   22152984.1144   22152981.5544
        50.000          44.000
 122296967.73147  95296324.15347  23272348.4764   23272352.1904   23272348.2064
        47.000          42.000
 104942459.38447  81773336.10347  19969891.7084   19969893.4464   19969892.0924
        54.000          49.000
 117365232.20347  91453418.01047  22333868.4854   22333871.1494   22333868.0784
        50.000          44.000
 116441253.84247  90733426.35047  22158046.8084   22158051.3944   22158046.9914
        50.000          43.000
 128247409.61447  99933022.72847  24404690.9594   24404694.8034   24404690.6054
        43.000          38.000
 125332061.23947  97661341.70947  23849901.1814   23849902.4224   23849901.2814
        45.000          39.000
 123848282.44947  96505136.33847  23567559.0904   23567563.4534   23567559.5424
        45.000          39.000
 121926033.18247  95007296.92147  23201754.1394   23201756.0564   23201754.5954
        47.000          40.000
 09  1 23  0  6 30.0000000  0 12G 6G30G 9G14G29G21G31G24G12G22G 5G18
 127111750.76147  99048091.07247  24188582.3084   24188587.1914   24188582.4514
        43.000          37.000
 121056546.26947  94329759.17147  23036308.7914   23036312.5274   23036308.4274
        49.000          42.000
 122020251.46547  95080705.65447  23219688.4994   23219691.1384   23219688.2304
        45.000          39.000
 116444194.66447  90735730.38347  22158598.2164   22158600.8134   22158598.4084
        50.000          44.000
 122370277.79047  95353448.84547  23286298.9574   23286302.6334   23286298.7684
        46.000          41.000
 104930667.86447  81764147.89547  19967647.9174   19967649.7664   19967648.2114
        54.000          50.000
 117272700.19747  91381315.18447  22316260.2114   22316262.7334   22316259.6844
        50.000          45.000
 116503368.75247  90781827.56547  22169866.8664   22169871.5624   22169867.0514
        50.000          44.000
 128251866.48847  99936495.67847  24405539.1854   24405542.8144   24405539.2744
        43.000          38.000
 125296589.99147  97633701.80047  23843151.2554   23843152.4984   23843151.4614
        46.000          39.000
 123838410.47547  96497443.91747  23565680.1464   23565684.7384   23565680.7604
        45.000          39.000
 121892567.25347  94981219.55447  23195385.9734   23195387.5354   23195386.1974
        47.000          41.000
 09  1 23  0  7  0.0000000  0 12G 6G30G 9G14G29G21G31G24G12G22G 5G18
 127079211.22847  99022735.60947  24182390.3644   24182394.2714   24182390.1104
        42.000          37.000
 121029186.48247  94308439.87447  23031102.1164   23031105.6514   23031102.0464
        48.000          42.000
 122112322.07447  95152448.97347  23237209.0414   23237211.8724   23237209.3344
        45.000          39.000
 116473959.71547  90758923.93147  22164262.4514   22164264.7804   22164262.4904
        50.000          44.000
 122443494.93947  95410501.13047  23300231.7724   23300235.3864   23300231.5164
        46.000          41.000
 104919478.50347  81755428.90247  19965518.7134   19965520.6254   19965519.1604
        54.000          49.000
 117180426.85047  91309413.91647  22298701.2754   22298703.7194   22298700.8414
        50.000          45.000
 116565895.48147  90830549.67247  22181765.3624   22181770.0464   22181765.4194
        50.000          44.000
 128256446.24347  99940064.36647  24406410.4644   24406413.8364   24406410.6234
        43.000          38.000
 125260901.56147  97605892.65547  23836360.4254   23836361.2704   23836360.3164
        46.000          39.000
 123828674.32447  96489857.30947  23563827.5494   23563832.4224   23563828.1854
        45.000          39.000
 121858977.19747  94955045.47747  23188994.0024   23188995.7904   23188994.3714
        47.000          41.000
 09  1 23  0  7 30.0000000  0 12G 6G30G 9G14G29G21G31G24G12G22G 5G18
 127046958.27547  98997603.45247  24176252.6444   24176257.4514   24176253.6624
        43.000          37.000
 121001809.72747  94287107.35247  23025892.8274   23025896.3944   23025892.5814
        49.000          42.000
 122204717.76547  95224445.62547  23254791.6904   23254793.8714   23254791.6004
        45.000          39.000
 116503968.65547  90782307.52347  22169973.0174   22169975.4254   22169973.0294
        50.000          44.000
 122516614.97047  95467477.73647  23314146.1514   23314149.7884   23314145.5214
        46.000          41.000
 104908889.80047  81747177.95247  19963503.6474   19963505.5514   19963504.0864
        54.000          49.000
 117088413.14947  91237714.97747  22281191.6374   22281194.1764   22281191.6024
        50.000          45.000
 116628830.28147  90879589.75047  22193741.5794   22193746.1484   22193741.8534
        50.000          44.000
 128261148.46347  99943728.48547  24407305.5514   24407308.9354   24407305.3934
        42.000          38.000
 125224993.37847  97577912.26847  23829527.4934   23829528.0344   23829527.4404
        46.000          39.000
 123819073.78147  96482376.39447  23562000.9974   23562005.0504   23562001.6254
        45.000          39.000
 121825262.57247  94928774.34747  23182578.1454   23182580.1284   23182578.6004
        48.000          41.000
 09  1 23  0  8  0.0000000  0 12G 6G30G 9G14G29G21G31G24G12G22G 5G18
 127014991.32347  98972694.11247  24170169.5454   24170173.9904   24170169.6844
        42.000          37.000
 120974418.84547  94265763.82147  23020680.1084   23020683.7774   23020679.6674
        49.000          42.000
 122297436.26147  95296693.79747  23272435.0244   23272437.4554   23272435.3274
        45.000          39.000
 116534219.17047  90805879.35647  22175729.3534   22175731.8614   22175729.3314
        50.000          44.000
 122589636.31747  95524377.44947  23328041.4384   23328045.1544   23328041.2574
        46.000          41.000
 104898903.22947  81739396.19647  19961603.2354   19961605.2414   19961603.6834
        54.000          49.000
 116996662.48247  91166220.99047  22263732.0954   22263734.3904   22263731.1404
        50.000          45.000
 116692171.76347  90928946.73547  22205795.2334   22205799.6074   22205795.3824
        50.000          44.000
 128265975.29047  99947489.70347  24408224.3164   24408227.3784   24408223.9674
        43.000          38.000
 125188866.41347  97549761.41447  23822652.5564   23822653.8464   23822652.8254
        46.000          39.000
 123809611.34147  96475003.08847  23560199.7654   23560204.3094   23560200.3664
        45.000          39.000
 121791425.30547  94902407.64547  23176139.0484   23176141.2574   23176139.4934
        47.000          41.000
 09  1 23  0  8 30.0000000  0 12G 6G30G 9G14G29G21G31G24G12G22G 5G18
 126983310.73647  98948007.93047  24164141.4844   24164145.0704   24164140.8834
        43.000          37.000
 120947016.76947  94244411.57947  23015465.7894   23015469.2794   23015465.5904
        49.000          42.000
 122390475.90247  95369192.22647  23290139.7134   23290142.1984   23290139.6904
        45.000          39.000
 116564709.82447  90829638.30747  22181531.5834   22181534.1024   22181531.6684
        50.000          44.000
 122662558.20047  95581199.65647  23341918.2584   23341921.6474   23341918.2084
        46.000          41.000
 104889520.54047  81732084.99747  19959817.7994   19959819.7594   19959818.1864
        54.000          49.000
 116905178.46647  91094934.78047  22246323.4624   22246325.5744   22246323.1294
        51.000          45.000
 116755919.41347  90978620.20947  22217926.0574   22217930.1974   22217926.2134
        50.000          43.000
 128270929.35147  99951350.06447  24409166.4624   24409170.1984   24409165.9354
        42.000          38.000
 125152521.99647  97521441.09847  23815736.4494   23815737.1934   23815736.5084
        46.000          39.000
 123800290.05047  96467739.77247  23558426.4564   23558430.7824   23558426.5784
        45.000          39.000
 121757467.75147  94875947.19547  23169677.1524   23169679.0754   23169677.5184
        47.000          40.000
 09  1 23  0  9  0.0000000  0 12G 6G30G 9G14G29G21G31G24G12G22G 5G18
 126951916.28447  98923544.73747  24158166.4424   24158171.4344   24158166.2644
        43.000          37.000
 120919605.96747  94223052.53047  23010249.5484   23010253.3174   23010249.0724
        49.000          42.000
 122483834.85447  95441939.47447  23307905.0304   23307907.9214   23307905.0824
        45.000          39.000
 116595438.48047  90853582.72247  22187379.0364   22187381.5094   22187379.0464
        50.000          44.000
 122735379.09847  95637943.17047  23355775.6404   23355779.1384   23355775.4524
        47.000          41.000
 104880743.30547  81725245.57947  19958147.6674   19958149.4004   19958148.0204
        54.000          49.000
 116813964.83947  91023859.26847  22228965.7984   22228968.0934   22228965.8504
        51.000          45.000
 116820072.10847  91028609.30947  22230133.7104   22230138.3934   22230133.8534
        50.000          43.000
 128276013.15047  99955311.53547  24410133.3584   24410137.2034   24410132.8494
        42.000          38.000
 125115961.18147  97492952.16547  23808779.1554   23808779.6934   23808779.6454
        46.000          39.000
 123791112.66447  96460588.60447  23556679.3384   23556684.5764   23556679.8224
        44.000          39.000
 121723392.05247  94849394.70947  23163192.2644   23163194.3364   23163192.9024
        47.000          40.000
 09  1 23  0  9 30.0000000  0 12G 6G30G 9G14G29G21G31G24G12G22G 5G18
 126920805.05747  98899302.21147  24152246.4744   24152251.0694   24152246.4684
        43.000          37.000
 120892186.67147  94201686.86847  23005031.9004   23005035.6644   23005031.7794
        49.000          42.000
 122577508.30147  95514931.77647  23325730.6984   23325733.8444   23325730.9084
        45.000          39.000
 116626400.68747  90877709.11647  22193271.1914   22193273.5344   22193271.3674
        50.000          44.000
 122808095.28347  95694605.07547  23369612.8224   23369616.6704   23369613.0074
        46.000          41.000
 104872570.17647  81718876.89847  19956592.2294   19956594.2574   19956592.5874
        54.000          49.000
 116723022.32947  90952995.00647  22211660.1014   22211662.1034   22211659.4314
        50.000          45.000
 116884626.16947  91078911.15447  22242417.9694   22242422.5334   22242418.3614
        50.000          43.000
 128281227.01447  99959374.32447  24411126.1434   24411128.8264   24411125.4844
        45.000          38.000
 125079182.50147  97464293.46847  23801780.1144   23801780.7484   23801780.4274
        45.000          39.000
 123782079.11647  96453549.51047  23554961.0084   23554965.0774   23554961.4574
        45.000          39.000
 121689197.60047  94822749.66247  23156685.9784   23156687.8434   23156686.2194
        48.000          40.000
 09  1 23  0 10  0.0000000  0 12G 6G30G 9G14G29G21G31G24G12G22G 5G18
 126889978.41047  98875281.44047  24146380.0494   24146384.7224   24146380.2484
        43.000          37.000
 120864762.93747  94180317.73747  22999813.2894   22999816.9154   22999812.9544
        48.000          42.000
 122671495.38347  95588168.46547  23343616.3214   23343619.0014   23343616.4984
        46.000          40.000
 116657595.86147  90902017.05247  22199207.3264   22199209.7434   22199207.5684
        50.000          44.000
 122880707.14547  95751185.71147  23383430.6354   23383433.8174   23383430.4984
        46.000          41.000
 104865004.30947  81712981.40047  19955152.5634   19955154.4214   19955152.9414
        54.000          49.000
 116632355.99447  90882345.94647  22194406.8584   22194408.8874   22194406.5354
        51.000          45.000
 116949582.15747  91129526.19247  22254778.5304   22254783.1374   22254778.9264
        50.000          43.000
 128286574.42147  99963541.18047  24412143.9594   24412146.8584   24412144.0894
        43.000          38.000
 125042188.34847  97435466.87047  23794740.1574   23794741.3154   23794740.0724
        45.000          39.000
 123773193.76547  96446625.88147  23553269.9964   23553274.8954   23553270.3104
        45.000          39.000
 121654888.17347  94796015.03947  23150156.8514   23150158.8724   23150157.2394
        47.000          40.000
 09  1 23  0 10 30.0000000  0 12G 6G30G 9G14G29G21G31G24G12G22G 5G18
 126859433.46447  98851480.17747  24140567.8024   24140571.9974   24140567.9014
        42.000          37.000
 120837334.58047  94158945.01747  22994593.7854   22994597.4344   22994593.3724
        49.000          42.000
 122765791.48047  95661645.95047  23361560.0854   23361563.0494   23361560.3724
        45.000          39.000
 116689019.22747  90926502.79947  22205186.9764   22205189.4474   22205187.0564
        50.000          44.000
 122953210.62447  95807681.89347  23397227.7614   23397231.0334   23397227.4794
        46.000          41.000
 104858044.20547  81707557.93047  19953828.2444   19953829.9384   19953828.6284
        54.000          49.000
 116541966.53247  90811912.62647  22177205.9774   22177208.2334   22177205.6154
        51.000          45.000
 117014936.20147  91180451.40847  22267214.9904   22267219.6744   22267215.2934
        50.000          43.000
 128292055.39647  99967812.13447  24413186.3824   24413190.0204   24413186.2564
        42.000          38.000
 125004977.83147  97406471.66847  23787659.6944   23787660.2784   23787659.3544
        46.000          39.000
 123764456.62847  96439817.75547  23551607.3014   23551611.9684   23551607.6254
        45.000          39.000
 121620463.35047  94769190.50047  23143605.8374   23143607.8314   23143606.1054
        47.000          40.000
 09  1 23  0 11  0.0000000  0 12G 6G30G 9G14G29G21G31G24G12G22G 5G18
 126829171.35547  98827899.31247  24134809.5854   24134813.9144   24134809.3814
        42.000          37.000
 120809905.69147  94137571.87147  22989374.0544   22989378.3494   22989373.6994
        48.000          42.000
 122860395.94147  95735363.70847  23379562.7934   23379566.0234   23379562.5944
        45.000          39.000
 116720670.33947  90951166.00547  22211209.8514   22211212.4394   22211210.0544
        50.000          44.000
 123025606.10647  95864093.92547  23411004.1124   23411007.4874   23411003.9864
        47.000          41.000
 104851692.90147  81702608.84847  19952619.6314   19952621.2824   19952620.0054
        54.000          49.000
 116451859.14347  90741699.11147  22160059.1794   22160061.2004   22160058.5614
        50.000          45.000
 117080688.48847  91231686.94047  22279727.3604   22279732.1364   22279727.3224
        49.000          43.000
 128297673.57047  99972190.00047  24414255.5624   24414259.0114   24414255.7774
        44.000          38.000
 124967553.02047  97377309.49047  23780537.9564   23780538.4694   23780538.2234
        46.000          39.000
 123755871.79147  96433128.28947  23549973.5934   23549978.3774   23549974.0734
        46.000          39.000
 121585926.74247  94742278.86647  23137033.5944   23137035.8524   23137034.0994
        47.000          40.000
 09  1 23  0 11 30.0000000  0 12G 6G30G 9G14G29G21G31G24G12G22G 5G18
 126799189.49447  98804536.83647  24129103.9214   24129108.1784   24129103.6794
        42.000          37.000
 120782477.03947  94116198.91847  22984154.4544   22984158.7834   22984154.2574
        48.000          42.000
 122955304.23947  95809318.21047  23397622.9204   23397626.7894   23397623.0724
        44.000          39.000
 116752544.93147  90976003.35747  22217275.4834   22217277.8724   22217275.4734
        50.000          44.000
 123097889.66747  95920418.74347  23424759.1444   23424762.4844   23424758.9434
        46.000          41.000
 104845949.10647  81698133.15347  19951526.6094   19951528.2234   19951526.9924
        54.000          49.000
 116362034.83547  90671706.18047  22142966.2474   22142968.3324   22142965.9444
        51.000          45.000
 117146835.71447  91283230.21147  22292314.6754   22292319.2924   22292314.7554
        49.000          43.000
 128303428.91947  99976674.74647  24415350.5364   24415353.9714   24415350.5614
        43.000          39.000
 124929912.75447  97347979.42147  23773375.0634   23773375.9734   23773375.3134
        45.000          39.000
 123747439.55647  96426557.72847  23548369.0634   23548373.8554   23548369.5444
        45.000          39.000
 121551278.32347  94715280.08247  23130440.1004   23130442.8394   23130440.6194
        47.000          41.000
 09  1 23  0 12  0.0000000  0 12G 6G30G 9G14G29G21G31G24G12G22G 5G18
 126769489.64147  98781394.07947  24123452.4264   24123456.6604   24123452.3204
        43.000          37.000
 120755053.17347  94094829.68847  22978936.2884   22978940.0094   22978936.1494
        49.000          42.000
 123050516.06047  95883509.24047  23415741.1404   23415744.5174   23415741.3234
        44.000          39.000
 116784642.80647  91001014.69847  22223383.6804   22223386.0334   22223384.0934
        50.000          44.000
 123170062.28547  95976657.10247  23438492.8844   23438496.7044   23438492.7834
        46.000          41.000
 104840816.35647  81694133.59647  19950549.7734   19950551.7334   19950550.1954
        54.000          49.000
 116272498.96947  90601938.00547  22125928.0894   22125930.2274   22125927.7104
        51.000          45.000
 117213378.78747  91335081.94247  22304977.2104   22304982.0864   22304977.3564
        49.000          43.000
 128309326.09647  99981269.98847  24416473.0754   24416476.2714   24416473.0024
        43.000          38.000
 124892060.22347  97318483.94447  23766171.9444   23766172.8874   23766171.8164
        45.000          39.000
 123739164.51647  96420109.66247  23546794.8224   23546798.2174   23546795.3874
        46.000          39.000
 121516522.22047  94688197.39847  23123826.8264   23123828.5594   23123827.1664
        47.000          41.000
 09  1 23  0 12 30.0000000  0 12G 6G30G 9G14G29G21G31G24G12G22G 5G18
 126740068.40147  98758468.45047  24117853.0884   24117858.1394   24117853.1624
        42.000          37.000
 120727633.81147  94073463.96347  22973718.2944   22973721.7844   22973718.0954
        49.000          42.000
 123146026.46947  95957932.93947  23433916.1534   23433919.3944   23433916.3834
        44.000          38.000
 116816959.24347  91026196.33047  22229532.9124   22229535.7544   22229533.3294
        50.000          44.000
 123242119.80347  96032805.79847  23452204.7954   23452208.9364   23452204.5724
        46.000          41.000
 104836292.83747  81690608.76447  19949688.8064   19949691.0224   19949689.1384
        54.000          49.000
 116183252.05647  90532394.99147  22108945.1914   22108946.9044   22108944.7174
        51.000          45.000
 117280313.62247  91387238.93047  22317714.5104   22317719.3054   22317714.2654
        49.000          43.000
 128315364.43447  99985975.22547  24417622.2354   24417625.5024   24417622.0354
        44.000          39.000
 124853993.47947  97288821.55447  23758928.3084   23758928.6874   23758928.2244
        45.000          39.000
 123731046.57047  96413784.00447  23545249.3454   23545254.0064   23545249.9064
        45.000          39.000
 121481657.75447  94661030.28447  23117192.1484   23117194.2874   23117192.5764
        48.000          41.000
 09  1 23  0 13  0.0000000  0 12G 6G30G 9G14G29G21G31G24G12G22G 5G18
 126710927.14747  98735760.96347  24112308.6674   24112312.5224   24112308.8884
        43.000          37.000
 120700222.97247  94052104.89547  22968502.4084   22968505.8314   22968502.1894
        49.000          42.000
 123241834.94847  96032588.88147  23452147.5064   23452151.8154   23452147.6754
        44.000          38.000
 116849493.76047  91051547.91347  22235724.4634   22235726.7404   22235724.7294
        50.000          44.000
 123314062.47847  96088865.00447  23465895.2414   23465899.1004   23465894.9474
        46.000          41.000
 104832381.14447  81687560.68047  19948944.5634   19948946.6734   19948945.0214
        54.000          49.000
 116094299.05447  90463080.99047  22092017.9964   22092019.7084   22092017.6384
        51.000          45.000
 117347640.45447  91439701.37047  22330526.8714   22330531.3114   22330526.8314
        50.000          43.000
 128321548.23747  99990793.83447  24418799.6274   24418802.1004   24418799.3534
        44.000          39.000
 124815715.16347  97258994.31847  23751643.9774   23751644.8284   23751644.2304
        45.000          39.000
 123723089.83547  96407583.96847  23543735.3094   23543740.3264   23543735.5744
        45.000          39.000
 121446688.74347  94633781.68647  23110538.0554   23110539.9194   23110538.6214
        48.000          41.000
 09  1 23  0 13 30.0000000  0 12G 6G30G 9G14G29G21G31G24G12G22G 5G18
 126682062.53947  98713269.05947  24106815.1324   24106819.9974   24106814.7734
        43.000          37.000
 120672820.71947  94030752.49947  22963287.8774   22963291.2844   22963287.8964
        49.000          42.000
 123337936.12747  96107472.92647  23470435.2304   23470438.4924   23470435.1454
        45.000          39.000
 116882241.28447  91077065.47647  22241955.6314   22241958.4804   22241956.0634
        50.000          44.000
 123385886.36047  96144831.63847  23479562.8404   23479566.7844   23479562.2704
        45.000          41.000
 104829079.79447  81684988.18947  19948316.3354   19948318.5464   19948316.6624
        54.000          50.000
 116005640.48047  90393996.42147  22075146.8234   22075148.5774   22075146.6314
        51.000          45.000
 117415355.25247  91492466.13447  22343412.2934   22343417.5314   22343412.2724
        50.000          43.000
 128327876.30847  99995724.84447  24420002.8524   24420006.6334   24420002.9684
        44.000          39.000
 124777223.72047  97229000.97747  23744319.3114   23744320.3134   23744319.4664
        45.000          39.000
 123715294.11247  96401509.39447  23542251.5544   23542256.9774   23542252.2474
        45.000          39.000
 121411614.32147  94606450.94947  23103863.6764   23103865.6444   23103863.9224
        48.000          41.000
 09  1 23  0 14  0.0000000  0 12G 6G30G 9G14G29G21G31G24G12G22G 5G18
 126653474.33247  98690992.52447  24101375.1924   24101379.8184   24101375.6384
        44.000          38.000
 120645429.67247  94009408.83647  22958075.6174   22958078.9004   22958075.2804
        49.000          42.000
 123434328.05547  96182583.53447  23488777.8594   23488781.0834   23488777.9004
        45.000          39.000
 116915199.70847  91102747.36847  22248227.6064   22248230.1834   22248227.8374
        50.000          44.000
 123457590.30347  96200704.80647  23493207.7164   23493212.3544   23493207.2634
        46.000          41.000
 104826389.76047  81682892.04847  19947804.5284   19947806.5894   19947804.9754
        54.000          49.000
 115917280.02147  90325144.14447  22058332.3074   22058334.0854   22058331.7354
        51.000          45.000
 117483456.76947  91545532.22647  22356371.8174   22356376.4594   22356372.2074
        49.000          43.000
 128334351.32347 100000770.34147  24421234.8704   24421238.3714   24421234.8494
        43.000          38.000
 124738520.26247  97198842.43347  23736954.5254   23736955.6264   23736954.3034
        46.000          40.000
 123707661.91947  96395562.23047  23540799.8484   23540804.1934   23540800.4034
        45.000          39.000
 121376436.89747  94579039.96047  23097169.4474   23097171.6034   23097170.0004
        48.000          41.000
 09  1 23  0 14 30.0000000  0 12G 6G30G 9G14G29G21G31G24G12G22G 5G18
 126625161.80247  98668930.79647  24095987.7414   24095992.1424   24095987.7624
        43.000          38.000
 120618052.08847  93988075.64847  22952865.8704   22952869.2824   22952865.3434
        48.000          42.000
 123531008.06647  96257918.61947  23507176.1914   23507179.1794   23507175.9414
        46.000          39.000
 116948366.84447  91128591.89947  22254539.2224   22254541.5894   22254539.4704
        50.000          44.000
 123529172.66847  96256483.24647  23506829.6744   23506833.6764   23506829.3714
        46.000          41.000
 104824312.12047  81681273.10047  19947409.1084   19947411.1584   19947409.5164
        54.000          49.000
 115829220.72147  90256526.53447  22041575.1314   22041576.9744   22041574.6454
        51.000          46.000
 117551943.55547  91598898.52447  22369404.4744   22369408.9764   22369404.4144
        49.000          43.000
 128340975.40647 100005931.98747  24422495.4484   24422498.5454   24422495.0924
        44.000          39.000
 124699605.62647  97168519.35447  23729549.5994   23729550.1904   23729549.6914
        46.000          40.000
 123700195.75547  96389744.43847  23539378.6694   23539383.2584   23539378.9704
        45.000          39.000
 121341158.32947  94551550.14547  23090456.4704   23090457.6484   23090456.9414
        48.000          41.000
 09  1 23  0 15  0.0000000  0 12G 6G30G 9G14G29G21G31G24G12G22G 5G18
 126597125.17447  98647084.06447  24090652.8014   24090656.8464   24090652.7424
        43.000          38.000
 120590691.07647  93966755.39047  22947658.9834   22947662.6064   22947658.6424
        49.000          42.000
 123627974.69647  96333477.04647  23525628.0554   23525631.5224   23525628.2014
        45.000          39.000
 116981741.15247  91154597.86647  22260889.6904   22260892.2604   22260889.7394
        50.000          44.000
 123600633.18447  96312166.72447  23520428.2284   23520432.3784   23520428.3394
        46.000          41.000
 104822848.49047  81680132.60047  19947130.5774   19947132.5104   19947130.9914
        54.000          49.000
 115741466.54247  90188146.68547  22024875.8644   22024878.0094   22024875.4684
        52.000          46.000
 117620815.01047  91652564.57547  22382510.2084   22382514.7094   22382510.5444
        49.000          43.000
 128347751.57447 100011212.15547  24423785.1554   24423788.2424   24423784.9734
        44.000          39.000
 124660481.67247  97138033.16647  23722104.4444   23722105.1624   23722104.5374
        46.000          40.000
 123692898.83947  96384058.53047  23537989.9814   23537994.8374   23537990.7154
        45.000          39.000
 121305781.62347  94523983.87047  23083723.9374   23083726.1424   23083724.4544
        48.000          41.000
 09  1 23  0 15 30.0000000  0 12G 6G30G 9G14G29G21G31G24G12G22G 5G18
 126569362.49747  98625450.79247  24085369.1264   24085374.1134   24085368.8274
        42.000          38.000
 120563348.51547  93945449.49047  22942455.7904   22942459.3844   22942455.3694
        49.000          42.000
 123725224.18147  96409255.88647  23544133.8984   23544137.1054   23544134.4364
        45.000          38.000
 117015319.02747  91180762.45147  22267279.4814   22267282.0054   22267279.9104
        50.000          44.000
 123671968.98647  96367753.03147  23534002.6344   23534007.0654   23534002.8274
        45.000          41.000
 104821998.68047  81679470.40147  19946968.9224   19946970.7964   19946969.2704
        54.000          49.000
 115654019.50247  90120006.16347  22008235.1824   22008237.7204   22008234.5094
        51.000          46.000
 117690068.21747  91706528.08847  22395688.7754   22395693.3684   22395689.0074
        49.000          43.000
 128354680.69147 100016611.49247  24425103.7944   24425106.2954   24425103.6434
        44.000          39.000
 124621148.19447  97107383.71247  23714618.9614   23714620.0264   23714619.1554
        46.000          40.000
 123685772.35747  96378505.41847  23536633.9654   23536638.6824   23536634.2814
        45.000          39.000
 121270307.60147  94496341.75947  23076973.6854   23076975.6364   23076973.9394
        47.000          41.000
 09  1 23  0 16  0.0000000  0 12G 6G30G 9G14G29G21G31G24G12G22G 5G18
 126541874.07847  98604031.23747  24080138.7754   24080143.1264   24080138.8434
        43.000          38.000
 120536027.35347  93924160.28247  22937256.9644   22937260.1424   22937256.9324
        49.000          42.000
 123822754.85847  96485253.82747  23562693.4124   23562697.4934   23562693.5774
        44.000          38.000
 117049099.21947  91207084.68047  22273707.6834   22273710.2734   22273707.9554
        50.000          44.000
 123743179.47147  96423241.68947  23547553.1804   23547558.1754   23547553.2174
        45.000          40.000
 104821763.88547  81679287.43447  19946924.2474   19946926.1854   19946924.6594
        54.000          49.000
 115566883.79347  90052108.22847  21991653.7524   21991656.3864   21991653.1134
        52.000          46.000
 117759702.63747  91760788.65447  22408939.4074   22408944.3924   22408939.4894
        49.000          43.000
 128361765.68847 100022132.30147  24426451.5884   24426454.2054   24426451.8554
        44.000          39.000
 124581606.83347  97076572.27247  23707094.9784   23707095.6564   23707095.1454
        47.000          40.000
 123678819.52047  96373087.65647  23535310.8194   23535316.0164   23535311.5704
        45.000          39.000
 121234738.79247  94468625.79047  23070205.0604   23070207.2664   23070205.6364
        48.000          41.000
 09  1 23  0 16 30.0000000  0 12G 6G30G 9G14G29G21G31G24G12G22G 5G18
 126514657.40947  98582823.43347  24074959.5624   24074963.5964   24074959.2674
        44.000          38.000
 120508728.43447  93902888.40547  22932061.9674   22932065.3244   22932061.7144
        49.000          42.000
 123920562.59447  96561467.64847  23581305.5024   23581308.7384   23581305.7374
        43.000          38.000
 117083077.29247  91233561.10747  22280173.4064   22280176.0844   22280173.6654
        50.000          44.000
 123814261.67147  96478630.39047  23561080.0874   23561084.6724   23561079.6364
        45.000          41.000
 104822142.98447  81679582.82247  19946996.3864   19946998.3544   19946996.8354
        54.000          49.000
 115480060.44847  89984453.70147  21975131.9704   21975134.1494   21975131.6114
        52.000          46.000
 117829714.64547  91815343.44247  22422262.1544   22422266.9144   22422262.5854
        49.000          43.000
 128369007.10147 100027774.99947  24427829.6954   24427832.6694   24427829.5964
        44.000          39.000
 124541856.71147  97045598.15447  23699530.9274   23699531.6174   23699531.0554
        47.000          40.000
 123672040.94347  96367805.65547  23534021.1274   23534025.6984   23534021.6134
        45.000          39.000
 121199075.74147  94440836.39347  23063418.7444   23063420.6974   23063419.2174
        47.000          41.000
 09  1 23  0 17  0.0000000  0 12G 6G30G 9G14G29G21G31G24G12G22G 5G18
 126487712.48647  98561827.37847  24069831.3814   24069836.1794   24069831.1804
        43.000          38.000
 120481454.53347  93881636.02647  22926872.0074   22926875.6644   22926871.7714
        49.000          42.000
 124018645.33247  96637895.76847  23599969.8904   23599973.2094   23599969.9044
        44.000          38.000
 117117251.76847  91260190.57147  22286676.5324   22286679.3524   22286676.8984
        50.000          44.000
 123885214.63947  96533918.38647  23574582.1054   23574586.7384   23574581.7744
        45.000          41.000
 104823137.50947  81680357.76747  19947185.6374   19947187.6814   19947185.9904
        54.000          49.000
 115393553.44547  89917045.67247  21958670.0814   21958672.3714   21958669.9184
        52.000          46.000
 117900103.40847  91870191.80847  22435656.7864   22435661.7754   22435657.1184
        49.000          43.000
 128376407.44447 100033541.52147  24429238.1684   24429241.2124   24429237.6284
        44.000          39.000
 124501899.52647  97014462.69547  23691926.7734   23691927.8404   23691926.7004
        46.000          40.000
 123665439.51147  96362661.68447  23532765.1544   23532769.4334   23532765.8674
        46.000          39.000
 121163321.15347  94412975.66147  23056614.5524   23056616.7564   23056614.8334
        47.000          41.000
 09  1 23  0 17 30.0000000  0 12G 6G30G 9G14G29G21G31G24G12G22G 5G18
 126461036.26147  98541040.67247  24064755.2704   24064759.6644   24064755.4654
        43.000          37.000
 120454206.14147  93860403.52247  22921686.8134   22921690.5034   22921686.3224
        49.000          42.000
 124116998.51947  96714534.62747  23618686.1024   23618689.1794   23618685.8404
        44.000          38.000
 117151618.03947  91286969.48547  22293216.6304   22293218.9884   22293216.8834
        50.000          44.000
 123956034.70247  96589102.82547  23588058.7204   23588063.4094   23588058.5254
        46.000          41.000
 104824745.96847  81681611.10047  19947491.8544   19947493.7454   19947492.3304
        54.000          49.000
 115307363.34447  89849884.58647  21942268.7554   21942270.6294   21942268.7524
        52.000          46.000
 117970865.36147  91925330.96847  22449122.6584   22449127.2004   22449122.8664
        49.000          43.000
 128383966.29347 100039431.55347  24430676.1694   24430679.5914   24430675.6824
        44.000          39.000
 124461734.25847  96983165.08647  23684283.5314   23684284.3264   23684283.6414
        47.000          40.000
 123659015.33547  96357655.84947  23531542.3164   23531547.0814   23531542.9984
        45.000          39.000
 121127474.94547  94385043.53447  23049793.2424   23049795.8834   23049793.7724
        47.000          41.000
 09  1 23  0 18  0.0000000  0 12G 6G30G 9G14G29G21G31G24G12G22G 5G18
 126434631.65847  98520465.65847  24059730.5324   24059734.9994   24059731.0784
        43.000          37.000
 120426989.33047  93839195.62747  22916507.8684   22916510.8584   22916507.4954
        49.000          42.000
 124215623.24847  96791385.08547  23637453.7134   23637456.5854   23637453.6474
        44.000          38.000
 117186177.43347  91313898.88747  22299792.9444   22299795.4544   22299793.3284
        50.000          44.000
 124026724.38747  96644185.66947  23601510.7264   23601515.2984   23601510.5374
        46.000          41.000
 104826972.72047  81683346.22747  19947915.5454   19947917.4434   19947915.8984
        54.000          49.000
 115221497.35547  89782976.04147  21925929.0394   21925930.9044   21925928.7314
        52.000          46.000
 118042002.60147  91980762.55447  22462659.7394   22462664.5144   22462659.7234
        49.000          43.000
 128391689.60947 100045449.75847  24432145.7144   24432148.9984   24432145.3304
        44.000          39.000
 124421365.40947  96951708.84447  23676601.9284   23676602.2144   23676602.3554
        47.000          40.000
 123652774.46847  96352792.84647  23530354.6884   23530359.0394   23530355.2904
        45.000          39.000
 121091542.45847  94357044.17847  23042955.4614   23042958.1714   23042955.9554
        47.000          41.000
 09  1 23  0 18 30.0000000  0 12G 6G30G 9G14G29G21G31G24G12G22G 5G18
 126408494.50147  98500099.00347  24054757.6704   24054761.2804   24054757.8634
        44.000          38.000
 120399803.29147  93818011.69347  22911334.1114   22911337.6804   22911333.8864
        49.000          42.000
 124314513.46247  96868442.41047  23656271.8254   23656275.1494   23656271.8274
        44.000          38.000
 117220924.13047  91340974.24747  22306404.6594   22306407.4414   22306404.8834
        50.000          44.000
 124097278.87447  96699163.16347  23614936.8974   23614940.9644   23614936.6794
        45.000          40.000
 104829814.61047  81685560.68147  19948456.1154   19948458.2144   19948456.5674
        54.000          49.000
 115135954.85847  89716319.57247  21909650.9064   21909652.6454   21909650.3154
        52.000          46.000
 118113509.97547  92036482.55947  22476266.8274   22476271.9014   22476266.7724
        48.000          42.000
 128399575.77647 100051594.83447  24433646.8194   24433649.7704   24433646.4674
        44.000          39.000
 124380790.34247  96920091.91347  23668880.5464   23668880.9444   23668880.7394
        47.000          40.000
 123646715.73147  96348071.76047  23529201.9094   23529206.4844   23529202.6384
        45.000          40.000
 121055522.31847  94328976.52547  23036101.3524   23036103.3674   23036101.6934
        48.000          41.000
 09  1 23  0 19  0.0000000  0 12G 6G30G 9G14G29G21G31G24G12G22G 5G18
 126382624.54447  98479940.59847  24049834.2694   24049838.9094   24049834.5484
        43.000          37.000
 120372650.61947  93796853.76647  22906167.5704   22906170.7754   22906167.3144
        49.000          42.000
 124413666.85947  96945704.81647  23675140.2064   23675142.7604   23675140.1114
        44.000          38.000
 117255856.14247  91368194.00247  22313052.1704   22313054.6644   22313052.3794
        50.000          44.000
 124167697.18047  96754034.53847  23628337.0104   23628340.5874   23628336.8554
        46.000          40.000
 104833272.92047  81688255.46147  19949114.3714   19949116.2924   19949114.7064
        54.000          49.000
 115050739.62447  89649918.11847  21893434.7664   21893436.6614   21893434.5164
        51.000          46.000
 118185386.22847  92092489.99347  22489944.3984   22489949.7774   22489944.6184
        49.000          42.000
 128407627.76147 100057869.13947  24435179.1364   24435181.5774   24435179.1274
        45.000          39.000
 124340010.72047  96888315.57647  23661120.4314   23661121.5714   23661120.3954
        46.000          40.000
 123640842.01747  96343494.86247  23528084.2244   23528088.4694   23528084.7774
        45.000          40.000
 121019417.30947  94300842.73447  23029230.9164   23029233.2494   23029231.4834
        48.000          41.000
 09  1 23  0 19 30.0000000  0 12G 6G30G 9G14G29G21G31G24G12G22G 5G18
 126357021.46647  98459990.11947  24044962.2964   24044966.2984   24044962.5744
        43.000          38.000
 120345534.30647  93775724.16947  22901007.0974   22901010.7064   22901006.5614
        49.000          42.000
 124513081.64347  97023170.91247  23694057.9354   23694061.1784   23694057.9344
        44.000          38.000
 117290971.67247  91395556.76047  22319734.5344   22319737.0254   22319734.8654
        49.000          44.000
 124237978.41747  96808799.10947  23641711.2454   23641714.9004   23641710.9094
        45.000          40.000
 104837348.62547  81691431.32547  19949890.0134   19949891.8404   19949890.4164
        54.000          49.000
 114965854.97447  89583774.25647  21877281.6874   21877283.7084   21877281.1074
        51.000          46.000
 118257630.00547  92148783.81947  22503691.7654   22503697.0824   22503691.7184
        48.000          42.000
 128415847.63047 100064274.24947  24436742.9064   24436746.4114   24436742.4774
        44.000          39.000
 124299027.71647  96856380.77247  23653321.7734   23653322.4964   23653321.9644
        46.000          40.000
 123635155.98547  96339064.20647  23527002.0814   23527006.7194   23527002.3664
        46.000          40.000
 120983229.93747  94272644.78047  23022344.4194   23022346.4674   23022344.8304
        48.000          41.000
 09  1 23  0 20  0.0000000  0 12G 6G30G 9G14G29G21G31G24G12G22G 5G18
 126331683.30147  98440246.08647  24040140.7394   24040145.4704   24040140.6124
        43.000          37.000
 120318455.93147  93754624.14547  22895854.5114   22895858.0064   22895854.1514
        49.000          42.000
 124612754.00047  97100837.69547  23713024.9884   23713028.0014   23713024.6444
        44.000          38.000
 117326267.26147  91423059.81647  22326451.0124   22326453.8144   22326451.2954
        49.000          44.000
 124308120.23047  96863455.03047  23655058.5094   23655062.4274   23655058.1224
        44.000          40.000
 104842040.96747  81695087.68747  19950783.0934   19950784.7164   19950783.4314
        54.000          49.000
 114881302.96547  89517889.59347  21861192.0744   21861193.9864   21861191.5924
        52.000          46.000
 118330238.57547  92205361.88747  22517508.8724   22517514.1554   22517508.9024
        48.000          42.000
 128424236.40747 100070810.97747  24438339.2754   24438342.3154   24438339.2664
        45.000          39.000
 124257841.87447  96824287.91847  23645484.7674   23645484.6434   23645484.5714
        46.000          39.000
 123629658.91747  96334780.78847  23525955.9744   23525960.4414   23525956.4354
        45.000          40.000
 120946961.47047  94244383.62147  23015443.2494   23015445.1904   23015443.6364
        47.000          41.000
 09  1 23  0 20 30.0000000  0 12G 6G30G 9G14G29G21G31G24G12G22G 5G18
 126306610.31547  98420708.68447  24035369.5384   24035373.6454   24035369.4664
        43.000          37.000
 120291418.73147  93733556.19347  22890709.5294   22890713.1054   22890709.0904
        49.000          42.000
 124712682.43047  97178704.02347  23732040.5364   23732043.3934   23732040.7064
        44.000          38.000
