     2.11           OBSERVATION DATA    G (GPS)             RINEX VERSION / TYPE
teqc  2013Mar15     gpsops              20140504 00:27:07UTCPGM / RUN BY / DATE
Linux 2.4.21-27.ELsmp|Opteron|gcc -static|Linux x86_64|=+   COMMENT
BIT 2 OF LLI FLAGS DATA COLLECTED UNDER A/S CONDITION       COMMENT
GLPS                                                        MARKER NAME
42005M002                                                   MARKER NUMBER
GGN                 JPL                                     OBSERVER / AGENCY
ZR220013847         ASHTECH UZ-12       CQ00                REC # / TYPE / VERS
CR519992104         ASH701945B_M    SCIT                    ANT # / TYPE
   -33801.4662 -6377516.5323   -82154.3508                  APPROX POSITION XYZ
        0.0083        0.0000        0.0000                  ANTENNA: DELTA H/E/N
     1     1                                                WAVELENGTH FACT L1/2
     7    L1    L2    P1    P2    C1    S1    S2            # / TYPES OF OBSERV
    30.0000                                                 INTERVAL
                                                            COMMENT
This data is provided as a public service by NASA/JPL.      COMMENT
No warranty is expressed or implied regarding suitability   COMMENT
for use.  For further information, contact:                 COMMENT
Dave Stowers, NASA/JPL m/s 238-600                          COMMENT
4800 Oak Grove Drive, Pasadena CA 91109 USA                 COMMENT
                                                            COMMENT
Forced Modulo Decimation to 30 seconds                      COMMENT
 SNR is mapped to RINEX snr flag value [0-9]                COMMENT
  L1 & L2: min(max(int(snr_dBHz/6), 0), 9)                  COMMENT
pseudorange smoothing corrections not applied               COMMENT
  2014     5     3     0     0    0.0000000     GPS         TIME OF FIRST OBS
                                                            END OF HEADER
 14  5  3  0  0  0.0000000  0 12G10G23G04G01G28G08G13G09G17G07G20G11
  -3745778.24846  -2916069.35546  24917095.5074   24917109.9864   24917095.880
        41.0004         37.0004
   4665168.29046   3652223.89646  24733742.4434   24733748.8084   24733743.829
        41.0004         36.0004
 -13404826.18147 -10391352.44546  23066801.9184   23066811.8334   23066801.793
        46.0004         41.0004
 -13188537.45248 -10256585.59147  22102264.1594   22102275.5574   22102263.715
        49.0004         44.0004
  -1725935.54046  -1312112.75246  24353934.7804   24353943.9414   24353934.156
        41.0004         36.0004
 -19273321.45248 -14970566.04347  21047776.7424   21047784.9274   21047777.433
        52.0004         47.0004
   5719099.92947   4452536.31547  22497607.3984   22497615.5674   22497607.605
        47.0004         42.0004
 -15658574.15648 -12188008.21547  21063124.3984   21063132.9764   21063124.190
        51.0004         46.0004
 -17892209.17848 -13899199.65347  21919517.7194   21919525.7714   21919517.020
        51.0004         47.0004
 -26564155.81549 -20677916.33248  20168426.3264   20168432.0984   20168425.767
        54.0004         49.0004
  -3149967.07247  -2207554.65946  23663973.7364   23663981.5104   23663974.113
        44.0004         39.0004
  -9981980.62347  -7753010.38846  23548998.3064   23549007.9044   23548998.289
        43.0004         38.0004
 14  5  3  0  0 30.0000000  0 12G10G23G04G01G28G08G13G09G17G07G20G11
  -3776530.67446  -2940032.11446  24911243.0984   24911254.6594   24911243.131
        41.0004         36.0004
   4751620.01646   3719589.02746  24750193.9614   24750201.4834   24750193.984
        41.0004         36.0004
 -13503749.86347 -10468435.69446  23047978.5124   23047986.4114   23047977.962
        46.0004         41.0004
 -13122438.44148 -10205079.89447  22114841.6694   22114854.0054   22114841.619
        49.0004         44.0004
  -1747591.19246  -1328987.08046  24349814.2634   24349824.2544   24349813.731
        41.0004         36.0004
 -19351329.12448 -15031351.12747  21032933.1664   21032940.3684   21032933.241
        52.0004         47.0004
   5801120.48247   4516448.48047  22513215.7064   22513222.1684   22513215.482
        46.0004         42.0004
 -15733412.29748 -12246323.50147  21048882.8764   21048891.4544   21048882.686
        51.0004         46.0004
 -17870932.95448 -13882620.75847  21923566.1594   21923574.1234   21923565.815
        51.0004         46.0004
 -26581157.84849 -20691164.60848  20165190.7874   20165196.6434   20165190.659
        54.0004         49.0004
  -3154998.67747  -2211475.31246  23663015.0354   23663024.1734   23663015.974
        43.0004         39.0004
  -9883651.88447  -7676390.55346  23567709.6104   23567718.3054   23567709.777
        43.0004         39.0004
 14  5  3  0  1  0.0000000  0 12G10G23G04G01G28G08G13G09G17G07G20G11
  -3807527.45546  -2964185.29346  24905344.8794   24905358.9244   24905344.948
        41.0004         36.0004
   4837881.78846   3786806.12946  24766609.6824   24766615.6064   24766609.310
        40.0004         36.0004
 -13602560.36847 -10545430.74146  23029174.6094   23029183.8784   23029174.638
        46.0004         41.0004
 -13055907.10148 -10153237.30647  22127503.6174   22127513.7904   22127503.004
        49.0004         44.0004
  -1769532.88146  -1346084.30546  24345636.9834   24345647.0174   24345638.209
        41.0004         37.0004
 -19428987.54548 -15091864.06747  21018154.7934   21018162.9834   21018155.138
        52.0004         47.0004
   5883174.45147   4580386.67446  22528829.1384   22528836.9414   22528829.575
        46.0004         41.0004
 -15807870.57248 -12304342.80047  21034713.6674   21034722.1694   21034713.952
        51.0004         46.0004
 -17849339.45548 -13865794.63447  21927674.8234   21927682.7864   21927674.990
        51.0004         46.0004
 -26597594.27449 -20703972.15048  20162062.9464   20162068.8074   20162062.803
        54.0004         49.0004
  -3159981.30847  -2215357.82146  23662066.8914   23662075.0404   23662068.065
        43.0004         38.0004
  -9785131.03547  -7599621.03746  23586459.1934   23586468.2784   23586457.765
        43.0004         39.0004
 14  5  3  0  1 30.0000000  0 12G10G23G04G01G28G08G13G09G17G07G20G11
  -3838767.74746  -2988528.21646  24899399.4184   24899410.7224   24899400.216
        41.0004         36.0004
   4923953.20046   3853874.89846  24782988.0524   24782992.9144   24782988.109
        40.0004         36.0004
 -13701254.28047 -10622334.94546  23010393.5094   23010402.7524   23010393.523
        46.0004         41.0004
 -12988943.92948 -10101058.23547  22140245.0844   22140255.7754   22140245.367
        49.0004         44.0004
  -1791759.34846  -1363403.45046  24341407.9014   24341418.8664   24341408.070
        41.0004         37.0004
 -19506292.36348 -15152101.47047  21003443.9134   21003452.5814   21003444.319
        52.0004         47.0004
   5965260.45247   4644349.82847  22544450.2614   22544455.9554   22544450.394
        46.0004         42.0004
 -15881945.00048 -12362062.99447  21020617.5134   21020626.6454   21020617.838
        51.0004         46.0004
 -17827429.65148 -13848722.03547  21931844.3474   21931852.3024   21931843.765
        51.0004         46.0004
 -26613462.05349 -20716336.59648  20159043.0824   20159049.3834   20159042.939
        54.0004         49.0004
  -3164911.84947  -2219199.73746  23661129.0304   23661137.5664   23661129.108
        43.0004         39.0004
  -9686419.57147  -7522702.98046  23605242.0214   23605251.6224   23605241.850
        43.0004         38.0004
 14  5  3  0  2  0.0000000  0 12G10G23G04G01G28G08G13G09G17G07G20G11
  -3870253.55346  -3013062.45646  24893407.8684   24893420.3434   24893408.774
        41.0004         36.0004
   5009831.43846   3920793.14346  24799328.9044   24799335.3744   24799330.773
        41.0004         36.0004
 -13799830.01747 -10699147.05946  22991636.3444   22991643.5454   22991635.192
        46.0004         41.0004
 -12921551.95148 -10048545.03647  22153070.1434   22153080.2674   22153069.508
        49.0004         44.0004
  -1814271.85746  -1380945.48546  24337124.2834   24337135.2134   24337123.990
        41.0004         37.0004
 -19583241.33648 -15212061.59047  20988801.1384   20988808.7614   20988801.608
        52.0004         47.0004
   6047374.82347   4708335.09646  22560076.9844   22560083.4664   22560076.300
        46.0004         41.0004
 -15955633.83648 -12419482.72047  21006595.3324   21006603.6574   21006594.856
        51.0004         47.0004
 -17805207.13948 -13831405.76547  21936073.3594   21936081.2654   21936072.763
        51.0004         46.0004
 -26628761.32149 -20728258.04048  20156132.4284   20156137.8164   20156131.661
        54.0004         49.0004
  -3169789.76347  -2223000.65146  23660201.6104   23660208.8504   23660201.593
        43.0004         39.0004
  -9587521.52647  -7445639.53446  23624061.9784   23624071.3164   23624061.418
        43.0004         38.0004
 14  5  3  0  2 30.0000000  0 12G10G23G04G01G28G08G13G09G17G07G20G11
  -3901983.39546  -3037786.84046  24887370.1144   24887382.3624   24887371.092
        41.0004         37.0004
   5095516.34146   3987560.74746  24815635.9354   24815642.0574   24815635.507
        40.0004         36.0004
 -13898283.37247 -10775863.80846  22972900.4834   22972907.9984   22972899.767
        46.0004         41.0004
 -12853731.36348  -9995697.83847  22165976.2784   22165987.8544   22165975.390
        49.0004         44.0004
  -1837068.86446  -1398709.19946  24332785.3514   24332796.2074   24332786.093
        41.0004         37.0004
 -19659829.62848 -15271740.65547  20974226.4794   20974234.5534   20974226.967
        52.0004         47.0004
   6129516.13147   4772341.35147  22575706.8074   22575713.8574   22575707.187
        46.0004         42.0004
 -16028932.67248 -12476598.55347  20992647.1314   20992654.9744   20992646.983
        51.0004         47.0004
 -17782672.49648 -13813846.29147  21940361.0794   21940369.3514   21940360.876
        51.0004         46.0004
 -26643489.32649 -20739734.33948  20153329.2784   20153334.8464   20153328.902
        54.0004         49.0004
  -3174611.77147  -2226758.00346  23659282.2684   23659292.4774   23659283.460
        43.0004         39.0004
  -9488438.05147  -7368431.60346  23642916.6724   23642925.3914   23642916.530
        43.0004         38.0004
 14  5  3  0  3  0.0000000  0 12G10G23G04G01G28G08G13G09G17G07G20G11
  -3933958.75246  -3062702.51446  24881284.3204   24881298.3334   24881285.823
        41.0004         37.0004
   5181005.56446   4054175.86745  24831903.1444   24831909.5294   24831903.236
        40.0004         35.0004
 -13996612.64147 -10852483.86346  22954188.3794   22954198.5454   22954188.804
        46.0004         41.0004
 -12785484.95448  -9942518.84247  22178963.2154   22178973.6394   22178962.345
        49.0004         44.0004
  -1860151.45646  -1416695.42146  24328392.3504   24328402.8594   24328393.133
        41.0004         37.0004
 -19736055.10848 -15331137.01547  20959721.1954   20959729.5624   20959721.496
        52.0004         47.0004
   6211680.62247   4836365.67646  22591344.1544   22591349.0464   22591341.856
        46.0004         41.0004
 -16101839.60448 -12533409.01647  20978772.7904   20978781.0374   20978773.226
        51.0004         47.0004
 -17759829.26748 -13796046.35847  21944708.4454   21944716.1154   21944708.316
        51.0004         46.0004
 -26657645.61749 -20750765.15348  20150635.4714   20150641.5694   20150635.136
        54.0004         49.0004
  -3179377.63847  -2230471.59546  23658375.9794   23658384.8864   23658376.575
        43.0004         39.0004
  -9389172.58147  -7291081.84546  23661806.6864   23661815.6524   23661805.518
        43.0004         38.0004
 14  5  3  0  3 30.0000000  0 12G10G23G04G01G28G08G13G09G17G07G20G11
  -3966178.62946  -3087808.75546  24875153.1144   24875167.4134   24875154.994
        41.0004         37.0004
   5266298.81046   4120638.25945  24848133.4814   24848137.7294   24848133.440
        40.0004         35.0004
 -14094814.05947 -10929004.29846  22935502.8754   22935511.1654   22935500.991
        46.0004         41.0004
 -12716813.47248  -9889008.61647  22192031.2844   22192042.0234   22192030.131
        49.0004         44.0004
  -1883517.97647  -1434902.90646  24323944.5264   24323956.5264   24323946.112
        42.0004         37.0004
 -19811913.54048 -15390247.36347  20945286.0284   20945294.1194   20945286.398
        52.0004         47.0004
   6293866.71147   4900406.83246  22606980.1294   22606989.0574   22606981.506
        46.0004         41.0004
 -16174350.92348 -12589911.21547  20964974.7474   20964982.8654   20964974.535
        52.0004         47.0004
 -17736679.01848 -13778007.19247  21949113.5814   21949121.7954   21949113.079
        51.0004         46.0004
 -26671228.09549 -20761348.83648  20148050.7664   20148056.4854   20148050.353
        54.0004         49.0004
  -3184083.30647  -2234138.28346  23657481.5884   23657488.6364   23657481.553
        43.0004         39.0004
  -9289726.88347  -7213591.64146  23680728.9624   23680740.9294   23680729.442
        42.0004         38.0004
 14  5  3  0  4  0.0000000  0 12G10G23G04G01G28G08G13G09G17G07G20G11
  -3998644.37146  -3113106.55646  24868976.5834   24868987.6024   24868976.027
        41.0004         36.0004
   5351393.93046   4186946.28745  24864325.9294   24864330.2474   24864326.182
        40.0004         35.0004
 -14192885.95847 -11005423.80646  22916838.7574   22916847.7444   22916838.634
        46.0004         41.0004
 -12647719.39248  -9835169.09247  22205178.4454   22205189.7364   22205178.529
        49.0004         44.0004
  -1907169.32147  -1453332.34646  24319445.7004   24319456.1434   24319445.647
        42.0004         37.0004
 -19887401.89048 -15449069.34247  20930921.1404   20930928.9944   20930921.169
        52.0004         47.0004
   6376071.17347   4964462.30546  22622624.7244   22622631.0754   22622625.133
        46.0004         41.0004
 -16246464.30748 -12646103.32047  20951251.9414   20951259.6774   20951251.762
        52.0004         47.0004
 -17713224.54348 -13759730.96447  21953576.5174   21953584.9284   21953576.684
        51.0004         46.0004
 -26684236.26049 -20771485.00548  20145575.3874   20145580.8084   20145574.885
        54.0004         49.0004
  -3188727.79447  -2237757.28646  23656597.0674   23656605.6774   23656597.074
        43.0004         39.0004
  -9190104.19347  -7135963.54846  23699687.8564   23699696.3644   23699687.503
        42.0004         38.0004
 14  5  3  0  4 30.0000000  0 12G10G23G04G01G28G08G13G09G17G07G20G11
  -4031356.42346  -3138596.28346  24862751.4674   24862762.7744   24862750.862
        41.0004         36.0004
   5436289.22946   4253098.57645  24880481.4714   24880489.1854   24880481.154
        40.0004         35.0004
 -14290825.48947 -11081740.16346  22898201.7864   22898208.7194   22898201.357
        46.0004         41.0004
 -12578204.58648  -9781001.73747  22218407.3714   22218418.3744   22218406.735
        49.0004         44.0004
  -1931105.16047  -1471983.47246  24314889.5004   24314901.8304   24314891.147
        42.0004         37.0004
 -19962517.01348 -15507600.49448  20916627.0914   20916634.7444   20916627.172
        52.0004         48.0004
   6458290.92947   5028529.70346  22638271.7484   22638278.8204   22638270.766
        46.0004         41.0004
 -16318176.89148 -12701983.12647  20937605.5364   20937613.3034   20937605.311
        52.0004         47.0004
 -17689467.94048 -13741219.31447  21958097.5514   21958105.5704   21958097.297
        51.0004         46.0004
 -26696668.73649 -20781172.58548  20143209.6654   20143215.0124   20143209.172
        54.0004         50.0004
  -3193309.44847  -2241327.35746  23655725.8224   23655732.9874   23655725.403
        43.0004         39.0004
  -9090307.24847  -7058199.64646  23718678.9214   23718687.2644   23718678.125
        43.0004         38.0004
 14  5  3  0  5  0.0000000  0 12G10G23G04G01G28G08G13G09G17G07G20G11
  -4064315.72846  -3164278.69346  24856479.8164   24856491.4894   24856479.039
        41.0004         37.0004
   5520983.14146   4319093.96945  24896600.3414   24896603.3844   24896598.020
        39.0004         35.0004
 -14388630.46047 -11157951.68647  22879590.2594   22879598.2814   22879589.715
        46.0004         42.0004
 -12508271.38848  -9726508.36047  22231714.9974   22231726.1594   22231714.318
        48.0004         44.0004
  -1955326.15947  -1490856.79546  24310281.8364   24310291.8684   24310281.527
        42.0004         37.0004
 -20037256.02348 -15565838.57448  20902404.1984   20902413.1234   20902404.855
        52.0004         48.0004
   6540523.03847   5092606.71946  22653919.8474   22653925.5524   22653918.873
        46.0004         41.0004
 -16389486.34248 -12757548.80747  20924035.0714   20924042.7654   20924035.063
        52.0004         47.0004
 -17665412.32848 -13722474.67047  21962675.2494   21962683.2904   21962675.161
        51.0004         46.0004
 -26708525.02449 -20790411.19048  20140952.9314   20140958.6374   20140952.669
        54.0004         49.0004
  -3197827.13347  -2244847.56346  23654865.3464   23654874.0294   23654865.501
        43.0004         39.0004
  -8990339.01047  -6980302.27646  23737701.1624   23737710.6394   23737701.678
        43.0004         38.0004
 14  5  3  0  5 30.0000000  0 12G10G23G04G01G28G08G13G09G17G07G20G11
  -4097519.57646  -3190151.62946  24850160.3804   24850170.2784   24850159.631
        41.0004         37.0004
   5605476.87846   4384933.35545  24912677.6444   24912684.1844   24912676.677
        39.0004         35.0004
 -14486295.37747 -11234054.06046  22861004.0134   22861013.9684   22861004.793
        46.0004         41.0004
 -12437918.76048  -9671688.15947  22245102.4694   22245113.5264   22245102.055
        48.0004         44.0004
  -1979829.10447  -1509949.82346  24305617.1434   24305628.8164   24305618.486
        42.0004         37.0004
 -20111612.60148 -15623778.65448  20888254.7934   20888262.9174   20888255.027
        52.0004         48.0004
   6622767.70147   5156693.52946  22669571.2554   22669576.6064   22669569.814
        46.0004         41.0004
 -16460386.84848 -12812795.82247  20910543.1624   20910551.4944   20910543.266
        52.0004         47.0004
 -17641057.14048 -13703496.59247  21967310.1084   21967318.1714   21967309.463
        51.0004         46.0004
 -26719801.11949 -20799197.69848  20138807.6244   20138813.0144   20138807.058
        54.0004         49.0004
  -3202275.96347  -2248314.12146  23654017.7834   23654026.4954   23654018.460
        43.0004         39.0004
  -8890199.39647  -6902271.35446  23756756.9054   23756766.6164   23756757.212
        42.0004         38.0004
 14  5  3  0  6  0.0000000  0 12G10G23G04G01G28G08G13G09G17G07G20G11
  -4130970.46046  -3216217.06946  24843794.1424   24843804.7194   24843794.413
        41.0004         37.0004
   5689766.65146   4450613.82845  24928714.7364   24928719.4414   24928716.577
        39.0004         34.0004
 -14583819.81047 -11310046.98447  22842446.6434   22842454.8104   22842446.320
        46.0004         42.0004
 -12367150.94448  -9616544.42647  22258569.3104   22258580.1844   22258568.937
        48.0004         44.0004
  -2004616.07147  -1529264.17746  24300901.0614   24300911.1674   24300902.012
        42.0004         37.0004
 -20185585.93348 -15681420.10148  20874177.9904   20874186.0354   20874178.600
        52.0004         48.0004
   6705019.98647   5220786.27846  22685222.0924   22685228.8584   22685221.397
        46.0004         41.0004
 -16530878.04748 -12867723.89747  20897129.1644   20897136.9914   20897129.233
        52.0004         47.0004
 -17616407.23448 -13684288.86447  21972000.0884   21972008.6904   21972000.073
        51.0004         46.0004
 -26730498.33349 -20807533.12248  20136772.1724   20136777.4224   20136771.303
        54.0004         50.0004
  -3206656.24247  -2251727.26246  23653185.0524   23653192.9364   23653184.978
        43.0004         39.0004
  -8789893.03947  -6824110.52246  23775846.0544   23775853.8574   23775845.402
        42.0004         38.0004
 14  5  3  0  6 30.0000000  0 12G10G23G04G01G28G08G13G09G17G07G20G11
  -4164670.14446  -3242476.39246  24837381.8904   24837392.3854   24837381.424
        41.0004         37.0004
   5773850.04646   4516133.47145  24944716.3764   24944722.1154   24944717.279
        39.0004         35.0004
 -14681202.31047 -11385929.29847  22823915.7054   22823923.0824   22823914.662
        46.0004         42.0004
 -12295970.88348  -9561079.45847  22272114.4124   22272125.4084   22272114.243
        48.0004         44.0004
  -2029688.02647  -1548800.61646  24296131.0664   24296142.4144   24296130.961
        42.0004         37.0004
 -20259174.06548 -15738761.39948  20860174.8224   20860182.3054   20860174.944
        52.0004         48.0004
   6787275.80047   5284881.76746  22700875.3454   22700880.8314   22700874.482
        46.0004         41.0004
 -16600958.16248 -12922331.65447  20883793.4104   20883800.9694   20883793.162
        52.0004         47.0004
 -17591465.98748 -13664854.11847  21976746.9024   21976755.1914   21976746.589
        51.0004         46.0004
 -26740616.76549 -20815417.55248  20134846.0804   20134851.5724   20134845.870
        54.0004         50.0004
  -3210967.27747  -2255086.44946  23652364.4704   23652373.4464   23652365.209
        43.0004         39.0004
  -8689424.11347  -6745822.98546  23794963.4934   23794972.6814   23794964.191
        42.0004         38.0004
 14  5  3  0  7  0.0000000  0 12G10G23G04G01G28G08G13G09G17G07G20G11
  -4198615.35246  -3268927.01946  24830921.6354   24830934.3114   24830922.013
        41.0004         36.0004
   5857729.11246   4581493.87945  24960678.5014   24960680.4734   24960678.184
        39.0004         34.0004
 -14778436.69847 -11461696.20547  22805411.6744   22805419.4944   22805411.262
        46.0004         42.0004
 -12224376.99748  -9505292.03947  22285738.5044   22285749.5964   22285737.803
        48.0004         44.0004
  -2055041.47047  -1568556.39246  24291305.7884   24291314.7874   24291305.758
        42.0004         37.0004
 -20332370.09748 -15795797.16448  20846246.0434   20846253.8634   20846246.320
        52.0004         48.0004
   6869536.29847   5348980.90746  22716528.2764   22716533.9644   22716527.880
        46.0004         41.0004
 -16670621.04148 -12976614.29147  20870536.8444   20870544.2174   20870536.884
        52.0004         47.0004
 -17566232.23548 -13645191.44447  21981548.5034   21981557.0414   21981548.154
        51.0004         46.0004
 -26750151.63149 -20822847.25648  20133032.0324   20133037.4174   20133031.340
        54.0004         50.0004
  -3215203.53747  -2258387.35446  23651558.6274   23651567.4084   23651559.019
        44.0004         39.0004
  -8588791.64547  -6667408.02446  23814113.0234   23814121.5914   23814113.432
        42.0004         38.0004
 14  5  3  0  7 30.0000000  0 12G10G23G04G01G28G08G13G09G17G07G20G11
  -4232810.16546  -3295572.15146  24824412.8854   24824426.8544   24824415.222
        41.0004         36.0004
   5941398.52846   4646690.91345  24976600.1194   24976606.9264   24976598.821
        39.0004         34.0004
 -14875524.13647 -11537348.59547  22786936.8854   22786943.4664   22786936.273
        47.0004         42.0004
 -12152375.25648  -9449186.81047  22299440.3494   22299451.4834   22299439.386
        48.0004         44.0004
  -2080680.16347  -1588534.44646  24286426.2024   24286435.9554   24286427.044
        42.0004         37.0004
 -20405174.90948 -15852528.08348  20832391.6584   20832399.3934   20832391.869
        53.0004         48.0004
   6951795.09947   5413078.74746  22732181.9294   22732188.2654   22732181.088
        46.0004         41.0004
 -16739868.02748 -13030572.85547  20857359.0924   20857367.1794   20857359.376
        52.0004         47.0004
 -17540712.56148 -13625305.97647  21986404.8524   21986411.8714   21986404.453
        51.0004         46.0004
 -26759106.06249 -20829824.67648  20131327.6524   20131333.3114   20131327.188
        54.0004         50.0004
  -3219367.27747  -2261631.76946  23650765.8804   23650774.4774   23650766.622
        43.0004         39.0004
  -8488002.32647  -6588870.85346  23833292.8864   23833301.6954   23833293.033
        42.0004         38.0004
 14  5  3  0  8  0.0000000  0 12G10G23G04G01G28G08G13G09G17G07G20G11
  -4267250.45346  -3322408.53746  24817860.0564   24817872.2844   24817860.244
        41.0004         36.0004
   6024861.08846   4711726.79345  24992484.1384   24992489.9644   24992482.609
        39.0004         34.0004
 -14972457.68747 -11612881.09047  22768489.2644   22768498.4804   22768489.758
        47.0004         42.0004
 -12079963.28848  -9392761.93947  22313219.4194   22313230.4114   22313218.933
        48.0004         44.0004
  -2106599.75147  -1608731.38846  24281493.9394   24281504.3394   24281494.403
        42.0004         37.0004
 -20477580.73648 -15908948.10448  20818613.2914   20818620.8794   20818613.484
        53.0004         48.0004
   7034053.21647   5477176.03846  22747836.4284   22747840.2364   22747834.203
        46.0004         41.0004
 -16808692.08348 -13084201.87247  20844262.1504   20844269.9154   20844262.417
        52.0004         47.0004
 -17514904.91048 -13605196.11247  21991316.0004   21991324.0114   21991315.574
        51.0004         46.0004
 -26767474.89749 -20836345.78548  20129735.1704   20129741.0564   20129734.875
        54.0004         50.0004
  -3223452.37947  -2264814.88846  23649988.9644   23649996.6084   23649988.956
        44.0004         39.0004
  -8387054.36247  -6510210.05446  23852502.7484   23852512.3254   23852502.913
        42.0004         38.0004
 14  5  3  0  8 30.0000000  0 12G10G23G04G01G28G08G13G09G17G07G20G11
  -4301939.96846  -3349439.14046  24811257.4624   24811270.6984   24811258.722
        41.0004         36.0004
   6108112.25546   4776597.92145  25008324.3384   25008329.5174   25008324.294
        39.0004         35.0004
 -15069238.20047 -11688294.32847  22750073.8454   22750082.1914   22750073.752
        47.0004         42.0004
 -12007146.48848  -9336021.58947  22327076.4654   22327087.3464   22327075.513
        48.0004         44.0004
  -2132802.74247  -1629149.16446  24276507.5104   24276517.7244   24276507.953
        42.0004         37.0004
 -20549587.92748 -15965057.50448  20804910.5574   20804918.3574   20804910.806
        53.0004         48.0004
   7116305.03247   5541268.41546  22763485.8784   22763492.8694   22763486.433
        45.0004         41.0004
 -16877093.86748 -13137501.84947  20831246.3144   20831253.4804   20831246.056
        52.0004         47.0004
 -17488815.07348 -13584866.35847  21996280.9964   21996288.9054   21996280.404
        51.0004         46.0004
 -26775260.55449 -20842412.46848  20128253.5714   20128259.3204   20128253.144
        54.0004         50.0004
  -3227460.27847  -2267937.86546  23649226.9684   23649233.6444   23649227.316
        44.0004         39.0004
  -8285953.74847  -6431430.32046  23871741.7904   23871750.4134   23871741.577
        42.0004         38.0004
 14  5  3  0  9  0.0000000  0 12G10G23G04G01G28G08G13G09G17G07G20G11
  -4336874.98746  -3376661.03846  24804610.6844   24804621.2194   24804611.234
        41.0004         36.0004
   6191154.72746   4841306.45545  25024127.0834   25024133.5334   25024127.264
        39.0004         34.0004
 -15165858.71947 -11763582.89547  22731687.4104   22731695.7504   22731686.583
        47.0004         42.0004
 -11933922.70448  -9278964.11847  22341010.1814   22341020.8774   22341009.697
        48.0004         43.0004
  -2159285.45547  -1649784.90646  24271467.1804   24271479.5084   24271468.452
        42.0004         38.0004
 -20621189.08348 -16020850.51748  20791285.2134   20791292.8104   20791285.472
        53.0004         48.0004
   7198551.76147   5605356.84646  22779138.3744   22779143.8114   22779137.475
        45.0004         41.0004
 -16945066.28748 -13190467.25047  20818311.2034   20818319.2504   20818311.134
        52.0004         47.0004
 -17462441.67148 -13564315.63947  22001299.7044   22001308.0284   22001298.974
        51.0004         46.0004
 -26782457.59549 -20848020.49248  20126884.0574   20126889.5754   20126883.673
        54.0004         50.0004
  -3231385.15447  -2270996.14346  23648478.9104   23648487.2804   23648479.551
        44.0004         39.0004
  -8184699.43747  -6352530.80846  23891009.8404   23891018.6414   23891009.498
        42.0004         38.0004
 14  5  3  0  9 30.0000000  0 12G10G23G04G01G28G08G13G09G17G07G20G11
  -4372060.21046  -3404077.88746  24797914.0114   24797924.7944   24797915.337
        41.0004         36.0004
   6273982.56246   4905847.71645  25039888.8584   25039896.6124   25039888.567
        39.0004         34.0004
 -15262321.10347 -11838748.24247  22713330.9424   22713339.7244   22713330.526
        47.0004         42.0004
 -11860298.47148  -9221594.59947  22355020.4174   22355030.8474   22355020.240
        48.0004         43.0004
  -2186052.27447  -1670642.04246  24266373.8494   24266385.4944   24266375.050
        42.0004         37.0004
 -20692385.60348 -16076328.22448  20777736.2314   20777744.1704   20777736.943
        53.0004         48.0004
   7280786.48347   5669435.91846  22794787.4594   22794793.8604   22794786.067
        45.0004         41.0004
 -17012611.35748 -13243099.65647  20805457.8234   20805465.4514   20805457.975
        52.0004         47.0004
 -17435791.58048 -13543549.32647  22006370.2474   22006378.8204   22006370.297
        51.0004         46.0004
 -26789070.18449 -20853173.10148  20125625.7304   20125631.0304   20125625.355
        54.0004         50.0004
  -3235229.43847  -2273991.62046  23647747.1534   23647755.4274   23647747.906
        44.0004         39.0004
  -8083298.18847  -6273516.78046  23910303.6014   23910314.2274   23910305.444
        42.0004         38.0004
 14  5  3  0 10  0.0000000  0 12G10G23G04G01G28G08G13G09G17G07G20G11
  -4407493.52846  -3431688.06846  24791171.3354   24791183.4964   24791172.615
        41.0004         36.0004
   6356596.89946   4970222.60745  25055608.9464   25055613.5414   25055608.838
        39.0004         34.0004
 -15358620.42247 -11913786.52447  22695005.7224   22695014.0834   22695005.155
        47.0004         42.0004
 -11786273.27848  -9163912.66247  22369107.4834   22369118.1124   22369106.469
        48.0004         43.0004
  -2213099.92047  -1691718.00446  24261228.6134   24261237.9014   24261227.956
        42.0004         37.0004
 -20763171.64148 -16131486.07648  20764266.5754   20764274.4274   20764266.881
        53.0004         48.0004
   7363009.13147   5733505.58846  22810433.7784   22810440.7644   22810432.105
        45.0004         41.0004
 -17079723.82648 -13295394.97947  20792686.6774   20792694.3254   20792686.678
        52.0004         47.0004
 -17408864.64848 -13522567.28447  22011494.7474   22011503.1494   22011494.363
        51.0004         46.0004
 -26795094.83149 -20857867.57648  20124479.2784   20124484.6554   20124478.566
        54.0004         50.0004
  -3238989.21547  -2276921.26646  23647031.8254   23647039.5724   23647031.900
        44.0004         39.0004
  -7981750.23147  -6194388.46446  23929629.1504   23929639.4814   23929629.424
        42.0004         38.0004
 14  5  3  0 10 30.0000000  0 12G10G23G04G01G28G08G13G09G17G07G20G11
  -4443174.55946  -3459491.25446  24784381.8464   24784391.9134   24784381.923
        41.0004         36.0004
   6438997.47646   5034430.93545  25071290.2224   25071296.8764   25071290.143
        39.0004         34.0004
 -15454752.74847 -11988694.69847  22676712.6384   22676721.7824   22676711.610
        47.0004         42.0004
 -11711848.27948  -9105919.17747  22383269.7054   22383280.1234   22383268.811
        48.0004         43.0004
  -2240427.55347  -1713012.15046  24256027.9734   24256036.9434   24256027.193
        42.0004         37.0004
 -20833543.10048 -16186320.88348  20750875.6064   20750883.3254   20750875.813
        53.0004         48.0004
   7445217.91547   5797564.45246  22826077.5254   22826082.8504   22826075.983
        45.0004         41.0004
 -17146399.85748 -13347350.21947  20779998.1274   20780006.2294   20779998.390
        52.0004         47.0004
 -17381662.55748 -13501370.83547  22016671.1934   22016678.7394   22016670.459
        51.0004         46.0004
 -26800529.60349 -20862102.40448  20123444.8514   20123450.3544   20123444.457
        54.0004         50.0004
  -3242661.34047  -2279782.60546  23646333.7584   23646340.8974   23646334.017
        44.0004         39.0004
  -7880057.39747  -6115147.24746  23948979.1844   23948990.0934   23948980.733
        42.0004         38.0004
 14  5  3  0 11  0.0000000  0 12G10G23G04G01G28G08G13G09G17G07G20G11
  -4479104.04946  -3487488.04646  24777544.6044   24777556.1384   24777545.212
        41.0004         36.0004
   6521181.77646   5098470.72345  25086931.3584   25086933.2624   25086928.618
        39.0004         35.0004
 -15550716.52847 -12063471.52047  22658451.1404   22658458.8944   22658450.676
        47.0004         42.0004
 -11637026.42148  -9047616.44847  22397506.2224   22397518.7024   22397506.673
        48.0004         43.0004
  -2268035.53947  -1734524.74146  24250772.9164   24250783.5554   24250773.492
        42.0004         37.0004
 -20903497.79048 -16240830.92848  20737563.5334   20737571.0844   20737563.423
        53.0004         48.0004
   7527409.15247   5861609.64346  22841716.8364   22841724.0824   22841716.604
        45.0004         41.0004
 -17212637.87048 -13398964.13847  20767393.7194   20767401.5554   20767393.791
        52.0004         47.0004
 -17354188.46548 -13479962.43147  22021898.9164   22021907.0244   22021898.603
        51.0004         46.0004
 -26805375.02949 -20865878.00548  20122522.9104   20122528.3074   20122522.463
        54.0004         50.0004
  -3246244.88947  -2282574.92546  23645652.1414   23645658.9694   23645651.362
        43.0004         39.0004
  -7778223.26647  -6035795.92746  23968359.5284   23968367.6114   23968359.733
        42.0004         38.0004
 14  5  3  0 11 30.0000000  0 12G10G23G04G01G28G08G13G09G17G07G20G11
  -4515283.88846  -3515679.92446  24770659.8124   24770671.0974   24770660.422
        41.0004         36.0004
   6603147.32546   5162340.07145  25102527.1034   25102530.8634   25102526.357
        39.0004         34.0004
 -15646510.51347 -12138116.04547  22640221.3664   22640230.8234   22640221.522
        47.0004         42.0004
 -11561811.31648  -8989007.30047  22411820.6424   22411831.5494   22411820.106
        48.0004         43.0004
  -2295925.39547  -1756256.97246  24245466.0684   24245475.5564   24245466.358
        42.0004         37.0004
 -20973034.00448 -16295014.89348  20724330.9834   20724338.9384   20724331.086
        53.0004         48.0004
   7609578.99347   5925638.16746  22857354.1694   22857359.8584   22857353.342
        45.0004         40.0004
 -17278436.89048 -13450235.99347  20754872.2984   20754880.1204   20754872.496
        52.0004         47.0004
 -17326446.67048 -13458345.43347  22027178.2444   22027186.0274   22027177.840
        51.0004         46.0004
 -26809631.69549 -20869194.82448  20121712.9294   20121717.9984   20121712.313
        54.0004         50.0004
  -3249739.30547  -2285297.80746  23644985.5774   23644994.4504   23644986.755
        43.0004         39.0004
  -7676251.78047  -5956337.58846  23987764.1784   23987771.3564   23987764.105
        42.0004         38.0004
 14  5  3  0 12  0.0000000  0 12G10G23G04G01G28G08G13G09G17G07G20G11
  -4551711.39046  -3544064.79046  24763729.2304   24763738.2174   24763728.226
        41.0004         36.0004
   6684895.52446   5226040.01445  25118082.0594   25118087.7094   25118082.316
        39.0004         35.0004
 -15742129.25747 -12212624.02147  22622026.0904   22622034.2744   22622025.699
        47.0004         42.0004
 -11486202.20448  -8930091.11547  22426208.8714   22426218.8494   22426208.363
        48.0004         43.0004
  -2324093.94047  -1778206.38846  24240104.9024   24240114.6174   24240106.004
        42.0004         37.0004
 -21042145.81848 -16348868.15748  20711179.1794   20711186.6614   20711179.518
        53.0004         48.0004
   7691727.77447   5989650.27746  22872986.2114   22872991.7604   22872985.505
        45.0004         41.0004
 -17343791.16848 -13501161.29347  20742435.4604   20742443.4804   20742435.662
        52.0004         47.0004
 -17298436.64748 -13436519.41747  22032508.4764   22032516.0894   22032507.760
        51.0004         46.0004
 -26813295.87949 -20872049.97248  20121015.2944   20121020.8304   20121014.817
        54.0004         50.0004
  -3253140.24647  -2287947.84146  23644338.9344   23644346.1834   23644338.860
        43.0004         39.0004
  -7574142.96547  -5876772.22946  24007195.7284   24007203.8514   24007194.854
        42.0004         38.0004
 14  5  3  0 12 30.0000000  0 12G10G23G04G01G28G08G13G09G17G07G20G11
  -4588388.38846  -3572644.05346  24756750.0414   24756760.1894   24756748.707
        41.0004         36.0004
   6766423.07246   5289568.03645  25133596.0254   25133602.0584   25133596.019
        40.0004         35.0004
 -15837571.96747 -12286994.84547  22603862.6104   22603871.2414   22603863.389
        47.0004         42.0004
 -11410202.98448  -8870870.95947  22440670.3664   22440681.4684   22440669.973
        48.0004         43.0004
  -2352542.69547  -1800374.12946  24234691.7194   24234701.8094   24234692.416
        42.0004         37.0004
 -21110831.92548 -16402389.69648  20698108.4164   20698116.4354   20698108.817
        53.0004         48.0004
   7773850.91747   6053642.42246  22888613.5314   22888618.2604   22888612.715
        45.0004         40.0004
 -17408700.01248 -13551739.49748  20730084.2334   20730091.8334   20730084.047
        52.0004         48.0004
 -17270163.02648 -13414488.00347  22037888.5884   22037896.7294   22037888.255
        51.0004         46.0004
 -26816369.00349 -20874444.55548  20120430.6324   20120436.1094   20120430.331
        54.0004         50.0004
  -3256447.70947  -2290525.02946  23643709.3234   23643717.8954   23643710.545
        43.0004         39.0004
  -7471901.17247  -5797103.24846  24026651.1894   24026658.4894   24026650.785
        42.0004         37.0004
 14  5  3  0 13  0.0000000  0 12G10G23G04G01G28G08G13G09G17G07G20G11
  -4625313.85446  -3601416.93446  24749720.4964   24749733.4954   24749721.554
        41.0004         36.0004
   6847730.59246   5352924.60745  25149067.9774   25149075.5314   25149069.209
        39.0004         35.0004
 -15932834.45847 -12361225.21647  22585736.3834   22585743.8734   22585736.058
        47.0004         42.0004
 -11333814.49448  -8811347.48947  22455207.3014   22455217.9534   22455206.663
        48.0004         43.0004
  -2381269.89847  -1822758.82846  24229225.6774   24229235.8114   24229225.552
        42.0004         37.0004
 -21179087.56448 -16455575.81348  20685120.1114   20685127.2404   20685120.223
        53.0004         48.0004
   7855947.18147   6117613.62346  22904235.9844   22904241.5344   22904235.291
        45.0004         40.0004
 -17473159.54248 -13601967.58648  20717817.7504   20717825.4884   20717817.989
        52.0004         48.0004
 -17241626.70048 -13392251.89047  22043319.6624   22043326.8114   22043318.526
        51.0004         46.0004
 -26818848.89849 -20876376.88048  20119958.4654   20119963.8284   20119958.138
        54.0004         50.0004
  -3259658.30947  -2293026.75046  23643098.8804   23643106.9124   23643099.114
        43.0004         39.0004
  -7369528.09647  -5717331.97246  24046131.2764   24046140.2454   24046131.418
        42.0004         37.0004
 14  5  3  0 13 30.0000000  0 12G10G23G04G01G28G08G13G09G17G07G20G11
  -4662489.57646  -3630384.81046  24742646.5934   24742658.4474   24742646.963
        41.0004         37.0004
   6928815.16746   5416107.40745  25164498.4774   25164504.1844   25164498.979
        39.0004         35.0004
 -16027915.56547 -12435314.25747  22567641.6504   22567650.6894   22567641.681
        47.0004         42.0004
 -11257040.22348  -8751523.40047  22469816.7244   22469827.5764   22469816.376
        48.0004         43.0004
  -2410276.46447  -1845361.20546  24223705.2434   24223716.2014   24223705.601
        42.0004         37.0004
 -21246911.08448 -16508425.20048  20672213.2854   20672221.0984   20672213.571
        53.0004         48.0004
   7938012.80647   6181560.94546  22919852.1254   22919856.7404   22919851.890
        45.0004         40.0004
 -17537168.47848 -13651844.55948  20705636.9504   20705644.8904   20705636.990
        52.0004         48.0004
 -17212831.39248 -13369813.96147  22048798.0924   22048806.4454   22048797.839
        51.0004         46.0004
 -26820736.13649 -20877847.39748  20119599.4604   20119604.7914   20119598.981
        54.0004         50.0004
  -3262771.69847  -2295452.72546  23642506.6674   23642513.8084   23642506.866
        43.0004         39.0004
  -7267027.50747  -5637461.32746  24065637.6524   24065646.3384   24065636.647
        42.0004         37.0004
 14  5  3  0 14  0.0000000  0 12G10G23G04G01G28G08G13G09G17G07G20G11
  -4699911.83746  -3659544.80046  24735525.0844   24735536.3694   24735526.168
        41.0004         36.0004
   7009678.84146   5479118.10045  25179888.0864   25179891.1574   25179886.320
        40.0004         35.0004
 -16122809.06847 -12509257.11547  22549584.6104   22549591.2784   22549584.189
        47.0004         43.0004
 -11179878.78847  -8691397.63147  22484499.6734   22484511.2414   22484499.017
        47.0004         43.0004
  -2439558.90547  -1868178.55446  24218134.0574   24218144.0074   24218133.199
        42.0004         37.0004
 -21314295.98048 -16560932.81248  20659390.8344   20659398.0174   20659390.815
        53.0004         48.0004
   8020048.55447   6245484.97646  22935463.1684   22935468.8304   22935462.736
        45.0004         40.0004
 -17600720.89048 -13701365.80648  20693543.3624   20693550.5254   20693543.501
        52.0004         48.0004
 -17183776.43048 -13347173.70547  22054328.0294   22054335.5874   22054327.394
        51.0004         46.0004
 -26822026.79549 -20878853.05048  20119353.8874   20119358.8914   20119353.310
        54.0004         49.0004
  -3265782.44947  -2297798.70446  23641933.2924   23641941.6744   23641933.019
        43.0004         38.0004
  -7164398.58846  -5557490.67946  24085165.2014   24085176.0914   24085166.439
        41.0004         37.0004
 14  5  3  0 14 30.0000000  0 12G10G23G04G01G28G08G13G09G17G07G20G11
  -4737584.92546  -3688900.23646  24728355.6424   24728366.7874   24728357.204
        41.0004         36.0004
   7090316.35346   5541952.54745  25195232.5964   25195236.6064   25195232.394
        40.0004         35.0004
 -16217516.33447 -12583054.85247  22531561.5444   22531570.5614   22531561.822
        47.0004         43.0004
 -11102336.46647  -8630975.05847  22499256.2414   22499267.3114   22499254.998
        47.0004         43.0004
  -2469120.82747  -1891213.68546  24212507.4284   24212519.3134   24212507.555
        42.0004         38.0004
 -21381243.42948 -16613099.55848  20646650.7914   20646658.3224   20646650.977
        53.0004         48.0004
   8102047.91047   6309380.66646  22951066.3244   22951073.6344   22951066.080
        45.0004         40.0004
 -17663818.49348 -13750532.65948  20681536.3844   20681543.6784   20681536.214
        52.0004         48.0004
 -17154468.46648 -13324336.30947  22059904.4984   22059911.8544   22059904.144
        51.0004         46.0004
 -26822724.16449 -20879396.39548  20119221.0444   20119226.5654   20119220.568
        54.0004         49.0004
  -3268692.96347  -2300066.60146  23641379.2424   23641386.7254   23641380.000
        43.0004         39.0004
  -7061647.93146  -5477425.16546  24104719.1504   24104728.2264   24104718.881
        41.0004         36.0004
 14  5  3  0 15  0.0000000  0 12G10G23G04G01G28G08G13G09G17G07G20G11
  -4775507.58646  -3718450.15346  24721139.4014   24721149.9234   24721141.030
        41.0004         37.0004
   7170728.36646   5604611.27945  25210533.0974   25210539.7804   25210533.772
        40.0004         35.0004
 -16312032.74847 -12656703.86947  22513576.3654   22513582.7644   22513576.064
        47.0004         43.0004
 -11024413.60047  -8570255.95247  22514083.1364   22514095.0974   22514083.418
        47.0004         43.0004
  -2498960.03847  -1914464.89546  24206828.5544   24206840.6214   24206829.756
        42.0004         37.0004
 -21447748.40148 -16664921.51748  20633995.2274   20634003.1504   20633995.503
        53.0004         48.0004
   8184010.10847   6373247.39946  22966662.8034   22966669.0764   22966662.484
        45.0004         40.0004
 -17726456.71048 -13799341.54648  20669616.7294   20669623.7454   20669616.424
        52.0004         48.0004
 -17124908.15748 -13301302.27847  22065529.6264   22065537.8334   22065529.410
        51.0004         46.0004
 -26822826.47849 -20879476.05948  20119201.4254   20119207.1414   20119201.086
        54.0004         49.0004
  -3271499.29547  -2302253.32946  23640844.5684   23640853.4894   23640845.587
        43.0004         39.0004
  -6958776.39546  -5397265.47446  24124294.3894   24124303.8194   24124294.595
        41.0004         36.0004
 14  5  3  0 15 30.0000000  0 12G10G23G04G01G28G08G13G09G17G07G20G11
  -4813678.25546  -3748193.29046  24713876.2434   24713885.5304   24713876.892
        41.0004         37.0004
   7250915.42046   5667094.74546  25225791.9704   25225796.7974   25225792.441
        40.0004         36.0004
 -16406354.46947 -12730201.17847  22495627.4584   22495634.7154   22495627.331
        47.0004         43.0004
 -10946110.99947  -8509240.96547  22528983.7074   22528995.1554   22528983.674
        47.0004         43.0004
  -2529074.82147  -1937930.83246  24201098.6814   24201108.1624   24201098.925
        42.0004         37.0004
 -21513806.80048 -16716395.49548  20621424.7334   20621431.7674   20621424.850
        53.0004         48.0004
   8265934.00947   6437084.28746  22982251.2844   22982260.2604   22982252.281
        45.0004         40.0004
 -17788631.55848 -13847789.36448  20657785.1874   20657791.9894   20657784.860
        52.0004         48.0004
 -17095096.58148 -13278072.45847  22071202.0934   22071210.8424   22071201.787
        51.0004         46.0004
 -26822331.52049 -20879090.31748  20119295.3284   20119300.9654   20119295.147
        54.0004         49.0004
  -3274198.50947  -2304356.56646  23640331.1014   23640339.1544   23640331.179
        43.0004         39.0004
  -6855785.45646  -5317012.72646  24143894.1644   24143900.9394   24143892.776
        41.0004         36.0004
 14  5  3  0 16  0.0000000  0 12G10G23G04G01G28G08G13G09G17G07G20G11
  -4852099.28446  -3778131.54546  24706564.4284   24706574.4454   24706564.605
        41.0004         36.0004
   7330873.70946   5729399.91946  25241007.6044   25241014.9744   25241008.565
        40.0004         36.0004
 -16500480.87047 -12803546.29847  22477715.4824   22477722.5274   22477714.987
        47.0004         43.0004
 -10867433.08147  -8447933.51047  22543956.0784   22543967.4234   22543955.491
        47.0004         42.0004
  -2559466.59247  -1961612.59046  24195315.5634   24195325.3674   24195315.598
        42.0004         37.0004
 -21579417.70848 -16767520.77848  20608938.9394   20608946.7174   20608939.401
        53.0004         48.0004
   8347815.24447   6500887.94746  22997834.5944   22997840.7124   22997834.346
        45.0004         40.0004
 -17850342.87348 -13895875.99248  20646041.5134   20646049.0664   20646041.783
        52.0004         48.0004
 -17065038.78448 -13254650.76747  22076922.0504   22076930.2914   22076921.979
        51.0004         46.0004
 -26821241.03349 -20878240.52348  20119503.3414   20119508.4194   20119502.650
        54.0004         49.0004
  -3276790.86247  -2306376.53446  23639838.2054   23639846.7204   23639838.677
        43.0004         39.0004
  -6752679.82646  -5236670.62246  24163512.9634   24163520.8634   24163513.429
        41.0004         36.0004
 14  5  3  0 16 30.0000000  0 12G10G23G04G01G28G08G13G09G17G07G20G11
  -4890769.74346  -3808264.15646  24699206.0704   24699216.5034   24699206.193
        41.0004         36.0004
   7410603.29346   5791526.91446  25256182.5384   25256184.0884   25256180.454
        40.0004         36.0004
 -16594408.21447 -12876736.29347  22459840.8144   22459848.5004   22459840.859
        47.0004         43.0004
 -10788380.95747  -8386334.47447  22559000.3554   22559011.1164   22558999.100
        47.0004         43.0004
  -2590134.27147  -1985509.35346  24189479.4094   24189489.6884   24189480.057
        42.0004         38.0004
 -21644576.53548 -16818293.79248  20596539.8924   20596547.5124   20596540.317
        53.0004         48.0004
   8429652.12847   6564657.03146  23013405.7364   23013412.8404   23013407.028
        45.0004         40.0004
 -17911587.08348 -13943598.64348  20634387.2814   20634394.3004   20634387.060
        52.0004         48.0004
 -17034735.93948 -13231038.13447  22082688.3944   22082696.5014   22082688.379
        51.0004         46.0004
 -26819553.08249 -20876925.17548  20119824.3454   20119829.5664   20119824.021
        54.0004         50.0004
  -3279273.47847  -2308311.01546  23639366.0164   23639374.5454   23639365.991
        43.0004         39.0004
  -6649461.01346  -5156240.32646  24183156.4764   24183166.1544   24183155.353
        41.0004         36.0004
 14  5  3  0 17  0.0000000  0 12G10G23G04G01G28G08G13G09G17G07G20G11
  -4929688.32446  -3838590.11246  24691800.5244   24691811.0844   24691800.065
        41.0004         36.0004
   7490104.58846   5853476.00046  25271307.3934   25271314.2574   25271308.427
        40.0004         36.0004
 -16688132.35447 -12949767.95947  22442006.5344   22442014.5854   22442006.030
        47.0004         43.0004
 -10708955.28447  -8324444.35747  22574113.3514   22574125.1894   22574113.026
        47.0004         42.0004
  -2621075.88947  -2009619.56546  24183590.9494   24183601.7884   24183590.873
        42.0004         38.0004
 -21709278.61248 -16868710.89948  20584227.3094   20584234.6174   20584227.714
        53.0004         48.0004
   8511443.81947   6628390.90746  23028970.5234   23028977.7624   23028971.329
        45.0004         40.0004
 -17972359.99548 -13990954.05648  20622822.0644   20622829.3644   20622822.253
        52.0004         48.0004
 -17004189.05248 -13207235.34147  22088500.9794   22088509.7054   22088501.102
        51.0004         46.0004
 -26817266.10649 -20875143.04848  20120259.1904   20120264.8964   20120258.974
        54.0004         50.0004
  -3281642.75747  -2310157.17746  23638914.1914   23638923.1414   23638915.147
        43.0004         38.0004
  -6546130.19046  -5075722.73846  24202818.6884   24202828.8804   24202818.513
        40.0004         36.0004
 14  5  3  0 17 30.0000000  0 12G10G23G04G01G28G08G13G09G17G07G20G11
  -4968856.21046  -3869110.32846  24684346.1274   24684359.0814   24684346.711
        41.0004         36.0004
   7569375.05346   5915245.20246  25286392.8054   25286398.3514   25286393.657
        40.0004         36.0004
 -16781651.67147 -13022640.03447  22424209.5004   22424218.3384   22424209.764
        47.0004         43.0004
 -10629159.67647  -8262265.98947  22589297.8764   22589309.1284   22589297.669
        47.0004         42.0004
  -2652292.31647  -2033943.92246  24177651.6544   24177661.2864   24177650.833
        42.0004         38.0004
 -21773522.68648 -16918771.12348  20572002.2134   20572009.2754   20572002.495
        53.0004         48.0004
   8593186.28647   6692086.44046  23044526.2434   23044532.6754   23044525.997
        44.0004         40.0004
 -18032660.59748 -14037941.43148  20611347.3444   20611354.6564   20611347.635
        52.0004         48.0004
 -16973402.17248 -13183245.53447  22094360.3864   22094367.5714   22094359.937
        51.0004         46.0004
 -26814381.15349 -20872894.97048  20120808.2534   20120813.7774   20120808.073
        54.0004         50.0004
  -3283898.27347  -2311914.69346  23638484.8764   23638493.1344   23638485.583
        43.0004         38.0004
  -6442691.40846  -4995121.02546  24222502.2754   24222511.4894   24222502.308
        40.0004         36.0004
 14  5  3  0 18  0.0000000  0 12G10G23G04G01G28G08G13G09G17G07G20G11
  -5008275.36146  -3899826.33946  24676843.1664   24676856.6744   24676845.821
        41.0004         37.0004
   7648411.34246   5976831.93145  25301435.8644   25301438.5974   25301433.283
        40.0004         35.0004
 -16874965.81447 -13095352.21947  22406452.6974   22406460.2154   22406452.590
        47.0004         43.0004
 -10548998.35747  -8199802.64147  22604552.2834   22604562.8734   22604552.381
        47.0004         42.0004
  -2683785.01247  -2058483.54346  24171658.1244   24171667.8824   24171657.560
        42.0004         38.0004
 -21837307.80148 -16968473.71248  20559864.0154   20559871.2944   20559864.356
        53.0004         48.0004
   8674875.38747   6755740.36946  23060070.7804   23060078.2454   23060070.806
        44.0004         40.0004
 -18092488.39748 -14084560.39748  20599962.7784   20599969.5764   20599962.533
        53.0004         48.0004
 -16942379.62048 -13159072.09247  22100263.1004   22100271.8104   22100263.117
        51.0004         46.0004
 -26810899.35949 -20870181.82748  20121470.9914   20121476.3384   20121470.546
        54.0004         49.0004
  -3286040.48147  -2313583.91246  23638077.3974   23638086.2404   23638078.501
        43.0004         39.0004
  -6339149.42946  -4914438.90146  24242204.8284   24242210.8534   24242205.580
        40.0004         36.0004
 14  5  3  0 18 30.0000000  0 11G10G04G01G28G08G13G09G17G07G20G11
  -5047940.11946  -3930733.72146  24669297.3754   24669305.7774   24669297.653
        41.0004         37.0004
 -16968065.77348 -13167897.50247  22388737.0054   22388744.7424   22388736.874
        48.0004         43.0004
 -10468467.58247  -8137051.41647  22619877.4094   22619887.3024   22619876.541
        47.0004         43.0004
  -2715547.65247  -2083233.53046  24165613.5574   24165624.9284   24165613.603
        42.0004         38.0004
 -21900624.85848 -17017811.58848  20547815.0284   20547822.4874   20547815.677
        53.0004         48.0004
   8756514.44347   6819355.30346  23075605.8244   23075611.7224   23075606.363
        44.0004         40.0004
 -18151834.93148 -14130804.35248  20588669.3314   20588676.6244   20588669.224
        53.0004         48.0004
 -16911118.21648 -13134712.53147  22106212.2414   22106220.5614   22106212.100
        51.0004         46.0004
 -26806814.94749 -20866999.10548  20122247.9684   20122253.2304   20122247.728
        54.0004         49.0004
  -3288061.11747  -2315158.40446  23637693.2504   23637701.5814   23637694.177
        43.0004         38.0004
  -6235500.38646  -4833673.35245  24261928.6434   24261938.1854   24261929.223
        40.0004         35.0004
 14  5  3  0 19  0.0000000  0 11G10G04G01G28G08G13G09G17G07G20G11
  -5087855.29846  -3961836.22046  24661700.5374   24661712.4114   24661701.770
        41.0004         37.0004
 -17060954.14748 -13240277.92647  22371060.6954   22371067.9804   22371060.140
        48.0004         43.0004
 -10387574.72947  -8074018.02947  22635270.6314   22635281.1694   22635270.062
        47.0004         43.0004
  -2747584.80547  -2108197.39846  24159516.5124   24159526.1144   24159516.765
        42.0004         38.0004
 -21963475.85548 -17066786.29448  20535854.5744   20535861.9904   20535855.226
        53.0004         48.0004
   8838096.24547   6882925.62946  23091132.1784   23091137.6514   23091130.969
        44.0004         40.0004
 -18210702.96848 -14176675.44448  20577467.2364   20577474.0664   20577467.174
        53.0004         48.0004
 -16879625.70948 -13110172.89047  22112205.4264   22112213.6274   22112204.732
        51.0004         46.0004
 -26802132.33749 -20863350.25548  20123138.9844   20123144.6864   20123138.589
        54.0004         50.0004
  -3289963.68447  -2316640.90646  23637330.5224   23637338.4394   23637331.503
        43.0004         38.0004
  -6131752.20646  -4752830.55346  24281672.7124   24281680.9624   24281672.163
        40.0004         36.0004
 14  5  3  0 19 30.0000000  0 11G10G04G01G28G08G13G09G17G07G20G11
  -5128020.05147  -3993133.21646  24654056.9914   24654068.9604   24654057.691
        42.0004         37.0004
 -17153626.96548 -13312490.37947  22353425.0244   22353432.8574   22353425.047
        48.0004         43.0004
 -10306320.89647  -8010703.37847  22650732.0984   22650744.0274   22650732.154
        47.0004         43.0004
  -2779894.70747  -2133373.81246  24153367.2034   24153377.7784   24153368.048
        42.0004         38.0004
 -22025856.57948 -17115394.56048  20523984.4964   20523991.5834   20523984.575
        53.0004         48.0004
   8919619.42147   6946450.27946  23106645.7684   23106651.3474   23106644.606
        44.0004         40.0004
 -18269089.00148 -14222170.94848  20566355.7354   20566363.4934   20566356.059
        53.0004         48.0004
 -16847903.36848 -13085454.16447  22118242.0584   22118249.7224   22118241.333
        51.0004         46.0004
 -26796849.82949 -20859233.95548  20124144.3794   20124149.6434   20124144.003
        54.0004         49.0004
  -3291744.92447  -2318028.85446  23636992.5944   23637000.4794   23636992.688
        43.0004         38.0004
  -6027906.42846  -4671911.70846  24301432.3164   24301440.4844   24301433.010
        40.0004         36.0004
 14  5  3  0 20  0.0000000  0 11G10G04G01G28G08G13G09G17G07G20G11
  -5168432.63747  -4024623.33746  24646366.8644   24646378.2794   24646367.349
        42.0004         37.0004
 -17246080.06048 -13384531.62547  22335831.5004   22335839.3724   22335832.101
        48.0004         43.0004
 -10224706.85247  -7947108.04647  22666263.5754   22666273.9824   22666262.889
        47.0004         43.0004
  -2812475.40147  -2158761.24146  24147167.8154   24147178.0004   24147168.173
        43.0004         38.0004
 -22087762.41748 -17163632.78648  20512203.9484   20512211.0764   20512204.427
        53.0004         48.0004
   9001083.06047   7009928.51846  23122145.4894   23122152.7194   23122146.444
        44.0004         40.0004
 -18326988.98648 -14267287.72248  20555338.0544   20555345.4574   20555338.084
        53.0004         48.0004
 -16815952.16848 -13060557.10147  22124322.0344   22124329.9554   22124321.583
        51.0004         46.0004
 -26790966.29749 -20854649.32148  20125263.8554   20125269.2434   20125263.336
        54.0004         49.0004
  -3293401.56747  -2319319.72246  23636677.6374   23636684.1114   23636677.629
        43.0004         38.0004
  -5923964.01946  -4590917.56746  24321213.1214   24321219.3394   24321212.689
        40.0004         36.0004
 14  5  3  0 20 30.0000000  0 11G10G04G01G28G08G13G09G17G07G20G11
  -5209094.15946  -4056307.41746  24638628.2354   24638639.2224   24638629.769
        41.0004         37.0004
 -17338311.97248 -13456400.52147  22318281.0374   22318288.0534   22318280.445
        48.0004         43.0004
 -10142736.05847  -7883234.72547  22681861.3974   22681873.0254   22681861.497
        47.0004         42.0004
  -2845327.52247  -2184360.17946  24140916.1114   24140926.4244   24140916.687
        43.0004         38.0004
 -22149191.71348 -17211499.68248  20500514.1504   20500520.9004   20500514.565
        53.0004         49.0004
   9082483.57447   7073357.59746  23137636.4484   23137642.1124   23137636.773
        44.0004         40.0004
 -18384401.78348 -14312024.86448  20544412.7424   20544419.9844   20544412.844
        53.0004         48.0004
 -16783775.70748 -13035484.50947  22130445.1464   22130452.8704   22130444.254
        51.0004         46.0004
 -26784482.42749 -20849596.89348  20126497.6214   20126502.7854   20126497.064
