     2.11           OBSERVATION DATA    G (GPS)             RINEX VERSION / TYPE
teqc  2013Mar15     gpsops              20140520 00:23:20UTCPGM / RUN BY / DATE
Linux 2.4.21-27.ELsmp|Opteron|gcc -static|Linux x86_64|=+   COMMENT
BIT 2 OF LLI FLAGS DATA COLLECTED UNDER A/S CONDITION       COMMENT
GLPS                                                        MARKER NAME
42005M002                                                   MARKER NUMBER
GGN                 JPL                                     OBSERVER / AGENCY
ZR220013847         ASHTECH UZ-12       CQ00                REC # / TYPE / VERS
CR519992104         ASH701945B_M    SCIT                    ANT # / TYPE
   -33801.4662 -6377516.5323   -82154.3508                  APPROX POSITION XYZ
        0.0083        0.0000        0.0000                  ANTENNA: DELTA H/E/N
     1     1                                                WAVELENGTH FACT L1/2
     7    L1    L2    P1    P2    C1    S1    S2            # / TYPES OF OBSERV
    30.0000                                                 INTERVAL
                                                            COMMENT
This data is provided as a public service by NASA/JPL.      COMMENT
No warranty is expressed or implied regarding suitability   COMMENT
for use.  For further information, contact:                 COMMENT
Dave Stowers, NASA/JPL m/s 238-600                          COMMENT
4800 Oak Grove Drive, Pasadena CA 91109 USA                 COMMENT
                                                            COMMENT
Forced Modulo Decimation to 30 seconds                      COMMENT
 SNR is mapped to RINEX snr flag value [0-9]                COMMENT
  L1 & L2: min(max(int(snr_dBHz/6), 0), 9)                  COMMENT
pseudorange smoothing corrections not applied               COMMENT
  2014     5    19     0     0    0.0000000     GPS         TIME OF FIRST OBS
                                                            END OF HEADER
 14  5 19  0  0  0.0000000  0 12G13G09G02G07G10G20G08G26G17G01G28G04
  16791522.81346  13071015.15345  24470475.9804   24470484.6144   24470475.408
        40.0004         35.0004
 -19758529.94549 -15386592.88548  19983838.5194   19983845.1324   19983838.332
        54.0004         50.0004
  -3847589.06147  -2951450.91646  23627511.1564   23627520.0934   23627513.278
        44.0004         39.0004
 -21956923.99548 -17074419.15948  20708419.2414   20708425.4784   20708418.653
        52.0004         48.0004
  -9838238.32747  -7656542.04646  23779197.8334   23779206.5714   23779199.160
        44.0004         39.0004
  -4812459.46846  -3684953.53546  23697192.8224   23697203.7164   23697194.298
        41.0004         36.0004
 -26397302.40949 -20526984.46048  19884641.4734   19884648.7064   19884641.891
        54.0004         49.0004
   -838316.48947   -636140.67346  24061205.5584   24061221.6004   24061206.309
        42.0004         38.0004
 -12934784.18748 -10027817.32947  22803525.6244   22803536.0664   22803524.952
        48.0004         44.0004
  -3110138.10646  -2391965.47046  24304360.4744   24304377.4124   24304359.843
        41.0004         36.0004
  -6315745.61047  -4885608.08646  23390773.7724   23390783.4014   23390772.957
        45.0004         40.0004
 -22921257.54348 -17588303.86247  20999479.7204   20999486.8684   20999479.584
        52.0004         47.0004
 14  5 19  0  0 30.0000000  0 12G13G09G02G07G10G20G08G26G17G01G28G04
  16859262.31746  13123799.31745  24483365.1464   24483374.0874   24483366.068
        40.0004         35.0004
 -19764466.24049 -15391218.50848  19982708.5674   19982715.6804   19982708.580
        54.0004         50.0004
  -3936608.77247  -3020816.73046  23610572.8164   23610580.9144   23610572.482
        44.0004         40.0004
 -21897692.54248 -17028264.75048  20719690.7284   20719696.9464   20719690.379
        52.0004         48.0004
  -9899526.46447  -7704298.89846  23767535.6064   23767544.1554   23767535.694
        44.0004         39.0004
  -4795836.14546  -3672000.25946  23700357.5774   23700368.3724   23700357.601
        41.0004         36.0004
 -26401444.69749 -20530212.15648  19883853.2054   19883860.6564   19883853.578
        54.0004         49.0004
   -843848.01047   -640450.76646  24060154.1974   24060168.3214   24060154.204
        42.0004         38.0004
 -12892096.22648  -9994554.02547  22811648.2894   22811659.9244   22811648.121
        48.0004         44.0004
  -3005881.24046  -2310726.35946  24324199.4014   24324215.8484   24324199.400
        41.0004         36.0004
  -6368903.52447  -4927029.70646  23380657.3844   23380668.4934   23380657.236
        45.0004         40.0004
 -22982692.47948 -17636175.18347  20987788.8834   20987796.9324   20987788.705
        52.0004         47.0004
 14  5 19  0  1  0.0000000  0 12G13G09G02G07G10G20G08G26G17G01G28G04
  16926779.60346  13176410.32445  24496214.4014   24496223.0864   24496214.490
        40.0004         35.0004
 -19769789.40949 -15395366.36848  19981695.3924   19981702.5354   19981695.495
        54.0004         50.0004
  -4025411.28247  -3090013.30746  23593673.2974   23593680.6154   23593673.172
        44.0004         39.0004
 -21837954.36648 -16981715.49348  20731058.3414   20731064.4674   20731057.777
        52.0004         48.0004
  -9961002.50247  -7752202.15046  23755837.3504   23755847.0644   23755837.371
        44.0004         39.0004
  -4778932.61446  -3658828.66546  23703573.4464   23703583.1924   23703573.862
        41.0004         36.0004
 -26404924.81349 -20532923.87948  19883191.2044   19883198.2254   19883191.293
        54.0004         49.0004
   -849080.84947   -644528.14546  24059158.6414   24059174.1884   24059157.339
        43.0004         38.0004
 -12849412.79248  -9961294.24447  22819771.0664   22819780.9824   22819770.693
        48.0004         44.0004
  -2901498.75846  -2229389.37646  24344063.1244   24344078.7454   24344062.750
        41.0004         36.0004
  -6422219.62547  -4968574.57146  23370510.1114   23370520.7634   23370511.443
        45.0004         40.0004
 -23043673.63748 -17683692.91047  20976185.0854   20976192.5574   20976184.518
        52.0004         47.0004
 14  5 19  0  1 30.0000000  0 12G13G09G02G07G10G20G08G26G17G01G28G04
  16994076.31546  13228849.45345  24509022.5564   24509029.6774   24509020.315
        40.0004         35.0004
 -19774496.71149 -15399034.33848  19980799.9264   19980806.8054   19980799.803
        54.0004         50.0004
  -4113991.74247  -3159036.85546  23576816.8644   23576824.0764   23576817.415
        44.0004         39.0004
 -21777709.04748 -16934771.05748  20742522.7534   20742528.6994   20742522.622
        52.0004         48.0004
 -10022662.19347  -7800248.51546  23744103.6434   23744113.5324   23744103.461
        44.0004         39.0004
  -4761744.89246  -3645435.63846  23706843.6684   23706853.2774   23706844.504
        41.0004         36.0004
 -26407739.76449 -20535117.29348  19882655.6974   19882662.3144   19882655.689
        54.0004         49.0004
   -854013.89347   -648371.85146  24058220.5064   24058233.8404   24058219.345
        42.0004         38.0004
 -12806733.50148  -9928037.67847  22827892.9854   22827902.8674   22827892.838
        48.0004         44.0004
  -2796990.58346  -2147954.45246  24363949.5574   24363965.9734   24363950.054
        41.0004         36.0004
  -6475689.43247  -5010239.21746  23360334.8704   23360346.7064   23360336.381
        45.0004         40.0004
 -23104196.32848 -17730853.38647  20964667.7574   20964675.0064   20964667.424
        52.0004         47.0004
 14  5 19  0  2  0.0000000  0 12G13G09G02G07G10G20G08G26G17G01G28G04
  17061147.69646  13281113.00046  24521785.5474   24521792.1244   24521783.951
        40.0004         36.0004
 -19778592.05149 -15402225.44648  19980020.1724   19980027.2204   19980020.273
        54.0004         49.0004
  -4202351.85747  -3227888.70446  23560002.3744   23560010.7114   23560003.127
        44.0004         39.0004
 -21716962.52948 -16887436.07548  20754082.4774   20754088.4424   20754081.862
        52.0004         48.0004
 -10084508.78547  -7848440.51646  23732334.0804   23732343.8144   23732334.751
        44.0004         39.0004
  -4744275.74746  -3631823.31045  23710166.8304   23710178.6194   23710168.818
        40.0004         35.0004
 -26409892.94249 -20536795.03548  19882245.5154   19882252.6784   19882245.998
        54.0004         49.0004
   -858652.94847   -651986.51746  24057337.3904   24057350.7944   24057336.372
        42.0004         38.0004
 -12764064.86248  -9894789.41447  22836012.4054   22836023.0384   22836012.390
        49.0004         44.0004
  -2692363.26046  -2066426.67246  24383860.5684   24383876.8284   24383860.214
        40.0004         36.0004
  -6529315.19847  -5052025.37446  23350131.6994   23350141.6204   23350131.433
        44.0004         40.0004
 -23164262.34248 -17777658.01347  20953237.4854   20953244.5994   20953237.376
        52.0004         47.0004
 14  5 19  0  2 30.0000000  0 12G13G09G02G07G10G20G08G26G17G01G28G04
  17127995.05446  13333201.98346  24534505.8604   24534512.5574   24534504.850
        40.0004         36.0004
 -19782073.05349 -15404937.85548  19979358.0734   19979364.9284   19979357.892
        54.0004         50.0004
  -4290486.67147  -3296564.99646  23543230.2254   23543237.7954   23543230.671
        44.0004         39.0004
 -21655714.41948 -16839710.24348  20765737.5944   20765743.9054   20765737.242
        52.0004         48.0004
 -10146538.39447  -7896775.11946  23720529.6294   23720539.8594   23720530.198
        44.0004         39.0004
  -4726521.20846  -3617988.58546  23713546.9024   23713557.6834   23713548.178
        40.0004         36.0004
 -26411381.58049 -20537954.95548  19881962.1924   19881969.6684   19881962.713
        54.0004         49.0004
   -862996.97147   -655371.26846  24056509.8874   24056524.3744   24056509.893
        42.0004         38.0004
 -12721406.51448  -9861549.17947  22844129.5284   22844140.7234   22844129.827
        49.0004         44.0004
  -2587616.95246  -1984806.17646  24403792.3704   24403808.8424   24403792.963
        40.0004         36.0004
  -6583092.49247  -5093929.60446  23339897.9224   23339908.0354   23339897.882
        44.0004         40.0004
 -23223867.25248 -17824103.33147  20941894.9644   20941901.9794   20941894.611
        52.0004         47.0004
 14  5 19  0  3  0.0000000  0 12G13G09G02G07G10G20G08G26G17G01G28G04
  17194615.58546  13385114.22146  24547181.8654   24547188.8794   24547182.197
        40.0004         36.0004
 -19784941.25049 -15407172.75148  19978812.2314   19978818.7874   19978812.093
        54.0004         49.0004
  -4378395.35847  -3365065.09046  23526501.7874   23526509.5214   23526502.001
        44.0004         39.0004
 -21593968.74748 -16791596.70048  20777487.6174   20777493.4594   20777486.967
        52.0004         48.0004
 -10208750.88847  -7945252.23146  23708691.2724   23708700.9914   23708691.727
        44.0004         39.0004
  -4708481.74946  -3603931.85846  23716979.4274   23716990.5154   23716980.369
        40.0004         36.0004
 -26412207.08749 -20538598.15148  19881805.3994   19881812.0074   19881805.523
        54.0004         49.0004
   -867049.40147   -658528.83146  24055739.8424   24055752.8284   24055737.820
        42.0004         38.0004
 -12678762.05248  -9828319.76247  22852245.6514   22852255.2514   22852244.984
        49.0004         44.0004
  -2482755.82346  -1903096.20846  24423748.1464   24423762.7554   24423746.602
        40.0004         36.0004
  -6637020.90347  -5135951.59546  23329633.8624   23329645.5174   23329635.436
        44.0004         40.0004
 -23283010.48248 -17870188.90547  20930640.4244   20930647.4264   20930640.294
        52.0004         47.0004
 14  5 19  0  3 30.0000000  0 12G13G09G02G07G10G20G08G26G17G01G28G04
  17261009.02546  13436849.51446  24559816.8664   24559824.4654   24559816.708
        40.0004         36.0004
 -19787195.93449 -15408929.59248  19978382.8404   19978389.8764   19978382.773
        54.0004         49.0004
  -4466075.20947  -3433386.87146  23509816.2204   23509824.4264   23509817.466
        44.0004         39.0004
 -21531727.11248 -16743096.69148  20789331.6024   20789337.4714   20789331.108
        52.0004         48.0004
 -10271144.42647  -7993870.42846  23696817.7554   23696828.9344   23696819.339
        44.0004         39.0004
  -4690155.30446  -3589651.50745  23720466.0714   23720477.6124   23720467.400
        40.0004         35.0004
 -26412368.16249 -20538723.60948  19881774.8414   19881781.7164   19881774.972
        54.0004         49.0004
   -870811.27747   -661459.97046  24055022.4084   24055037.6394   24055022.190
        42.0004         38.0004
 -12636132.86948  -9795102.24047  22860356.8184   22860367.2644   22860357.049
        49.0004         44.0004
  -2377781.71046  -1821298.21246  24443722.4004   24443739.3284   24443722.857
        40.0004         36.0004
  -6691097.95847  -5178089.40646  23319344.7414   23319354.9434   23319344.881
        45.0004         40.0004
 -23341689.48548 -17915912.73847  20919474.2674   20919481.3404   20919473.330
        52.0004         47.0004
 14  5 19  0  4  0.0000000  0 12G13G09G02G07G10G20G08G26G17G01G28G04
  17327174.97846  13488407.51646  24572410.1164   24572414.7384   24572407.596
        40.0004         36.0004
 -19788836.68949 -15410208.04348  19978070.9974   19978077.2694   19978070.777
        54.0004         49.0004
  -4553523.37647  -3501528.12546  23493176.1154   23493182.8284   23493176.327
        44.0004         39.0004
 -21468991.04948 -16694211.41548  20801269.9054   20801275.3214   20801269.500
        52.0004         48.0004
 -10333717.16947  -8042628.25546  23684911.3684   23684920.4364   23684911.197
        44.0004         39.0004
  -4671540.03646  -3575146.07245  23724010.3514   23724018.4724   23724010.055
        40.0004         35.0004
 -26411864.14249 -20538330.81348  19881870.2074   19881877.1134   19881870.562
        54.0004         49.0004
   -874283.74547   -664165.61946  24054361.4354   24054375.1994   24054361.560
        42.0004         38.0004
 -12593520.83348  -9761898.08247  22868466.5134   22868476.4324   22868465.890
        49.0004         44.0004
  -2272696.76846  -1739413.84046  24463720.9294   24463737.4674   24463719.700
        41.0004         36.0004
  -6745321.23647  -5220341.14946  23309025.2354   23309036.7244   23309026.500
        45.0004         40.0004
 -23399901.75648 -17961272.88847  20908396.5974   20908403.4874   20908396.594
        52.0004         47.0004
 14  5 19  0  4 30.0000000  0 12G13G09G02G07G10G20G08G26G17G01G28G04
  17393112.82246  13539787.82545  24584954.7484   24584959.9414   24584955.339
        40.0004         35.0004
 -19789863.35049 -15411007.98148  19977875.3504   19977882.2414   19977875.368
        54.0004         50.0004
  -4640737.44347  -3569486.96346  23476579.8484   23476586.4604   23476579.360
        44.0004         40.0004
 -21405762.63248 -16644942.48848  20813301.6674   20813307.3374   20813301.329
        52.0004         48.0004
 -10396467.43047  -8091524.40546  23672968.8164   23672978.3394   23672969.875
        44.0004         39.0004
  -4652634.64746  -3560414.61346  23727607.0504   23727617.0174   23727606.686
        40.0004         36.0004
 -26410694.44949 -20537419.31248  19882093.0064   19882100.0984   19882093.348
        54.0004         49.0004
   -877468.28947   -666646.88646  24053754.9504   24053770.1534   24053755.052
        42.0004         38.0004
 -12550928.06048  -9728708.93147  22876571.2644   22876581.5784   22876570.814
        49.0004         44.0004
  -2167503.29946  -1657444.89246  24483737.5794   24483754.2344   24483737.220
        41.0004         36.0004
  -6799688.33947  -5262704.96146  23298680.7004   23298690.7994   23298680.696
        45.0004         40.0004
 -23457644.67648 -18006267.31047  20897408.5664   20897415.4764   20897408.035
        52.0004         47.0004
 14  5 19  0  5  0.0000000  0 12G13G09G02G07G10G20G08G26G17G01G28G04
  17458817.94346  13590986.75945  24597459.4704   24597464.1604   24597457.995
        40.0004         35.0004
 -19790279.35649 -15411332.07948  19977795.9824   19977802.7444   19977796.128
        54.0004         50.0004
  -4727717.92147  -3637263.79346  23460027.0084   23460034.7554   23460027.724
        44.0004         40.0004
 -21342047.59548 -16595294.37448  20825426.5874   20825431.9654   20825425.989
        52.0004         48.0004
 -10459397.20247  -8140560.44546  23660994.1054   23661004.5644   23660995.196
        44.0004         39.0004
  -4633440.82546  -3545458.37145  23731263.7724   23731268.7434   23731260.619
        40.0004         35.0004
 -26408861.85549 -20535991.26048  19882441.5264   19882448.6204   19882441.838
        54.0004         49.0004
   -880369.66447   -668907.51946  24053203.3924   24053215.7664   24053202.874
        42.0004         38.0004
 -12508359.71748  -9695538.81447  22884671.7214   22884681.1804   22884671.602
        49.0004         44.0004
  -2062207.16046  -1575395.95046  24503776.0024   24503790.1684   24503774.505
        41.0004         36.0004
  -6854200.84547  -5305182.07246  23288307.5674   23288317.0324   23288307.283
        45.0004         40.0004
 -23514919.94948 -18050897.33047  20886509.1974   20886516.4044   20886508.871
        52.0004         47.0004
 14  5 19  0  5 30.0000000  0 12G13G09G02G07G10G20G08G26G17G01G28G04
  17524294.11446  13642007.32445  24609916.0284   24609922.9634   24609917.220
        40.0004         35.0004
 -19790080.89449 -15411177.37448  19977834.0874   19977840.5004   19977834.067
        54.0004         50.0004
  -4814458.71047  -3704853.85846  23443520.7914   23443528.0454   23443521.933
        44.0004         39.0004
 -21277843.96348 -16545265.53748  20837643.8764   20837649.7664   20837643.545
        52.0004         48.0004
 -10522501.07247  -8189732.14246  23648986.0124   23648995.3154   23648986.305
        44.0004         39.0004
  -4613953.57446  -3530273.50446  23734967.6984   23734978.8134   23734968.295
        40.0004         36.0004
 -26406362.14749 -20534043.38748  19882917.3104   19882923.6344   19882917.553
        54.0004         49.0004
   -882985.91947   -670945.97446  24052705.6924   24052719.3754   24052704.974
        42.0004         38.0004
 -12465813.92148  -9662386.25647  22892767.5924   22892778.0944   22892767.688
        49.0004         44.0004
  -1956806.81146  -1493265.78146  24523831.8964   24523850.3024   24523831.255
        41.0004         36.0004
  -6908852.73647  -5347767.79846  23277907.6624   23277918.5144   23277907.065
        45.0004         41.0004
 -23571721.34648 -18095158.09647  20875700.6644   20875707.6424   20875700.114
        52.0004         47.0004
 14  5 19  0  6  0.0000000  0 12G13G09G02G07G10G20G08G26G17G01G28G04
  17589537.55746  13692846.52345  24622331.8774   24622338.3554   24622332.000
        40.0004         35.0004
 -19789269.96449 -15410545.41848  19977988.2364   19977994.8764   19977988.305
        54.0004         50.0004
  -4900959.58047  -3772256.95246  23427060.7904   23427067.4184   23427061.293
        44.0004         40.0004
 -21213156.11348 -16494859.38747  20849953.4614   20849959.3154   20849953.046
        52.0004         47.0004
 -10585779.50047  -8239039.86146  23636944.4184   23636953.0284   23636944.249
        44.0004         39.0004
  -4594173.55046  -3514860.48746  23738733.3024   23738741.9284   23738732.817
        40.0004         36.0004
 -26403197.02149 -20531577.00448  19883519.7784   19883526.4284   19883519.777
        54.0004         49.0004
   -885320.66347   -672765.07646  24052261.1644   24052275.4144   24052260.462
        42.0004         38.0004
 -12423294.84648  -9629254.52647  22900859.6274   22900868.5394   22900858.684
        49.0004         44.0004
  -1851306.87746  -1411058.03346  24543907.8004   24543923.0314   24543907.555
        41.0004         36.0004
  -6963643.90247  -5390462.04846  23267480.6564   23267490.2114   23267480.536
        45.0004         40.0004
 -23628048.98948 -18139049.70748  20864981.4634   20864988.5264   20864981.222
        52.0004         48.0004
 14  5 19  0  6 30.0000000  0 12G13G09G02G07G10G20G08G26G17G01G28G04
  17654549.06846  13743505.00345  24634703.8924   24634710.9604   24634702.859
        40.0004         35.0004
 -19787845.56249 -15409435.43648  19978259.2654   19978265.9894   19978259.164
        54.0004         50.0004
  -4987216.70747  -3839470.12946  23410645.1494   23410652.7294   23410645.864
        44.0004         40.0004
 -21147984.92548 -16444076.60747  20862354.4934   20862361.0784   20862354.497
        52.0004         47.0004
 -10649229.89447  -8288481.57646  23624869.5944   23624879.3544   23624869.960
        44.0004         39.0004
  -4574098.09246  -3499217.25546  23742552.9364   23742563.5304   23742553.094
        40.0004         36.0004
 -26399365.19949 -20528591.12148  19884248.5344   19884255.7144   19884248.907
        54.0004         49.0004
   -887374.51747   -674365.29546  24051870.4134   24051883.4474   24051869.854
        43.0004         38.0004
 -12380803.60848  -9596144.48247  22908944.6534   22908956.2154   22908944.836
        49.0004         44.0004
  -1745708.56946  -1328773.62346  24564002.7424   24564018.8014   24564001.985
        41.0004         37.0004
  -7018570.94447  -5433262.16946  23257027.1384   23257037.6234   23257028.122
        45.0004         40.0004
 -23683899.57748 -18182569.58848  20854353.6674   20854360.7364   20854353.223
        52.0004         48.0004
 14  5 19  0  7  0.0000000  0 12G13G09G02G07G10G20G08G26G17G01G28G04
  17719324.88746  13793979.82445  24647029.8434   24647035.0484   24647029.799
        40.0004         35.0004
 -19785810.81249 -15407849.85948  19978646.1424   19978652.8864   19978646.204
        54.0004         50.0004
  -5073230.87247  -3906493.99046  23394278.8044   23394284.6444   23394278.403
        44.0004         40.0004
 -21082335.76148 -16392921.38547  20874848.0224   20874853.1924   20874847.286
        52.0004         47.0004
 -10712853.47847  -8338058.24446  23612762.7064   23612771.8564   23612763.485
        44.0004         39.0004
  -4553728.74546  -3483345.05046  23746429.9284   23746438.7184   23746429.306
        40.0004         36.0004
 -26394869.53649 -20525087.95848  19885103.9264   19885110.9254   19885104.338
        54.0004         49.0004
   -889151.97947   -675750.13346  24051530.5734   24051544.7004   24051531.281
        43.0004         38.0004
 -12338344.97448  -9563059.84947  22917023.6964   22917036.0564   22917023.803
        48.0004         44.0004
  -1640017.40946  -1246416.86646  24584113.2394   24584131.0584   24584114.608
        41.0004         37.0004
  -7073634.86247  -5476168.94446  23246548.6594   23246559.4844   23246549.612
        45.0004         40.0004
 -23739274.25548 -18225718.62848  20843815.7064   20843823.3014   20843815.309
        52.0004         48.0004
 14  5 19  0  7 30.0000000  0 12G13G09G02G07G10G20G08G26G17G01G28G04
  17783867.78146  13844273.16245  24659315.3294   24659319.3874   24659311.492
        40.0004         35.0004
 -19783162.20849 -15405785.95548  19979150.1574   19979156.6054   19979150.302
        54.0004         50.0004
  -5158996.12047  -3973323.87846  23377956.9324   23377963.4734   23377958.691
        44.0004         40.0004
 -21016207.43748 -16341392.78747  20887431.9344   20887437.2084   20887431.193
        52.0004         47.0004
 -10776645.19347  -8387765.90746  23600623.8574   23600633.1054   23600624.144
        44.0004         39.0004
  -4533060.75946  -3467240.13945  23750360.1834   23750370.3014   23750361.531
        40.0004         35.0004
 -26389706.12149 -20521064.47048  19886086.8484   19886093.5464   19886087.014
        54.0004         49.0004
   -890651.11247   -676918.10546  24051245.8154   24051259.6884   24051245.461
        43.0004         38.0004
 -12295917.34648  -9529999.36847  22925098.4444   22925108.4734   22925097.531
        48.0004         44.0004
  -1534232.25346  -1163986.84246  24604245.2764   24604263.3714   24604244.764
        41.0004         37.0004
  -7128830.11447  -5519178.05446  23236044.8214   23236056.6344   23236045.684
        45.0004         40.0004
 -23794167.15048 -18268492.25347  20833370.7634   20833376.9664   20833370.401
        52.0004         47.0004
 14  5 19  0  8  0.0000000  0 12G13G09G02G07G10G20G08G26G17G01G28G04
  17848173.45546  13894381.63445  24671548.4514   24671557.2984   24671548.787
        40.0004         35.0004
 -19779903.64449 -15403246.75448  19979770.3774   19979776.9614   19979770.161
        54.0004         50.0004
  -5244513.62947  -4039960.73046  23361684.3684   23361691.0464   23361684.376
        45.0004         40.0004
 -20949605.39448 -16289495.05447  20900105.2824   20900111.0344   20900104.906
        52.0004         47.0004
 -10840606.97747  -8437606.10346  23588451.4244   23588460.8664   23588452.788
        44.0004         39.0004
  -4512096.34746  -3450904.24246  23754352.0524   23754360.6174   23754350.360
        40.0004         36.0004
 -26383878.12049 -20516523.11848  19887195.4574   19887202.4924   19887196.005
        54.0004         49.0004
   -891877.23247   -677873.33346  24051012.6104   24051026.3384   24051012.577
        43.0004         38.0004
 -12253526.50548  -9496967.54847  22933165.3614   22933174.5394   22933164.414
        48.0004         44.0004
  -1428359.01646  -1081488.19146  24624391.3684   24624405.7314   24624391.444
        41.0004         36.0004
  -7184158.01347  -5562290.51646  23225518.4204   23225527.4064   23225517.647
        45.0004         40.0004
 -23848579.93848 -18310891.77247  20823015.3004   20823022.8404   20823014.813
        52.0004         47.0004
 14  5 19  0  8 30.0000000  0 12G13G09G02G07G10G20G08G26G17G01G28G04
  17912248.51046  13944310.42645  24683739.8454   24683749.4634   24683741.387
        40.0004         35.0004
 -19776027.98949 -15400226.70848  19980507.6704   19980514.3474   19980507.581
        54.0004         49.0004
  -5329773.86747  -4106397.11346  23345459.2954   23345466.2024   23345458.819
        45.0004         40.0004
 -20882525.10048 -16237224.66947  20912870.4674   20912876.4114   20912870.023
        52.0004         47.0004
 -10904729.83047  -8487571.80846  23576249.4994   23576258.0814   23576250.322
        44.0004         39.0004
  -4490827.13246  -3434330.81846  23758398.4524   23758411.3424   23758398.997
        40.0004         36.0004
 -26377378.52149 -20511458.44948  19888432.4164   19888439.3214   19888432.502
        54.0004         49.0004
   -892824.67947   -678611.42046  24050831.8854   24050846.1184   24050831.268
        42.0004         38.0004
 -12211167.05548  -9463960.20047  22941223.7364   22941234.9984   22941225.099
        48.0004         44.0004
  -1322392.88946   -998917.14946  24644557.7374   24644572.1464   24644556.391
        41.0004         37.0004
  -7239608.99747  -5605498.89446  23214965.0074   23214976.4014   23214965.197
        45.0004         40.0004
 -23902503.47848 -18352910.04947  20812754.1714   20812761.2174   20812754.027
        52.0004         47.0004
 14  5 19  0  9  0.0000000  0 12G13G09G02G07G10G20G08G26G17G01G28G04
  17976080.86546  13994050.10745  24695885.7814   24695894.4134   24695888.578
        40.0004         35.0004
 -19771546.53349 -15396734.61148  19981360.4824   19981367.0824   19981360.701
        54.0004         50.0004
  -5414785.26447  -4172639.59446  23329281.9534   23329288.7774   23329281.729
        45.0004         40.0004
 -20814979.83548 -16184591.96047  20925724.0354   20925729.4994   20925723.194
        52.0004         47.0004
 -10969023.29247  -8537670.45046  23564014.6774   23564024.0844   23564015.637
        44.0004         39.0004
  -4469262.68846  -3417527.38145  23762502.2924   23762512.4154   23762502.685
        40.0004         35.0004
 -26370218.14349 -20505878.88148  19889794.9414   19889801.7594   19889795.444
        54.0004         49.0004
   -893506.26847   -679142.34046  24050702.4324   24050714.7894   24050702.324
        42.0004         38.0004
 -12168852.06348  -9430987.48147  22949277.5124   22949288.7524   22949277.407
        48.0004         43.0004
  -1216347.47746   -916284.32246  24664736.8254   24664752.7024   24664735.822
        41.0004         36.0004
  -7295192.10047  -5648810.22046  23204388.0124   23204398.0114   23204388.256
        45.0004         40.0004
 -23955946.82848 -18394554.16348  20802584.6674   20802591.5044   20802584.253
        52.0004         48.0004
 14  5 19  0  9 30.0000000  0 12G13G09G02G07G10G20G08G26G17G01G28G04
  18039674.52746  14043603.78645  24707990.9804   24707998.8834   24707989.506
        40.0004         35.0004
 -19766455.04449 -15392767.15948  19982328.9974   19982335.7064   19982329.214
        54.0004         50.0004
  -5499541.02647  -4238682.87746  23313154.0574   23313160.0064   23313153.363
        45.0004         40.0004
 -20746967.19848 -16131595.06947  20938666.0144   20938671.7374   20938665.962
        52.0004         47.0004
 -11033481.40547  -8587897.39746  23551748.9854   23551757.1954   23551749.569
        44.0004         40.0004
  -4447397.24046  -3400489.34646  23766663.0884   23766670.9944   23766664.625
        40.0004         36.0004
 -26362392.41749 -20499780.86348  19891283.8974   19891290.9024   19891284.372
        54.0004         49.0004
   -893919.20347   -679463.91946  24050624.8024   24050637.5244   24050622.592
        43.0004         38.0004
 -12126578.76848  -9398047.26547  22957321.8894   22957332.4034   22957321.874
        48.0004         43.0004
  -1110220.63846   -833588.05445  24684930.6454   24684948.3274   24684930.975
        40.0004         35.0004
  -7350900.59047  -5692219.26146  23193786.8134   23193796.9184   23193786.882
        45.0004         40.0004
 -24008903.47348 -18435819.02348  20792507.2474   20792513.9734   20792506.298
        52.0004         48.0004
 14  5 19  0 10  0.0000000  0 12G13G09G02G07G10G20G08G26G17G01G28G04
  18103028.83146  14092970.93245  24720044.9244   24720052.8284   24720044.913
        39.0004         35.0004
 -19760753.86249 -15388324.62748  19983414.0754   19983420.5684   19983414.081
        54.0004         50.0004
  -5584038.88147  -4304525.20746  23297073.8684   23297081.2614   23297073.981
        45.0004         40.0004
 -20678489.58748 -16078235.85947  20951696.8264   20951702.3694   20951696.399
        52.0004         47.0004
 -11098102.57747  -8638251.39746  23539452.0744   23539460.4984   23539452.256
        44.0004         40.0004
  -4425229.87946  -3383216.10946  23770879.9194   23770891.9164   23770881.797
        40.0004         36.0004
 -26353901.47449 -20493164.49548  19892899.6734   19892906.8484   19892900.078
        54.0004         49.0004
   -894065.27047   -679577.54646  24050594.5914   24050608.5624   24050595.243
        43.0004         38.0004
 -12084349.04948  -9365141.00347  22965358.5624   22965368.1004   22965357.851
        48.0004         43.0004
  -1004014.74546   -750830.19046  24705142.7544   24705160.8954   24705141.802
        40.0004         36.0004
  -7406732.25747  -5735724.27346  23183162.0644   23183172.7104   23183162.668
        45.0004         41.0004
 -24061371.58448 -18476703.20748  20782522.6964   20782529.0064   20782522.438
        52.0004         48.0004
 14  5 19  0 10 30.0000000  0 12G13G09G02G07G10G20G08G26G17G01G28G04
  18166142.66046  14142150.71145  24732054.7084   24732060.9054   24732056.002
        39.0004         35.0004
 -19754443.46349 -15383407.37548  19984615.1164   19984621.6174   19984614.956
        54.0004         50.0004
  -5668276.49147  -4370164.74446  23281043.5694   23281051.0134   23281044.317
        45.0004         40.0004
 -20609549.35248 -16024516.16147  20964815.3934   20964821.3264   20964815.467
        52.0004         47.0004
 -11162885.03847  -8688731.07646  23527123.4104   23527132.5904   23527123.980
        44.0004         40.0004
  -4402759.24546  -3365706.52945  23775158.9054   23775167.0444   23775158.037
        40.0004         35.0004
 -26344745.47049 -20486029.89948  19894642.1874   19894648.8864   19894642.491
        54.0004         49.0004
   -893946.28147   -679484.63146  24050616.9094   24050630.5014   24050617.294
        43.0004         38.0004
 -12042165.46648  -9332270.67647  22973385.9824   22973395.5864   22973385.164
        48.0004         43.0004
   -897732.39546   -668012.72945  24725364.2574   24725382.6914   24725366.459
        40.0004         35.0004
  -7462685.07547  -5779323.69646  23172515.4314   23172525.1524   23172514.935
        45.0004         41.0004
 -24113349.21048 -18517205.19948  20772631.9644   20772638.4044   20772631.425
        52.0004         48.0004
 14  5 19  0 11  0.0000000  0 12G13G09G02G07G10G20G08G26G17G01G28G04
  18229015.90146  14191143.01145  24744019.4654   24744027.9804   24744019.976
        40.0004         35.0004
 -19747523.62449 -15378015.23548  19985931.6164   19985937.8594   19985931.478
        54.0004         50.0004
  -5752250.79947  -4435599.10746  23265063.0694   23265071.0774   23265064.030
        45.0004         40.0004
 -20540148.37548 -15970437.45047  20978021.8924   20978027.6324   20978021.739
        52.0004         47.0004
 -11227826.57547  -8739334.71546  23514765.8014   23514774.5754   23514766.281
        44.0004         40.0004
  -4379983.26646  -3347959.01845  23779492.8974   23779502.9194   23779491.864
        40.0004         35.0004
 -26334923.69649 -20478376.51848  19896511.1014   19896517.9694   19896511.551
        54.0004         49.0004
   -893563.42347   -679186.12046  24050689.9404   24050703.6824   24050690.741
        43.0004         38.0004
 -12000029.30148  -9299437.30647  22981403.5494   22981413.4694   22981403.586
        48.0004         43.0004
   -791375.37546   -585137.10745  24745606.8124   24745623.8364   24745605.424
        39.0004         35.0004
  -7518756.14247  -5823015.25846  23161845.3584   23161854.5804   23161844.958
        46.0004         41.0004
 -24164834.04048 -18557323.19148  20762834.1154   20762840.9484   20762833.690
        52.0004         48.0004
 14  5 19  0 11 30.0000000  0 12G13G09G02G07G10G20G08G26G17G01G28G04
  18291647.48046  14239947.00545  24755940.1614   24755946.0984   24755937.678
        40.0004         35.0004
 -19739995.34249 -15372148.98548  19987364.4364   19987370.7814   19987364.468
        54.0004         49.0004
  -5835960.30047  -4500827.13746  23249134.8494   23249141.8514   23249134.735
        45.0004         41.0004
 -20470289.90148 -15916002.24147  20991315.7974   20991322.1194   20991315.486
        52.0004         47.0004
 -11292926.40547  -8790061.70046  23502377.3934   23502386.0774   23502377.960
        45.0004         40.0004
  -4356901.89746  -3329973.57245  23783885.5084   23783891.2474   23783884.569
        40.0004         35.0004
 -26324437.08749 -20470205.08948  19898506.6184   19898513.6304   19898506.764
        54.0004         49.0004
   -892919.05447   -678683.81646  24050812.4884   24050826.9584   24050813.099
        43.0004         38.0004
 -11957942.91648  -9266642.72847  22989414.1734   22989422.3564   22989412.548
        48.0004         43.0004
   -684946.81346   -502205.70945  24765857.4584   24765875.2874   24765857.853
        40.0004         35.0004
  -7574944.05547  -5866797.87646  23151152.5604   23151161.5304   23151152.557
        46.0004         41.0004
 -24215824.99948 -18597056.34348  20753131.4064   20753137.7474   20753130.892
        52.0004         48.0004
 14  5 19  0 12  0.0000000  0 11G13G09G02G07G10G20G08G26G17G28G04
  18354031.58146  14288558.13645  24767806.9104   24767816.4054   24767809.004
        40.0004         35.0004
 -19731863.93249 -15365812.76548  19988911.2524   19988917.9414   19988911.427
        54.0004         50.0004
  -5919407.59947  -4565850.84946  23233254.9054   23233262.8404   23233255.520
        45.0004         41.0004
 -20399981.01248 -15861216.06647  21004695.4154   21004700.8054   21004694.962
        52.0004         47.0004
 -11358187.50047  -8840914.33946  23489957.9884   23489968.0214   23489959.456
        45.0004         40.0004
  -4333518.63446  -3311752.87045  23788330.5594   23788344.7254   23788333.002
        39.0004         35.0004
 -26313290.41649 -20461519.32348  19900627.7764   19900634.8184   19900627.922
        54.0004         49.0004
   -892019.90947   -677983.01346  24050984.6064   24050997.3274   24050984.137
        43.0004         38.0004
 -11915913.32848  -9233892.40247  22997410.1284   22997420.4124   22997410.011
        48.0004         43.0004
  -7631251.26047  -5910673.45547  23140437.6254   23140448.0104   23140437.345
        46.0004         42.0004
 -24266325.07048 -18636406.99848  20743521.3814   20743527.4664   20743520.718
        52.0004         48.0004
 14  5 19  0 12 30.0000000  0 12G13G09G02G07G10G20G08G26G17G01G28G04
  18416176.37046  14336982.77745  24779635.7204   24779642.9984   24779635.247
        40.0004         35.0004
 -19723121.12549 -15359000.13348  19990575.1394   19990581.7884   19990575.284
        54.0004         50.0004
  -6002581.28347  -4630661.36346  23217427.5044   23217434.2164   23217427.300
        45.0004         41.0004
 -20329215.53648 -15806074.10147  21018161.5824   21018167.1094   21018160.996
        52.0004         47.0004
 -11423599.33947  -8891884.44746  23477510.4064   23477520.2854   23477512.130
        45.0004         40.0004
  -4309823.52746  -3293289.16545  23792842.2334   23792852.9374   23792842.586
        39.0004         34.0004
 -26301475.44649 -20452312.80848  19902875.8574   19902883.1844   19902876.439
        54.0004         49.0004
   -890859.04047   -677078.24946  24051203.8584   24051218.8994   24051204.272
        43.0004         38.0004
 -11873933.40248  -9201180.76747  23005398.3654   23005409.7744   23005398.669
        48.0004         43.0004
 -20952350.66246 -16294987.87045  24806400.8084   24806415.8984   24806400.860
        39.0004         34.0004
  -7687666.93947  -5954633.55347  23129701.1804   23129711.1404   23129701.933
        46.0004         42.0004
 -24316323.56648 -18675366.80148  20734006.0804   20734013.4064   20734006.184
        52.0004         48.0004
 14  5 19  0 13  0.0000000  0 12G13G09G02G07G10G20G08G26G17G01G28G04
  18478078.08946  14385218.02445  24791414.5264   24791422.0334   24791414.747
        40.0004         35.0004
 -19713770.99049 -15351714.25948  19992354.4324   19992360.9394   19992354.476
        54.0004         50.0004
  -6085483.21847  -4695260.12646  23201651.5664   23201658.6074   23201651.717
        45.0004         41.0004
 -20257998.69048 -15750580.42847  21031713.8004   21031719.2864   21031713.273
        52.0004         47.0004
 -11489163.89447  -8942973.54746  23465034.1334   23465043.1184   23465035.613
        45.0004         40.0004
  -4285818.86146  -3274584.29145  23797409.2824   23797423.6934   23797410.896
        39.0004         34.0004
 -26288995.29449 -20442587.96848  19905250.8444   19905257.9434   19905251.181
        54.0004         49.0004
   -889441.44247   -675973.45046  24051474.8994   24051488.9804   24051474.395
        43.0004         38.0004
 -11832008.73248  -9168512.20247  23013377.5304   23013387.5394   23013376.620
        48.0004         43.0004
 -20845722.49946 -16211900.96345  24826692.7704   24826704.7094   24826691.054
        39.0004         34.0004
  -7744192.31747  -5998679.13047  23118944.8194   23118955.0904   23118945.342
        46.0004         42.0004
 -24365822.17648 -18713937.09248  20724587.5484   20724594.1974   20724587.523
        52.0004         48.0004
 14  5 19  0 13 30.0000000  0 11G13G09G02G07G10G20G08G26G17G28G04
  18539739.83146  14433266.25345  24803150.1204   24803154.4474   24803148.287
        39.0004         35.0004
 -19703809.71849 -15343952.17148  19994249.9234   19994256.7904   19994249.882
        54.0004         50.0004
  -6168106.37447  -4759641.63946  23185927.3374   23185935.1354   23185928.941
        45.0004         41.0004
 -20186329.49248 -15694734.26747  21045351.8614   21045357.2514   21045351.112
        52.0004         47.0004
 -11554875.14747  -8994176.96546  23452529.7074   23452539.4904   23452531.187
        45.0004         40.0004
 -23166539.30446 -17986833.98845  23802040.9464   23802045.4104   23802038.423
        39.0004         34.0004
 -26275846.05549 -20432341.75848  19907753.2554   19907759.7654   19907753.426
        54.0004         49.0004
   -887765.04247   -674666.97846  24051793.3054   24051806.4134   24051792.377
        43.0004         38.0004
 -11790137.13848  -9135884.99047  23021346.1904   23021355.5634   23021345.208
        48.0004         43.0004
  -7800820.81847  -6042805.06247  23108169.9874   23108178.8044   23108169.235
        46.0004         42.0004
 -24414814.99748 -18752113.25948  20715264.3704   20715270.9874   20715263.282
        52.0004         48.0004
 14  5 19  0 14  0.0000000  0 12G13G09G02G07G10G20G08G26G17G01G28G04
  18601145.50146  14481114.94745  24814834.9774   24814840.4604   24814832.901
        40.0004         35.0004
 -19693253.51249 -15335726.50248  19996258.9214   19996265.0204   19996258.805
        54.0004         50.0004
  -6250464.05547  -4823816.30246  23170256.2214   23170263.6314   23170256.957
        45.0004         41.0004
 -20114225.89148 -15638549.61447  21059072.7234   21059078.0984   21059072.426
        52.0004         47.0004
 -11620747.11047  -9045505.61046  23439995.5744   23440003.9504   23439996.143
        45.0004         40.0004
 -23141919.07846 -17967649.44745  23806724.4724   23806734.8494   23806724.387
        39.0004         34.0004
 -26262043.74749 -20421586.66748  19910379.4854   19910386.0714   19910379.568
        54.0004         49.0004
   -885847.02947   -673172.24046  24052159.1144   24052172.2274   24052158.250
        42.0004         38.0004
 -11748336.03248  -9103312.70347  23029299.2884   23029309.7514   23029299.023
        48.0004         43.0004
 -20632284.80246 -16045585.76845  24867308.0024   24867324.8374   24867306.534
        38.0004         33.0004
  -7857565.80547  -6087021.77446  23097370.6964   23097380.7224   23097370.796
        46.0004         41.0004
 -24463315.81148 -18789906.04048  20706035.1494   20706041.4264   20706034.998
        52.0004         48.0004
 14  5 19  0 14 30.0000000  0 12G13G09G02G07G10G20G08G26G17G01G28G04
  18662310.18646  14528775.86145  24826471.4494   24826478.6544   24826472.283
        39.0004         35.0004
 -19682087.43049 -15327025.60348  19998383.5344   19998390.0184   19998383.490
        54.0004         50.0004
  -6332538.55547  -4887770.30446  23154638.4174   23154645.2144   23154638.538
        45.0004         41.0004
 -20041674.76748 -15582016.23347  21072878.1864   21072884.0454   21072877.942
        52.0004         47.0004
 -11686762.30147  -9096945.86346  23427432.7894   23427441.4234   23427433.167
        45.0004         41.0004
 -23116981.93646 -17948217.91545  23811469.4134   23811479.3494   23811469.143
        39.0004         34.0004
 -26247573.11849 -20410310.80948  19913133.1034   19913139.9744   19913133.295
        54.0004         49.0004
   -883673.79647   -671478.63846  24052572.0044   24052584.5744   24052571.320
        43.0004         38.0004
 -11706591.47048  -9070784.46447  23037242.2604   23037253.2294   23037242.689
        48.0004         43.0004
 -20525480.01256 -15962361.23055  24887631.7325   24887649.3735   24887630.739
        38.0004         33.0004
  -7914409.47647  -6131315.36346  23086553.0424   23086564.1764   23086552.998
        46.0004         41.0004
 -24511307.42748 -18827302.05048  20696902.5714   20696909.0314   20696901.774
        52.0004         48.0004
 14  5 19  0 15  0.0000000  0 12G13G09G02G07G10G20G08G26G17G01G28G04
  18723224.82146  14576241.93145  24838063.2964   24838071.5814   24838063.660
        39.0004         35.0004
 -19670320.82449 -15317856.76048  20000622.5484   20000629.0714   20000622.488
        54.0004         50.0004
  -6414336.16747  -4951508.55246  23139072.0774   23139078.5174   23139072.182
        45.0004         41.0004
 -19968687.00448 -15525142.61947  21086767.8044   21086773.3934   21086767.643
        52.0004         47.0004
 -11752927.83347  -9148503.26946  23414841.1434   23414849.5224   23414841.879
        45.0004         40.0004
 -23091735.17046 -17928545.14845  23816274.8564   23816283.6734   23816274.126
        39.0004         34.0004
 -26232443.21349 -20398521.23048  19916012.3084   19916018.9234   19916012.665
        54.0004         49.0004
   -881255.83647   -669594.34546  24053031.4524   24053044.4634   24053031.775
        43.0004         38.0004
 -11664914.70147  -9038309.05947  23045174.0844   23045182.9534   23045173.678
        47.0004         43.0004
 -20418624.71646 -15879097.27645  24907963.7574   24907982.1644   24907965.780
        38.0004         33.0004
  -7971358.09947  -6175690.74946  23075715.7574   23075725.9004   23075716.313
        46.0004         41.0004
 -24558796.72548 -18864306.63848  20687864.8134   20687872.0194   20687864.684
        52.0004         48.0004
 14  5 19  0 15 30.0000000  0 12G13G09G02G07G10G20G08G26G17G01G28G04
  18783892.94146  14623515.89245  24849605.6544   24849614.7674   24849608.154
        39.0004         34.0004
 -19657949.73749 -15308216.89748  20002976.9184   20002983.3344   20002976.650
        54.0004         50.0004
  -6495850.11447  -5015025.75546  23123560.5204   23123566.8914   23123560.983
        45.0004         41.0004
 -19895260.71948 -15467927.29547  21100740.1564   21100746.0124   21100739.669
        52.0004         47.0004
 -11819237.11147  -9200172.67446  23402223.6334   23402232.2674   23402223.731
        45.0004         40.0004
 -23066173.23346 -17908626.79245  23821134.9214   23821147.5734   23821136.997
        39.0004         34.0004
 -26216649.95449 -20386214.75048  19919017.2904   19919024.2304   19919017.819
        54.0004         49.0004
   -878590.40447   -667517.20846  24053537.4204   24053552.0864   24053538.536
        42.0004         38.0004
 -11623302.55948  -9005884.00647  23053092.6964   23053102.2494   23053092.469
        48.0004         43.0004
 -20311716.65956 -15795792.25955  24928309.6725   24928322.4865   24928308.719
        38.0004         33.0004
  -8028404.84147  -6220142.59246  23064861.0184   23064869.7264   23064860.410
        46.0004         41.0004
 -24605777.52048 -18900914.99548  20678924.9694   20678931.0784   20678924.906
        52.0004         48.0004
 14  5 19  0 16  0.0000000  0 11G13G09G02G07G10G20G08G26G17G28G04
  18844313.52646  14670596.94145  24861109.6334   24861111.5244   24861106.355
        39.0004         34.0004
 -19644975.19849 -15298106.80848  20005445.4744   20005452.0604   20005445.620
        54.0004         50.0004
  -6577078.42747  -5078320.39946  23108102.9254   23108110.0174   23108103.318
        45.0004         41.0004
 -19821398.99948 -15410372.67547  21114795.5624   21114800.7774   21114795.035
        52.0004         47.0004
 -11885689.18947  -9251953.36646  23389577.0264   23389587.3484   23389577.930
        45.0004         40.0004
 -23040295.50146 -17888462.35445  23826064.0474   23826073.3724   23826060.896
        39.0004         34.0004
 -26200194.26349 -20373392.08748  19922149.1964   19922155.4224   19922149.100
        54.0004         49.0004
   -875679.75147   -665249.00046  24054091.7474   24054106.0764   24054092.194
        42.0004         38.0004
 -11581757.22248  -8973511.01547  23060998.0734   23061008.6674   23060998.139
        48.0004         43.0004
  -8085547.95447  -6264669.53646  23053986.5594   23053996.8114   23053986.347
        46.0004         41.0004
 -24652248.56548 -18937126.14648  20670081.9904   20670088.4554   20670081.249
        52.0004         48.0004
 14  5 19  0 16 30.0000000  0 11G13G09G02G07G10G20G08G26G17G28G04
  18904482.46046  14717481.92945  24872555.8574   24872563.5074   24872554.825
        39.0004         34.0004
 -19631402.03149 -15287530.25648  20008028.4214   20008035.2644   20008028.369
        54.0004         50.0004
  -6658023.07247  -5141394.01046  23092701.0114   23092706.8034   23092699.810
        45.0004         41.0004
 -19747108.20948 -15352483.71047  21128932.3194   21128938.3244   21128931.904
        52.0004         47.0004
 -11952285.93147  -9303846.77346  23376904.2964   23376913.1234   23376905.066
        45.0004         40.0004
 -23014105.37246 -17868054.50245  23831047.0964   23831053.4784   23831045.328
        39.0004         34.0004
 -26183080.29549 -20360056.48448  19925405.4484   19925412.3274   19925405.789
        54.0004         49.0004
   -872529.75247   -662794.28646  24054692.1244   24054705.6734   24054691.871
        43.0004         38.0004
 -11540284.89048  -8941194.90347  23068889.5624   23068901.7264   23068889.741
        48.0004         43.0004
  -8142789.17747  -6309272.93646  23043094.7044   23043103.3764   23043093.908
        46.0004         41.0004
 -24698212.20448 -18972941.91448  20661335.1044   20661342.0394   20661334.941
        53.0004         48.0004
 14  5 19  0 17  0.0000000  0 11G13G09G02G07G10G20G08G26G17G28G04
  18964404.03846  14764174.16145  24883957.9014   24883963.5874   24883958.276
        39.0004         34.0004
 -19617225.73149 -15276483.73648  20010726.3514   20010732.8944   20010726.084
        54.0004         50.0004
  -6738676.30547  -5204240.53146  23077353.3144   23077358.1584   23077352.832
        46.0004         41.0004
 -19672385.73848 -15294258.37647  21143152.0304   21143157.2554   21143151.596
        51.0004         47.0004
 -12019020.36547  -9355847.48146  23364205.3804   23364213.4564   23364205.878
        45.0004         40.0004
 -22987595.58946 -17847397.56345  23836092.1474   23836101.9644   23836090.255
        39.0004         34.0004
 -26165303.21549 -20346204.17248  19928788.0794   19928795.0714   19928788.786
        54.0004         49.0004
   -869137.04547   -660150.43546  24055336.6604   24055350.2724   24055337.014
        42.0004         38.0004
 -11498881.88648  -8908932.82247  23076769.1234   23076779.4114   23076768.666
        48.0004         43.0004
  -8200120.54247  -6353946.57946  23032183.5094   23032192.5804   23032184.180
        45.0004         41.0004
 -24743661.56948 -19008356.95248  20652686.9294   20652693.3564   20652686.278
        53.0004         48.0004
 14  5 19  0 17 30.0000000  0 11G13G09G02G07G10G20G08G26G17G28G04
  19024072.59446  14810669.20245  24895312.8644   24895317.4484   24895312.775
        39.0004         34.0004
 -19602452.44949 -15264972.03448  20013537.3094   20013543.5934   20013537.191
        54.0004         50.0004
  -6819041.64847  -5266862.74246  23062058.5884   23062065.3994   23062059.456
        46.0004         41.0004
 -19597239.52748 -15235702.85047  21157451.7944   21157457.2634   21157451.136
        51.0004         47.0004
 -12085896.08547  -9407958.27646  23351479.1794   23351487.8664   23351479.863
        45.0004         41.0004
 -22960770.98446 -17826495.31945  23841194.7854   23841206.9784   23841195.063
        39.0004         34.0004
 -26146869.09749 -20331839.87948  19932296.6374   19932303.0604   19932296.610
        54.0004         49.0004
   -865508.82247   -657323.07146  24056027.4574   24056040.4164   24056027.980
        42.0004         38.0004
 -11457555.46748  -8876730.40747  23084632.8514   23084643.4354   23084632.698
        48.0004         43.0004
  -8257545.18347  -6398692.90146  23021255.7874   23021264.8414   23021256.352
        45.0004         41.0004
 -24788600.62248 -19043374.34448  20644134.8384   20644141.9144   20644134.205
        53.0004         48.0004
 14  5 19  0 18  0.0000000  0 11G13G09G02G07G10G20G08G26G17G28G04
  19083491.05046  14856969.41245  24906616.9094   24906625.8704   24906619.102
        39.0004         35.0004
 -19587079.35149 -15252992.94448  20016463.0164   20016468.8044   20016462.813
        54.0004         50.0004
  -6899112.91747  -5329255.78446  23046821.3004   23046827.7764   23046822.057
        46.0004         41.0004
 -19521668.60148 -15176816.38147  21171832.7584   21171838.1254   21171831.982
        51.0004         47.0004
 -12152907.77947  -9460175.02346  23338727.1484   23338735.7824   23338728.425
        45.0004         41.0004
 -22933627.11846 -17805344.30245  23846360.1684   23846371.1234   23846360.220
        39.0004         34.0004
 -26127774.80049 -20316961.16048  19935929.9064   19935936.4274   19935930.092
        54.0004         49.0004
   -861643.47147   -654310.94146  24056763.2064   24056774.6374   24056762.357
        42.0004         38.0004
 -11416303.77848  -8844586.22447  23092483.0614   23092492.9634   23092482.607
        48.0004         43.0004
  -8315057.45047  -6443507.50346  23010312.1434   23010322.2684   23010312.080
        46.0004         41.0004
 -24833023.86848 -19077989.80948  20635681.1854   20635687.9274   20635681.111
        53.0004         48.0004
 14  5 19  0 18 30.0000000  0 10G13G09G02G07G10G08G26G17G28G04
  19142670.88046  14903083.64745  24917879.3274   24917890.9464   24917881.010
        39.0004         34.0004
 -19571095.20949 -15240537.71348  20019504.2634   20019510.8004   20019504.283
        54.0004         50.0004
  -6978875.95347  -5391408.65546  23031643.5794   23031649.4804   23031643.388
        46.0004         41.0004
 -19445663.31148 -15117591.44047  21186296.0774   21186300.9684   21186294.968
        51.0004         47.0004
 -12220041.54147  -9512486.89046  23325952.2864   23325960.3734   23325953.276
        45.0004         41.0004
 -26108009.04448 -20301559.22748  19939690.8034   19939697.5644   19939691.147
        53.0004         49.0004
   -857530.97247   -651106.22446  24057545.0634   24057558.3254   24057545.643
        42.0004         38.0004
 -11375117.07748  -8812492.68047  23100320.7814   23100330.7714   23100320.294
        48.0004         43.0004
  -8372642.54147  -6488378.85846  22999353.9644   22999362.4644   22999353.902
        46.0004         41.0004
 -24876918.08148 -19112193.04348  20627328.5644   20627335.3074   20627328.300
        53.0004         48.0004
 14  5 19  0 19  0.0000000  0 10G13G09G02G07G10G08G26G17G28G04
  19201583.45846  14948989.63545  24929090.3444   24929098.5174   24929091.019
        39.0004         34.0004
 -19554528.92049 -15227628.87148  20022656.9564   20022663.1994   20022656.814
        54.0004         50.0004
  -7058356.75247  -5453341.61246  23016518.6654   23016524.2234   23016519.070
        46.0004         41.0004
 -19369254.70748 -15058052.23347  21200835.7674   21200841.4534   21200834.972
        51.0004         47.0004
 -12287323.56147  -9564914.28646  23313148.9554   23313157.0954   23313149.332
        45.0004         41.0004
 -26087600.29848 -20285656.26848  19943574.8314   19943581.0104   19943575.018
        53.0004         49.0004
   -853201.05147   -647732.07946  24058369.4924   24058381.9964   24058369.235
        42.0004         38.0004
 -11334025.01548  -8780472.88747  23108140.4254   23108149.6484   23108140.142
        48.0004         43.0004
  -8430326.44047  -6533327.19246  22988376.8874   22988385.3194   22988376.948
        46.0004         41.0004
 -24920309.63548 -19146004.59548  20619071.2834   20619078.3324   20619070.613
        53.0004         48.0004
 14  5 19  0 19 30.0000000  0 10G13G09G02G07G10G08G26G17G28G04
  19260243.59746  14994698.91145  24940255.4914   24940259.6064   24940253.706
        39.0004         34.0004
 -19537366.46349 -15214255.47148  20025922.7754   20025928.7234   20025922.691
        54.0004         50.0004
  -7137538.08047  -5515041.20646  23001450.6254   23001456.9664   23001450.031
        46.0004         41.0004
 -19292430.02848 -14998188.81447  21215454.6414   21215459.9564   21215454.764
        51.0004         47.0004
 -12354737.23247  -9617444.27546  23300319.5024   23300328.3874   23300320.335
        45.0004         40.0004
 -26066534.18348 -20269241.06848  19947583.3244   19947589.6694   19947583.725
        53.0004         49.0004
   -848640.72447   -644178.40146  24059236.9814   24059249.6904   24059236.857
        43.0004         38.0004
 -11293014.26448  -8748516.44847  23115944.1274   23115953.6854   23115943.982
        48.0004         43.0004
  -8488091.70347  -6578338.93046  22977383.8964   22977393.3564   22977384.463
        46.0004         41.0004
 -24963181.90348 -19179411.50748  20610913.0574   20610919.8594   20610913.163
        53.0004         48.0004
 14  5 19  0 20  0.0000000  0 10G13G09G02G07G10G08G26G17G28G04
  19318649.58446  15040210.13445  24951367.4994   24951374.8334   24951368.095
        39.0004         34.0004
 -19519609.68749 -15200418.97448  20029301.5584   20029307.5484   20029301.535
        54.0004         50.0004
  -7216418.56947  -5576506.39946  22986440.0664   22986446.4564   22986440.040
        46.0004         41.0004
 -19215193.02448 -14938004.10147  21230152.4674   21230157.9714   21230151.864
        51.0004         47.0004
 -12422281.30947  -9670075.87446  23287466.8534   23287474.0214   23287467.082
        45.0004         40.0004
 -26044812.55849 -20252315.08448  19951716.7314   19951723.5034   19951716.968
        54.0004         49.0004
   -843852.87747   -640447.43246  24060147.0774   24060160.2544   24060146.726
        43.0004         38.0004
 -11252087.94147  -8716625.78647  23123732.3024   23123742.8964   23123731.794
        47.0004         43.0004
  -8545936.87247  -6623412.92946  22966376.3414   22966384.7334   22966376.682
        46.0004         41.0004
 -25005534.61048 -19212413.57248  20602853.8104   20602860.3584   20602853.261
        53.0004         48.0004
 14  5 19  0 20 30.0000000  0 10G13G09G02G07G10G08G26G17G28G04
  19376801.15046  15085523.13445  24962435.0854   24962442.5404   24962434.408
        39.0004         34.0004
 -19501259.37849 -15186119.97948  20032793.5104   20032799.9464   20032793.705
        54.0004         50.0004
  -7294996.15847  -5637735.55146  22971486.7744   22971493.3134   22971488.157
        46.0004         41.0004
 -19137546.25948 -14877500.09447  21244928.0214   21244934.1514   21244927.798
        51.0004         47.0004
 -12489953.99247  -9722807.68246  23274589.7064   23274597.8154   23274589.485
        45.0004         41.0004
 -26022435.85349 -20234878.65348  19955974.9894   19955981.7454   19955975.198
        54.0004         49.0004
   -838839.34247   -636540.60746  24061101.8814   24061114.5894   24061101.321
        43.0004         38.0004
 -11211247.56148  -8684802.10447  23131503.8114   23131514.1054   23131503.737
        48.0004         43.0004
  -8603859.27547  -6668547.11846  22955354.4574   22955363.0284   22955354.365
        46.0004         41.0004
 -25047365.99848 -19245009.41048  20594893.0124   20594900.0304   20594892.546
        53.0004         48.0004
 14  5 19  0 21  0.0000000  0 10G13G09G02G07G10G08G26G17G28G04
  19434698.96446  15130638.38445  24973454.3894   24973458.6694   24973451.141
        38.0004         33.0004
 -19482315.79749 -15171358.69648  20036398.2514   20036404.4964   20036398.188
        54.0004         50.0004
  -7373267.63347  -5698726.17746  22956591.9014   22956598.9584   22956592.189
        46.0004         41.0004
 -19059491.29448 -14816678.00947  21259781.7634   21259786.7834   21259780.904
        51.0004         47.0004
 -12557752.29247  -9775637.38746  23261687.7154   23261695.2524   23261687.866
        45.0004         40.0004
 -25999403.98249 -20216931.69748  19960357.9154   19960364.5514   19960358.159
        54.0004         49.0004
   -833601.07647   -632458.65046  24062098.6964   24062110.8164   24062097.855
        43.0004         38.0004
 -11170493.67047  -8653045.80647  23139258.6834   23139270.5644   23139258.631
        47.0004         43.0004
  -8661855.65647  -6713738.94146  22944317.2484   22944326.4664   22944317.577
        46.0004         41.0004
