     2.11           OBSERVATION DATA    G (GPS)             RINEX VERSION / TYPE
teqc  2013Mar15     gpsops              20140527 00:23:14UTCPGM / RUN BY / DATE
Linux 2.4.21-27.ELsmp|Opteron|gcc -static|Linux x86_64|=+   COMMENT
BIT 2 OF LLI FLAGS DATA COLLECTED UNDER A/S CONDITION       COMMENT
GLPS                                                        MARKER NAME
42005M002                                                   MARKER NUMBER
GGN                 JPL                                     OBSERVER / AGENCY
ZR220013847         ASHTECH UZ-12       CQ00                REC # / TYPE / VERS
CR519992104         ASH701945B_M    SCIT                    ANT # / TYPE
   -33801.4662 -6377516.5323   -82154.3508                  APPROX POSITION XYZ
        0.0083        0.0000        0.0000                  ANTENNA: DELTA H/E/N
     1     1                                                WAVELENGTH FACT L1/2
     7    L1    L2    P1    P2    C1    S1    S2            # / TYPES OF OBSERV
    30.0000                                                 INTERVAL
                                                            COMMENT
This data is provided as a public service by NASA/JPL.      COMMENT
No warranty is expressed or implied regarding suitability   COMMENT
for use.  For further information, contact:                 COMMENT
Dave Stowers, NASA/JPL m/s 238-600                          COMMENT
4800 Oak Grove Drive, Pasadena CA 91109 USA                 COMMENT
                                                            COMMENT
Forced Modulo Decimation to 30 seconds                      COMMENT
 SNR is mapped to RINEX snr flag value [0-9]                COMMENT
  L1 & L2: min(max(int(snr_dBHz/6), 0), 9)                  COMMENT
pseudorange smoothing corrections not applied               COMMENT
  2014     5    26     0     0    0.0000000     GPS         TIME OF FIRST OBS
                                                            END OF HEADER
 14  5 26  0  0  0.0000000  0 11G09G26G02G07G10G08G28G20G04G17G13
 -12171299.06549  -9477159.54448  20102200.3084   20102205.8624   20102200.200
        54.0004         49.0004
  -1645983.97747  -1265267.04746  24085873.9304   24085885.3454   24085873.922
        43.0004         38.0004
  -8198599.16647  -6335012.70247  22716575.6694   22716582.3344   22716576.832
        47.0004         42.0004
 -17729739.66348 -13790582.11647  21502550.2274   21502555.8424   21502550.011
        50.0004         46.0004
 -14466333.29847 -11267034.14646  23071718.6014   23071725.7144   23071718.188
        46.0004         41.0004
 -19432724.89348 -15128033.38748  20072791.1804   20072797.7214   20072791.374
        53.0004         49.0004
  -7167109.84447  -5586249.22047  22775128.1524   22775136.4774   22775128.454
        46.0004         42.0004
 -10946549.91446  -8472790.67745  23944414.8914   23944422.0054   23944414.701
        39.0004         35.0004
 -24566750.57348 -19095463.13148  20487358.7724   20487364.8034   20487358.385
        53.0004         48.0004
 -11882930.77047  -9196558.13547  23259454.7304   23259465.9984   23259454.240
        47.0004         43.0004
                   2649853.40345                  25153646.1484   25153636.908
                        33.0004
 14  5 26  0  0 30.0000000  0 11G09G26G02G07G10G08G28G20G04G17G13
 -12143017.92849  -9455122.26048  20107581.5454   20107587.4174   20107581.553
        54.0004         49.0004
  -1637463.21147  -1258627.32746  24087495.6004   24087506.7624   24087495.674
        43.0004         38.0004
  -8271363.72047  -6391712.25747  22702729.5404   22702734.0784   22702730.310
        47.0004         42.0004
 -17645294.94148 -13724781.01047  21518619.5404   21518625.0764   21518619.484
        50.0004         46.0004
 -14536011.63747 -11321328.86346  23058458.6974   23058464.9204   23058458.498
        46.0004         41.0004
 -19396918.17248 -15100132.01848  20079605.0434   20079611.4514   20079604.969
        53.0004         49.0004
  -7226007.85447  -5632143.57946  22763919.7854   22763929.2614   22763920.077
        46.0004         41.0004
 -10912471.40746  -8446236.03745  23950900.8124   23950911.1804   23950898.428
        39.0004         34.0004
 -24599769.20048 -19121191.91148  20481075.4944   20481081.3934   20481074.986
        53.0004         48.0004
 -11843761.78447  -9166036.84247  23266908.3634   23266919.9944   23266907.910
        47.0004         43.0004
                   -991154.01645                  25163848.3844   25163841.640
                        32.0004
 14  5 26  0  1  0.0000000  0 11G09G26G02G07G10G08G28G20G04G17G13
 -12114167.27449  -9432641.19848  20113071.9144   20113077.3674   20113071.779
        54.0004         49.0004
  -1628754.84147  -1251841.42646  24089152.1284   24089165.3274   24089152.013
        43.0004         38.0004
  -8343787.54047  -6448146.29547  22688947.9874   22688952.1324   22688948.333
        47.0004         42.0004
 -17560493.13648 -13658701.65647  21534756.8294   21534762.8134   21534756.732
        50.0004         45.0004
 -14605784.76947 -11375697.44446  23045180.0464   23045188.2674   23045181.742
        46.0004         41.0004
 -19360482.27548 -15071740.37748  20086538.5034   20086544.6994   20086538.762
        53.0004         49.0004
  -7284939.57947  -5678064.21647  22752705.3484   22752714.5674   22752705.533
        46.0004         42.0004
 -10878057.49746  -8419420.05545  23957447.1784   23957455.9414   23957447.800
        39.0004         35.0004
 -24632246.93948 -19146499.21048  20474895.0024   20474901.0834   20474894.678
        53.0004         48.0004
 -11804712.85047  -9135609.09047  23274339.6384   23274351.5554   23274338.642
        47.0004         43.0004
                   -949566.49945                  25174004.9944   25173998.591
                        32.0004
 14  5 26  0  1 30.0000000  0 11G09G26G02G07G10G08G28G20G04G17G13
 -12084751.71949  -9409719.94948  20118669.3304   20118674.9974   20118669.338
        54.0004         49.0004
  -1619864.39347  -1244913.65546  24090844.7964   24090854.6594   24090844.392
        43.0004         38.0004
  -8415871.95547  -6504315.86347  22675230.5314   22675236.0594   22675231.002
        47.0004         42.0004
 -17475340.85048 -13592349.19747  21550960.9824   21550965.6104   21550960.343
        50.0004         45.0004
 -14675654.25147 -11430141.10646  23031884.8524   23031891.8974   23031885.450
        46.0004         41.0004
 -19323421.76648 -15042862.02348  20093590.8994   20093596.8594   20093591.139
        53.0004         48.0004
  -7343905.58347  -5724011.55647  22741484.0134   22741492.5864   22741484.764
        46.0004         42.0004
 -10843311.36546  -8392345.19245  23964061.7974   23964069.7704   23964060.831
        39.0004         35.0004
 -24664186.42748 -19171387.09948  20468817.2814   20468823.8174   20468816.907
        53.0004         48.0004
 -11765788.75947  -9105278.61647  23281746.0104   23281757.8474   23281745.751
        47.0004         43.0004
                   -908186.75945                  25184114.4024   25184104.039
                        33.0004
 14  5 26  0  2  0.0000000  0 11G09G26G02G07G10G08G28G20G04G17G13
 -12054769.22349  -9386356.92748  20124374.8084   20124380.5684   20124374.705
        54.0004         49.0004
  -1610790.26847  -1237842.76246  24092570.5364   24092582.4924   24092570.208
        43.0004         38.0004
  -8487611.49747  -6560216.70947  22661578.9314   22661583.3154   22661579.174
        47.0004         42.0004
 -17389837.22248 -13525722.97647  21567231.9444   21567236.8324   21567231.513
        50.0004         45.0004
 -14745614.39747 -11484655.41146  23018571.1094   23018578.9584   23018571.849
        46.0004         41.0004
 -19285734.67948 -15013495.42648  20100762.3484   20100769.0674   20100762.716
        53.0004         48.0004
  -7402899.95847  -5769981.00147  22730258.3694   22730265.8364   22730258.328
        46.0004         42.0004
 -10808228.59446  -8365008.03345  23970736.4284   23970745.4624   23970734.584
        39.0004         35.0004
 -24695582.90248 -19195851.85548  20462842.7314   20462848.8374   20462841.979
        53.0004         48.0004
 -11726987.30047  -9075043.69547  23289129.8404   23289141.1604   23289129.451
        47.0004         43.0004
  -1201152.49146   -867012.28145  25194160.7044   25194166.3214   25194159.397
        37.0004         32.0004
 14  5 26  0  2 30.0000000  0 11G09G26G02G07G10G08G28G20G04G17G13
 -12024221.85749  -9362553.74748  20130187.8324   20130193.6924   20130187.622
        54.0004         49.0004
  -1601535.33747  -1230630.98146  24094331.3754   24094342.3094   24094331.699
        43.0004         38.0004
  -8559004.77547  -6615847.72847  22647993.5384   22647998.2614   22647994.142
        47.0004         42.0004
 -17303985.58448 -13458825.56947  21583569.3124   21583574.8504   21583568.172
        50.0004         45.0004
 -14815663.89947 -11539239.33646  23005243.3864   23005249.1484   23005242.403
        46.0004         41.0004
 -19247423.09248 -14983642.20948  20108052.4164   20108058.8724   20108052.941
        53.0004         48.0004
  -7461920.57747  -5815970.91847  22719028.0194   22719034.5214   22719026.920
        46.0004         42.0004
 -10772809.16446  -8337408.51445  23977476.5994   23977484.6894   23977476.022
        39.0004         34.0004
 -24726436.02348 -19219893.22148  20456971.3934   20456977.6154   20456971.336
        53.0004         48.0004
 -11688311.45847  -9044906.67147  23296490.4854   23296500.9604   23296489.333
        47.0004         43.0004
  -1148575.83856   -826043.39155  25204169.0545   25204162.3885   25204163.387
        37.0004         32.0004
 14  5 26  0  3  0.0000000  0 10G09G26G02G07G10G08G28G20G04G17
 -11993112.04649  -9338312.30448  20136107.7444   20136113.6104   20136107.893
        54.0004         49.0004
  -1592102.36947  -1223280.46946  24096126.1474   24096137.3894   24096127.179
        43.0004         38.0004
  -8630050.69247  -6671208.08647  22634474.0274   22634478.3574   22634474.512
        47.0004         42.0004
 -17217789.59048 -13391659.83247  21599971.3554   21599977.0214   21599971.077
        50.0004         45.0004
 -14885801.15247 -11593891.65446  22991894.0884   22991902.2824   22991895.505
        46.0004         41.0004
 -19208489.34848 -14953304.19648  20115461.5634   20115467.7954   20115461.798
        53.0004         49.0004
  -7520965.56947  -5861979.82447  22707790.5334   22707799.4104   22707791.115
        47.0004         42.0004
 -10737053.38546  -8309546.92545  23984280.8634   23984290.1184   23984280.277
        39.0004         35.0004
 -24756745.76048 -19243511.17548  20451203.4894   20451209.9864   20451203.029
        53.0004         48.0004
 -11649763.04847  -9014868.92747  23303825.6334   23303835.4574   23303824.581
        47.0004         42.0004
 14  5 26  0  3 30.0000000  0 10G09G26G02G07G10G08G28G20G04G17
 -11961440.47549  -9313633.11448  20142134.7454   20142140.3044   20142134.411
        54.0004         49.0004
  -1582492.64847  -1215792.22646  24097955.4034   24097966.9164   24097955.487
        43.0004         38.0004
  -8700746.76047  -6726295.84947  22621021.2314   22621026.0664   22621020.241
        47.0004         43.0004
 -17131251.20248 -13324227.30247  21616438.7434   21616443.8584   21616438.299
        50.0004         45.0004
 -14956023.18847 -11648610.02846  22978531.5534   22978538.9514   22978532.494
        46.0004         41.0004
 -19168934.04048 -14922481.84448  20122988.3494   20122995.0484   20122988.916
        53.0004         48.0004
  -7580031.73747  -5908005.22247  22696550.2204   22696559.0284   22696550.628
        47.0004         42.0004
 -10700959.95546  -8281422.24445  23991148.3544   23991160.2294   23991148.285
        39.0004         35.0004
 -24786510.38848 -19266704.36248  20445539.8064   20445545.2844   20445539.302
        53.0004         48.0004
 -11611343.02047  -8984931.21247  23311136.2654   23311146.8424   23311135.652
        47.0004         43.0004
 14  5 26  0  4  0.0000000  0 10G09G26G02G07G10G08G28G20G04G17
 -11929209.92949  -9288518.36548  20148267.8794   20148273.7284   20148267.947
        54.0004         50.0004
  -1572709.50047  -1208168.85346  24099815.5264   24099828.5764   24099816.957
        43.0004         38.0004
  -8771091.95747  -6781110.19747  22607633.8754   22607639.3054   22607634.600
        47.0004         42.0004
 -17044374.87248 -13256531.43347  21632970.8624   21632975.3834   21632970.575
        50.0004         45.0004
 -15026329.15747 -11703393.80946  22965152.9224   22965159.5294   22965153.109
        46.0004         41.0004
 -19128760.24148 -14891177.54948  20130633.6624   20130639.5744   20130633.705
        53.0004         48.0004
  -7639117.50047  -5954045.89747  22685307.2544   22685315.1544   22685307.291
        47.0004         42.0004
 -10664529.06146  -8253034.56245  23998081.0494   23998089.4634   23998081.117
        39.0004         34.0004
 -24815730.25248 -19289473.05448  20439979.3454   20439985.1494   20439978.647
        53.0004         48.0004
 -11573054.14647  -8955095.71947  23318422.0424   23318432.6974   23318421.701
        47.0004         42.0004
 14  5 26  0  4 30.0000000  0 10G09G26G02G07G10G08G28G20G04G17
 -11896421.54249  -9262968.93348  20154507.1514   20154513.1214   20154507.368
        54.0004         50.0004
  -1562754.40447  -1200411.48846  24101710.7654   24101721.8854   24101711.220
        43.0004         38.0004
  -8841083.95047  -6835649.32347  22594315.7904   22594319.7734   22594315.263
        47.0004         42.0004
 -16957162.97048 -13188574.08247  21649566.8894   21649572.3614   21649566.978
        50.0004         45.0004
 -15096716.42047 -11758240.91346  22951758.7704   22951766.4944   22951758.894
        46.0004         41.0004
 -19087968.99448 -14859392.12648  20138395.8304   20138401.8304   20138395.929
        53.0004         48.0004
  -7698219.60547  -6000099.30247  22674061.0274   22674069.6114   22674060.409
        47.0004         42.0004
 -10627760.19446  -8224383.52845  24005076.6414   24005083.6094   24005078.986
        39.0004         35.0004
 -24844403.92348 -19311816.14648  20434522.6824   20434528.8964   20434522.385
        53.0004         48.0004
 -11534897.17147  -8925362.99047  23325683.7404   23325694.3944   23325683.282
        47.0004         43.0004
 14  5 26  0  5  0.0000000  0 10G09G26G02G07G10G08G28G20G04G17
 -11863077.21149  -9236986.30048  20160852.4344   20160858.3134   20160852.200
        54.0004         50.0004
  -1552629.62347  -1192521.89046  24103636.7674   24103648.4954   24103637.773
        42.0004         38.0004
  -8910721.02247  -6889911.88747  22581064.0664   22581068.4544   22581063.862
        47.0004         43.0004
 -16869618.11348 -13120357.28747  21666225.8574   21666232.1464   21666225.817
        50.0004         45.0004
 -15167182.84547 -11813149.71847  22938349.5054   22938356.5724   22938350.651
        46.0004         42.0004
 -19046561.98548 -14827126.88948  20146274.8984   20146281.5294   20146275.407
        53.0004         48.0004
  -7757335.66847  -6046163.59447  22662810.6394   22662817.9794   22662810.275
        47.0004         42.0004
 -10590652.74946  -8195468.70145  24012137.4094   24012149.9514   24012139.927
        39.0004         34.0004
 -24872530.56448 -19333732.97948  20429170.4004   20429176.3164   20429169.991
        53.0004         48.0004
 -11496873.75747  -8895734.33547  23332919.3184   23332930.9854   23332918.339
        47.0004         42.0004
 14  5 26  0  5 30.0000000  0 10G09G26G02G07G10G08G28G20G04G17
 -11829178.85249  -9210571.95548  20167302.9734   20167308.9124   20167303.113
        54.0004         50.0004
  -1542337.50147  -1184501.90546  24105596.5584   24105606.0984   24105596.358
        42.0004         38.0004
  -8980001.67847  -6943896.73047  22567880.6694   22567884.3844   22567880.634
        47.0004         43.0004
 -16781743.45348 -13051883.50347  21682948.5484   21682953.5724   21682947.500
        50.0004         45.0004
 -15237726.40147 -11868118.61246  22924924.4994   22924933.7714   22924925.981
        46.0004         41.0004
 -19004541.14048 -14794383.34148  20154271.4744   20154277.6384   20154271.925
        53.0004         48.0004
  -7816462.97647  -6092236.65547  22651558.1404   22651567.3794   22651558.721
        47.0004         42.0004
 -10553206.55446  -8166289.89945  24019265.4214   24019272.4224   24019265.554
        39.0004         34.0004
 -24900109.98648 -19355223.40248  20423922.0084   20423928.6284   20423921.350
        53.0004         48.0004
 -11458985.78547  -8866211.21047  23340128.7944   23340139.4424   23340128.217
        47.0004         42.0004
 14  5 26  0  6  0.0000000  0 10G09G26G02G07G10G08G28G20G04G17
 -11794727.38949  -9183726.62048  20173859.0814   20173864.9064   20173858.793
        54.0004         50.0004
  -1531879.38147  -1176352.57646  24107586.7254   24107597.0334   24107586.232
        42.0004         38.0004
  -9048923.19747  -6997601.71847  22554764.7214   22554769.1324   22554765.627
        47.0004         43.0004
 -16693541.17148 -12983154.43147  21699732.5884   21699737.0074   21699732.145
        50.0004         45.0004
 -15308344.36147 -11923145.49146  22911487.1564   22911494.1474   22911487.593
        46.0004         41.0004
 -18961907.38448 -14761162.19748  20162384.5204   20162390.6204   20162384.720
        53.0004         48.0004
  -7875598.33047  -6138315.98747  22640304.7444   22640314.2184   22640305.339
        47.0004         42.0004
 -10515420.24346  -8136846.03045  24026451.8344   24026468.1394   24026455.593
        38.0004         34.0004
 -24927140.31148 -19376285.97048  20418778.3184   20418784.9464   20418778.304
        53.0004         49.0004
 -11421234.02647  -8836794.24647  23347312.6454   23347323.0684   23347311.952
        47.0004         42.0004
 14  5 26  0  6 30.0000000  0 10G09G26G02G07G10G08G28G20G04G17
 -11759726.86549  -9156453.44248  20180519.0934   20180525.0204   20180519.216
        54.0004         50.0004
  -1521259.75847  -1168077.41546  24109607.6454   24109616.1794   24109606.858
        42.0004         38.0004
  -9117486.06048  -7051027.24547  22541718.0654   22541721.7194   22541717.040
        48.0004         43.0004
 -16605016.66948 -12914174.27147  21716577.9414   21716583.3294   21716577.985
        50.0004         45.0004
 -15379036.77447 -11978230.39446  22898035.1494   22898041.8254   22898035.282
        46.0004         41.0004
 -18918664.82748 -14727466.66748  20170612.8814   20170619.0734   20170613.784
        53.0004         48.0004
  -7934741.09047  -6184401.09547  22629050.7234   22629059.8664   22629051.175
        47.0004         42.0004
 -10477295.59246  -8107138.54745  24033710.9244   24033723.9444   24033710.558
        38.0004         34.0004
 -24953623.18348 -19396921.94148  20413739.0104   20413744.8934   20413738.290
        53.0004         49.0004
 -11383622.18647  -8807486.29247  23354469.0674   23354481.6024   23354469.300
        47.0004         42.0004
 14  5 26  0  7  0.0000000  0 10G09G26G02G07G10G08G28G20G04G17
 -11724177.65449  -9128752.71848  20187284.2554   20187289.6404   20187284.051
        54.0004         50.0004
  -1510479.04047  -1159676.71546  24111659.1554   24111669.6954   24111658.064
        42.0004         38.0004
  -9185686.76948  -7104170.56047  22528738.2574   22528744.3244   22528740.091
        48.0004         43.0004
 -16516170.79048 -12844943.69247  21733485.8314   21733490.7334   21733484.558
        50.0004         45.0004
 -15449799.55047 -12033370.12246  22884569.4794   22884575.5194   22884569.901
        46.0004         41.0004
 -18874813.65848 -14693296.88348  20178957.8634   20178963.5844   20178958.076
        53.0004         48.0004
  -7993887.22647  -6230488.83547  22617795.9354   22617803.5954   22617795.724
        47.0004         42.0004
 -10438830.50546  -8077165.76145  24041029.5554   24041041.8294   24041030.237
        38.0004         34.0004
 -24979556.47148 -19417129.66448  20408803.8244   20408810.2124   20408803.754
        53.0004         49.0004
 -11346150.23947  -8778287.36147  23361601.0774   23361611.9594   23361599.946
        47.0004         42.0004
 14  5 26  0  7 30.0000000  0 10G09G26G02G07G10G08G28G20G04G17
 -11688082.30849  -9100626.43248  20194152.6844   20194158.4434   20194152.413
        54.0004         49.0004
  -1499540.48547  -1151153.02946  24113740.8754   24113752.0404   24113739.724
        42.0004         38.0004
  -9253524.61148  -7157031.12147  22515829.3394   22515834.3844   22515830.297
        48.0004         43.0004
 -16427007.91148 -12775466.09947  21750452.0774   21750457.0434   21750451.674
        50.0004         45.0004
 -15520631.51747 -12088563.76047  22871090.1814   22871097.6634   22871091.336
        46.0004         42.0004
 -18830356.74848 -14658655.10048  20187417.6244   20187423.9404   20187417.878
        53.0004         48.0004
  -8053035.02047  -6276577.86847  22606540.7244   22606548.0124   22606540.280
        47.0004         42.0004
 -10400025.65246  -8046928.23445  24048416.8884   24048425.4434   24048415.511
        39.0004         34.0004
 -25004940.38948 -19436909.31048  20403973.7464   20403979.8694   20403973.119
        53.0004         49.0004
 -11308820.56447  -8749199.28847  23368704.0034   23368715.0134   23368704.075
        47.0004         42.0004
 14  5 26  0  8  0.0000000  0 10G09G26G02G07G10G08G28G20G04G17
 -11651442.03249  -9072075.53248  20201125.0434   20201130.9574   20201125.104
        54.0004         50.0004
  -1488445.46947  -1142507.43346  24115850.5674   24115861.6974   24115850.555
        42.0004         38.0004
  -9320997.18348  -7209607.07747  22502989.9654   22502995.3454   22502990.876
        48.0004         43.0004
 -16337530.27048 -12705743.23247  21767478.9364   21767484.8614   21767478.537
        50.0004         45.0004
 -15591530.15247 -12143809.34447  22857598.3204   22857605.9214   22857599.308
        46.0004         42.0004
 -18785295.28548 -14623542.23548  20195992.7504   20195998.5674   20195992.926
        53.0004         48.0004
  -8112181.17047  -6322665.62247  22595284.2404   22595291.8304   22595284.859
        47.0004         43.0004
 -10360880.23946  -8016425.31045  24055860.3454   24055871.2864   24055862.137
        38.0004         33.0004
 -25029773.76348 -19456259.95648  20399247.9654   20399254.0174   20399247.568
        53.0004         49.0004
 -11271634.10047  -8720222.80347  23375780.2514   23375791.6154   23375780.327
        47.0004         42.0004
 14  5 26  0  8 30.0000000  0 10G09G26G02G07G10G08G28G20G04G17
 -11614259.16749  -9043101.83048  20208200.5694   20208206.6404   20208200.668
        54.0004         49.0004
  -1477196.93647  -1133742.19446  24117991.0444   24118001.5244   24117991.510
        42.0004         38.0004
  -9388103.28648  -7261897.46547  22490220.4444   22490224.6574   22490221.146
        48.0004         43.0004
 -16247741.54248 -12635777.96747  21784565.1624   21784570.7314   21784564.920
        50.0004         45.0004
 -15662493.64147 -12199105.46647  22844094.8524   22844101.9064   22844094.832
        46.0004         42.0004
 -18739631.64248 -14587960.14048  20204681.8764   20204688.0014   20204682.253
        53.0004         48.0004
  -8171323.43147  -6368750.35347  22584030.7474   22584039.5254   22584030.579
        47.0004         43.0004
 -10321393.89946  -7985656.77045  24063377.9984   24063388.1104   24063377.661
        39.0004         34.0004
 -25054056.35848 -19475181.42948  20394627.0044   20394633.1254   20394626.804
        53.0004         49.0004
 -11234592.87547  -8691359.49747  23382828.7574   23382840.5344   23382829.118
        47.0004         43.0004
 14  5 26  0  9  0.0000000  0 10G09G26G02G07G10G08G28G20G04G17
 -11576533.69849  -9013705.32448  20215379.7924   20215385.3674   20215379.621
        54.0004         49.0004
  -1465794.87947  -1124857.33246  24120160.5354   24120172.4064   24120160.149
        42.0004         37.0004
  -9454839.44348  -7313899.58247  22477521.2374   22477525.5054   22477520.821
        48.0004         43.0004
 -16157642.58848 -12565570.96947  21801710.8304   21801716.3784   21801710.416
        50.0004         45.0004
 -15733517.66947 -12254448.77047  22830578.7444   22830585.1394   22830579.246
        46.0004         42.0004
 -18693365.59748 -14551908.64348  20213485.7344   20213491.9364   20213486.461
        53.0004         48.0004
  -8230457.24947  -6414828.50447  22572777.3254   22572786.8034   22572777.854
        47.0004         43.0004
 -10281564.76746  -7954621.07145  24070956.5764   24070968.3634   24070956.313
        39.0004         34.0004
 -25077785.77548 -19493671.85148  20390111.1174   20390117.3244   20390110.984
        53.0004         49.0004
 -11197696.48547  -8662609.04347  23389850.2834   23389860.4004   23389849.967
        47.0004         43.0004
 14  5 26  0  9 30.0000000  0 11G09G26G02G07G10G08G28G20G30G04G17
 -11538270.17249  -8983889.55048  20222660.7054   20222666.7214   20222660.778
        54.0004         49.0004
  -1454244.31247  -1115856.76846  24122359.2824   24122368.2634   24122359.263
        42.0004         38.0004
  -9521206.52648  -7365614.10747  22464891.8744   22464896.9194   22464892.010
        48.0004         43.0004
 -16067238.93948 -12495126.54247  21818914.2844   21818918.8954   21818913.359
        50.0004         45.0004
 -15804602.81047 -12309839.68847  22817052.9594   22817057.9284   22817052.719
        46.0004         42.0004
 -18646501.83948 -14515391.39548  20222403.9544   20222410.1404   20222404.228
        53.0004         48.0004
  -8289582.51647  -6460900.00147  22561526.0054   22561536.5434   22561526.116
        47.0004         43.0004
 -10241395.25846  -7923320.19545  24078601.4384   24078613.5524   24078602.396
        39.0004         34.0004
   -241907.72249   -193643.33148  20466204.8164   20466212.1314   20466204.515
        55.0004         50.0004
 -25100964.09148 -19511732.84448  20385700.8184   20385706.7444   20385700.383
        53.0004         49.0004
 -11160948.83147  -8633974.49747  23396843.2904   23396853.6554   23396843.139
        47.0004         43.0004
 14  5 26  0 10  0.0000000  0 11G09G26G02G07G10G08G28G20G30G04G17
 -11499469.91049  -8953655.54548  20230044.3284   20230049.9514   20230044.425
        54.0004         49.0004
  -1442546.59047  -1106741.53046  24124584.8874   24124595.1184   24124584.743
        42.0004         38.0004
  -9587201.84248  -7417038.93947  22452334.3124   22452337.9234   22452333.745
        48.0004         44.0004
 -15976533.04448 -12424446.59847  21836174.4574   21836180.1524   21836174.295
        50.0004         45.0004
 -15875746.20947 -12365275.99947  22803513.9084   22803521.2374   22803514.245
        46.0004         42.0004
 -18599041.82348 -14478409.53748  20231435.1584   20231441.1024   20231435.609
        53.0004         48.0004
  -8348695.80247  -6506962.14347  22550277.8554   22550285.1464   22550276.814
        47.0004         43.0004
 -10200884.16746  -7891753.10945  24086309.3564   24086320.3044   24086310.608
        39.0004         34.0004
   -201599.74549   -162234.48448  20473874.8674   20473882.5404   20473875.023
        54.0004         50.0004
 -25123589.99848 -19529363.38948  20381395.1654   20381401.2284   20381394.786
        53.0004         49.0004
 -11124350.86447  -8605456.57847  23403806.7494   23403817.9904   23403807.050
        47.0004         42.0004
 14  5 26  0 10 30.0000000  0 11G09G26G02G07G10G08G28G20G30G04G17
 -11460139.10349  -8923008.12348  20237528.3974   20237534.6654   20237528.406
        54.0004         49.0004
  -1430708.20147  -1097516.68346  24126837.6434   24126848.0674   24126837.966
        42.0004         38.0004
  -9652828.20448  -7468176.28747  22439844.6554   22439849.8784   22439845.430
        48.0004         44.0004
 -15885531.74048 -12353536.47147  21853490.9584   21853496.8094   21853491.127
        50.0004         45.0004
 -15946949.44447 -12420758.94747  22789964.6474   22789970.5214   22789964.806
        46.0004         42.0004
 -18550991.80848 -14440967.93548  20240579.0434   20240584.8334   20240579.092
        53.0004         48.0004
  -8407798.60047  -6553016.13247  22539028.7994   22539037.3654   22539030.192
        47.0004         43.0004
 -10160035.35746                  24094082.9114                   24094084.725
        39.0004
   -160785.12849   -130430.85548  20481641.5764   20481649.2454   20481641.600
        54.0004         50.0004
 -25145667.35148 -19546566.49448  20377194.0374   20377199.7464   20377193.754
        53.0004         49.0004
 -11087908.13347  -8577059.62347  23410743.2624   23410753.5924   23410741.803
        47.0004         42.0004
 14  5 26  0 11  0.0000000  0 11G09G26G02G07G10G08G28G20G30G04G17
 -11420269.65949  -8891940.99048  20245115.5034   20245121.4064   20245115.570
        54.0004         49.0004
  -1418721.35647  -1088176.16946  24129119.4054   24129126.6754   24129118.124
        42.0004         38.0004
  -9718073.98348  -7519017.07047  22427428.9464   22427434.7394   22427428.936
        48.0004         44.0004
 -15794228.55648 -12282391.10947  21870865.4864   21870870.5084   21870865.149
        50.0004         45.0004
 -16018200.45347 -12476279.11747  22776405.8874   22776412.0654   22776405.895
        46.0004         42.0004
 -18502343.87848 -14403060.42748  20249836.5444   20249842.3094   20249836.722
        53.0004         48.0004
  -8466878.59847  -6599052.36447  22527787.5654   22527796.1764   22527787.589
        47.0004         43.0004
 -10118838.54246  -7827821.48345  24101925.4894   24101934.3934   24101921.731
        38.0004         34.0004
   -119455.61149    -98226.00548  20489506.6004   20489513.8334   20489506.291
        54.0004         50.0004
 -25167185.75048 -19563334.04648  20373099.2454   20373105.0524   20373098.510
        53.0004         49.0004
 -11051612.20847  -8548777.06747  23417649.0744   23417659.7474   23417648.593
        47.0004         42.0004
 14  5 26  0 11 30.0000000  0 11G09G26G02G07G10G08G28G20G30G04G17
 -11379871.20549  -8860461.64548  20252803.0534   20252808.8274   20252803.097
        54.0004         49.0004
  -1406595.78547  -1078727.54846  24131426.0114   24131437.0854   24131425.500
        42.0004         38.0004
  -9782945.01448  -7569565.84947  22415083.5144   22415089.1994   22415084.601
        48.0004         44.0004
 -15702633.67348 -12211018.44747  21888296.5164   21888301.3054   21888295.609
        49.0004         45.0004
 -16089504.50347 -12531840.61047  22762836.0144   22762844.1354   22762836.869
        46.0004         42.0004
 -18453107.31948 -14364694.24848  20259205.5284   20259211.5814   20259205.915
        53.0004         48.0004
  -8525940.04947  -6645074.13447  22516548.0224   22516556.4994   22516548.389
        47.0004         43.0004
 -10077301.12946  -7795454.67845  24109825.7674   24109837.5354   24109828.791
        38.0004         34.0004
    -77620.29149    -65627.02548  20497467.3144   20497474.9164   20497467.213
        54.0004         50.0004
 -25188152.13548 -19579671.45948  20369109.3714   20369115.3804   20369109.016
        53.0004         49.0004
 -11015471.99647  -8520615.85247  23424526.3474   23424537.1154   23424526.166
        47.0004         42.0004
 14  5 26  0 12  0.0000000  0 11G09G26G02G07G10G08G28G20G30G04G17
 -11338943.22549  -8828569.68248  20260591.5504   20260596.9844   20260591.419
        54.0004         49.0004
  -1394331.15347  -1069170.55846  24133759.4524   24133770.4134   24133759.027
        42.0004         38.0004
  -9847437.14548  -7619819.37547  22402811.0404   22402816.5094   22402812.448
        48.0004         44.0004
 -15610747.77148 -12139419.01147  21905780.7574   21905785.5064   21905780.792
        49.0004         45.0004
 -16160856.84647 -12587439.75447  22749259.1744   22749265.7954   22749258.720
        46.0004         42.0004
 -18403281.95348 -14325869.26048  20268687.2244   20268693.2174   20268687.255
        53.0004         48.0004
  -8584977.86447  -6691077.49347  22505313.9084   22505322.2784   22505314.020
        47.0004         43.0004
 -10035420.44946  -7762820.35845  24117796.7184   24117804.0894   24117795.937
        38.0004         34.0004
    -35278.62949    -32633.49648  20505524.8614   20505532.2364   20505524.851
        54.0004         50.0004
 -25208563.88148 -19595576.69448  20365225.0194   20365231.4014   20365224.737
        53.0004         49.0004
 -10979486.25747  -8492574.99847  23431374.1774   23431384.9954   23431373.949
        46.0004         42.0004
 14  5 26  0 12 30.0000000  0 11G09G26G02G07G10G08G28G20G30G04G17
 -11297489.06549  -8796267.70548  20268479.7054   20268485.3774   20268479.858
        54.0004         49.0004
  -1381930.99547  -1059507.96746  24136120.3434   24136129.4704   24136119.164
        43.0004         38.0004
  -9911550.07748  -7669777.42347  22390612.5444   22390614.9654   22390612.214
        48.0004         44.0004
 -15518574.96548 -12067596.02347  21923320.6484   21923326.0844   21923320.297
        49.0004         45.0004
 -16232256.38247 -12643075.66047  22735671.4484   22735678.5614   22735671.964
        47.0004         42.0004
 -18352871.01048 -14286587.97648  20278279.9564   20278285.8424   20278280.089
        53.0004         48.0004
  -8643990.72747  -6737061.40247  22494083.0804   22494090.5504   22494084.177
        47.0004         43.0004
  -9993197.31346  -7729919.26545  24125833.1714   24125841.0374   24125832.312
        38.0004         34.0004
      7566.60949       752.43348  20513677.7254   20513685.4904   20513677.719
        54.0004         50.0004
 -25228421.46248 -19611050.10648  20361446.4644   20361452.3844   20361445.935
        53.0004         49.0004
 -10943657.47347  -8464656.45447  23438191.8864   23438203.3664   23438191.865
        46.0004         42.0004
 14  5 26  0 13  0.0000000  0 11G09G26G02G07G10G08G28G20G30G04G17
 -11255510.21649  -8763556.88448  20276468.1864   20276473.9894   20276468.167
        54.0004         49.0004
  -1369396.72247  -1049740.89346  24138504.5994   24138515.4064   24138504.959
        43.0004         38.0004
  -9975281.66748  -7719438.32047  22378483.0494   22378488.5074   22378483.743
        48.0004         44.0004
 -15426117.63048 -11995551.32147  21940914.6124   21940920.0984   21940914.632
        49.0004         45.0004
 -16303700.22047 -12698746.08347  22722076.2864   22722082.6324   22722077.022
        47.0004         42.0004
 -18301876.11848 -14246851.67348  20287984.2184   20287990.5164   20287984.368
        53.0004         48.0004
  -8702975.19647  -6783023.19147  22482860.1454   22482866.6384   22482859.359
        47.0004         43.0004
  -9950630.88246  -7696750.61345  24133928.4014   24133940.2504   24133932.171
        38.0004         33.0004
     50914.18749     34529.79248  20521926.8244   20521934.0214   20521926.670
        54.0004         50.0004
 -25247724.18848 -19626091.16148  20357773.1694   20357779.3374   20357772.621
        53.0004         49.0004
 -10907986.91947  -8436861.20147  23444979.8724   23444990.7054   23444979.979
        46.0004         42.0004
 14  5 26  0 13 30.0000000  0 11G09G26G02G07G10G08G28G20G30G04G17
 -11213009.20549  -8730439.18448  20284555.7534   20284561.6364   20284555.834
        54.0004         49.0004
  -1356731.38847  -1039871.66046  24140914.7764   24140924.4314   24140914.002
        42.0004         38.0004
 -10038630.69048  -7768801.11947  22366428.8084   22366433.2644   22366428.981
        48.0004         44.0004
 -15333379.60648 -11923287.89547  21958562.9044   21958567.9994   21958561.795
        49.0004         45.0004
 -16375186.86947 -12754449.88647  22708472.1944   22708479.0494   22708473.014
        47.0004         42.0004
 -18250300.20148 -14206662.62248  20297798.4274   20297804.0804   20297798.974
        53.0004         48.0004
  -8761929.02147  -6828961.09147  22471639.3354   22471648.1764   22471640.891
        47.0004         43.0004
  -9907721.79046  -7663314.96645  24142096.5734   24142104.4994   24142099.086
        39.0004         34.0004
     94761.62649     68696.65448  20530270.7264   20530277.8594   20530270.379
        54.0004         50.0004
 -25266472.34248 -19640700.08948  20354205.2634   20354211.4044   20354205.087
        53.0004         49.0004
 -10872476.52847  -8409190.74647  23451737.7154   23451748.2774   23451737.289
        46.0004         42.0004
 14  5 26  0 14  0.0000000  0 11G09G26G02G07G10G08G28G20G30G04G17
 -11169988.33249  -8696916.39948  20292742.4974   20292748.1214   20292742.427
        54.0004         49.0004
  -1343936.99247  -1029901.89246  24143348.6704   24143359.4044   24143349.086
        42.0004         38.0004
 -10101595.51848  -7817864.54747  22354446.5044   22354451.0044   22354447.357
        48.0004         44.0004
 -15240363.67648 -11850807.92247  21976262.4524   21976267.3274   21976262.473
        49.0004         44.0004
 -16446713.75347 -12810185.03347  22694861.4414   22694868.6894   22694862.440
        47.0004         42.0004
 -18198145.45248 -14166022.53748  20307722.9784   20307729.1184   20307723.580
        53.0004         48.0004
  -8820849.39848  -6874872.92647  22460429.2314   22460436.9144   22460428.781
        48.0004         43.0004
  -9864469.74546  -7629612.05945  24150326.9204   24150338.5214   24150327.179
        38.0004         34.0004
    139107.23149    103251.69648  20538709.0224   20538716.7504   20538709.262
        54.0004         49.0004
 -25284665.48648 -19654876.53648  20350743.6534   20350749.3804   20350742.821
        53.0004         49.0004
 -10837127.45347  -8381645.98247  23458463.9184   23458475.4564   23458464.075
        46.0004         42.0004
 14  5 26  0 14 30.0000000  0 11G09G26G02G07G10G08G28G20G30G04G17
 -11126449.60349  -8662990.09048  20301027.6524   20301032.9824   20301027.448
        54.0004         49.0004
  -1331015.77847  -1019833.28346  24145806.7584   24145816.1964   24145806.901
        42.0004         38.0004
 -10164174.79348  -7866627.54347  22342538.2174   22342542.5124   22342537.585
        48.0004         43.0004
 -15147072.80648 -11778113.71347  21994015.4974   21994020.3684   21994015.082
        49.0004         44.0004
 -16518278.48647 -12865949.67547  22681242.9274   22681249.9694   22681243.234
        47.0004         42.0004
 -18145413.85548 -14124932.96348  20317757.3564   20317763.6124   20317757.991
        53.0004         48.0004
  -8879733.60748  -6920756.57647  22449223.1214   22449232.6514   22449223.223
        48.0004         43.0004
  -9820874.53946                  24158619.9984                   24158621.899
        39.0004
    183949.20749    138193.52048  20547242.2384   20547249.5334   20547242.004
        54.0004         49.0004
 -25302303.35348 -19668620.30048  20347386.6854   20347392.9224   20347386.398
        53.0004         49.0004
 -10801940.80747  -8354227.80347  23465158.9184   23465170.9854   23465159.574
        46.0004         42.0004
 14  5 26  0 15  0.0000000  0 11G09G26G02G07G10G08G28G20G30G04G17
 -11082394.19449  -8628661.17548  20309410.9724   20309416.7004   20309410.902
        54.0004         49.0004
  -1317968.82947  -1009666.71646  24148289.8354   24148299.7324   24148289.404
        42.0004         38.0004
 -10226365.73648  -7915087.94547  22330703.8844   22330707.7584   22330703.998
        48.0004         44.0004
 -15053509.05748 -11705206.87347  22011819.5824   22011824.8694   22011819.632
        49.0004         44.0004
 -16589877.36847 -12921740.92147  22667617.9064   22667624.1124   22667618.880
        47.0004         42.0004
 -18092106.54948 -14083394.78148  20327901.5484   20327907.2954   20327901.979
        53.0004         48.0004
  -8938577.83447  -6966609.07847  22438025.4654   22438033.6184   22438025.388
        47.0004         43.0004
  -9776934.84146  -7561403.09645  24166984.2454   24166994.3144   24166985.968
        39.0004         34.0004
    229286.86849    173521.58948  20555869.9134   20555877.2994   20555869.688
        54.0004         49.0004
 -25319384.48248 -19681930.24648  20344136.6734   20344142.2844   20344136.405
        53.0004         49.0004
 -10766916.94447  -8326936.46747  23471824.9774   23471835.5964   23471824.200
        46.0004         42.0004
 14  5 26  0 15 30.0000000  0 11G09G26G02G07G10G08G28G20G30G04G17
 -11037827.21549  -8593933.63248  20317891.8504   20317897.2884   20317891.561
        54.0004         49.0004
  -1304801.38247   -999406.25646  24150795.7544   24150806.5474   24150795.429
        42.0004         38.0004
 -10288169.80348  -7963246.88247  22318943.8324   22318947.0244   22318942.925
        48.0004         44.0004
 -14959678.37048 -11632092.02347  22029675.1794   22029680.8254   22029674.812
        49.0004         44.0004
 -16661511.05547 -12977559.30047  22653986.6494   22653993.4564   22653987.175
        47.0004         42.0004
 -18038228.75548 -14041412.06348  20338154.2464   20338160.5914   20338154.383
        53.0004         48.0004
  -8997382.16447  -7012430.48947  22426835.7634   22426842.5194   22426835.126
        47.0004         43.0004
                  -7526898.21145                  24175421.1584   24175411.312
                        33.0004
    275115.24749    209232.03848  20564590.7114   20564598.1094   20564590.529
        54.0004         49.0004
 -25335911.97748 -19694808.78848  20340991.4384   20340997.4324   20340990.801
        53.0004         49.0004
 -10732060.58047  -8299775.62947  23478457.5794   23478469.0274   23478457.009
        46.0004         42.0004
 14  5 26  0 16  0.0000000  0 11G09G26G02G07G10G08G28G20G30G04G17
 -10992747.14549  -8558806.27848  20326470.2624   20326475.8784   20326470.219
        54.0004         49.0004
  -1291511.92247   -989050.71546  24153325.0604   24153334.2994   24153325.120
        42.0004         38.0004
 -10349582.08348  -8011100.53747  22307256.5724   22307259.3004   22307256.233
        48.0004         44.0004
 -14865580.08348 -11558768.65547  22047580.5084   22047585.9644   22047581.098
        49.0004         44.0004
 -16733173.92147 -13033400.40647  22640350.2464   22640356.3974   22640350.269
        47.0004         42.0004
 -17983779.03248 -13998983.69248  20348515.6574   20348521.5144   20348515.983
        53.0004         48.0004
  -9056140.47347  -7058216.03547  22415653.8454   22415661.3104   22415653.895
        47.0004         43.0004
  -9688026.90646  -7492124.18045  24183906.1714   24183915.4284   24183903.646
        38.0004         34.0004
    321436.13049    245326.25148  20573405.1494   20573412.3704   20573404.986
        54.0004         49.0004
 -25351881.60748 -19707252.62648  20337952.3094   20337957.8754   20337952.147
        53.0004         49.0004
 -10697369.11947  -8272743.30347  23485059.9724   23485069.5404   23485059.054
        47.0004         42.0004
 14  5 26  0 16 30.0000000  0 11G09G26G02G07G10G08G28G20G30G04G17
 -10947158.83649  -8523282.89948  20335145.2354   20335150.9064   20335145.312
        54.0004         49.0004
  -1278105.36947   -978603.94546  24155876.1184   24155886.3614   24155875.258
        43.0004         38.0004
 -10410603.46548  -8058649.59547  22295643.7984   22295649.6304   22295645.065
        48.0004         44.0004
 -14771219.63948 -11485241.01847  22065537.7834   22065542.5354   22065537.416
        49.0004         44.0004
 -16804866.20747 -13089264.44747  22626706.9534   22626713.7734   22626707.284
        47.0004         42.0004
 -17928762.29348 -13956113.48648  20358985.1774   20358991.2204   20358985.149
        53.0004         48.0004
  -9114851.85148  -7103965.00347  22404481.7334   22404489.5304   22404481.378
        48.0004         43.0004
  -9643057.73246  -7457083.24745  24192460.1944   24192469.8104   24192460.162
        38.0004         34.0004
    368244.98549    281800.70648  20582312.4224   20582320.0824   20582312.488
        54.0004         49.0004
 -25367295.96148 -19719263.79048  20335019.2824   20335025.0374   20335018.924
        53.0004         49.0004
 -10662846.50447  -8245842.53347  23491628.8144   23491639.6944   23491628.455
        47.0004         42.0004
 14  5 26  0 17  0.0000000  0 11G09G26G02G07G10G08G28G20G30G04G17
 -10901063.92249  -8487364.76148  20343916.7984   20343922.5664   20343916.776
        54.0004         49.0004
  -1264583.09347   -968066.98646  24158448.7564   24158459.2794   24158449.437
        43.0004         38.0004
 -10471231.70048  -8105892.31647  22284107.0334   22284110.3394   22284106.748
        49.0004         44.0004
 -14676599.64548 -11411511.13647  22083543.9474   22083547.8304   22083543.252
        49.0004         44.0004
 -16876584.33447 -13145148.61347  22613060.0134   22613065.8204   22613060.450
        47.0004         42.0004
 -17873180.27948 -13912802.80948  20369561.9154   20369567.4524   20369562.150
        52.0004         48.0004
  -9173513.00648  -7149674.84347  22393318.6924   22393325.7044   22393318.276
        48.0004         43.0004
  -9597744.79546  -7421774.45745  24201083.3564   24201092.4824   24201084.406
        38.0004         34.0004
    415540.69149    318654.52148  20591312.8554   20591320.0504   20591312.519
        54.0004         49.0004
 -25382154.13548 -19730841.56548  20332191.9384   20332197.7164   20332191.100
        53.0004         49.0004
 -10628493.01147  -8219073.55147  23498166.9684   23498178.0824   23498165.675
        47.0004         42.0004
 14  5 26  0 17 30.0000000  0 11G09G26G02G07G10G08G28G20G30G04G17
 -10854465.43949  -8451054.23048  20352784.3224   20352789.7824   20352784.202
        54.0004         49.0004
  -1250948.43047   -957442.46746  24161043.0044   24161053.5204   24161042.804
        43.0004         38.0004
 -10531466.42748  -8152828.39547  22272645.0694   22272648.4154   22272645.246
        49.0004         44.0004
 -14581724.01648 -11337582.04447  22101597.2544   22101602.6384   22101597.215
        49.0004         44.0004
 -16948327.01847 -13201051.92047  22599405.8264   22599414.4584   22599407.774
        47.0004         42.0004
 -17817036.52348 -13869054.40748  20380245.6724   20380251.1854   20380245.732
        52.0004         48.0004
  -9232122.56548  -7195344.47947  22382164.7944   22382172.8254   22382165.397
        48.0004         43.0004
  -9552089.16846  -7386198.63845  24209770.6214   24209783.9224   24209770.899
        38.0004         34.0004
    463320.26949    355885.38348  20600404.6964   20600412.1824   20600404.918
        54.0004         49.0004
 -25396457.10948 -19741986.71148  20329470.2014   20329476.1494   20329469.627
        53.0004         49.0004
 -10594311.24447  -8192438.39047  23504670.6324   23504681.3584   23504670.154
        47.0004         42.0004
 14  5 26  0 18  0.0000000  0 11G09G26G02G07G10G08G28G20G30G04G17
 -10807364.36649  -8414352.07048  20361747.1424   20361752.7434   20361747.053
        54.0004         49.0004
  -1237202.29347   -946731.07646  24163658.3464   24163669.2224   24163658.977
        43.0004         38.0004
 -10591304.68348  -8199455.53647  22261257.6484   22261261.5974   22261257.885
        49.0004         44.0004
 -14486594.18048 -11263454.87147  22119700.0144   22119705.8224   22119699.413
        49.0004         44.0004
 -17020090.70247 -13256971.59147  22585750.8614   22585757.7994   22585751.104
        47.0004         42.0004
 -17760332.01948 -13824869.06548  20391036.2274   20391042.2524   20391036.237
        52.0004         48.0004
  -9290676.03148  -7240970.39847  22371022.8144   22371030.6804   22371022.831
        48.0004         43.0004
  -9506089.47446  -7350354.73945  24218524.9824   24218536.9524   24218524.258
        38.0004         33.0004
    511583.03649    393492.74848  20609588.9714   20609596.1694   20609588.826
        54.0004         49.0004
 -25410203.39648 -19752698.08548  20326853.5594   20326860.0694   20326853.640
        53.0004         49.0004
 -10560301.03947  -8165936.89847  23511141.8724   23511153.6004   23511142.315
        46.0004         42.0004
 14  5 26  0 18 30.0000000  0 11G09G26G02G07G10G08G28G20G30G04G17
 -10759763.40649  -8377260.39148  20370805.5664   20370811.0574   20370805.347
        54.0004         49.0004
  -1223347.26247   -935934.85046  24166295.5424   24166304.9694   24166295.246
        43.0004         38.0004
 -10650745.78048  -8245773.21747  22249946.1184   22249950.5554   22249947.215
        49.0004         44.0004
 -14391213.88248 -11189132.54247  22137850.3794   22137855.5494   22137850.053
        48.0004         44.0004
 -17091873.29547 -13312905.99647  22572091.6234   22572097.3994   22572091.258
        47.0004         42.0004
 -17703069.39748 -13780248.82648  20401932.7774   20401938.7074   20401933.034
        52.0004         48.0004
  -9349171.06548  -7286550.80847  22359892.3514   22359898.7504   22359891.438
        48.0004         43.0004
  -9459746.28246  -7314243.15045  24227342.3864   24227354.8674   24227343.527
        38.0004         33.0004
    560326.62749    431474.78548  20618864.7934   20618871.8324   20618864.526
        54.0004         49.0004
 -25423393.54648 -19762976.10148  20324344.0114   20324349.9034   20324343.769
        53.0004         49.0004
 -10526464.08247  -8139570.40247  23517580.6814   23517592.7384   23517580.901
        46.0004         42.0004
 14  5 26  0 19  0.0000000  0 11G09G26G02G07G10G08G28G20G30G04G17
 -10711665.75349  -8339781.67748  20379957.8784   20379963.8644   20379957.959
        54.0004         49.0004
  -1209386.35047   -925056.11546  24168953.5454   24168961.7174   24168951.787
        43.0004         38.0004
 -10709788.91348  -8291780.78247  22238710.5344   22238714.8404   22238711.207
        49.0004         44.0004
 -14295586.94948 -11114618.02347  22156047.5474   22156053.3134   22156047.186
        48.0004         44.0004
 -17163673.31647 -13368853.99047  22558428.1764   22558434.1724   22558428.686
        47.0004         43.0004
 -17645251.77548 -13735196.11748  20412935.3454   20412941.1924   20412935.535
        52.0004         48.0004
  -9407605.58548  -7332084.05247  22348770.9064   22348778.6034   22348771.527
        48.0004         43.0004
  -9413060.09546  -7277864.32045  24236228.6494   24236238.3784   24236228.689
        38.0004         33.0004
    609548.18649    469829.26148  20628231.1914   20628238.4494   20628231.046
        54.0004         49.0004
 -25436028.17948 -19772821.25048  20321939.7214   20321945.5374   20321939.281
        53.0004         49.0004
 -10492802.47647  -8113340.54146  23523987.4364   23523997.0924   23523986.500
        46.0004         41.0004
 14  5 26  0 19 30.0000000  0 11G09G26G02G07G10G08G28G20G30G04G17
 -10663072.70749  -8301916.94348  20389205.0584   20389210.5714   20389205.115
        54.0004         49.0004
  -1195320.87047   -914095.89846  24171628.5054   24171639.2114   24171628.484
        43.0004         38.0004
 -10768431.89348  -8337476.54447  22227551.8154   22227555.8184   22227551.707
        49.0004         44.0004
 -14199715.38648 -11039912.88547  22174291.2964   22174296.0794   22174290.263
        48.0004         44.0004
 -17235486.97747 -13424812.61247  22544761.7224   22544769.7844   22544762.343
        47.0004         43.0004
 -17586880.82848 -13689712.24748  20424042.7244   20424048.7104   20424043.115
        52.0004         48.0004
  -9465975.68148  -7377567.08347  22337662.9254   22337672.0444   22337663.796
        48.0004         43.0004
  -9366029.97946  -7241217.44245  24245176.8714   24245190.3574   24245177.698
        38.0004         33.0004
    659246.75449    508555.44048  20637688.4744   20637695.7574   20637688.397
        54.0004         49.0004
 -25448106.03748 -19782232.54548  20319641.5144   20319647.1984   20319641.265
        53.0004         49.0004
 -10459316.46147  -8087247.49646  23530358.7644   23530370.4294   23530358.342
        46.0004         41.0004
 14  5 26  0 20  0.0000000  0 11G09G26G02G07G10G08G28G20G30G04G17
 -10613987.46349  -8263668.67348  20398545.4994   20398551.3514   20398545.505
        54.0004         49.0004
  -1181153.73147   -903056.46346  24174325.6274   24174334.7424   24174324.163
        43.0004         38.0004
 -10826673.92548  -8382859.87847  22216468.4894   22216472.9164   22216468.385
        49.0004         44.0004
 -14103603.13448 -10965020.18347  22192581.0024   22192586.0554   22192580.508
        48.0004         44.0004
 -17307313.01247 -13480780.86647  22531092.7194   22531101.1094   22531093.927
        47.0004         43.0004
 -17527959.87948 -13643799.80348  20435255.2834   20435260.8234   20435255.367
        52.0004         48.0004
  -9524279.71348  -7422998.65447  22326568.1284   22326577.5504   22326569.094
        48.0004         43.0004
                  -7204303.30145                  24254202.4794   24254192.120
                        33.0004
    709419.50649    547651.11248  20647235.8174   20647243.3374   20647235.932
        54.0004         49.0004
 -25459628.24848 -19791210.87148  20317448.7464   20317454.8354   20317448.346
        53.0004         49.0004
 -10426007.87947  -8061292.70846  23536696.4994   23536708.0124   23536696.804
        46.0004         41.0004
 14  5 26  0 20 30.0000000  0 11G09G26G02G07G10G08G28G20G30G04G17
 -10564411.98749  -8225038.40848  20407979.4984   20407985.2314   20407979.519
        54.0004         49.0004
  -1166886.72347   -891939.19146  24177039.5484   24177049.1144   24177039.015
        43.0004         38.0004
 -10884513.08848  -8427929.29247  22205462.4924   22205465.5184   22205462.236
        49.0004         44.0004
 -14007252.59048 -10889941.82547  22210915.9954   22210921.3364   22210915.372
        48.0004         44.0004
 -17379148.17347 -13536756.22947  22517425.0974   22517431.4264   22517425.010
        47.0004         43.0004
 -17468490.99448 -13597460.39748  20446571.6854   20446577.5674   20446571.839
        52.0004         48.0004
  -9582514.01248  -7468375.87947  22315487.2844   22315495.7164   22315487.378
        48.0004         43.0004
  -9270940.13946  -7167121.45745  24263272.7224   24263282.0944   24263272.652
        38.0004         34.0004
    760064.80849    587114.99948  20656873.7544   20656880.3524   20656873.323
        54.0004         49.0004
 -25470594.09948 -19799755.67148  20315361.8154   20315367.8284   20315361.618
        53.0004         49.0004
 -10392877.78547  -8035477.00746  23543002.9264   23543013.7114   23543001.846
        46.0004         41.0004
 14  5 26  0 21  0.0000000  0 11G09G26G02G07G10G08G28G20G30G04G17
 -10514348.53849  -8186027.90148  20417506.2254   20417511.7774   20417506.146
        54.0004         49.0004
  -1152521.85647   -880745.67446  24179772.3094   24179781.7754   24179772.927
        43.0004         38.0004
 -10941947.87648  -8472683.61147  22194532.1684   22194536.3744   22194532.105
        49.0004         44.0004
 -13910666.43548 -10814679.86047  22229295.3974   22229300.8244   22229295.018
        48.0004         44.0004
 -17450989.86747 -13592736.68647  22503752.9164   22503759.4464   22503753.530
        47.0004         42.0004
 -17408476.40448 -13550695.76948  20457992.0024   20457998.1454   20457992.523
        52.0004         48.0004
  -9640675.47248  -7513696.35947  22304418.8024   22304426.4824   22304419.288
        48.0004         43.0004
  -9222879.87546  -7129671.92445  24272419.2664   24272427.2544   24272417.076
        38.0004         33.0004
    811180.86449    626945.71548  20666600.3704   20666607.8684   20666600.611
        54.0004         49.0004
 -25481003.88048 -19807867.17248  20313381.2574   20313386.9964   20313380.787
        53.0004         49.0004
 -10359926.97747  -8009801.00146  23549272.6324   23549283.6544   23549272.099
        46.0004         41.0004
 14  5 26  0 21 30.0000000  0 11G09G26G02G07G10G08G28G20G30G04G17
 -10463801.00249  -8146640.18748  20427124.8614   20427130.5924   20427124.908
        54.0004         49.0004
  -1138062.96047   -869478.89546  24182524.3124   24182534.0894   24182524.253
        43.0004         38.0004
 -10998978.32048  -8517122.86647  22183679.6904   22183683.8924   22183680.031
        49.0004         44.0004
 -13813849.34148 -10739237.93647  22247719.4844   22247724.2954   22247718.490
        48.0004         44.0004
 -17522836.99747 -13648721.39947  22490080.6394   22490087.3794   22490081.564
        47.0004         43.0004
 -17347920.04648 -13503508.97848  20469515.5624   20469521.3654   20469515.640
        52.0004         48.0004
  -9698762.54648  -7558958.88247  22293366.1754   22293373.3934   22293365.770
        48.0004         44.0004
  -9174477.66646  -7091955.92045  24281631.1664   24281640.7574   24281629.582
        38.0004         33.0004
    862763.97349    667140.35948  20676416.3264   20676423.7544   20676416.203
        54.0004         49.0004
 -25490858.81648 -19815546.32948  20311505.3514   20311511.8404   20311505.155
        53.0004         49.0004
 -10327158.19647  -7984266.84546  23555507.1884   23555518.3544   23555507.537
        46.0004         41.0004
 14  5 26  0 22  0.0000000  0 11G09G26G02G07G10G08G28G20G30G04G17
 -10412771.29549  -8106876.75448  20436835.6514   20436841.1824   20436835.681
        54.0004         49.0004
  -1123511.71247   -858140.14046  24185292.2364   24185301.6554   24185292.962
        43.0004         38.0004
 -11055603.23948  -8561246.11147  22172904.3244   22172908.0384   22172904.840
        49.0004         44.0004
 -13716803.99348 -10663618.16247  22266185.3204   22266190.9644   22266185.696
        48.0004         44.0004
 -17594686.69347 -13704708.09447  22476408.2024   22476416.1444   22476408.817
        47.0004         43.0004
 -17286824.23648 -13455901.84448  20481141.6104   20481147.5124   20481141.856
        52.0004         48.0004
  -9756772.33248  -7604161.17847  22282326.3924   22282334.7434   22282326.593
        48.0004         44.0004
  -9125732.90646  -7053972.95845  24290898.9094   24290916.0514   24290904.546
        38.0004         33.0004
    914812.50549    707697.68048  20686320.9464   20686328.3314   20686320.860
        54.0004         49.0004
 -25500158.83748 -19822793.08748  20309736.0244   20309741.6204   20309735.753
        53.0004         49.0004
 -10294572.20547  -7958875.12546  23561708.5874   23561719.4604   23561708.346
        46.0004         41.0004
 14  5 26  0 22 30.0000000  0 11G09G26G02G07G10G08G28G20G30G04G17
 -10361259.81149  -8066737.90748  20446637.7714   20446643.3764   20446637.721
        54.0004         49.0004
  -1108868.46647   -846729.70046  24188079.6254   24188088.7524   24188079.447
        43.0004         38.0004
 -11111819.09548  -8605050.61847  22162206.5254   22162210.3284   22162206.782
        49.0004         44.0004
 -13619531.45748 -10587821.34947  22284696.7904   22284701.3624   22284695.803
        48.0004         44.0004
 -17666534.51847 -13760693.33847  22462736.2194   22462741.7624   22462737.028
        47.0004         43.0004
 -17225189.53948 -13407874.79048  20492870.2534   20492875.9524   20492870.685
        52.0004         48.0004
  -9814699.91248  -7649299.42047  22271302.1144   22271310.2254   22271302.945
        48.0004         43.0004
  -9076643.93246  -7015721.82145  24300245.8774   24300256.7674   24300245.434
        37.0004         33.0004
    967326.25449    748617.50448  20696313.7574   20696320.9694   20696313.563
        54.0004         49.0004
 -25508902.17748 -19829606.06448  20308072.4064   20308078.2894   20308071.837
        53.0004         49.0004
 -10262168.09347  -7933625.12246  23567875.8604   23567886.0084   23567874.952
        46.0004         41.0004
 14  5 26  0 23  0.0000000  0 11G09G26G02G07G10G08G28G20G30G04G17
 -10309271.18149  -8026227.26348  20456531.3054   20456536.4884   20456531.209
        54.0004         49.0004
  -1094137.51947   -835250.91446  24190882.5064   24190891.8634   24190882.196
        43.0004         38.0004
