     2.11           OBSERVATION DATA    G (GPS)             RINEX VERSION / TYPE
teqc  2008Oct2      gpsops              20090116 00:09:45UTCPGM / RUN BY / DATE
    30.0000                                                 INTERVAL
     1     1                                                WAVELENGTH FACT L1/2
     7    L1    L2    P1    P2    C1    S1    S2            # / TYPES OF OBSERV
Linux 2.4.20-8|Pentium IV|gcc -static|Linux|486/DX+         COMMENT
     2.10           OBSERVATION DATA    GPS                 COMMENT
soc2rnx ver 1.20    gpsops              16-Jan-2009 00:09:40COMMENT
S1, if present, is the SNR for the C/A data stream on L1.   COMMENT
 SNR is mapped to RINEX snr flag value [1,4-9]              COMMENT
    SNR:   >316  >100  >31.6  >10  >3.2    >0 bad=0         COMMENT
L1 & L2:      9     8     7     6     5     4     1         COMMENT
                                                            COMMENT
This data is provided as a public service by NASA/JPL.      COMMENT
No warranty is expressed or implied regarding suitability   COMMENT
for use.  For further information, contact:                 COMMENT
Dave Stowers, NASA/JPL m/s 238-600                          COMMENT
4800 Oak Grove Drive, Pasadena CA 91109 USA                 COMMENT
                                                            COMMENT
Forced Modulo Decimation to 30 seconds                      COMMENT
  2009     1    15     0     0    0.0000000     GPS         TIME OF FIRST OBS
GGN                 JPL                                     OBSERVER / AGENCY
CR519992104         ASH701945B_M    SCIT                    ANT # / TYPE
   -33801.4662 -6377516.5323   -82154.3508                  APPROX POSITION XYZ
        0.0083        0.0000        0.0000                  ANTENNA: DELTA H/E/N
ZR220013847         ASHTECH UZ-12       CQ00                REC # / TYPE / VERS
GLPS                                                        MARKER NAME
42005M002                                                   MARKER NUMBER
                                                            END OF HEADER
 09  1 15  0  0  0.0000000  0 12G 6G12G14G 5G22G30G29G18G 9G31G21G24
 130532251.74147 101713410.03347  24839484.9894   24839494.5704   24839486.1114
        41.000          35.000
 128170927.96347  99873428.94947  24390133.0794   24390138.2664   24390133.1734
        44.000          38.000
 115146713.89747  89724705.88347  21911694.8414   21911698.8744   21911695.1124
        51.000          45.000
 124766503.01447  97220625.98947  23742296.2364   23742301.1844   23742295.6524
        45.000          39.000
 127403176.62747  99275189.39447  24244027.3624   24244029.6014   24244027.4914
        44.000          37.000
 122992372.66947  95838197.61947  23404680.0264   23404684.5044   23404680.4594
        47.000          41.000
 116584711.79147  90845216.98247  22185340.4364   22185345.2414   22185339.7714
        50.000          45.000
 124018103.84447  96637469.70047  23599869.5204   23599874.0084   23599871.3044
        46.000          39.000
 115994814.62947  90385542.14747  22073100.0214   22073104.3854   22073100.0714
        50.000          44.000
 125157140.39247  97525023.28547  23816625.3654   23816631.4364   23816625.7934
        45.000          40.000
 107572001.77547  83822319.97847  20470286.0564   20470289.5194   20470286.3304
        55.000          49.000
 112967047.17047  88026255.71847  21496923.8174   21496929.9594   21496924.0204
        52.000          46.000
 09  1 15  0  0 30.0000000  0 12G 6G12G14G 5G22G30G29G18G 9G31G21G24
 130476144.57247 101669690.11447  24828809.0494   24828815.9854   24828809.2314
        42.000          35.000
 128171904.65447  99874190.05047  24390318.9964   24390324.7864   24390318.5894
        43.000          38.000
 115149512.13947  89726886.35347  21912227.4624   21912231.6964   21912227.4954
        51.000          45.000
 124752612.99747  97209802.62947  23739652.1414   23739658.3924   23739652.7364
        45.000          39.000
 127385130.18847  99261127.31547  24240593.9904   24240595.9414   24240593.9694
        45.000          38.000
 122972019.04547  95822337.66947  23400807.2744   23400812.6564   23400806.8804
        47.000          41.000
 116659032.51247  90903129.20647  22199483.4744   22199487.6864   22199483.0384
        50.000          45.000
 123998195.15347  96621956.47847  23596082.1634   23596085.9014   23596082.6034
        46.000          39.000
 116054061.39547  90431708.49647  22084374.0844   22084379.1054   22084374.0344
        50.000          44.000
 125053511.77347  97444273.76947  23796906.1744   23796910.7674   23796905.9674
        45.000          40.000
 107518673.83347  83780765.76647  20460138.1044   20460141.5354   20460138.4794
        54.000          49.000
 112994064.35947  88047308.07547  21502065.1294   21502070.9274   21502065.2234
        52.000          46.000
 09  1 15  0  1  0.0000000  0 12G 6G12G14G 5G22G30G29G18G 9G31G21G24
 130420336.68147 101626203.42947  24818189.3494   24818195.8074   24818189.3454
        40.000          35.000
 128172855.02347  99874930.62047  24390500.3114   24390505.6254   24390499.4324
        43.000          38.000
 115152724.74247  89729389.71047  21912838.9664   21912843.0894   21912839.1854
        51.000          45.000
 124738694.12947  97198956.78847  23737003.2904   23737009.5004   23737003.8204
        45.000          39.000
 127366865.06547  99246894.83447  24237117.9854   24237120.2254   24237118.2714
        43.000          38.000
 122951512.79447  95806358.79547  23396905.2874   23396910.5574   23396905.1824
        47.000          41.000
 116733432.21747  90961102.97847  22213641.2904   22213645.6794   22213640.9434
        51.000          45.000
 123978076.97147  96606279.99847  23592253.9974   23592257.6554   23592254.6334
        47.000          39.000
 116113798.32047  90478256.79447  22095741.6034   22095746.3444   22095741.5994
        50.000          44.000
 124949915.49247  97363549.46347  23777192.3354   23777196.7034   23777192.1674
        45.000          40.000
 107465791.19247  83739558.54247  20450074.9294   20450078.1974   20450075.2814
        54.000          49.000
 113021553.80547  88068728.42347  21507296.2384   21507302.0064   21507296.3104
        53.000          46.000
 09  1 15  0  1 30.0000000  0 12G 6G12G14G 5G22G30G29G18G 9G31G21G24
 130364829.79747 101582951.29147  24807626.9014   24807634.3374   24807626.4644
        42.000          36.000
 128173782.38347  99875653.29247  24390676.8064   24390682.2504   24390676.3914
        44.000          38.000
 115156351.45747  89732215.74547  21913528.6944   21913532.9834   21913528.8754
        51.000          45.000
 124724749.47547  97188090.85247  23734349.8974   23734355.8224   23734350.3594
        45.000          39.000
 127348382.24047  99232492.70247  24233599.6534   24233603.0564   24233599.8614
        43.000          38.000
 122930856.41747  95790262.93047  23392974.5664   23392979.5294   23392974.6094
        47.000          41.000
 116807909.33647  91019137.07647  22227814.0884   22227818.3104   22227813.9844
        51.000          45.000
 123957750.39147  96590441.15447  23588386.0434   23588389.3244   23588386.3034
        47.000          40.000
 116174024.84447  90525186.58647  22107202.1944   22107207.3884   22107202.2144
        49.000          43.000
 124846355.34747  97282853.30447  23757485.4094   23757490.0484   23757484.9444
        45.000          40.000
 107413358.01247  83698701.54347  20440097.2604   20440100.4054   20440097.6404
        55.000          49.000
 113049516.57847  88090517.60147  21512617.2794   21512622.9064   21512617.5224
        52.000          46.000
 09  1 15  0  2  0.0000000  0 12G 6G12G14G 5G22G30G29G18G 9G31G21G24
 130309623.63647 101539933.47847  24797120.9584   24797127.3824   24797120.5534
        40.000          36.000
 128174687.82647  99876358.86047  24390849.0634   24390854.2754   24390848.7824
        44.000          39.000
 115160390.03447  89735362.71347  21914297.4404   21914301.6024   21914297.5054
        51.000          45.000
 124710780.51147  97177205.95647  23731691.6344   23731697.6044   23731691.8484
        46.000          39.000
 127329680.88847  99217920.30447  24230041.4264   24230044.0164   24230041.3774
        43.000          38.000
 122910050.32247  95774050.41747  23389015.1204   23389019.9194   23389014.5744
        47.000          41.000
 116882460.73947  91077229.04947  22242000.7454   22242005.0194   22242000.6524
        50.000          45.000
 123937216.14047  96574440.48747  23584478.4904   23584481.7424   23584478.5034
        47.000          40.000
 116234739.19647  90572496.50947  22118755.7084   22118760.5214   22118755.7744
        50.000          43.000
 124742833.65047  97202187.11247  23737786.1984   23737790.7004   23737785.3914
        46.000          40.000
 107361376.37147  83658196.39547  20430205.5844   20430208.7114   20430205.9204
        54.000          49.000
 113077952.00547  88112675.08647  21518028.3974   21518034.0494   21518028.5304
        53.000          46.000
 09  1 15  0  2 30.0000000  0 12G 6G12G14G 5G22G30G29G18G 9G31G21G24
 130254719.36947 101497150.89247  24786673.3554   24786679.5874   24786673.1134
        41.000          35.000
 128175573.63247  99877049.13447  24391017.8524   24391023.0714   24391017.7494
        43.000          38.000
 115164839.29247  89738829.68247  21915144.0004   21915148.0904   21915144.1784
        51.000          45.000
 124696789.73447  97166304.07047  23729029.4794   23729035.6214   23729030.0364
        45.000          39.000
 127310761.02747  99203177.65547  24226441.0864   24226443.5344   24226441.1274
        43.000          38.000
 122889097.13147  95757723.27147  23385028.0134   23385033.1234   23385027.5804
        47.000          41.000
 116957084.99847  91135377.79847  22256201.2574   22256205.5034   22256200.7194
        50.000          45.000
 123916475.42047  96558278.93647  23580531.6884   23580534.8774   23580532.1744
        48.000          40.000
 116295940.73647  90620186.06047  22130402.1114   22130406.6044   22130402.1464
        50.000          43.000
 124639353.72447  97121553.47947  23718094.7694   23718099.1714   23718094.4594
        46.000          40.000
 107309849.66047  83618045.74047  20420400.4464   20420403.4234   20420400.8134
        55.000          49.000
 113106860.81547  88135201.43247  21523529.8004   21523535.3504   21523529.9034
        52.000          46.000
 09  1 15  0  3  0.0000000  0 12G 6G12G14G 5G22G30G29G18G 9G31G21G24
 130200116.85847 101454603.45047  24776282.8414   24776290.0864   24776282.8144
        41.000          36.000
 128176441.58947  99877725.46647  24391182.5444   24391188.3264   24391182.2904
        43.000          38.000
 115169697.69147  89742615.46147  21916068.5684   21916072.8104   21916068.8444
        51.000          45.000
 124682778.92247  97155386.55847  23726362.8924   23726369.1454   23726363.4384
        46.000          39.000
 127291621.77047  99188264.01747  24222799.1014   24222801.7574   24222798.5944
        43.000          38.000
 122867997.68147  95741282.16647  23381012.7474   23381017.7504   23381012.6464
        47.000          41.000
 117031778.55447  91193580.55247  22270415.0254   22270419.2744   22270414.7194
        50.000          45.000
 123895528.21547  96541956.48647  23576545.7094   23576548.9244   23576546.1234
        47.000          40.000
 116357627.72147  90668253.86747  22142140.5024   22142145.4144   22142140.6494
        50.000          43.000
 124535918.11547  97040954.35847  23698411.4574   23698415.5134   23698411.4954
        46.000          41.000
 107258780.55347  83578251.65947  20410682.1614   20410685.2774   20410682.5624
        54.000          49.000
 113136242.49547  88158096.25347  21529120.8694   21529126.5194   21529120.9674
        52.000          46.000
 09  1 15  0  3 30.0000000  0 12G 6G12G14G 5G22G30G29G18G 9G31G21G24
 130145814.83047 101412290.17747  24765949.6514   24765956.6124   24765949.8714
        42.000          36.000
 128177291.37547  99878387.65347  24391344.2134   24391349.8064   24391343.7324
        42.000          38.000
 115174961.59147  89746717.21247  21917070.0814   21917074.4624   21917070.3634
        51.000          45.000
 124668747.99547  97144453.38447  23723692.5954   23723699.4984   23723693.1584
        45.000          39.000
 127272260.87247  99173177.67147  24219114.9774   24219117.6674   24219114.8704
        44.000          38.000
 122846751.44047  95724726.67047  23376969.6174   23376974.8494   23376969.4954
        47.000          41.000
 117106536.83447  91251833.73547  22284641.1054   22284645.4034   22284640.6224
        50.000          45.000
 123874373.31347  96525472.17647  23572519.7774   23572523.0594   23572520.3644
        47.000          40.000
 116419796.48047  90716697.08847  22153970.9474   22153975.7784   22153971.1584
        50.000          44.000
 124432527.38147  96960390.19547  23678736.9854   23678741.0414   23678736.5594
        46.000          40.000
 107208169.58747  83538814.56247  20401051.2254   20401054.2534   20401051.5654
        55.000          49.000
 113166095.22547  88181358.12847  21534801.6464   21534807.2674   21534801.8464
        52.000          46.000
 09  1 15  0  4  0.0000000  0 12G 6G12G14G 5G22G30G29G18G 9G31G21G24
 130091810.83447 101370209.13147  24755672.6474   24755679.9004   24755672.8624
        41.000          36.000
 128178122.65947  99879035.41547  24391502.7514   24391507.9764   24391502.1544
        43.000          38.000
 115180626.51047  89751131.44447  21918148.2554   21918152.4664   21918148.4374
        51.000          45.000
 124654696.41847  97133504.10747  23721018.9574   23721025.6134   23721019.1104
        45.000          39.000
 127252675.42947  99157916.36147  24215387.3284   24215390.1884   24215387.4624
        42.000          38.000
 122825357.24947  95708055.90447  23372898.4734   23372903.3454   23372897.8874
        47.000          41.000
 117181355.05347  91310133.62747  22298878.5324   22298882.7414   22298878.4894
        51.000          45.000
 123853009.31647  96508824.96247  23568454.4304   23568457.6924   23568455.1814
        46.000          40.000
 116482443.10347  90765512.67447  22165892.0994   22165897.4174   22165892.2754
        49.000          44.000
 124329181.68847  96879861.14147  23659070.8294   23659074.6194   23659070.5764
        46.000          40.000
 107158017.07247  83499734.70647  20391507.3384   20391510.4384   20391507.7044
        54.000          49.000
 113196416.16247  88204984.83447  21540571.5294   21540577.2014   21540571.9064
        52.000          46.000
 09  1 15  0  4 30.0000000  0 12G 6G12G14G 5G22G30G29G18G 9G31G21G24
 130038117.43147 101328370.10347  24745455.6234   24745462.5204   24745455.6664
        42.000          36.000
 128178949.09047  99879679.40847  24391659.8064   24391664.9484   24391659.6394
        43.000          38.000
 115186702.52147  89755865.99947  21919304.1484   21919308.8184   21919304.2574
        51.000          45.000
 124640638.10647  97122549.57447  23718344.0834   23718350.1244   23718344.6074
        45.000          39.000
 127232877.04347  99142489.12747  24211619.6154   24211622.5794   24211619.4834
        44.000          38.000
 122803828.45047  95691280.22347  23368801.6234   23368806.6674   23368801.0794
        47.000          41.000
 117256242.67047  91368487.59947  22313129.3234   22313133.3304   22313129.0624
        50.000          45.000
 123831448.74347  96492024.58347  23564351.1144   23564354.1874   23564351.9484
        47.000          40.000
 116545578.30647  90814708.96047  22177906.2634   22177911.6064   22177906.2104
        49.000          44.000
 124225895.82647  96799378.70047  23639416.1924   23639420.0984   23639416.3634
        46.000          40.000
 107108337.37247  83461023.27847  20382053.6484   20382056.6304   20382054.0104
        54.000          49.000
 113227217.19347  88228985.65047  21546432.5874   21546438.4744   21546432.6864
        52.000          46.000
 09  1 15  0  5  0.0000000  0 12G 6G12G14G 5G22G30G29G18G 9G31G21G24
 129984722.08347 101286763.30047  24735294.2794   24735301.6984   24735294.5824
        42.000          36.000
 128179759.99547  99880311.27547  24391814.0784   24391819.2084   24391813.6154
        43.000          38.000
 115193175.63947  89760910.00047  21920536.2354   21920540.3554   21920536.2954
        51.000          45.000
 124626562.54247  97111581.60047  23715665.7134   23715671.5864   23715666.2354
        46.000          40.000
 127212852.41447  99126885.61347  24207809.4014   24207811.7414   24207809.6074
        43.000          38.000
 122782153.47747  95674390.65447  23364677.2654   23364681.8374   23364676.9824
        47.000          40.000
 117331184.56847  91426883.86147  22327390.0984   22327394.3084   22327389.8884
        50.000          45.000
 123809679.55347  96475061.62547  23560208.9724   23560211.9584   23560209.1884
        47.000          40.000
 116609187.71147  90864274.77847  22190010.8064   22190015.6204   22190010.7974
        50.000          43.000
 124122659.80147  96718935.09447  23619770.7174   23619774.7694   23619770.7744
        46.000          40.000
 107059120.47247  83422672.47347  20372688.0914   20372690.9244   20372688.4314
        55.000          49.000
 113258485.56747  88253350.61947  21552382.6894   21552388.4864   21552382.8474
        52.000          46.000
 09  1 15  0  5 30.0000000  0 12G 6G12G14G 5G22G30G29G18G 9G31G21G24
 129931634.82647 101245396.60047  24725191.9624   24725200.2104   24725191.8084
        42.000          36.000
 128180566.80347  99880939.96547  24391967.7964   24391972.3294   24391967.2694
        42.000          37.000
 115200053.74447  89766269.56247  21921845.0534   21921849.1424   21921845.3994
        51.000          45.000
 124612481.32047  97100609.21447  23712986.0024   23712991.9474   23712986.8604
        46.000          40.000
 127192610.76147  99111112.96347  24203957.2624   24203959.6234   24203957.7874
        44.000          37.000
 122760343.74547  95657396.07147  23360527.0564   23360531.6694   23360526.7634
        47.000          41.000
 117406187.84347  91485327.95747  22341662.8304   22341666.9404   22341662.5904
        50.000          45.000
 123787711.98747  96457944.10447  23556028.2234   23556031.7544   23556028.6174
        47.000          40.000
 116673279.28547  90914216.30447  22202206.7474   22202211.7194   22202206.8804
        50.000          44.000
 124019486.33447  96638540.22447  23600137.1044   23600141.4834   23600136.9224
        45.000          40.000
 107010378.90847  83384692.05547  20363412.7964   20363415.8194   20363413.1624
        55.000          49.000
 113290230.58647  88278087.00747  21558423.6004   21558429.4684   21558423.7754
        52.000          46.000
 09  1 15  0  6  0.0000000  0 12G 6G12G14G 5G22G30G29G18G 9G31G21G24
 129878849.24947 101204264.96647  24715147.1994   24715155.0534   24715147.7284
        42.000          36.000
 128181364.73247  99881561.75347  24392119.1024   24392124.7594   24392119.5884
        43.000          38.000
 115207328.19847  89771937.98047  21923229.4954   21923233.7094   21923229.7114
        51.000          45.000
 124598389.66247  97089628.71347  23710304.2694   23710310.7444   23710304.7774
        46.000          40.000
 127172145.39947  99095165.99347  24200063.3774   24200065.0604   24200063.2274
        44.000          38.000
 122738394.10347  95640292.50147  23356350.1364   23356354.6724   23356349.9104
        48.000          41.000
 117481243.01347  91543812.49247  22355945.4794   22355949.6404   22355945.0834
        50.000          44.000
 123765540.35747  96440667.56847  23551809.2234   23551812.9404   23551809.6874
        47.000          40.000
 116737844.83847  90964527.14747  22214493.3904   22214498.2614   22214493.3494
        50.000          44.000
 123916371.46747  96558191.01247  23580514.8034   23580519.4434   23580514.2214
        46.000          40.000
 106962108.20647  83347078.54147  20354227.2724   20354230.2124   20354227.6444
        55.000          49.000
 113322445.66447  88303189.66747  21564554.1254   21564559.8074   21564554.3004
        53.000          46.000
 09  1 15  0  6 30.0000000  0 12G 6G12G14G 5G22G30G29G18G 9G31G21G24
 129826367.14047 101163369.80347  24705161.3014   24705167.2694   24705161.1464
        42.000          37.000
 128182156.99947  99882179.11647  24392270.6464   24392275.8404   24392270.4124
        43.000          38.000
 115214998.79647  89777915.07147  21924688.8474   21924693.1944   21924689.1674
        51.000          45.000
 124584291.18847  97078642.89147  23707621.4554   23707627.7564   23707622.2104
        46.000          40.000
 127151457.57047  99079045.68947  24196126.1614   24196128.7184   24196126.4574
        44.000          38.000
 122716307.57447  95623082.24047  23352147.0634   23352151.9984   23352146.6534
        48.000          41.000
 117556349.28847  91602336.84847  22370237.5314   22370241.8994   22370237.5854
        50.000          45.000
 123743166.75447  96423233.62647  23547551.5584   23547554.9864   23547551.9244
        47.000          40.000
 116802884.37947  91015207.35147  22226869.9424   22226875.0154   22226869.9664
        49.000          43.000
 123813319.08347  96477890.48147  23560904.4994   23560909.0434   23560903.2614
        45.000          40.000
 106914312.97647  83309835.53247  20345132.0314   20345135.1584   20345132.3494
        55.000          49.000
 113355132.15547  88328659.66847  21570774.2004   21570779.7734   21570774.2634
        52.000          46.000
 09  1 15  0  7  0.0000000  0 12G 6G12G14G 5G22G30G29G18G 9G31G21G24
 129774189.90347 101122712.19347  24695232.0654   24695238.2534   24695231.7954
        42.000          37.000
 128182946.91047  99882794.64547  24392420.4144   24392425.6634   24392420.5554
        44.000          38.000
 115223064.95347  89784200.40447  21926223.8204   21926228.1954   21926223.8704
        51.000          45.000
 124570188.98947  97067654.14947  23704937.9804   23704944.2994   23704938.4404
        45.000          39.000
 127130547.88747  99062752.50847  24192147.3194   24192149.4684   24192147.0174
        44.000          38.000
 122694086.41747  95605767.06747  23347918.4654   23347923.4524   23347918.1554
        48.000          41.000
 117631505.38347  91660900.02047  22384539.2554   22384543.5254   22384539.1834
        50.000          44.000
 123720592.91947  96405643.67347  23543255.4694   23543259.1554   23543256.1244
        47.000          40.000
 116868397.29447  91066256.39447  22239336.4064   22239341.4734   22239336.3794
        49.000          43.000
 123710333.32247  96397641.86247  23541306.9424   23541311.9754   23541305.7294
        45.000          40.000
 106866996.55447  83272965.61047  20336128.1474   20336131.0684   20336128.5614
        55.000          49.000
 113388290.91347  88354497.65747  21577083.8184   21577089.6184   21577084.0374
        52.000          46.000
 09  1 15  0  7 30.0000000  0 12G 6G12G14G 5G22G30G29G18G 9G31G21G24
 129722316.84447 101082291.60147  24685360.6464   24685367.3504   24685360.6084
        42.000          37.000
 128183735.13847  99883408.85047  24392569.8674   24392576.2344   24392569.4644
        44.000          38.000
 115231523.94747  89790791.83847  21927833.3724   21927837.9204   21927833.6004
        51.000          45.000
 124556084.25347  97056663.43147  23702253.6234   23702260.1644   23702254.1784
        46.000          39.000
 127109414.95947  99046285.35647  24188125.9374   24188127.6754   24188125.7774
        44.000          38.000
 122671731.55847  95588347.71747  23343664.4914   23343669.3634   23343664.2644
        47.000          41.000
 117706707.80147  91719499.29747  22398849.6184   22398854.0204   22398849.4204
        50.000          44.000
 123697819.10347  96387897.88247  23538922.1744   23538925.6884   23538922.7534
        47.000          40.000
 116934381.26347  91117672.52747  22251893.1534   22251897.8304   22251893.1254
        50.000          43.000
 123607416.19347  96317446.73147  23521722.4644   23521727.3344   23521721.9324
        45.000          40.000
 106820160.90747  83236470.32347  20327215.3014   20327218.4144   20327215.6394
        54.000          49.000
 113421920.80347  88380702.76847  21583483.4944   21583489.1544   21583483.5844
        52.000          46.000
 09  1 15  0  8  0.0000000  0 12G 6G12G14G 5G22G30G29G18G 9G31G21G24
 129670749.54847 101042109.27747  24675547.3844   24675555.5244   24675547.6894
        42.000          37.000
 128184524.94547  99884024.27647  24392720.7824   24392726.2754   24392720.4364
        43.000          38.000
 115240375.17747  89797688.91347  21929518.1744   21929522.1934   21929518.5064
        51.000          45.000
 124541980.15747  97045673.21647  23699569.7554   23699576.0974   23699570.6444
        45.000          39.000
 127088059.69047  99029644.96447  24184061.7144   24184064.0884   24184061.8724
        44.000          38.000
 122649245.36647  95570826.02247  23339385.5394   23339390.3044   23339385.2954
        48.000          41.000
 117781954.85647  91778133.34847  22413168.9444   22413173.2354   22413168.5214
        50.000          44.000
 123674847.14247  96369997.69447  23534550.7364   23534554.5834   23534551.2364
        47.000          40.000
 117000835.86447  91169455.39047  22264538.9714   22264543.6134   22264538.6854
        49.000          43.000
 123504571.62047  96237308.15147  23502151.3544   23502156.9224   23502151.1114
        45.000          40.000
 106773809.52947  83200352.38947  20318394.9474   20318397.8724   20318395.3114
        54.000          49.000
 113456022.66447  88407275.65447  21589972.9514   21589978.8184   21589973.1554
        52.000          46.000
 09  1 15  0  8 30.0000000  0 12G 6G12G14G 5G22G30G29G18G 9G31G21G24
 129619483.96047 101002162.05147  24665792.3764   24665799.3114   24665792.3934
        43.000          37.000
 128185314.11447  99884639.20547  24392871.0914   24392876.3154   24392870.4964
        43.000          38.000
 115249612.56147  89804886.88847  21931275.7604   21931280.0094   21931276.0264
        51.000          45.000
 124527874.61947  97034681.90247  23696885.8084   23696891.9274   23696886.2894
        46.000          39.000
 127066477.81947  99012828.00047  24179954.9524   24179957.5984   24179955.0504
        45.000          38.000
 122626625.53347  95553200.19847  23335081.3674   23335085.8964   23335081.2524
        48.000          41.000
 117857240.32247  91836797.33347  22427495.4854   22427499.4084   22427494.9794
        50.000          44.000
 123651673.74447  96351940.56147  23530140.8864   23530144.1264   23530141.3064
        47.000          40.000
 117067754.94147  91221600.16547  22277272.8734   22277277.7404   22277272.7464
        50.000          43.000
 123401798.25747  96157225.03947  23482594.1674   23482599.1384   23482593.6214
        45.000          40.000
 106727940.95447  83164610.66747  20309666.3454   20309669.4064   20309666.7934
        54.000          49.000
 113490592.02347  88434212.82047  21596551.1984   21596557.1664   21596551.2914
        52.000          46.000
 09  1 15  0  9  0.0000000  0 12G 6G12G14G 5G22G30G29G18G 9G31G21G24
 129568525.33147 100962454.00047  24656095.5554   24656101.7274   24656095.1964
        41.000          36.000
 128186109.39947  99885258.93047  24393022.4194   24393027.6374   24393021.8284
        43.000          38.000
 115259239.31547  89812388.26947  21933107.5074   21933111.8804   21933107.7414
        51.000          45.000
 124513774.59447  97023694.85847  23694202.4094   23694209.0284   23694203.0944
        45.000          39.000
 127044674.24747  98995838.28247  24175806.6234   24175808.0974   24175807.1114
        45.000          38.000
 122603878.36247  95535475.14447  23330752.4934   23330757.2534   23330752.2624
        48.000          41.000
 117932566.87747  91895493.33447  22441829.6384   22441833.7614   22441829.6484
        50.000          44.000
 123628304.91947  96333731.13547  23525693.9134   23525697.1314   23525694.1044
        47.000          40.000
 117135142.08647  91274109.68947  22290096.7044   22290101.0584   22290096.8554
        49.000          43.000
 123299104.13947  96077203.69247  23463052.3654   23463057.0934   23463051.8254
        46.000          41.000
 106682563.12747  83129251.34147  20301031.3024   20301034.3114   20301031.6344
        54.000          49.000
 113525633.60447  88461517.95447  21603219.3094   21603225.3064   21603219.3364
        52.000          46.000
 09  1 15  0  9 30.0000000  0 12G 6G12G14G 5G22G30G29G18G 9G31G21G24
 129517872.31647 100922984.10247  24646456.1984   24646463.3894   24646456.2604
        41.000          36.000
 128186911.33947  99885883.85947  24393175.1394   24393180.2024   24393175.0134
        44.000          38.000
 115269252.09047  89820190.45047  21935012.9644   21935017.0634   21935013.2504
        51.000          45.000
 124499680.65647  97012712.56747  23691520.3074   23691526.6634   23691520.9104
        45.000          39.000
 127022646.90947  98978674.15747  24171614.0834   24171615.8404   24171614.0224
        44.000          38.000
 122581003.79247  95517650.80647  23326399.6414   23326404.5534   23326398.9994
        47.000          41.000
 118007930.42347  91954218.15247  22456170.7484   22456174.9194   22456171.0584
        50.000          44.000
 123604739.56747  96315368.56247  23521209.6274   23521212.9944   23521209.9724
        47.000          39.000
 117202994.00747  91326981.34047  22303008.0064   22303013.0634   22303007.8794
        49.000          43.000
 123196490.27247  95997244.87247  23443525.9754   23443530.2234   23443525.9784
        46.000          41.000
 106637676.71947  83094274.93847  20292489.6684   20292492.7464   20292490.0764
        54.000          49.000
 113561145.57347  88489189.62747  21609977.2024   21609982.8224   21609977.2734
        53.000          46.000
 09  1 15  0 10  0.0000000  0 12G 6G12G14G 5G22G30G29G18G 9G31G21G24
 129467523.06347 100883750.93547  24636874.8374   24636882.2394   24636875.0224
        41.000          36.000
 128187719.74647  99886513.81647  24393329.0894   24393334.5234   24393328.8744
        44.000          39.000
 115279646.93247  89828290.34247  21936990.7814   21936995.2824   21936990.8014
        50.000          45.000
 124485592.77547  97001735.00347  23688839.4484   23688845.9134   23688839.8374
        45.000          39.000
 127000393.52947  98961333.90947  24167379.1144   24167382.0944   24167379.2674
        44.000          38.000
 122558001.36747  95499726.85747  23322022.1794   23322027.6194   23322021.8474
        47.000          41.000
 118083326.43347  92012968.26747  22470518.1744   22470522.0904   22470518.2574
        50.000          44.000
 123580976.71647  96296852.08847  23516687.6474   23516690.9914   23516688.1154
        47.000          39.000
 117271306.62847  91380211.99447  22316007.7924   22316012.6864   22316008.1124
        50.000          43.000
 123093957.46647  95917349.20947  23424014.4454   23424018.6044   23424014.5924
        47.000          41.000
 106593281.72947  83059681.46547  20284041.4764   20284044.7454   20284041.8574
        54.000          49.000
 113597125.42747  88517225.88547  21616824.1974   21616829.4734   21616824.4594
        53.000          46.000
 09  1 15  0 10 30.0000000  0 12G 6G12G14G 5G22G30G29G18G 9G31G21G24
 129417479.74347 100844756.14947  24627352.0124   24627360.0414   24627352.2634
        41.000          36.000
 128188538.84347  99887152.13047  24393485.0144   24393490.0874   24393484.6284
        44.000          39.000
 115290424.18947  89836688.22447  21939041.6874   21939046.1264   21939041.9374
        51.000          45.000
 124471515.11147  96990765.39947  23686160.5894   23686167.2514   23686161.2204
        45.000          39.000
 126977915.86047  98943818.91147  24163102.4364   24163103.9814   24163102.2844
        44.000          38.000
 122534874.94947  95481706.30047  23317621.2624   23317626.5474   23317621.7414
        48.000          41.000
 118158754.38147  92071743.28447  22484871.8254   22484875.8204   22484871.2244
        49.000          44.000
 123557019.31647  96278184.04547  23512128.5534   23512132.2294   23512129.1204
        47.000          39.000
 117340080.46447  91433802.04747  22329095.1584   22329099.7184   22329095.3944
        49.000          43.000
 122991510.68047  95837520.58147  23404519.6734   23404523.8614   23404519.5144
        46.000          41.000
 106549383.18547  83025474.82647  20275688.0674   20275691.0814   20275688.4464
        54.000          49.000
 113633575.00947  88545628.16347  21623760.1654   21623765.9264   21623760.3164
        52.000          46.000
 09  1 15  0 11  0.0000000  0 12G 6G12G14G 5G22G30G29G18G 9G31G21G24
 129367743.06447 100806000.28647  24617887.7354   24617894.8214   24617887.9874
        40.000          36.000
 128189370.51847  99887800.25647  24393642.8564   24393647.9474   24393642.8374
        45.000          39.000
 115301582.01747  89845382.64947  21941165.1244   21941169.1264   21941165.3284
        51.000          45.000
 124457450.15347  96979805.69547  23683484.0604   23683490.6844   23683484.8644
        46.000          39.000
 126955214.06547  98926129.23447  24158782.4014   24158783.8664   24158782.1674
        44.000          38.000
 122511626.45347  95463590.60047  23313197.5754   23313202.1194   23313196.8954
        47.000          41.000
 118234212.21947  92130541.59147  22499230.7014   22499234.9684   22499230.2774
        49.000          44.000
 123532868.57447  96259365.32347  23507532.9594   23507536.2744   23507533.3044
        47.000          39.000
 117409314.31647  91487750.53747  22342269.1774   22342274.3504   22342269.3944
        49.000          43.000
 122889153.16347  95757761.50547  23385041.6454   23385045.7334   23385041.4064
        47.000          41.000
 106505983.56547  82991656.96847  20267429.1794   20267432.3674   20267429.5324
        55.000          49.000
 113670494.34547  88574396.47847  21630785.6334   21630791.5634   21630785.7884
        52.000          46.000
 09  1 15  0 11 30.0000000  0 12G 6G12G14G 5G22G30G29G18G 9G31G21G24
 129318310.19847 100767481.19347  24608479.9594   24608488.4104   24608480.4084
        41.000          36.000
 128190213.89147  99888457.47947  24393803.7184   24393808.5884   24393803.3404
        45.000          39.000
 115313115.91547  89854370.12547  21943359.5694   21943364.2324   21943359.9264
        50.000          45.000
 124443397.12947  96968855.29047  23680809.6484   23680816.4854   23680810.1264
        44.000          39.000
 126932285.00147  98908262.43347  24154419.1704   24154420.6404   24154418.4504
        45.000          38.000
 122488254.54347  95445378.73047  23308749.9844   23308754.6524   23308749.7174
        48.000          41.000
 118309694.93047  92189359.28447  22513594.6844   22513598.8774   22513594.4934
        50.000          44.000
 123508522.40847  96240394.32447  23502899.9324   23502903.4104   23502900.0704
        47.000          40.000
 117479003.53347  91542053.85347  22355530.8954   22355535.7804   22355530.9854
        48.000          43.000
 122786884.79547  95678071.90947  23365580.5384   23365584.9444   23365579.9634
        46.000          41.000
 106463082.50647  82958227.59747  20259265.5234   20259268.4944   20259265.9144
        55.000          49.000
 113707880.01047  88603528.16647  21637899.7514   21637905.7524   21637899.7854
        52.000          46.000
 09  1 15  0 12  0.0000000  0 12G 6G12G14G 5G22G30G29G18G 9G31G21G24
 129269183.83447 100729200.95347  24599132.0324   24599139.4364   24599131.5004
        41.000          36.000
 128191073.48947  99889127.35547  24393967.2134   24393971.8964   24393967.5494
        44.000          38.000
 115325026.18247  89863650.86347  21945626.0734   21945630.6854   21945626.4214
        51.000          45.000
 124429360.61847  96957917.77047  23678138.6704   23678145.1194   23678139.2634
        46.000          39.000
 126909130.69547  98890220.12947  24150012.5014   24150014.4574   24150012.9144
        43.000          38.000
 122464763.18547  95427073.79147  23304279.7854   23304284.3614   23304279.4994
        47.000          41.000
 118385202.45347  92248196.30047  22527963.5404   22527967.7444   22527963.4064
        49.000          44.000
 123483984.14947  96221273.64747  23498229.9504   23498233.6624   23498230.5084
        47.000          40.000
 117549148.68347  91596712.43547  22368878.7974   22368883.9184   22368879.1264
        49.000          43.000
 122684710.82047  95598455.87847  23346137.6724   23346141.7664   23346136.9134
        47.000          41.000
 106420685.05647  82925190.64647  20251197.4794   20251200.4084   20251197.8414
        54.000          49.000
 113745733.94347  88633024.74147  21645103.1054   21645109.1004   21645103.2374
        52.000          46.000
 09  1 15  0 12 30.0000000  0 12G 6G12G14G 5G22G30G29G18G 9G31G21G24
 129220363.66247 100691159.26247  24589842.5644   24589849.6664   24589842.3854
        42.000          37.000
 128191950.77847  99889811.01147  24394134.3174   24394139.2574   24394134.1364
        44.000          38.000
 115337310.76447  89873223.28147  21947963.7484   21947968.2374   21947964.0804
        50.000          45.000
 124415342.27247  96946994.39647  23675471.0494   23675477.7024   23675471.7724
        46.000          39.000
 126885751.37447  98872002.49147  24145562.8924   24145565.6704   24145562.9184
        44.000          38.000
 122441153.71647  95408676.82347  23299786.8114   23299791.9184   23299786.1024
        47.000          41.000
 118460731.81447  92307050.33547  22542336.0824   22542340.0854   22542335.8324
        49.000          44.000
 123459254.74547  96202004.03147  23493524.5214   23493527.4214   23493524.7994
        47.000          40.000
 117619747.76747  91651724.74247  22382313.5104   22382317.9544   22382313.8974
        49.000          43.000
 122582634.19247  95518915.69647  23326713.4034   23326717.1404   23326712.9174
        46.000          41.000
 106378793.33447  82892547.76447  20243225.8694   20243228.7534   20243226.2374
        55.000          49.000
 113784055.35447  88662885.59147  21652395.2444   21652401.2714   21652395.5294
        52.000          46.000
 09  1 15  0 13  0.0000000  0 12G 6G12G14G 5G22G30G29G18G 9G31G21G24
 129171848.90347 100653355.53847  24580609.9124   24580617.4784   24580609.9824
        42.000          37.000
 128192847.27847  99890509.64147  24394304.1234   24394309.2104   24394304.0334
        44.000          38.000
 115349966.64047  89883085.01947  21950372.1434   21950376.6674   21950372.2934
        50.000          45.000
 124401343.27247  96936086.10347  23672807.5644   23672813.3694   23672808.3094
        46.000          39.000
 126862145.65447  98853608.47747  24141071.3714   24141074.1324   24141071.7004
        44.000          38.000
 122417426.92547  95390188.43947  23295271.6804   23295276.7454   23295271.2374
        47.000          41.000
 118536280.02947  92365919.06747  22556712.2354   22556716.4924   22556712.0474
        49.000          44.000
 123434334.05247  96182585.35647  23488782.1754   23488785.6254   23488782.5454
        47.000          40.000
 117690797.97247  91707088.58047  22395834.2034   22395838.4894   22395834.5214
        50.000          43.000
 122480656.77147  95439452.81147  23307307.7374   23307311.5214   23307307.3244
        48.000          42.000
 106337409.07447  82860300.31347  20235350.5944   20235353.6014   20235350.9114
        54.000          49.000
 113822843.02947  88693109.75447  21659776.4064   21659782.3204   21659776.6844
        52.000          46.000
 09  1 15  0 13 30.0000000  0 12G 6G12G14G 5G22G30G29G18G 9G31G21G24
 129123639.73547 100615789.98647  24571435.6834   24571442.9334   24571435.9004
        42.000          37.000
 128193764.24347  99891224.21347  24394477.8244   24394483.7064   24394477.6874
        43.000          38.000
 115362992.08447  89893234.73347  21952850.4794   21952854.9134   21952850.8094
        50.000          44.000
 124387365.80247  96925194.58647  23670147.6394   23670153.6774   23670148.3144
        45.000          39.000
 126838313.69447  98835038.15647  24136536.3964   24136538.8314   24136536.7184
        44.000          38.000
 122393584.48447  95371609.92947  23290734.6114   23290739.4114   23290734.2554
        48.000          41.000
 118611844.44347  92424800.41747  22571091.7024   22571096.0494   22571091.5604
        49.000          44.000
 123409223.05647  96163018.39447  23484004.0854   23484007.2324   23484004.3714
        47.000          40.000
 117762297.45347  91762802.50747  22409440.1194   22409444.2924   22409440.2984
        49.000          43.000
 122378781.13747  95360069.23847  23287921.4754   23287925.0914   23287921.0844
        48.000          42.000
 106296534.28047  82828449.84747  20227572.4284   20227575.2594   20227572.8964
        55.000          49.000
 113862096.56947  88723696.93647  21667246.1764   21667251.8424   21667246.3944
        52.000          46.000
 09  1 15  0 14  0.0000000  0 12G 6G12G14G 5G22G30G29G18G 9G31G21G24
 129075736.59447 100578462.87147  24562320.5264   24562327.7294   24562320.9594
        43.000          37.000
 128194704.22447  99891956.68247  24394657.1644   24394662.3264   24394656.5334
        43.000          38.000
 115376385.56947  89903671.23347  21955399.7754   21955403.6814   21955399.9274
        50.000          44.000
 124373412.32747  96914321.77747  23667492.5114   23667498.7774   23667493.2874
        45.000          40.000
 126814254.99747  98816291.12447  24131957.5914   24131960.6534   24131957.4234
        44.000          38.000
 122369628.11147  95352942.64447  23286175.9204   23286181.1924   23286175.5084
        48.000          41.000
 118687423.35647  92483693.05447  22585473.9724   22585478.1644   22585473.6144
        49.000          44.000
 123383923.22547  96143304.27747  23479189.5504   23479192.5584   23479189.6724
        47.000          39.000
 117834244.35047  91818865.06447  22423131.0814   22423135.3284   22423131.0164
        49.000          42.000
 122277010.76747  95280767.67647  23268555.3814   23268558.9024   23268555.2644
        48.000          42.000
 106256171.86947  82796998.63447  20219891.8474   20219894.6524   20219892.2924
        55.000          49.000
 113901815.82047  88754647.01547  21674804.6994   21674810.1144   21674804.8074
        52.000          46.000
 09  1 15  0 14 30.0000000  0 12G 6G12G14G 5G22G30G29G18G 9G31G21G24
 129028140.67747 100541375.18347  24553263.2434   24553270.5054   24553263.4124
        42.000          37.000
 128195670.46947  99892709.63347  24394841.1104   24394846.2274   24394841.2964
        43.000          38.000
 115390146.08447  89914393.72947  21958017.9874   21958022.1144   21958018.1774
        51.000          44.000
 124359486.13947  96903470.24047  23664842.5134   23664848.4414   23664842.6854
        45.000          40.000
 126789970.68747  98797368.31347  24127336.6654   24127338.8844   24127336.2194
        45.000          38.000
 122345560.71047  95334188.84047  23281596.3474   23281601.1064   23281595.9814
        48.000          41.000
 118763015.68547  92542596.14947  22599858.6304   22599862.9974   22599858.6854
        49.000          43.000
 123358436.81147  96123444.77647  23474339.3124   23474342.3454   23474339.9394
        46.000          39.000
 117906638.50447  91875276.13247  22436906.7144   22436911.3854   22436906.9434
        49.000          42.000
 122175349.69947  95201551.29647  23249209.6184   23249213.3444   23249209.5534
        48.000          42.000
 106216325.37047  82765949.43047  20212309.1594   20212312.0344   20212309.4904
        54.000          49.000
 113942001.39347  88785960.44847  21682451.6244   21682457.2624   21682451.9804
        52.000          46.000
 09  1 15  0 15  0.0000000  0 12G 6G12G14G 5G22G30G29G18G 9G31G21G24
 128980848.99647 100504524.55547  24544263.6214   24544270.7524   24544264.0634
        42.000          37.000
 128196661.93647  99893482.21447  24395029.7424   24395034.6134   24395029.4424
        43.000          38.000
 115404268.57247  89925398.29447  21960705.3814   21960709.6234   21960705.7484
        51.000          45.000
 124345586.31847  96892639.25047  23662196.9904   23662203.7034   23662197.5794
        45.000          40.000
 126765458.33647  98778267.82047  24122672.6874   24122674.3504   24122672.9794
        45.000          39.000
 122321381.21947  95315347.69147  23276994.9784   23276999.4904   23276994.8254
        48.000          41.000
 118838615.84347  92601505.36947  22614245.1334   22614249.0724   22614244.9904
        49.000          43.000
 123332761.36247  96103437.99047  23469453.2614   23469456.7864   23469453.4364
        47.000          39.000
 117979474.79847  91932031.72247  22450766.8594   22450771.7064   22450767.0034
        49.000          42.000
 122073797.87447  95122420.03547  23229884.7664   23229888.4704   23229884.1874
        47.000          42.000
 106176993.99547  82735301.62447  20204824.7164   20204827.4484   20204825.1914
        54.000          49.000
 113982649.90847  88817634.61847  21690186.6454   21690192.4524   21690186.7644
        52.000          45.000
 09  1 15  0 15 30.0000000  0 12G 6G12G14G 5G22G30G29G18G 9G31G21G24
 128933862.85847 100467912.01747  24535322.6684   24535329.5484   24535322.0534
        42.000          37.000
 128197681.71547  99894276.90147  24395223.3124   24395229.4394   24395223.3434
        43.000          38.000
 115418752.09047  89936684.17947  21963461.4394   21963465.6624   21963461.7974
        50.000          45.000
 124331716.08347  96881831.30747  23659557.5124   23659563.9884   23659558.0074
        45.000          39.000
 126740718.19047  98758989.81347  24117964.9424   24117967.1724   24117965.1584
        46.000          39.000
 122297092.14847  95296421.15447  23272372.7634   23272377.8424   23272372.4984
        48.000          41.000
 118914222.60247  92660419.71347  22628632.3724   22628636.6634   22628631.9514
        49.000          43.000
 123306899.30047  96083285.79547  23464531.6024   23464535.7174   23464532.0704
        47.000          40.000
 118052752.15747  91989130.99647  22464711.4894   22464715.8814   22464711.2504
        49.000          42.000
 121972359.28147  95043377.01147  23210581.4824   23210585.4364   23210580.9354
        47.000          42.000
 106138181.18147  82705057.89647  20197438.5904   20197441.5094   20197438.8924
        54.000          49.000
 114023761.77247  88849669.84647  21698009.9954   21698015.6294   21698010.2524
        52.000          45.000
 09  1 15  0 16  0.0000000  0 12G 6G12G14G 5G22G30G29G18G 9G31G21G24
 128887184.25147 100431539.11047  24526439.7874   24526447.0544   24526439.7834
        41.000          36.000
 128198733.76947  99895096.72747  24395423.9864   24395429.9014   24395423.5734
        43.000          38.000
 115433596.74047  89948251.46947  21966286.6384   21966290.5964   21966286.8334
        51.000          45.000
 124317879.57647  96871049.65647  23656924.8184   23656930.9704   23656925.2624
        46.000          40.000
 126715752.37047  98739535.98247  24113213.9994   24113216.0644   24113214.2804
        45.000          39.000
 122272697.31747  95277412.21147  23267730.8774   23267735.5554   23267730.4044
        47.000          41.000
 118989835.76647  92719339.05447  22643021.0684   22643025.5204   22643020.3114
        48.000          43.000
 123280853.54447  96062990.45247  23459575.6554   23459578.4864   23459575.9524
        47.000          40.000
 118126470.80947  92046574.13647  22478739.4384   22478743.9594   22478739.5304
        49.000          42.000
 121871038.75947  94964425.99647  23191300.7134   23191304.7624   23191299.9534
        47.000          42.000
 106099891.17247  82675221.54047  20190152.4064   20190155.0574   20190152.7554
        55.000          49.000
 114065338.24647  88882067.10147  21705921.7694   21705927.3194   21705922.0424
        52.000          45.000
 09  1 15  0 16 30.0000000  0 12G 6G12G14G 5G22G30G29G18G 9G31G21G24
 128840810.81247 100395403.98947  24517615.3034   24517622.0384   24517615.1534
        42.000          37.000
 128199817.71247  99895941.41847  24395630.5464   24395635.3934   24395630.6874
        43.000          38.000
 115448798.12847  89960096.74147  21969179.1844   21969183.3764   21969179.3824
        51.000          45.000
 124304076.72947  96860294.19847  23654298.0304   23654304.2914   23654298.7554
        45.000          39.000
 126690558.89847  98719904.74247  24108419.5784   24108421.6904   24108419.6054
        45.000          39.000
 122248196.13647  95258320.40147  23263068.0834   23263073.0814   23263068.0244
        48.000          41.000
 119065450.55247  92778259.66447  22657409.9074   22657414.7904   22657409.8504
        49.000          44.000
 123254623.06447  96042551.17047  23454583.7174   23454587.4304   23454584.3124
        48.000          40.000
 118200626.74347  92104358.02047  22492850.7874   22492855.3084   22492850.9794
        49.000          42.000
 121769837.05647  94885567.56247  23172042.5344   23172046.3844   23172042.6434
        47.000          42.000
 106062123.95947  82645792.56747  20182965.4084   20182968.2964   20182965.8194
        54.000          49.000
 114107376.61447  88914824.27947  21713921.4164   21713926.9674   21713921.6984
        52.000          45.000
 09  1 15  0 17  0.0000000  0 12G 6G12G14G 5G22G30G29G18G 9G31G21G24
 128794743.80547 100359507.65847  24508849.0804   24508855.9824   24508848.6744
        42.000          36.000
 128200936.79847  99896813.46847  24395843.5494   24395848.8974   24395843.2164
        43.000          38.000
 115464355.46247  89972219.37547  21972139.7574   21972143.6864   21972139.8864
        51.000          45.000
 124290310.83147  96849567.54247  23651678.4824   23651684.5854   23651679.2024
        45.000          39.000
 126665138.86547  98700096.99347  24103582.3444   24103584.5984   24103582.1524
        45.000          39.000
 122223591.57747  95239148.03947  23258385.9984   23258391.0374   23258385.3834
        48.000          41.000
 119141066.10447  92837180.88047  22671799.4184   22671803.9914   22671799.2894
        48.000          44.000
 123228209.91247  96021969.54047  23449557.6364   23449561.2124   23449558.2424
        48.000          40.000
 118275219.25947  92162482.09947  22507044.9664   22507049.7024   22507045.1284
        48.000          42.000
 121668758.41247  94806805.02347  23152807.9514   23152811.8544   23152807.7864
        47.000          42.000
 106024883.04847  82616773.69547  20175878.9114   20175881.6584   20175879.2954
        55.000          49.000
 114149877.56647  88947941.91847  21722009.1914   21722014.6564   21722009.2804
        52.000          45.000
 09  1 15  0 17 30.0000000  0 12G 6G12G14G 5G22G30G29G18G 9G31G21G24
 128748982.91447 100323849.85247  24500140.8904   24500148.0284   24500140.7744
        42.000          37.000
 128202092.50047  99897714.07047  24396062.8694   24396068.5534   24396062.4574
        43.000          39.000
 115480266.36147  89984617.51047  21975167.4854   21975171.5244   21975167.6874
        51.000          45.000
 124276583.61247  96838871.05047  23649065.8984   23649072.2874   23649066.1254
        45.000          39.000
 126639491.62947  98680112.22847  24098702.0914   24098703.9094   24098702.0334
        45.000          39.000
 122198884.84647  95219896.04847  23253684.6864   23253689.3064   23253684.2214
        48.000          41.000
 119216679.58947  92896100.47447  22686187.9224   22686192.8144   22686187.6764
        48.000          43.000
 123201614.72047  96001246.06047  23444496.8344   23444500.3474   23444497.2454
        48.000          40.000
 118350246.01547  92220944.54347  22521322.7344   22521326.9924   22521322.6824
        49.000          42.000
 121567805.23447  94728140.23947  23133597.5274   23133601.1004   23133596.6114
        48.000          42.000
 105988170.13847  82588166.24947  20168892.5034   20168895.4044   20168892.8524
        54.000          49.000
 114192840.04147  88981419.18647  21730184.5394   21730190.1944   21730184.8334
        52.000          45.000
 09  1 15  0 18  0.0000000  0 12G 6G12G14G 5G22G30G29G18G 9G31G21G24
 128703527.19347 100288429.84647  24491491.3044   24491498.2484   24491490.8014
        43.000          37.000
 128203285.98747  99898644.11047  24396290.2324   24396295.5584   24396289.7064
        44.000          39.000
 115496527.89747  89997288.87747  21978261.8614   21978265.9064   21978261.9604
        51.000          45.000
 124262896.53347  96828205.81247  23646461.2854   23646467.8974   23646461.9164
        46.000          39.000
 126613616.08747  98659949.54547  24093777.9964   24093779.6344   24093778.0684
        45.000          39.000
 122174077.19847  95200565.43247  23248963.9184   23248968.6824   23248963.7754
        47.000          41.000
 119292288.01247  92955016.11747  22700575.7574   22700580.3974   22700575.2124
        48.000          43.000
 123174838.02847  95980381.15847  23439401.1054   23439404.3624   23439401.5604
        48.000          40.000
 118425704.11347  92279743.09047  22535682.0214   22535686.3914   22535681.8194
        49.000          42.000
 121466979.84147  94649575.03747  23114411.1194   23114414.5994   23114410.9004
        49.000          42.000
 105951986.94447  82559971.56847  20162006.8314   20162009.8014   20162007.2014
        54.000          49.000
 114236262.53947  89015254.90447  21738447.3164   21738453.3094   21738447.4654
        51.000          45.000
 09  1 15  0 18 30.0000000  0 12G 6G12G14G 5G22G30G29G18G 9G31G21G24
 128658375.57647 100253246.77647  24482899.0144   24482905.8594   24482899.1064
        41.000          37.000
 128204518.19847  99899604.31947  24396524.9884   24396529.9784   24396524.5364
        44.000          39.000
 115513137.00847  90010231.07247  21981422.2274   21981426.5384   21981422.5954
        51.000          45.000
 124249250.59547  96817572.63747  23643865.2804   23643871.0154   23643865.7804
        46.000          40.000
 126587511.29447  98639608.16147  24088810.2374   24088812.2604   24088810.1224
        45.000          39.000
 122149169.06047  95181156.51047  23244224.0734   23244228.9574   23244223.7834
        47.000          41.000
 119367887.84747  93013925.06347  22714961.8324   22714966.6814   22714961.4484
        49.000          43.000
 123147879.75847  95959374.76147  23434271.2244   23434274.5904   23434271.6634
        48.000          40.000
 118501590.56247  92338875.43347  22550122.5114   22550126.9694   22550122.4014
        49.000          42.000
 121366283.79147  94571110.62047  23095249.1064   23095252.5604   23095249.0894
        48.000          42.000
 105916334.45747  82532190.42147  20155222.7174   20155225.4114   20155223.1264
        54.000          49.000
 114280143.02247  89049447.49847  21746797.5014   21746803.4934   21746797.6314
        51.000          45.000
 09  1 15  0 19  0.0000000  0 12G 6G12G14G 5G22G30G29G18G 9G31G21G24
 128613531.96547 100218303.73747  24474365.2084   24474372.6124   24474364.9964
        42.000          37.000
 128205795.25547  99900599.48247  24396767.8724   24396773.0234   24396767.5104
        44.000          38.000
 115530095.82747  90023445.77147  21984649.4604   21984653.7154   21984649.5034
        51.000          45.000
 124235651.99547  96806976.34447  23641277.3744   23641283.2074   23641278.1994
        46.000          39.000
 126561181.70047  98619091.67747  24083799.6344   24083801.5064   24083799.6854
        45.000          39.000
 122124166.08047  95161673.69047  23239465.5714   23239471.0544   23239465.3614
        47.000          41.000
 119443481.02847  93072828.84447  22729346.8464   22729351.5304   22729346.7654
        49.000          43.000
 123120745.04847  95938230.87147  23429107.5234   23429111.0654   23429107.9784
        48.000          40.000
 118577907.17647  92398342.97847  22564644.9664   22564649.4574   22564645.0814
        49.000          43.000
 121265723.96047  94492752.35147  23076113.2494   23076116.9484   23076112.6824
        48.000          42.000
 105881218.81247  82504827.59847  20148540.1894   20148543.1474   20148540.6024
        54.000          49.000
 114324485.19847  89083999.85047  21755235.5334   21755241.3534   21755235.6074
        51.000          45.000
 09  1 15  0 19 30.0000000  0 12G 6G12G14G 5G22G30G29G18G 9G31G21G24
 128568992.55547 100183597.70047  24465890.4384   24465896.2564   24465890.9554
        42.000          36.000
 128207115.39047  99901628.23347  24397018.7964   24397023.6774   24397018.7334
        44.000          38.000
 115547397.87447  90036927.91347  21987941.9194   21987945.9814   21987942.1774
        51.000          45.000
 124222099.09047  96796415.67647  23638698.3964   23638704.6304   23638699.0144
        45.000          40.000
 126534623.27247  98598396.89147  24078745.7544   24078747.4214   24078745.9614
        45.000          39.000
 122099066.49947  95142115.58047  23234689.1474   23234694.6224   23234689.0474
        47.000          41.000
 119519061.34247  93131722.58547  22743729.3084   22743733.7824   22743729.2354
        48.000          43.000
 123093431.15747  95916947.36047  23423910.1644   23423913.0404   23423910.5194
        48.000          40.000
 118654647.94947  92458141.04747  22579248.3224   22579252.7284   22579248.4724
        49.000          42.000
 121165300.14447  94414500.07847  23057003.3394   23057006.7644   23057002.9814
        48.000          42.000
 105846638.63647  82477882.02147  20141959.8164   20141962.9744   20141960.1874
        54.000          49.000
 114369284.17547  89118908.15047  21763760.5394   21763766.2194   21763760.5704
        51.000          45.000
 09  1 15  0 20  0.0000000  0 12G 6G12G14G 5G22G30G29G18G 9G31G21G24
 128524759.43547 100149130.38647  24457472.9424   24457479.7714   24457472.9614
        41.000          37.000
 128208482.81447  99902693.81847  24397278.6684   24397284.4664   24397278.8464
        43.000          38.000
 115565043.57347  90050677.84047  21991299.8264   21991304.1034   21991300.0744
        51.000          45.000
 124208596.24047  96785894.00947  23636128.7534   23636134.8984   23636129.2894
        46.000          40.000
 126507838.27347  98577525.50147  24073648.5484   24073650.3164   24073648.7574
        45.000          39.000
 122073874.17647  95122485.20347  23229895.5134   23229900.6694   23229895.2794
        47.000          41.000
 119594628.84447  93190606.34047  22758109.3524   22758113.5534   22758109.0464
        48.000          43.000
 123065941.33347  95895526.75047  23418679.2114   23418682.1854   23418679.6644
        48.000          40.000
 118731813.18347  92518269.82847  22593931.7894   22593936.7804   22593931.9344
        48.000          42.000
 121065017.16847  94336357.56847  23037919.7454   23037923.6464   23037919.6944
        48.000          42.000
 105812598.07247  82451356.93547  20135481.7084   20135485.3084   20135482.1004
        54.000          49.000
 114414541.69847  89154173.75947  21772372.6024   21772378.3124   21772372.5974
        52.000          45.000
 09  1 15  0 20 30.0000000  0 12G 6G12G14G 5G22G30G29G18G 9G31G21G24
 128480830.26447 100114899.87347  24449113.6334   24449120.5664   24449113.5554
        41.000          36.000
 128209896.42347  99903795.39047  24397547.8434   24397552.9744   24397547.4694
        43.000          38.000
 115583028.41547  90064692.03147  21994722.1564   21994726.2004   21994722.3044
        51.000          45.000
