     2.11           OBSERVATION DATA    G (GPS)             RINEX VERSION / TYPE
teqc  2008Oct2      gpsops              20090105 00:09:42UTCPGM / RUN BY / DATE
    30.0000                                                 INTERVAL
     1     1                                                WAVELENGTH FACT L1/2
     7    L1    L2    P1    P2    C1    S1    S2            # / TYPES OF OBSERV
Linux 2.4.20-8|Pentium IV|gcc -static|Linux|486/DX+         COMMENT
     2.10           OBSERVATION DATA    GPS                 COMMENT
soc2rnx ver 1.20    gpsops               5-Jan-2009 00:09:28COMMENT
S1, if present, is the SNR for the C/A data stream on L1.   COMMENT
 SNR is mapped to RINEX snr flag value [1,4-9]              COMMENT
    SNR:   >316  >100  >31.6  >10  >3.2    >0 bad=0         COMMENT
L1 & L2:      9     8     7     6     5     4     1         COMMENT
                                                            COMMENT
This data is provided as a public service by NASA/JPL.      COMMENT
No warranty is expressed or implied regarding suitability   COMMENT
for use.  For further information, contact:                 COMMENT
Dave Stowers, NASA/JPL m/s 238-600                          COMMENT
4800 Oak Grove Drive, Pasadena CA 91109 USA                 COMMENT
                                                            COMMENT
Forced Modulo Decimation to 30 seconds                      COMMENT
  2009     1     4     0     0    0.0000000     GPS         TIME OF FIRST OBS
GGN                 JPL                                     OBSERVER / AGENCY
CR519992104         ASH701945B_M    SCIT                    ANT # / TYPE
   -33801.4662 -6377516.5323   -82154.3508                  APPROX POSITION XYZ
        0.0083        0.0000        0.0000                  ANTENNA: DELTA H/E/N
ZR220013847         ASHTECH UZ-12       CQ00                REC # / TYPE / VERS
GLPS                                                        MARKER NAME
42005M002                                                   MARKER NUMBER
                                                            END OF HEADER
 09  1  4  0  0  0.0000000  0 10G14G 9G30G21G12G22G 5G29G18G24
 116927466.34447  91112302.28847  22250562.6494   22250567.0794   22250562.7044
        48.000          43.000
 112763889.66147  87867939.07647  21458275.3074   21458279.7754   21458275.6124
        53.000          47.000
 124067765.94347  96676157.36647  23609330.9564   23609334.1924   23609331.1014
        47.000          40.000
 113874072.56847  88733046.09147  21669513.4824   21669516.9104   21669513.5734
        52.000          45.000
 127849313.93947  99622813.36647  24328936.3884   24328944.1904   24328937.4084
        42.000          38.000
 128241287.35847  99928263.16747  24403513.6544   24403518.3354   24403514.6314
        44.000          37.000
 125568519.10347  97845573.19647  23894915.0654   23894920.7844   23894915.6664
        46.000          39.000
 110636842.44247  86210507.06847  21053506.7244   21053509.8934   21053506.2474
        53.000          48.000
 124899727.23947  97324444.89747  23767640.7714   23767645.7524   23767642.2434
        46.000          39.000
 112409905.27947  87592113.19647  21390908.2094   21390913.0694   21390908.1174
        53.000          47.000
 09  1  4  0  0 30.0000000  0 10G14G 9G30G21G12G22G 5G29G18G24
 116887928.45047  91081493.57447  22243039.1184   22243043.6854   22243039.1404
        49.000          43.000
 112776101.31247  87877454.68047  21460599.2014   21460603.4554   21460599.2784
        53.000          47.000
 124064985.59347  96673990.86847  23608801.6734   23608805.8374   23608801.8534
        47.000          40.000
 113792620.64947  88669577.10047  21654013.6874   21654016.6114   21654013.9504
        52.000          45.000
 127859219.28047  99630531.81647  24330821.8694   24330827.5814   24330821.7634
        42.000          38.000
 128239433.26247  99926818.52847  24403161.7804   24403165.6174   24403161.7514
        43.000          37.000
 125564000.29647  97842052.12047  23894055.1564   23894061.1034   23894055.4254
        45.000          39.000
 110693401.59447  86254579.14147  21064269.2304   21064272.8804   21064269.0444
        53.000          48.000
 124899513.38747  97324278.34247  23767600.7144   23767604.1894   23767601.3464
        47.000          39.000
 112396771.87947  87581879.38547  21388408.6164   21388413.8494   21388408.7064
        53.000          47.000
 09  1  4  0  1  0.0000000  0 10G14G 9G30G21G12G22G 5G29G18G24
 116848870.17147  91051058.61247  22235606.6454   22235611.1694   22235607.2054
        49.000          43.000
 112788833.73547  87887376.07447  21463021.9144   21463026.3804   21463021.9344
        53.000          47.000
 124061987.74747  96671654.88447  23608230.6814   23608235.5104   23608230.6844
        47.000          40.000
 113711343.64947  88606244.40547  21638547.1234   21638550.0064   21638547.6014
        52.000          45.000
 127868969.79047  99638129.63647  24332677.4624   24332683.1514   24332676.9154
        42.000          38.000
 128237454.52747  99925276.76247  24402784.4854   24402789.3034   24402784.9964
        43.000          38.000
 125559318.47147  97838404.01147  23893164.3744   23893169.9054   23893164.4934
        45.000          39.000
 110750288.65847  86298906.73647  21075094.3554   21075098.2134   21075094.0064
        53.000          48.000
 124899092.67847  97323950.61147  23767520.2464   23767524.0374   23767520.9954
        47.000          39.000
 112384031.40647  87571951.75547  21385984.0914   21385989.3194   21385984.2264
        53.000          47.000
 09  1  4  0  1 30.0000000  0 10G14G 9G30G21G12G22G 5G29G18G24
 116810285.95547  91020993.04047  22228264.1864   22228268.4584   22228264.1824
        49.000          43.000
 112802082.02447  87897699.44447  21465543.0444   21465547.3014   21465543.1764
        53.000          46.000
 124058766.58047  96669144.90147  23607617.6744   23607622.6554   23607617.5984
        47.000          40.000
 113630238.63147  88543045.73747  21623113.3084   21623116.1034   21623113.7224
        52.000          45.000
 127878560.58547  99645603.06447  24334502.5664   24334508.0574   24334501.9264
        42.000          38.000
 128235343.51647  99923631.92947  24402382.8544   24402386.5804   24402382.7434
        43.000          37.000
 125554468.73447  97834625.07447  23892241.0204   23892247.1614   23892241.6904
        45.000          39.000
 110807494.92047  86343483.05247  21085980.5394   21085984.1344   21085980.3054
        53.000          48.000
 124898458.17447  97323456.26647  23767399.5964   23767403.1454   23767400.0264
        46.000          39.000
 112371679.62147  87562327.00147  21383633.5354   21383638.9344   21383633.7124
        53.000          47.000
 09  1  4  0  2  0.0000000  0 10G14G 9G30G21G12G22G 5G29G18G24
 116772178.04847  90991298.61947  22221012.4364   22221016.8674   22221012.7404
        49.000          43.000
 112815848.88047  87908426.88547  21468162.6584   21468167.2094   21468162.8174
        53.000          47.000
 124055324.64047  96666462.88147  23606963.0934   23606967.7264   23606963.0194
        47.000          40.000
 113549310.64647  88479985.01847  21607713.1314   21607716.1054   21607713.5854
        52.000          45.000
 127887994.75447  99652954.41847  24336297.6154   24336303.7084   24336296.9694
        42.000          38.000
 128233101.36147  99921884.90547  24401956.4664   24401960.5954   24401955.6434
        43.000          37.000
 125549454.05947  97830717.57947  23891286.4004   23891292.6334   23891287.1884
        45.000          39.000
 110865019.49047  86388307.40147  21096926.9904   21096930.5714   21096926.6444
        53.000          48.000
 124897611.69547  97322796.74747  23767239.0554   23767242.1084   23767239.2464
        46.000          39.000
 112359720.08347  87553007.88847  21381357.8084   21381363.1224   21381357.9104
        53.000          47.000
 09  1  4  0  2 30.0000000  0 10G14G 9G30G21G12G22G 5G29G18G24
 116734547.75347  90961976.35347  22213851.6674   22213855.9674   22213851.7304
        49.000          43.000
 112830135.83247  87919559.60347  21470881.4194   21470885.8884   21470881.6304
        53.000          47.000
 124051662.55147  96663609.33347  23606266.3194   23606271.1154   23606265.9944
        48.000          40.000
 113468563.46547  88417065.19147  21592347.4834   21592350.4134   21592347.9154
        52.000          46.000
 127897273.94747  99660184.97647  24338064.0354   24338069.3894   24338063.7764
        43.000          38.000
 128230726.58447  99920034.53147  24401503.9594   24401508.1324   24401504.0014
        43.000          37.000
 125544276.34747  97826683.03047  23890301.1444   23890307.5684   23890301.7894
        45.000          39.000
 110922860.48347  86433378.31647  21107933.6754   21107937.4064   21107933.4574
        53.000          48.000
 124896553.18247  97321971.99847  23767037.3944   23767040.8324   23767037.8094
        46.000          39.000
 112348155.24147  87543996.34147  21379157.0764   21379162.1944   21379157.2214
        54.000          47.000
 09  1  4  0  3  0.0000000  0 10G14G 9G30G21G12G22G 5G29G18G24
 116697394.96547  90933026.17647  22206781.9774   22206786.0524   22206781.9084
        49.000          43.000
 112844943.67147  87931098.20647  21473699.1974   21473703.6834   21473699.3954
        53.000          47.000
 124047780.59147  96660584.43247  23605527.5644   23605531.8044   23605527.4504
        47.000          40.000
 113388000.28947  88354288.73847  21577016.6184   21577019.8644   21577016.9584
        52.000          46.000
 127906399.73247  99667296.02447  24339800.4904   24339805.7684   24339799.8664
        42.000          38.000
 128228218.18247  99918080.04447  24401027.0554   24401031.0644   24401027.2654
        44.000          37.000
 125538936.68447  97822522.28147  23889285.2464   23889291.5204   23889285.4974
        45.000          39.000
 110981015.00947  86478693.54347  21118999.9624   21119003.8614   21118999.6034
        53.000          48.000
 124895282.22947  97320981.71147  23766794.9214   23766798.2384   23766795.2624
        46.000          39.000
 112336986.90447  87535293.75647  21377032.1284   21377036.9404   21377032.3584
        54.000          47.000
 09  1  4  0  3 30.0000000  0 10G14G 9G30G21G12G22G 5G29G18G24
 116660718.76747  90904447.35247  22199802.5304   22199806.8014   22199802.8864
        49.000          43.000
 112860271.88047  87943042.28947  21476616.1014   21476620.5374   21476616.1834
        53.000          46.000
 124043677.82647  96657387.47847  23604747.6804   23604751.4354   23604747.1944
        47.000          40.000
 113307623.06947  88291657.18847  21561721.5184   21561724.3654   21561721.8784
        52.000          46.000
 127915372.21547  99674287.60547  24341507.5834   24341512.6644   24341506.7704
        42.000          38.000
 128225573.49147  99916019.32247  24400523.8944   24400527.8504   24400523.9934
        44.000          38.000
 125533435.15847  97818235.42547  23888238.2444   23888244.7074   23888238.5054
        45.000          39.000
 111039479.49347  86524250.28847  21130125.3454   21130129.2024   21130125.1014
        53.000          48.000
 124893797.35547  97319824.72747  23766512.5464   23766515.8924   23766513.0264
        46.000          39.000
 112326215.56147  87526900.51547  21374982.3824   21374987.3654   21374982.6794
        53.000          47.000
 09  1  4  0  4  0.0000000  0 10G14G 9G30G21G12G22G 5G29G18G24
 116624520.10447  90876240.65047  22192914.0004   22192918.2564   22192914.4424
        50.000          43.000
 112876121.89347  87955392.97147  21479632.3134   21479636.7204   21479632.4614
        53.000          47.000
 124039355.56747  96654019.52347  23603924.3484   23603929.6014   23603923.5884
        46.000          40.000
 113227435.65447  88229173.54447  21546462.2394   21546465.1224   21546462.6874
        52.000          46.000
 127924192.66947  99681160.75547  24343185.8724   24343191.8864   24343185.2954
        43.000          38.000
 128222792.20447  99913852.21547  24399994.5584   24399997.7784   24399993.9184
        42.000          37.000
 125527773.61247  97813823.86147  23887160.9154   23887167.8134   23887161.3874
        45.000          39.000
 111098251.61347  86570046.74847  21141309.4494   21141313.2694   21141309.2654
        53.000          48.000
 124892098.87347  97318501.30047  23766189.7334   23766192.9084   23766190.1964
        46.000          40.000
 112315843.95047  87518818.75447  21373008.6264   21373013.5074   21373008.8024
        53.000          47.000
 09  1  4  0  4 30.0000000  0 10G14G 9G30G21G12G22G 5G29G18G24
 116588800.95947  90848407.59647  22186116.9284   22186121.1934   22186117.1754
        49.000          43.000
 112892495.79547  87968151.88747  21482748.0664   21482752.5184   21482748.2334
        53.000          47.000
 124034815.31247  96650481.72147  23603060.1534   23603065.7904   23603059.8494
        47.000          40.000
 113147442.71447  88166841.43247  21531240.2154   21531243.1134   21531240.5004
        52.000          46.000
 127932864.00047  99687917.68147  24344835.7954   24344841.9734   24344835.9574
        42.000          38.000
 128219874.12347  99911578.48847  24399438.3364   24399443.2394   24399438.4464
        43.000          37.000
 125521954.71947  97809289.66747  23886054.2264   23886060.0684   23886054.5594
        46.000          39.000
 111157330.38947  86616082.16947  21152551.7514   21152555.3914   21152551.4514
        53.000          48.000
 124890187.68947  97317012.14347  23765825.2594   23765828.9804   23765825.8464
        45.000          39.000
 112305874.86447  87511050.66147  21371111.3434   21371116.5014   21371111.4514
        53.000          47.000
 09  1  4  0  5  0.0000000  0 10G14G 9G30G21G12G22G 5G29G18G24
 116553559.06947  90820946.43147  22179410.7254   22179415.1334   22179410.6724
        49.000          43.000
 112909392.22847  87981317.97047  21485963.3884   21485967.7944   21485963.4864
        53.000          47.000
 124030054.95047  96646772.35747  23602154.7804   23602159.7024   23602154.4774
        47.000          40.000
 113067645.05347  88104661.48547  21516055.2024   21516058.1564   21516055.6984
        52.000          46.000
 127941385.27347  99694557.66247  24346457.3144   24346463.4434   24346457.0844
        43.000          38.000
 128216816.06647  99909195.66547  24398857.1584   24398861.0784   24398857.1174
        44.000          38.000
 125515977.24647  97804631.93147  23884916.0194   23884922.5534   23884917.0794
        45.000          39.000
 111216710.56447  86662352.44547  21163851.5274   21163855.0384   21163851.2474
        53.000          48.000
 124888061.15547  97315355.17347  23765420.4134   23765424.5864   23765420.9184
        46.000          39.000
 112296307.50247  87503595.60047  21369290.6584   21369296.0444   21369290.7834
        53.000          47.000
 09  1  4  0  5 30.0000000  0 10G14G 9G30G21G12G22G 5G29G18G24
 116518795.14947  90793857.70347  22172795.0954   22172799.6244   22172795.2244
        49.000          43.000
 112926812.60147  87994892.31647  21489278.5334   21489282.7544   21489278.6204
        53.000          47.000
 124025075.64447  96642892.40247  23601206.6754   23601211.8744   23601206.3914
        46.000          40.000
 112988046.16447  88042636.41747  21500907.9014   21500910.7644   21500908.2344
        53.000          46.000
 127949757.74347  99701081.73147  24348051.1094   24348055.8634   24348050.6454
        44.000          38.000
 128213616.67847  99906702.75047  24398247.9964   24398251.7224   24398248.6864
        43.000          37.000
 125509843.03547  97799852.06447  23883748.8114   23883754.8444   23883748.9934
        45.000          39.000
 111276390.07047  86708855.96747  21175208.1494   21175211.8274   21175207.7774
        53.000          48.000
 124885719.15847  97313530.30747  23764974.8874   23764978.7494   23764975.5804
        46.000          40.000
 112287144.27847  87496455.44747  21367547.0144   21367552.0604   21367547.0944
        53.000          47.000
 09  1  4  0  6  0.0000000  0 10G14G 9G30G21G12G22G 5G29G18G24
 116484510.30647  90767142.28647  22166270.8824   22166275.3484   22166270.8544
        49.000          44.000
 112944758.40947  88008876.09847  21492693.3884   21492697.5174   21492693.5224
        53.000          46.000
 124019878.55647  96638842.70647  23600217.6244   23600223.1644   23600217.2744
        46.000          40.000
 112908650.30147  87980769.56947  21485799.2984   21485802.3474   21485799.6114
        53.000          46.000
 127957984.07047  99707491.93647  24349616.5124   24349621.1344   24349616.3794
        44.000          38.000
 128210275.77547  99904099.56247  24397611.6274   24397615.5784   24397612.1194
        43.000          37.000
 125503554.37047  97794951.84447  23882552.3774   23882558.3094   23882552.4854
        46.000          39.000
 111336367.30547  86755591.48647  21186621.5024   21186625.0844   21186621.3684
        53.000          48.000
 124883162.63347  97311538.29547  23764488.4524   23764492.1934   23764488.9064
        46.000          40.000
 112278387.84847  87489632.28047  21365880.8864   21365885.9754   21365881.0024
        53.000          47.000
 09  1  4  0  6 30.0000000  0 10G14G 9G30G21G12G22G 5G29G18G24
 116450702.68647  90740798.72247  22159837.4474   22159842.0204   22159837.6034
        49.000          44.000
 112963227.98847  88023267.99947  21496207.9954   21496212.0544   21496208.0904
        53.000          46.000
 124014462.00847  96634622.04247  23599186.5264   23599192.2864   23599186.3014
        46.000          40.000
 112829458.34247  87919061.59047  21470729.4884   21470732.4604   21470729.8114
        53.000          46.000
 127966063.32847  99713787.54447  24351153.8264   24351158.9184   24351153.6624
        44.000          38.000
 128206790.05847  99901383.52047  24396948.3764   24396952.4624   24396948.4234
        43.000          37.000
 125497110.16947  97789930.42547  23881326.2114   23881332.2324   23881326.7344
        45.000          39.000
 111396637.41547  86802555.21247  21198090.4984   21198094.1924   21198090.2454
        53.000          48.000
 124880388.60047  97309376.78247  23763960.6044   23763964.1804   23763960.6804
        46.000          40.000
 112270037.69047  87483125.69047  21364291.6884   21364297.0254   21364291.7564
        53.000          47.000
 09  1  4  0  7  0.0000000  0 10G14G 9G30G21G12G22G 5G29G18G24
 116417374.88547  90714829.04647  22153495.4054   22153499.6714   22153495.5434
        49.000          44.000
 112982224.26847  88038070.32947  21499822.7704   21499826.8464   21499823.0674
        53.000          46.000
 124008829.04747  96630232.75447  23598115.0834   23598120.3874   23598115.1584
        46.000          40.000
 112750476.15347  87857517.07147  21455699.7234   21455702.8194   21455700.0664
        53.000          46.000
 127973999.29547  99719971.49547  24352664.1344   24352669.1704   24352664.1694
        44.000          38.000
 128203160.60447  99898555.50047  24396257.4324   24396261.7254   24396257.6714
        44.000          37.000
 125490514.52747  97784791.01447  23880070.1324   23880076.6684   23880070.7734
        45.000          39.000
 111457200.49647  86849747.22647  21209615.3294   21209618.9854   21209614.9674
        53.000          48.000
 124877399.61847  97307047.77047  23763391.9904   23763395.0404   23763392.1424
        46.000          39.000
 112262097.93347  87476938.87847  21362780.8264   21362785.9504   21362780.9244
        53.000          47.000
 09  1  4  0  7 30.0000000  0 10G14G 9G30G21G12G22G 5G29G18G24
 116384526.02847  90689232.57847  22147244.3604   22147248.9984   22147244.6244
        49.000          44.000
 113001747.29147  88053283.10047  21503537.8154   21503541.9514   21503537.8984
        53.000          46.000
 124002978.95747  96625674.26147  23597001.6854   23597006.8664   23597001.9184
        46.000          40.000
 112671705.77147  87796137.59347  21440710.4114   21440713.3084   21440710.8984
        53.000          46.000
 127981792.24647  99726044.00747  24354147.5084   24354152.2184   24354146.9274
        43.000          38.000
 128199385.21147  99895613.73947  24395539.6404   24395543.3434   24395540.1514
        45.000          38.000
 125483767.46747  97779533.61947  23878786.5374   23878793.0764   23878786.6134
        45.000          39.000
 111518052.21647  86897164.15347  21221194.9204   21221198.6384   21221194.6424
        53.000          48.000
 124874194.43947  97304550.30047  23762781.6204   23762785.1874   23762782.0934
        46.000          39.000
 112254569.24747  87471072.38347  21361347.9844   21361353.3644   21361348.1184
        53.000          47.000
 09  1  4  0  8  0.0000000  0 10G14G 9G30G21G12G22G 5G29G18G24
 116352154.28847  90664007.90147  22141084.2204   22141088.5944   22141084.6084
        50.000          44.000
 113021795.33247  88068904.97947  21507352.9074   21507357.0694   21507353.1354
        53.000          46.000
 123996910.45347  96620945.57547  23595846.6244   23595852.2944   23595846.5154
        46.000          40.000
 112593148.55847  87734924.22347  21425761.2594   21425764.2224   21425761.5704
        53.000          46.000
 127989441.42247  99732004.45847  24355602.8814   24355607.5964   24355602.7624
        43.000          38.000
 128195460.70647  99892555.78947  24394792.4634   24394796.0684   24394792.5034
        44.000          37.000
 125476868.38347  97774157.77347  23877473.4154   23877480.1514   23877473.9274
        45.000          39.000
 111579188.13247  86944802.54447  21232828.7684   21232832.2774   21232828.4904
        53.000          48.000
 124870770.48747  97301882.37047  23762130.1714   23762133.5154   23762130.4014
        46.000          39.000
 112247451.45747  87465526.06047  21359993.6844   21359998.7134   21359993.8204
        53.000          47.000
 09  1  4  0  8 30.0000000  0 10G14G 9G30G21G12G22G 5G29G18G24
 116320262.91547  90639157.52047  22135015.6954   22135019.6764   22135015.6374
        50.000          44.000
 113042372.66647  88084939.29847  21511268.3714   21511272.9104   21511268.5154
        52.000          46.000
 123990626.87847  96616049.28347  23594651.1764   23594656.5494   23594650.7424
        46.000          40.000
 112514810.79647  87673881.84747  21410854.1444   21410856.7314   21410854.4304
        53.000          46.000
 127996951.40947  99737856.48547  24357031.4744   24357036.4814   24357030.5354
        42.000          38.000
 128191389.20847  99889383.30347  24394018.0284   24394020.9984   24394017.9864
        44.000          38.000
 125469821.92147  97768667.08547  23876132.9374   23876138.8964   23876133.3754
        45.000          39.000
 111640608.96047  86992662.94347  21244516.6344   21244520.3914   21244516.3804
        53.000          48.000
 124867130.97547  97299046.45647  23761437.6374   23761440.9734   23761437.5874
        46.000          39.000
 112240749.31647  87460303.62747  21358718.3004   21358723.2894   21358718.4894
        53.000          47.000
 09  1  4  0  9  0.0000000  0 10G14G 9G30G21G12G22G 5G29G18G24
 116288847.67947  90614678.17247  22129037.5464   22129041.5494   22129038.0074
        50.000          44.000
 113063475.44747  88101383.05147  21515284.1494   21515288.7094   21515284.0294
        52.000          46.000
 123984124.80647  96610982.75047  23593413.7704   23593418.9124   23593413.4844
        46.000          40.000
 112436691.92047  87613010.02447  21395988.5614   21395991.0074   21395988.8944
        53.000          46.000
 128004319.92147  99743598.26647  24358433.6914   24358438.7774   24358433.5414
        43.000          38.000
 128187165.20647  99886091.97847  24393213.6504   24393217.5024   24393213.7134
        43.000          38.000
 125462625.22447  97763059.32647  23874763.5654   23874769.5824   23874763.9004
        45.000          39.000
 111702308.03547  87040740.15947  21256257.5844   21256261.4884   21256257.3434
        53.000          48.000
 124863271.19247  97296038.91547  23760702.9984   23760706.3984   23760703.6854
        46.000          39.000
 112234460.15947  87455403.00547  21357521.4444   21357526.7324   21357521.6454
        53.000          47.000
 09  1  4  0  9 30.0000000  0 10G14G 9G30G21G12G22G 5G29G18G24
 116257913.58347  90590573.72147  22123150.9394   22123155.0484   22123151.1194
        50.000          44.000
 113085108.93147  88118240.34047  21519400.9624   21519405.2654   21519401.0034
        52.000          46.000
 123977409.32347  96605749.94047  23592135.6864   23592141.1064   23592135.4304
        46.000          40.000
 112358799.26347  87552314.47447  21381165.9364   21381168.3954   21381166.2584
        53.000          46.000
 128011552.01947  99749233.76047  24359809.9744   24359814.6574   24359809.8874
        42.000          38.000
 128182792.02447  99882684.38847  24392381.3864   24392385.2504   24392381.3584
        44.000          37.000
 125455284.20847  97757339.09347  23873366.6254   23873372.3914   23873366.7004
        45.000          39.000
 111764286.84647  87089035.35247  21268051.6724   21268055.7334   21268051.2664
        53.000          48.000
 124859195.71447  97292863.29647  23759927.6624   23759930.7024   23759927.7344
        46.000          39.000
 112228590.15647  87450828.98647  21356404.4644   21356409.5284   21356404.5914
        53.000          47.000
 09  1  4  0 10  0.0000000  0 10G14G 9G30G21G12G22G 5G29G18G24
 116227457.66547  90566841.88747  22117355.4994   22117359.3904   22117355.7984
        50.000          44.000
 113107270.81947  88135509.37247  21523618.0214   21523622.2754   21523618.1464
        52.000          46.000
 123970477.80947  96600348.75647  23590816.5124   23590821.9544   23590816.4664
        46.000          40.000
 112281133.42647  87491795.66547  21366386.6244   21366389.3714   21366386.9524
        53.000          46.000
 128018646.38647  99754761.88747  24361159.3404   24361164.3224   24361159.7354
        43.000          38.000
 128178265.74147  99879157.53247  24391520.4364   24391523.1384   24391520.7744
        45.000          38.000
 125447797.44747  97751505.33547  23871941.8104   23871947.1814   23871942.2644
        46.000          39.000
 111826540.24247  87137544.52147  21279898.0134   21279901.9824   21279897.9244
        53.000          48.000
 124854901.45247  97289517.20447  23759110.0104   23759113.6344   23759110.1944
        45.000          39.000
 112223138.14347  87446580.66547  21355367.1794   21355372.1594   21355367.1664
        54.000          47.000
 09  1  4  0 10 30.0000000  0 10G14G 9G30G21G12G22G 5G29G18G24
 116197479.94047  90543482.67547  22111650.8234   22111654.7914   22111650.7754
        50.000          44.000
 113129961.63347  88153190.55447  21527936.0214   21527940.2884   21527936.2664
        53.000          46.000
 123963331.14547  96594779.95747  23589456.8104   23589462.1464   23589456.5244
        47.000          40.000
 112203697.80547  87431456.24647  21351651.1254   21351653.8764   21351651.5794
        53.000          46.000
 128025604.86147  99760184.17747  24362483.5374   24362488.6834   24362483.2074
        43.000          38.000
 128173585.23247  99875510.49147  24390629.8674   24390632.7254   24390629.5214
        44.000          37.000
 125440166.44747  97745559.16747  23870489.5064   23870495.0334   23870489.9994
        45.000          39.000
 111889065.49047  87186265.51247  21291796.2874   21291800.0204   21291796.0594
        53.000          48.000
 124850388.28347  97286000.53747  23758250.8764   23758254.7194   23758251.0274
        46.000          39.000
 112218105.69047  87442659.27847  21354409.5354   21354414.5454   21354409.6654
        53.000          47.000
 09  1  4  0 11  0.0000000  0 10G14G 9G30G21G12G22G 5G29G18G24
 116167979.68247  90520495.50947  22106036.9114   22106040.9194   22106037.1304
        49.000          44.000
 113153181.03547  88171283.62547  21532354.4494   21532358.9914   21532354.5814
        52.000          46.000
 123955969.35847  96589043.52047  23588056.2174   23588061.1104   23588056.2474
        47.000          40.000
 112126494.92747  87371298.19147  21336959.7354   21336962.4584   21336960.0664
        53.000          46.000
 128032427.92747  99765500.94847  24363782.0874   24363786.8754   24363781.5714
        43.000          38.000
 128168748.21847  99871741.47147  24389709.4204   24389712.2504   24389709.3594
        44.000          37.000
 125432391.62147  97739500.91747  23869010.0224   23869015.7294   23869010.2744
        45.000          39.000
 111951858.90547  87235195.45747  21303745.3564   21303749.0644   21303744.8934
        53.000          48.000
 124845655.18047  97282312.46847  23757350.7804   23757353.9584   23757351.6054
        46.000          39.000
 112213493.39947  87439065.29047  21353531.6504   21353536.8324   21353531.7744
        53.000          47.000
 09  1  4  0 11 30.0000000  0 10G14G 9G30G21G12G22G 5G29G18G24
 116138957.74547  90497881.05947  22100514.1124   22100518.4694   22100514.2974
        50.000          44.000
 113176929.94947  88189789.30247  21536873.7034   21536878.2754   21536873.8354
        52.000          46.000
 123948393.48447  96583140.29547  23586614.7044   23586619.0764   23586614.4104
        47.000          40.000
 112049528.31647  87311324.23547  21322313.4704   21322315.9934   21322313.8454
        53.000          46.000
 128039117.59747  99770713.74647  24365055.0774   24365060.1124   24365055.2674
        43.000          38.000
 128163754.69347  99867850.50647  24388759.0184   24388762.2054   24388759.0304
        44.000          37.000
 125424475.22147  97733332.34747  23867503.7184   23867509.2474   23867504.2534
        45.000          39.000
 112014918.91347  87284333.12547  21315745.3244   21315749.1194   21315745.1154
        53.000          48.000
 124840702.70647  97278453.49347  23756408.0054   23756411.4354   23756408.3444
        45.000          39.000
 112209303.74447  87435800.63447  21352734.2094   21352739.4874   21352734.5124
        53.000          47.000
 09  1  4  0 12  0.0000000  0 10G14G 9G30G21G12G22G 5G29G18G24
 116110414.63547  90475639.72647  22095082.8094   22095086.5974   22095082.8304
        50.000          44.000
 113201209.46647  88208708.42847  21541494.0844   21541498.6474   21541494.1314
        52.000          46.000
 123940604.73547  96577071.19747  23585131.8544   23585136.8824   23585131.0014
        46.000          40.000
 111972802.32147  87251537.77647  21307712.9424   21307715.6134   21307713.3734
        53.000          47.000
 128045676.73747  99775824.81447  24366302.9844   24366308.0594   24366302.6864
        42.000          38.000
 128158604.42547  99863837.38447  24387778.3714   24387782.0964   24387778.6624
        43.000          37.000
 125416419.57747  97727055.28947  23865970.2684   23865976.1714   23865970.7324
        45.000          39.000
 112078243.45347  87333676.91947  21327795.6974   21327799.3444   21327795.4364
        53.000          48.000
 124835531.21947  97274423.83347  23755424.0484   23755427.2994   23755424.2724
        45.000          39.000
 112205539.17847  87432867.21347  21352017.8464   21352023.1074   21352017.9884
        53.000          47.000
 09  1  4  0 12 30.0000000  0 10G14G 9G30G21G12G22G 5G29G18G24
 116082350.61747  90453771.69547  22089742.2594   22089746.2554   22089742.3054
        50.000          44.000
 113226020.67247  88228041.86347  21546215.3744   21546219.8574   21546215.5224
        52.000          46.000
 123932604.10847  96570836.98247  23583609.6484   23583614.4624   23583608.3984
        46.000          40.000
 111896320.58647  87191941.65447  21293158.7374   21293161.7894   21293159.0214
        53.000          47.000
 128052106.16947  99780834.83547  24367526.2134   24367531.3664   24367525.9174
        43.000          38.000
 128153296.44147  99859701.40547  24386768.5914   24386771.4324   24386768.2774
        44.000          37.000
 125408226.33447  97720670.99247  23864411.3264   23864417.6024   23864411.4444
        45.000          39.000
 112141830.25747  87383225.09947  21339895.7934   21339899.3054   21339895.5164
        53.000          47.000
 124830141.25747  97270223.92747  23754398.2904   23754401.2644   23754399.0654
        46.000          39.000
 112202201.60147  87430266.51047  21351382.8474   21351388.1694   21351382.9324
        53.000          47.000
 09  1  4  0 13  0.0000000  0 10G14G 9G30G21G12G22G 5G29G18G24
 116054761.43247  90432273.67547  22084491.9704   22084496.0804   22084492.0604
        50.000          44.000
 113251359.76147  88247786.63647  21551036.9514   21551041.7004   21551037.0924
        52.000          46.000
 123924387.91147  96564434.80847  23582045.9684   23582050.7184   23582045.7064
        46.000          40.000
 111820082.15547  87132535.11647  21278651.2464   21278654.0434   21278651.5334
        53.000          47.000
 128058403.60547  99785742.02147  24368724.8964   24368730.2954   24368724.4634
        44.000          39.000
 128147825.27647  99855438.25847  24385727.5504   24385729.9014   24385727.6134
        43.000          37.000
 125399892.60547  97714177.22747  23862825.2534   23862831.7264   23862825.7544
        45.000          39.000
 112205671.97347  87432971.91147  21352044.4864   21352048.0264   21352044.3154
        53.000          47.000
 124824528.79947  97265850.66847  23753330.1964   23753333.0804   23753330.7684
        46.000          39.000
 112199287.71047  87427995.95447  21350828.3534   21350833.6284   21350828.4024
        53.000          47.000
 09  1  4  0 13 30.0000000  0 10G14G 9G30G21G12G22G 5G29G18G24
 116027651.93547  90411149.41847  22079333.1794   22079337.2634   22079333.2864
        50.000          44.000
 113277231.56447  88267946.50347  21555960.1464   21555964.9804   21555960.1364
        52.000          46.000
 123915962.06647  96557869.23547  23580442.7734   23580447.4464   23580442.7164
        47.000          40.000
 111744095.14147  87073324.48647  21264191.4404   21264194.1284   21264191.8444
        53.000          47.000
 128064575.06347  99790551.02947  24369899.8604   24369904.1174   24369899.0384
        44.000          39.000
 128142194.76147  99851050.91747  24384655.5504   24384659.3494   24384655.3184
        42.000          37.000
 125391424.87347  97707579.04647  23861214.2634   23861220.2774   23861214.5034
        46.000          39.000
 112269771.18947  87482919.36747  21364242.0794   21364245.6514   21364241.7834
        53.000          47.000
 124818697.81547  97261307.11247  23752220.5834   23752223.5014   23752221.2784
        46.000          39.000
 112196804.06847  87426060.66747  21350355.6864   21350361.1044   21350355.7964
        53.000          47.000
 09  1  4  0 14  0.0000000  0 10G14G 9G30G21G12G22G 5G29G18G24
 116001018.12247  90390395.84247  22074265.2444   22074269.2184   22074265.5774
        50.000          44.000
 113303632.90347  88288518.99247  21560984.4304   21560988.7964   21560984.4774
        52.000          46.000
 123907322.94747  96551137.48247  23578799.0184   23578803.5004   23578798.9214
        47.000          40.000
 111668358.78247  87014309.16747  21249779.1384   21249781.8734   21249779.4704
        53.000          47.000
 128070618.32447  99795260.10847  24371049.6374   24371054.5834   24371049.6204
        44.000          39.000
 128136399.84547  99846535.50647  24383552.3664   24383556.0764   24383552.2364
        42.000          37.000
 125382820.76047  97700874.60647  23859576.7134   23859582.4414   23859577.1554
        46.000          39.000
 112334121.38547  87533062.38247  21376487.5174   21376491.1924   21376487.1304
        53.000          47.000
 124812644.71447  97256590.46547  23751068.6324   23751071.4904   23751069.0084
        45.000          39.000
 112194748.71047  87424459.11847  21349964.4304   21349969.8474   21349964.5324
        53.000          47.000
 09  1  4  0 14 30.0000000  0 10G14G 9G30G21G12G22G 5G29G18G24
 115974862.33047  90370014.73347  22069287.7284   22069291.5124   22069288.0474
        50.000          44.000
 113330566.62647  88309506.32447  21566109.7564   21566113.9694   21566109.8884
        52.000          46.000
 123898473.89847  96544242.17147  23577114.9544   23577119.5554   23577115.4014
        47.000          40.000
 111592878.80347  86955493.63047  21235415.7494   21235418.4894   21235416.0654
        53.000          47.000
 128076537.15647  99799872.26247  24372175.5284   24372180.4824   24372175.1604
        43.000          38.000
 128130442.08747  99841893.19147  24382418.8934   24382422.4594   24382418.6014
        42.000          37.000
 125374084.16647  97694066.91447  23857914.0924   23857919.5084   23857914.5624
        45.000          39.000
 112398722.35147  87583400.80947  21388780.9724   21388784.3064   21388780.7014
        53.000          48.000
 124806371.42447  97251702.26847  23749875.0204   23749877.6924   23749875.4304
        46.000          39.000
 112193124.96547  87423193.87947  21349655.6314   21349660.7464   21349655.8594
        53.000          47.000
 09  1  4  0 15  0.0000000  0 10G14G 9G30G21G12G22G 5G29G18G24
 115949184.03247  90350005.70447  22064400.8964   22064405.1234   22064401.1254
        50.000          44.000
 113358032.40947  88330908.25347  21571336.2334   21571340.8304   21571336.1684
        52.000          46.000
 123889415.14847  96537183.43747  23575390.4294   23575395.7464   23575390.8764
        47.000          40.000
 111517658.13247  86896880.15547  21221101.8264   21221104.3864   21221102.2664
        53.000          47.000
 128082332.73847  99804388.40147  24373278.1874   24373282.5974   24373277.7864
        44.000          38.000
 128124320.38947  99837123.13147  24381253.6514   24381257.0384   24381254.0644
        43.000          37.000
 125365216.38647  97687157.04347  23856226.3054   23856232.0624   23856226.7774
        45.000          39.000
 112463571.03947  87633932.26547  21401121.2604   21401124.6404   21401121.1684
        53.000          47.000
 124799878.06447  97246642.60647  23748639.3584   23748642.0734   23748639.5994
        46.000          39.000
 112191934.37847  87422266.16747  21349428.7934   21349434.2004   21349428.8964
        53.000          47.000
 09  1  4  0 15 30.0000000  0 10G14G 9G30G21G12G22G 5G29G18G24
 115923980.69547  90330366.76847  22059605.2154   22059609.3754   22059605.3694
        50.000          44.000
 113386028.42247  88352723.35147  21576663.7704   21576667.7874   21576663.9064
        52.000          46.000
 123880145.35647  96529960.23547  23573626.6754   23573631.4054   23573626.5084
        46.000          40.000
 111442697.89647  86838469.62347  21206837.4694   21206840.0614   21206837.9914
        53.000          47.000
 128088004.80547  99808808.26647  24374357.1784   24374363.1064   24374356.8014
        44.000          38.000
 128118031.17147  99832222.56147  24380057.2794   24380059.7674   24380057.4994
        43.000          37.000
 125356216.46847  97680144.17347  23854513.6884   23854520.1764   23854513.8694
        45.000          39.000
 112528662.82447  87684653.14647  21413507.7314   21413511.1634   21413507.4194
        53.000          47.000
 124793162.42647  97241409.71647  23747360.9264   23747364.5574   23747361.4044
        45.000          39.000
 112191175.81647  87421675.08447  21349284.7944   21349289.7894   21349284.9754
        53.000          47.000
 09  1  4  0 16  0.0000000  0 10G14G 9G30G21G12G22G 5G29G18G24
 115899254.41947  90311099.57847  22054900.0254   22054903.9214   22054900.2704
        50.000          44.000
 113414557.17847  88374953.57247  21582092.7004   21582096.9724   21582092.7884
        52.000          46.000
 123870667.07747  96522574.65347  23571822.8854   23571827.9234   23571822.0524
        46.000          40.000
 111368003.02247  86780265.85747  21192623.4064   21192625.9264   21192623.8754
        53.000          47.000
 128093556.53747  99813134.35447  24375414.4294   24375418.9264   24375414.2964
        44.000          38.000
 128111575.69747  99827192.42747  24378828.7634   24378831.6394   24378828.7364
        43.000          37.000
 125347088.26647  97673031.35347  23852776.3014   23852782.5754   23852776.9284
        45.000          39.000
 112593996.53347  87735562.55247  21425940.1354   21425943.7544   21425939.6944
        53.000          47.000
 124786226.26447  97236004.97547  23746041.1714   23746044.0684   23746041.4244
        46.000          39.000
 112190852.74347  87421423.35247  21349223.1794   21349228.3574   21349223.3784
        53.000          47.000
 09  1  4  0 16 30.0000000  0 10G14G 9G30G21G12G22G 5G29G18G24
 115875003.32647  90292202.65647  22050285.0674   22050289.1294   22050285.3914
        51.000          44.000
 113443617.11647  88397597.70647  21587622.5704   21587626.8844   21587622.6544
        52.000          46.000
 123860979.20547  96515025.66447  23569979.5744   23569984.7294   23569978.8154
        47.000          41.000
 111293575.74447  86722270.60447  21178460.3254   21178463.0044   21178460.5914
        53.000          47.000
 128098987.93747  99817366.69947  24376447.8134   24376452.5744   24376447.9624
        44.000          38.000
 128104951.16047  99822030.56847  24377568.1854   24377571.1954   24377568.3794
        43.000          38.000
 125337831.52847  97665818.33847  23851014.5884   23851020.8614   23851014.9614
        44.000          39.000
 112659568.23547  87786657.39947  21438418.0024   21438421.4694   21438417.8114
        52.000          47.000
 124779068.03647  97230427.20347  23744678.8534   23744681.8114   23744679.5114
        47.000          39.000
 112190965.05547  87421510.87647  21349244.5704   21349249.7204   21349244.6784
        53.000          47.000
 09  1  4  0 17  0.0000000  0 10G14G 9G30G21G12G22G 5G29G18G24
 115851226.78847  90273675.51647  22045760.5754   22045764.7824   22045760.6874
        50.000          44.000
 113473208.08147  88420655.62447  21593253.2914   21593257.6434   21593253.3194
        52.000          46.000
 123851082.72347  96507314.15347  23568096.5024   23568101.5314   23568096.0304
        47.000          41.000
 111219419.05447  86664486.20947  21164348.6344   21164351.4294   21164349.0204
        53.000          47.000
 128104300.41847  99821506.38847  24377458.3414   24377463.2574   24377458.3614
        43.000          38.000
 128098156.24247  99816735.93647  24376274.7294   24376277.7164   24376274.3664
        43.000          37.000
 125328447.66747  97658506.28247  23849229.5074   23849235.2974   23849229.8254
        45.000          39.000
 112725374.79847  87837935.25147  21450940.4094   21450943.9364   21450939.9944
        52.000          47.000
 124771687.31047  97224676.06447  23743274.3364   23743277.6954   23743274.7144
        47.000          39.000
 112191513.89247  87421938.54647  21349349.0924   21349354.1864   21349349.2274
        54.000          47.000
 09  1  4  0 17 30.0000000  0 10G14G 9G30G21G12G22G 5G29G18G24
 115827925.07547  90255518.37647  22041326.3454   22041330.2314   22041326.6514
        50.000          44.000
 113503330.54347  88444127.70547  21598985.3404   21598989.8374   21598985.3884
        52.000          46.000
 123840978.95147  96499441.15947  23566173.4504   23566178.8054   23566173.2784
        47.000          41.000
 111145536.52247  86606915.43747  21150289.1654   21150292.0794   21150289.6474
        53.000          47.000
 128109495.90147  99825554.90347  24378446.8864   24378451.6944   24378446.4024
        45.000          38.000
 128091190.49947  99811308.17347  24374949.1504   24374952.1714   24374949.0824
        43.000          37.000
 125318938.63047  97651096.67847  23847419.9564   23847425.8514   23847420.5434
        45.000          39.000
 112791414.19047  87889394.52247  21463507.3464   21463510.9634   21463507.0574
        53.000          47.000
 124764084.74247  97218752.05647  23741827.8544   23741830.7664   23741828.0854
        46.000          39.000
 112192500.91547  87422707.66947  21349537.0214   21349541.9214   21349537.1854
        53.000          47.000
 09  1  4  0 18  0.0000000  0 10G14G 9G30G21G12G22G 5G29G18G24
 115805099.23047  90237732.04047  22036982.7614   22036986.8234   22036982.7524
        51.000          44.000
 113533986.17247  88468015.23147  21604818.9504   21604823.1504   21604819.0474
        52.000          46.000
 123830669.70447  96491408.01847  23564211.6594   23564217.1394   23564211.5524
        47.000          41.000
 111071932.69447  86549561.83647  21136282.7614   21136285.8924   21136283.1394
        53.000          47.000
 128114577.32447  99829514.51947  24379414.1034   24379418.3644   24379414.3724
        44.000          38.000
 128084054.23147  99805747.54347  24373591.4834   24373594.2294   24373591.3054
        43.000          37.000
 125309307.41147  97643591.87347  23845587.1044   23845593.3434   23845587.7654
        45.000          39.000
 112857685.18347  87941034.26047  21476118.4844   21476122.0764   21476118.4824
        52.000          47.000
 124756261.91947  97212656.41347  23740338.8114   23740341.9644   23740338.8664
        46.000          39.000
 112193928.76047  87423820.28047  21349808.5644   21349813.4414   21349808.6974
        53.000          47.000
 09  1  4  0 18 30.0000000  0 10G14G 9G30G21G12G22G 5G29G18G24
 115782746.95447  90220314.71947  22032729.1184   22032733.2014   22032729.4214
        50.000          44.000
 113565173.21347  88492316.85547  21610753.8884   21610758.0084   21610753.8834
        52.000          46.000
 123820153.81747  96483213.86247  23562210.7574   23562216.0404   23562211.0684
        48.000          41.000
 110998608.87347  86492426.42847  21122329.7094   21122332.6974   21122330.1094
        53.000          47.000
 128119543.86247  99833384.61047  24380359.4894   24380363.9804   24380358.9534
        43.000          38.000
 128076744.40247  99800051.67247  24372200.6474   24372202.8604   24372200.5674
        44.000          38.000
 125299553.45547  97635991.43447  23843731.1004   23843736.7644   23843731.1024
        45.000          39.000
 112924182.87547  87992850.65747  21488772.6474   21488776.1954   21488772.4424
        52.000          47.000
 124748216.26947  97206387.15047  23738807.2824   23738810.9894   23738807.9184
        47.000          39.000
 112195796.85047  87425275.93647  21350163.8734   21350169.1794   21350163.8684
        53.000          47.000
 09  1  4  0 19  0.0000000  0 10G14G 9G30G21G12G22G 5G29G18G24
 115760867.80147  90203266.06747  22028565.3084   22028569.5224   22028565.6704
        49.000          44.000
 113596891.62747  88517032.53547  21616789.4434   21616793.6634   21616789.5094
        52.000          46.000
 123809431.71847  96474859.00747  23560170.6814   23560175.4394   23560170.9944
        47.000          41.000
 110925568.32047  86435511.74547  21108430.8164   21108433.3544   21108431.2194
        54.000          47.000
 128124397.52447  99837166.75147  24381282.6614   24381287.6264   24381282.7184
        43.000          38.000
 128069259.73547  99794219.58847  24370776.1224   24370778.4264   24370776.0614
        43.000          38.000
 125289678.48247  97628296.71247  23841851.7924   23841857.6394   23841851.5924
        45.000          39.000
 112990904.67947  88044841.67547  21501469.3424   21501473.0484   21501468.8124
        53.000          47.000
 124739948.00347  97199944.41647  23737234.0894   23737237.5814   23737234.5704
        46.000          39.000
 112198106.41047  87427075.59547  21350603.4044   21350608.6834   21350603.5094
        53.000          47.000
 09  1  4  0 19 30.0000000  0 10G14G 9G30G21G12G22G 5G29G18G24
 115739461.76447  90186586.07847  22024492.1174   22024496.0944   22024492.3074
        50.000          44.000
 113629141.84647  88542162.60947  21622926.7414   21622930.7554   21622926.7464
        52.000          46.000
 123798504.80547  96466344.53847  23558091.2014   23558096.1064   23558090.9454
        47.000          41.000
 110852814.67247  86378820.62047  21094586.2954   21094588.6474   21094586.7164
        54.000          47.000
 128129139.90047  99840862.19147  24382184.9164   24382190.1444   24382184.5134
        43.000          38.000
 128061599.87747  99788250.96847  24369317.8474   24369321.2114   24369317.7194
        43.000          37.000
 125279684.28947  97620509.08747  23839949.4934   23839955.8304   23839950.2784
        45.000          39.000
 113057848.31247  88097005.54647  21514208.2184   21514211.7794   21514208.1864
        52.000          47.000
 124731457.68447  97193328.67247  23735618.4794   23735621.4574   23735618.8834
        46.000          39.000
 112200858.97647  87429220.45447  21351127.4164   21351132.2594   21351127.5494
        53.000          47.000
 09  1  4  0 20  0.0000000  0 10G14G 9G30G21G12G22G 5G29G18G24
 115718528.37947  90170274.39247  22020508.4584   22020512.2874   22020508.6314
        50.000          44.000
 113661923.61347  88567706.87647  21629164.6144   21629169.0634   21629164.6844
        52.000          46.000
 123787373.82147  96457671.06447  23555972.9154   23555977.9964   23555972.6944
        47.000          41.000
 110780351.12947  86322355.56447  21080796.8714   21080799.1424   21080797.3144
        54.000          47.000
 128133772.70547  99844472.25147  24383066.6934   24383071.6344   24383066.4894
        42.000          38.000
 128053763.81547  99782145.05447  24367826.4244   24367830.2324   24367826.3984
        43.000          38.000
 125269572.48047  97612629.78747  23838025.3894   23838031.5004   23838025.7664
        45.000          39.000
 113125011.08347  88149340.18147  21526988.7784   21526992.4744   21526988.6664
        52.000          47.000
 124722745.17047  97186539.76347  23733960.4994   23733963.5764   23733960.7674
        46.000          39.000
 112204055.66447  87431711.38847  21351735.5234   21351740.4924   21351735.7094
        53.000          47.000
 09  1  4  0 20 30.0000000  0 10G14G 9G30G21G12G22G 5G29G18G24
 115698066.77247  90154330.32347  22016614.7904   22016618.7824   22016614.9034
        50.000          44.000
 113695236.36347  88593664.90147  21635503.9284   21635508.0574   21635504.0554
        52.000          46.000
 123776039.06247  96448838.81047  23553815.9444   23553820.9564   23553816.0724
        47.000          41.000
 110708180.19447  86266118.51247  21067063.1914   21067065.5574   21067063.5774
        54.000          47.000
 128138296.91347  99847997.64847  24383927.6664   24383932.2054   24383927.4854
        42.000          38.000
 128045750.14147  99775900.73347  24366302.1364   24366305.0654   24366302.0374
        44.000          38.000
 125259344.21147  97604659.72447  23836079.2894   23836085.1594   23836078.7064
        45.000          39.000
 113192389.52647  88201842.86647  21539810.3474   21539814.2404   21539809.9324
        52.000          47.000
 124713810.12047  97179577.45747  23732260.0754   23732263.3824   23732260.5794
        46.000          39.000
 112207697.47147  87434549.15947  21352428.5444   21352433.4284   21352428.7084
        53.000          47.000
 09  1  4  0 21  0.0000000  0 11G14G 9G30G21G31G12G22G 5G29G18G24
 115678076.07747  90138753.19447  22012810.8734   22012814.5994   22012811.0064
        50.000          44.000
 113729079.80147  88620036.44147  21641944.0274   21641948.3404   21641943.9114
        52.000          46.000
 123764500.93347  96439848.10447  23551620.1194   23551625.4814   23551619.8684
        47.000          41.000
 110636304.77047  86210111.73247  21053385.5284   21053388.2954   21053385.9884
        54.000          47.000
 140252451.63457  91495400.35257  24786229.3545   24786234.1625   24786229.1795
        41.000          37.000
 128142713.59847  99851439.29147  24384768.0574   24384772.3704   24384768.1284
        42.000          38.000
 128037557.84547  99769517.22747  24364743.0564   24364745.6224   24364743.2674
        44.000          38.000
 125249000.42347  97596599.65647  23834110.4724   23834116.5534   23834110.9764
        45.000          39.000
 113259980.61147  88254511.25247  21552672.4024   21552676.4634   21552672.2624
        52.000          47.000
 124704651.78047  97172441.15247  23730517.6194   23730520.5884   23730517.9644
        46.000          39.000
 112211784.89547  87437734.16447  21353206.5324   21353211.3134   21353206.7074
        53.000          47.000
 09  1  4  0 21 30.0000000  0 11G14G 9G30G21G31G12G22G 5G29G18G24
 115658556.52447  90123543.18947  22009096.2324   22009100.1444   22009096.3204
        50.000          44.000
 113763454.25347  88646821.76147  21648485.5084   21648489.4824   21648485.4794
        52.000          46.000
 123752760.75847  96430699.98347  23549386.2274   23549391.3034   23549385.9004
        47.000          41.000
 110564728.94447  86154338.40647  21039765.0624   21039767.8664   21039765.4474
        54.000          47.000
 140150259.22447  91415770.01647  24766783.3914   24766787.6964   24766782.4574
        43.000          37.000
 128147025.16747  99854799.00747  24385588.2014   24385593.2594   24385587.5744
        42.000          38.000
 128029186.45047  99762994.16647  24363149.5074   24363152.5124   24363149.8044
        44.000          38.000
 125238543.74847  97588451.63547  23832120.7464   23832126.5894   23832121.6914
        45.000          39.000
 113327782.59147  88307343.96247  21565574.6554   21565578.7634   21565574.4494
        51.000          47.000
 124695271.48447  97165131.90047  23728732.3034   23728735.7464   23728732.8264
        46.000          39.000
 112216319.90747  87441267.94047  21354069.3734   21354074.3444   21354069.3444
        53.000          47.000
 09  1  4  0 22  0.0000000  0 11G14G 9G30G21G31G12G22G 5G29G18G24
 115639508.79647  90108700.83447  22005471.1744   22005475.5814   22005471.5854
        50.000          44.000
 113798361.41447  88674022.17447  21655127.9954   21655131.8824   21655127.9324
        52.000          46.000
 123740820.75847  96421396.12647  23547113.9524   23547119.1554   23547113.6424
        47.000          41.000
 110493457.17447  86098801.99847  21026202.3024   21026205.1064   21026202.7584
        54.000          47.000
 140047981.57447  91336073.25247  24747320.5454   24747324.4454   24747320.3574
        42.000          37.000
 128151234.41847  99858079.01147  24386389.2054   24386394.0774   24386388.9224
        43.000          38.000
 128020635.88847  99756331.49847  24361522.5144   24361525.5454   24361522.3894
        44.000          38.000
 125227976.92847  97580217.78547  23830110.5004   23830115.9624   23830110.8874
        45.000          39.000
 113395793.82147  88360339.73347  21578516.7454   21578520.7024   21578516.2374
        52.000          47.000
 124685670.17047  97157650.42947  23726904.8924   23726908.3524   23726905.3574
        46.000          39.000
 112221304.88547  87445152.33847  21355018.0234   21355023.0904   21355018.2004
        53.000          47.000
 09  1  4  0 22 30.0000000  0 11G14G 9G30G21G31G12G22G 5G29G18G24
 115620929.10847  90094223.19247  22001935.9214   22001939.7404   22001936.3434
        50.000          44.000
 113833797.70047  88701634.89647  21661871.3504   21661875.1744   21661871.5144
        52.000          46.000
 123728678.58447  96411934.73347  23544803.3184   23544808.2474   23544803.1824
        47.000          41.000
 110422489.37047  86043502.44147  21012697.4414   21012700.2824   21012697.8694
        54.000          47.000
 139945617.66647  91256309.25347  24727840.7134   24727845.1044   24727840.1724
        41.000          36.000
 128155340.03947  99861278.27347  24387170.7574   24387174.6564   24387169.9654
        43.000          38.000
 128011902.45947  99749526.34247  24359860.3574   24359863.5394   24359860.4944
        44.000          37.000
 125217298.27047  97571896.80647  23828077.8684   23828083.6164   23828078.1204
        44.000          39.000
 113464008.13247  88413493.74347  21591497.6314   21591501.6604   21591497.3504
        52.000          47.000
 124675844.71347  97149994.29047  23725035.3384   23725038.2954   23725035.7344
        46.000          39.000
 112226737.58247  87449385.61547  21356051.8014   21356056.9194   21356051.9124
        53.000          47.000
 09  1  4  0 23  0.0000000  0 11G14G 9G30G21G31G12G22G 5G29G18G24
 115602819.13747  90080111.55047  21998489.5174   21998493.7804   21998489.5874
        50.000          44.000
 113869765.14047  88729661.50247  21668715.5474   21668719.6344   21668715.4784
        52.000          46.000
 123716337.10047  96402318.03347  23542454.7294   23542459.6464   23542454.3084
        46.000          40.000
 110351830.88147  85988443.90047  20999251.9474   20999254.3414   20999252.3274
        54.000          47.000
 139843172.04447  91176481.57247  24708345.5754   24708350.1504   24708345.4554
        42.000          36.000
 128159345.14247  99864399.16647  24387932.5894   24387937.3334   24387932.3764
        43.000          38.000
 128002986.82647  99742579.18347  24358163.9794   24358166.1554   24358163.5654
        45.000          38.000
 125206511.64347  97563491.69847  23826025.2824   23826031.1744   23826025.2584
        45.000          39.000
 113532425.12047  88466805.68147  21604516.8364   21604520.9074   21604516.7584
        51.000          47.000
 124665797.49947  97142165.36447  23723123.6074   23723126.0074   23723123.9914
        46.000          39.000
 112232621.35047  87453970.36447  21357171.3184   21357176.7414   21357171.3854
        53.000          47.000
 09  1  4  0 23 30.0000000  0 11G14G 9G30G21G31G12G22G 5G29G18G24
 115585177.58147  90066364.91447  21995132.6264   21995136.3314   21995132.9824
        50.000          44.000
 113906262.65947  88758101.15647  21675660.8734   21675664.9154   21675660.7544
        52.000          46.000
 123703796.67647  96392546.27547  23540067.8474   23540073.3054   23540067.4174
        46.000          40.000
 110281484.20047  85933628.33047  20985865.4004   20985867.7194   20985865.8954
        54.000          47.000
 139740646.51247  91096591.62147  24688835.6694   24688840.5044   24688835.6634
        41.000          36.000
 128163250.82347  99867442.61247  24388675.1874   24388680.6844   24388675.1734
        43.000          38.000
 127993887.87047  99735489.19847  24356432.3554   24356434.4224   24356432.3954
        44.000          38.000
 125195617.95347  97555003.15347  23823952.4264   23823958.1274   23823952.8974
        45.000          39.000
 113601041.44347  88520272.94247  21617573.9604   21617578.1004   21617573.6214
        51.000          47.000
 124655528.37747  97134163.52947  23721169.6174   23721171.9884   23721169.6384
        47.000          39.000
 112238956.42747  87458906.78447  21358376.8744   21358382.2014   21358376.9804
        53.000          47.000
 09  1  4  0 24  0.0000000  0 11G14G 9G30G21G31G12G22G 5G29G18G24
 115568001.48747  90052980.97647  21991864.0884   21991868.0434   21991864.4004
        50.000          44.000
 113943287.79847  88786951.94047  21682706.2974   21682710.5784   21682706.4804
        52.000          45.000
 123691055.64547  96382618.21747  23537643.4774   23537648.4794   23537643.0124
        46.000          40.000
 110211450.36547  85879056.55547  20972538.2924   20972540.7874   20972538.7554
        54.000          47.000
 139638040.75047  91016639.17147  24669310.8774   24669314.6104   24669309.9494
        42.000          36.000
 128167056.48947  99870408.10047  24389400.0144   24389404.6234   24389399.5764
        43.000          38.000
 127984601.65347  99728253.28047  24354664.3574   24354668.2404   24354664.6864
        44.000          38.000
