     2.11           OBSERVATION DATA    G (GPS)             RINEX VERSION / TYPE
teqc  2013Mar15     gpsops              20140524 00:23:22UTCPGM / RUN BY / DATE
Linux 2.4.21-27.ELsmp|Opteron|gcc -static|Linux x86_64|=+   COMMENT
BIT 2 OF LLI FLAGS DATA COLLECTED UNDER A/S CONDITION       COMMENT
GLPS                                                        MARKER NAME
42005M002                                                   MARKER NUMBER
GGN                 JPL                                     OBSERVER / AGENCY
ZR220013847         ASHTECH UZ-12       CQ00                REC # / TYPE / VERS
CR519992104         ASH701945B_M    SCIT                    ANT # / TYPE
   -33801.4662 -6377516.5323   -82154.3508                  APPROX POSITION XYZ
        0.0083        0.0000        0.0000                  ANTENNA: DELTA H/E/N
     1     1                                                WAVELENGTH FACT L1/2
     7    L1    L2    P1    P2    C1    S1    S2            # / TYPES OF OBSERV
    30.0000                                                 INTERVAL
                                                            COMMENT
This data is provided as a public service by NASA/JPL.      COMMENT
No warranty is expressed or implied regarding suitability   COMMENT
for use.  For further information, contact:                 COMMENT
Dave Stowers, NASA/JPL m/s 238-600                          COMMENT
4800 Oak Grove Drive, Pasadena CA 91109 USA                 COMMENT
                                                            COMMENT
Forced Modulo Decimation to 30 seconds                      COMMENT
 SNR is mapped to RINEX snr flag value [0-9]                COMMENT
  L1 & L2: min(max(int(snr_dBHz/6), 0), 9)                  COMMENT
pseudorange smoothing corrections not applied               COMMENT
  2014     5    23     0     0    0.0000000     GPS         TIME OF FIRST OBS
                                                            END OF HEADER
 14  5 23  0  0  0.0000000  0 11G13G08G04G26G10G07G20G09G28G02G17
  18055931.76546  14058261.30045  24879427.2964   24879432.1414   24879426.818
        39.0004         34.0004
 -26363163.73949 -20501742.85248  19934913.8484   19934920.3704   19934914.335
        54.0004         49.0004
 -26895142.57248 -20902952.92048  20669551.3704   20669557.8944   20669550.865
        52.0004         48.0004
  -2396409.46447  -1843180.69446  24056667.0854   24056680.3874   24056667.012
        42.0004         38.0004
 -12160897.60647  -9469371.19446  23385395.9474   23385404.3144   23385395.951
        45.0004         40.0004
 -18091065.70148 -14092549.60447  21127846.0844   21127851.2314   21127845.265
        52.0004         47.0004
  -2550717.67146  -1969197.44945  23816144.9854   23816154.1344   23816142.785
        38.0004         34.0004
  -1110668.21749   -862113.83248  20005815.6064   20005821.5304   20005815.256
        54.0004         50.0004
  -9077508.83647  -7045942.06446  23046107.3394   23046116.1864   23046108.013
        46.0004         41.0004
  -9095080.85247  -7033905.88146  23085441.3734   23085447.7014   23085441.220
        46.0004         41.0004
 -10524980.33748  -8147501.41047  23068529.6974   23068538.4894   23068529.229
        48.0004         43.0004
 14  5 23  0  0 30.0000000  0 11G13G08G04G26G10G07G20G09G28G02G17
  18115907.19946  14104995.57745  24890840.1684   24890846.8454   24890839.292
        39.0004         34.0004
 -26344226.83349 -20486986.78448  19938517.4584   19938524.1254   19938518.069
        54.0004         49.0004
 -26940952.96848 -20938649.27748  20660833.8284   20660840.1784   20660833.619
        52.0004         48.0004
  -2393125.00447  -1840621.26346  24057291.3964   24057304.7744   24057291.109
        42.0004         38.0004
 -12227622.82347  -9521364.72746  23372698.0384   23372707.0064   23372698.447
        45.0004         40.0004
 -18016359.72148 -14034337.11347  21142061.9684   21142067.6204   21142061.472
        51.0004         47.0004
  -2524483.73046  -1948755.38245  23821131.3934   23821143.9254   23821134.385
        38.0004         34.0004
  -1096758.53749   -851275.08248  20008462.1904   20008468.4384   20008462.327
        54.0004         50.0004
  -9134815.34047  -7090596.33946  23035203.3024   23035210.1544   23035202.309
        45.0004         41.0004
  -9175694.62747  -7096721.65346  23070100.8554   23070106.6584   23070101.826
        46.0004         41.0004
 -10483489.99248  -8115171.23447  23076424.7004   23076433.4944   23076424.558
        48.0004         43.0004
 14  5 23  0  1  0.0000000  0 11G13G08G04G26G10G07G20G09G28G02G17
  18175631.12546  14151533.85645  24902201.3684   24902213.2174   24902204.956
        39.0004         35.0004
 -26324632.66949 -20471718.56648  19942246.0684   19942252.6984   19942246.405
        54.0004         49.0004
 -26986252.77448 -20973947.77148  20652213.8464   20652220.1544   20652213.296
        52.0004         48.0004
  -2389602.90847  -1837876.64446  24057961.3524   24057974.8784   24057961.306
        42.0004         38.0004
 -12294488.76547  -9573467.89546  23359973.1184   23359982.0184   23359974.375
        45.0004         40.0004
 -17941228.03548 -13975792.92847  21156358.9694   21156364.3514   21156358.305
        51.0004         47.0004
  -2497933.83346  -1928067.09145  23826187.6234   23826198.1914   23826187.397
        38.0004         34.0004
  -1082249.86649   -839969.59148  20011223.1724   20011228.6764   20011223.143
        54.0004         50.0004
  -9192214.71247  -7135322.95646  23024279.4774   23024287.3184   23024279.470
        45.0004         40.0004
  -9256018.47447  -7159311.50246  23054815.0784   23054821.8374   23054816.231
        46.0004         41.0004
 -10442075.23148  -8082899.96447  23084306.6604   23084314.2784   23084305.539
        48.0004         43.0004
 14  5 23  0  1 30.0000000  0 11G13G08G04G26G10G07G20G09G28G02G17
  18235103.94346  14197876.47445  24913522.6804   24913527.0804   24913522.166
        39.0004         35.0004
 -26304380.04749 -20455937.25948  19946100.1794   19946106.4654   19946100.373
        54.0004         49.0004
 -27031038.51548 -21008845.70448  20643690.8954   20643697.3714   20643690.615
        52.0004         48.0004
  -2385843.61647  -1834947.20646  24058676.4284   24058688.6064   24058676.507
        42.0004         38.0004
 -12361492.08247  -9625678.12146  23347222.9844   23347231.6894   23347224.104
        45.0004         40.0004
 -17865671.67248 -13916917.82347  21170736.8464   21170742.4484   21170736.576
        51.0004         47.0004
  -2471065.31546  -1907130.54745  23831301.9164   23831308.8464   23831300.377
        39.0004         34.0004
  -1067141.42249   -828196.73948  20014098.3204   20014103.8374   20014098.039
        54.0004         50.0004
  -9249702.64847  -7180118.60246  23013339.1764   23013347.8974   23013340.053
        45.0004         41.0004
  -9336048.58747  -7221672.48146  23039586.9724   23039593.0944   23039586.333
        46.0004         41.0004
 -10400736.35148  -8050687.81247  23092171.7524   23092180.6134   23092172.085
        48.0004         43.0004
 14  5 23  0  2  0.0000000  0 11G13G08G04G26G10G07G20G09G28G02G17
  18294322.64346  14244021.05645  24924790.6174   24924797.1674   24924790.478
        39.0004         35.0004
 -26283472.33849 -20439645.49648  19950078.7384   19950085.1884   19950078.817
        54.0004         49.0004
 -27075311.51048 -21043344.09148  20635266.4774   20635272.5214   20635265.874
        52.0004         48.0004
  -2381851.61347  -1831836.43346  24059436.5254   24059448.9444   24059436.988
        42.0004         38.0004
 -12428633.84847  -9677996.23146  23334446.5034   23334456.1284   23334447.825
        45.0004         40.0004
 -17789696.07248 -13857716.04047  21185194.3564   21185200.0904   21185193.928
        51.0004         47.0004
  -2443879.83546  -1885947.02445  23836473.3084   23836488.7844   23836473.453
        39.0004         34.0004
  -1051436.73949   -815959.28748  20017086.2214   20017092.3154   20017086.509
        54.0004         50.0004
  -9307279.65847  -7224983.65946  23002383.6554   23002391.0534   23002383.794
        45.0004         41.0004
  -9415785.47347  -7283804.96346  23024413.3264   23024419.7534   23024413.228
        46.0004         41.0004
 -10359477.77048  -8018538.23547  23100023.8124   23100032.9244   23100023.256
        48.0004         43.0004
 14  5 23  0  2 30.0000000  0 11G13G08G04G26G10G07G20G09G28G02G17
  18353291.96746  14289971.29945  24936014.0844   24936019.5514   24936010.918
        39.0004         35.0004
 -26261904.85848 -20422839.62748  19954182.8404   19954189.0384   19954182.805
        53.0004         49.0004
 -27119064.87048 -21077437.56848  20626940.6124   20626946.8294   20626940.122
        53.0004         48.0004
  -2377623.82747  -1828541.93446  24060240.3764   24060253.7124   24060240.204
        42.0004         38.0004
 -12495907.01147  -9730416.73246  23321644.3804   23321653.0214   23321645.516
        45.0004         40.0004
 -17713298.55548 -13798185.48847  21199732.3764   21199737.4784   21199731.894
        51.0004         47.0004
  -2416371.19846  -1864511.68745  23841710.5524   23841722.4444   23841707.799
        39.0004         35.0004
  -1035131.52349   -803253.88448  20020189.2814   20020195.2284   20020189.422
        54.0004         50.0004
  -9364938.44647  -7269912.43846  22991410.3474   22991418.2554   22991411.217
        46.0004         41.0004
  -9495221.71547  -7345703.17546  23009295.7404   23009302.4594   23009297.042
        46.0004         41.0004
 -10318296.26548  -7986448.72447  23107859.3154   23107868.2084   23107859.668
        48.0004         43.0004
 14  5 23  0  3  0.0000000  0 11G13G08G04G26G10G07G20G09G28G02G17
  18412005.91246  14335722.55345  24947185.1454   24947193.0854   24947185.048
        39.0004         35.0004
 -26239684.10649 -20405524.71848  19958411.2664   19958417.5314   19958411.536
        54.0004         49.0004
 -27162302.90448 -21111129.50148  20618712.5784   20618718.7754   20618712.233
        53.0004         48.0004
  -2373167.63247  -1825069.46346  24061088.9784   24061100.5834   24061089.196
        42.0004         38.0004
 -12563315.43447  -9782942.61746  23308816.6964   23308825.0084   23308817.522
        45.0004         40.0004
 -17636487.57148 -13738332.75747  21214349.1204   21214354.6514   21214348.468
        51.0004         47.0004
  -2388544.19046  -1842828.27945  23847002.0224   23847012.6564   23847004.306
        39.0004         35.0004
  -1018232.33149   -790085.64648  20023405.0954   20023411.1254   20023404.895
        54.0004         50.0004
  -9422681.86847  -7314907.15846  22980423.1404   22980431.0094   22980422.854
        46.0004         41.0004
  -9574361.07947  -7407370.06946  22994235.8804   22994242.5524   22994236.659
        46.0004         41.0004
 -10277199.12648  -7954424.95547  23115679.7504   23115689.7884   23115680.070
        48.0004         43.0004
 14  5 23  0  3 30.0000000  0 11G13G08G04G26G10G07G20G09G28G02G17
  18470467.13246  14381276.88345  24958310.6544   24958313.5764   24958309.730
        39.0004         35.0004
 -26216807.45649 -20387698.71448  19962764.4144   19962770.9944   19962764.897
        54.0004         49.0004
 -27205020.91148 -21144416.20848  20610583.2374   20610589.6174   20610582.723
        53.0004         48.0004
  -2368481.65447  -1821417.93146  24061981.2774   24061991.7574   24061980.519
        42.0004         38.0004
 -12630853.78947  -9835569.75046  23295965.1334   23295973.5554   23295965.454
        45.0004         40.0004
 -17559262.22548 -13678157.16247  21229044.7374   21229049.9084   21229044.148
        51.0004         47.0004
  -2360394.36446  -1820893.31545  23852360.1294   23852370.3694   23852359.873
        39.0004         34.0004
  -1000736.76149   -776452.69548  20026734.4114   20026740.1964   20026734.549
        54.0004         50.0004
  -9480504.29847  -7359963.46046  22969419.7104   22969427.7804   22969419.752
        46.0004         41.0004
  -9653197.67947  -7468801.03746  22979234.9434   22979240.3464   22979235.019
        46.0004         41.0004
 -10236184.79848  -7922465.70447  23123484.5394   23123493.9634   23123484.832
        48.0004         43.0004
 14  5 23  0  4  0.0000000  0 11G13G08G04G26G10G07G20G09G28G02G17
  18528672.91246  14426632.15645  24969386.9264   24969395.9044   24969386.231
        39.0004         34.0004
 -26193278.01549 -20369364.04248  19967241.9834   19967248.4074   19967242.162
        54.0004         49.0004
 -27247219.52548 -21177298.20048  20602553.3494   20602559.1654   20602553.102
        53.0004         48.0004
  -2363570.18147  -1817590.67946  24062915.9804   24062927.5464   24062915.210
        42.0004         38.0004
 -12698522.40047  -9888298.38346  23283088.0274   23283096.5674   23283088.179
        45.0004         41.0004
 -17481627.62348 -13617662.65047  21243817.5734   21243823.7104   21243817.492
        51.0004         47.0004
  -2331923.32846  -1798708.06245  23857779.5394   23857788.0314   23857777.781
        39.0004         34.0004
   -982647.93749   -762357.46448  20030176.3154   20030182.7964   20030176.402
        54.0004         50.0004
  -9538405.54547  -7405081.17946  22958401.6884   22958409.2984   22958401.390
        46.0004         41.0004
  -9731731.75047  -7529996.26546  22964289.9464   22964295.0744   22964290.241
        46.0004         41.0004
 -10195257.16448  -7890573.99447  23131272.9894   23131282.3344   23131273.209
        48.0004         43.0004
 14  5 23  0  4 30.0000000  0 11G13G08G04G26G10G07G20G09G28G02G17
  18586623.85046  14471788.82745  24980411.0544   24980416.0024   24980413.021
        39.0004         34.0004
 -26169095.57549 -20350520.53948  19971843.8004   19971850.2094   19971843.951
        54.0004         49.0004
 -27288896.37048 -21209773.62248  20594622.0704   20594628.2674   20594621.593
        53.0004         48.0004
  -2358434.03947  -1813588.37146  24063893.0674   24063904.8794   24063893.195
        42.0004         38.0004
 -12766318.24947  -9941126.15846  23270186.5394   23270196.2554   23270187.098
        45.0004         40.0004
 -17403585.31248 -13556850.44447  21258668.6844   21258674.4894   21258668.350
        51.0004         47.0004
  -2303129.00446  -1776270.88145  23863256.2824   23863268.7934   23863256.430
        39.0004         34.0004
   -963965.78849   -747799.90748  20033731.6024   20033737.3114   20033731.594
        54.0004         50.0004
  -9596382.27447  -7450257.70446  22947367.8144   22947377.6114   22947368.765
        46.0004         41.0004
  -9809960.04647  -7590953.24046  22949403.2434   22949409.9714   22949403.163
        46.0004         41.0004
 -10154417.27847  -7858750.66847  23139045.7454   23139053.3844   23139044.254
        47.0004         43.0004
 14  5 23  0  5  0.0000000  0 11G13G08G04G26G10G07G20G09G28G02G17
  18644317.70646  14516745.23745  24991392.5744   24991399.7784   24991391.563
        38.0004         34.0004
 -26144262.64649 -20331170.16048  19976569.1214   19976575.6584   19976569.521
        54.0004         49.0004
 -27330051.67548 -21241842.63948  20586790.7554   20586796.8384   20586790.504
        53.0004         48.0004
  -2353076.96447  -1809413.89446  24064911.9314   24064923.8884   24064911.456
        42.0004         38.0004
 -12834241.38447  -9994053.11846  23257261.7574   23257269.2374   23257261.688
        45.0004         40.0004
 -17325139.72348 -13495723.98847  21273596.1824   21273602.8974   21273595.840
        51.0004         47.0004
  -2274012.09746  -1753582.33845  23868797.1154   23868809.2334   23868797.775
        39.0004         34.0004
   -944693.06749   -732782.15448  20037399.0024   20037404.9054   20037399.052
        54.0004         50.0004
  -9654433.80847  -7495492.52546  22936321.0584   22936329.1624   22936321.030
        46.0004         41.0004
  -9887882.16047  -7651671.61146  22934574.6904   22934581.6074   22934575.484
        46.0004         41.0004
 -10113668.69747  -7826998.49647  23146799.7094   23146807.3474   23146798.856
        47.0004         43.0004
 14  5 23  0  5 30.0000000  0 11G13G08G04G26G10G07G20G09G28G02G17
  18701755.95946  14561502.40445  25002320.7104   25002329.1354   25002323.207
        39.0004         34.0004
 -26118778.33849 -20311312.21548  19981418.9084   19981424.6214   19981419.118
        54.0004         49.0004
 -27370682.33948 -21273502.85648  20579058.7244   20579065.0394   20579058.205
        53.0004         48.0004
  -2347499.24747  -1805067.51546  24065973.2204   24065984.0284   24065972.956
        42.0004         38.0004
 -12902288.04547 -10047076.32446  23244312.5444   23244320.7524   23244313.210
        45.0004         41.0004
 -17246291.58148 -13434283.86447  21288600.8084   21288605.4824   21288600.507
        51.0004         47.0004
  -2244570.05846  -1730640.46545  23874401.1094   23874413.5964   23874401.187
        39.0004         34.0004
   -924829.08149   -717303.67948  20041179.0824   20041185.0654   20041178.853
        54.0004         50.0004
  -9712555.79247  -7540782.24446  22925261.1024   22925268.3874   22925260.903
        46.0004         41.0004
  -9965494.24647  -7712148.40947  22919806.1124   22919812.7254   22919806.686
        46.0004         42.0004
 -10073011.47348  -7795317.50947  23154536.0444   23154545.5364   23154535.808
        48.0004         43.0004
 14  5 23  0  6  0.0000000  0 11G13G08G04G26G10G07G20G09G28G02G17
  18758946.45546  14606066.56845  25013205.5144   25013209.3454   25013205.223
        39.0004         34.0004
 -26092635.06248 -20290940.78948  19986393.3814   19986399.7414   19986393.903
        53.0004         49.0004
 -27410778.77248 -21304746.77848  20571428.8184   20571434.8034   20571428.332
        53.0004         48.0004
  -2341694.37847  -1800544.11646  24067078.7234   24067091.3984   24067077.283
        42.0004         38.0004
 -12970448.16447 -10100187.95246  23231342.6064   23231350.1354   23231342.494
        45.0004         41.0004
 -17167035.57748 -13372525.91747  21303682.9224   21303688.1954   21303682.043
        51.0004         47.0004
 -10091893.66646  -7845438.06745  23880065.3164   23880076.1434   23880066.065
        39.0004         34.0004
   -904366.61549   -701358.85748  20045072.8604   20045078.7274   20045072.743
        54.0004         50.0004
  -9770737.73647  -7586118.68547  22914188.7294   22914197.5914   22914189.253
        46.0004         42.0004
 -10042785.66847  -7772375.33246  22905098.3334   22905103.5524   22905098.402
        46.0004         41.0004
 -10032438.83348  -7763702.42747  23162256.6184   23162265.3314   23162256.348
        48.0004         43.0004
 14  5 23  0  6 30.0000000  0 11G13G08G04G26G10G07G20G09G28G02G17
  18815870.34346  14650422.98745  25024036.5214   25024042.3744   25024038.180
        39.0004         34.0004
 -26065852.52348 -20270071.24148  19991490.1894   19991496.5164   19991490.328
        53.0004         49.0004
 -27450357.85248 -21335587.57648  20563897.0764   20563903.4374   20563896.910
        53.0004         48.0004
  -2335682.70047  -1795859.57546  24068221.9764   24068233.3814   24068221.362
        42.0004         38.0004
 -13038738.16147 -10153400.78946  23218346.6624   23218354.3154   23218346.785
        45.0004         41.0004
 -17087392.60648 -13310466.43547  21318838.1114   21318843.8634   21318838.024
        51.0004         46.0004
 -10061800.47746  -7821988.80145  23885795.7094   23885804.7134   23885793.511
        39.0004         34.0004
   -883324.96849   -684962.72248  20049076.6104   20049082.6024   20049076.814
        54.0004         50.0004
  -9828995.38647  -7631514.13747  22903103.3124   22903111.4664   22903103.278
        46.0004         42.0004
 -10119772.69347  -7832365.06847  22890447.3294   22890452.3654   22890447.918
        46.0004         42.0004
  -9991970.81847  -7732168.86047  23169957.2454   23169966.2144   23169956.684
        47.0004         43.0004
 14  5 23  0  7  0.0000000  0 11G13G08G04G26G10G07G20G09G28G02G17
  18872532.96946  14694575.81145  25034820.8284   25034827.2944   25034820.234
        39.0004         34.0004
 -26038426.09448 -20248699.95448  19996708.8014   19996715.4744   19996709.340
        53.0004         49.0004
 -27489412.57448 -21366019.77648  20556464.9194   20556471.3304   20556464.467
        53.0004         48.0004
  -2329460.65247  -1791011.11146  24069404.4654   24069417.5784   24069405.326
        42.0004         38.0004
 -13107150.40047 -10206708.86646  23205327.0604   23205334.7554   23205327.976
        45.0004         41.0004
 -17007359.74148 -13248103.14447  21334067.6414   21334073.2894   21334067.307
        51.0004         46.0004
 -10031384.22346  -7798287.79845  23891579.7064   23891590.3184   23891580.543
        39.0004         35.0004
   -861699.91649   -668111.99148  20053191.7244   20053197.8094   20053191.947
        54.0004         49.0004
  -9887320.57847  -7676962.20346  22892003.5844   22892010.9914   22892004.267
        46.0004         41.0004
 -10196447.87747  -7892111.81247  22875856.4424   22875862.4844   22875857.279
        46.0004         42.0004
  -9951603.74247  -7700713.95447  23177639.2934   23177647.4974   23177638.679
        47.0004         43.0004
 14  5 23  0  7 30.0000000  0 11G13G08G04G26G10G07G20G09G28G02G17
  18928937.08646  14738527.21845  25045552.2324   25045558.5754   25045553.899
        39.0004         34.0004
 -26010353.09848 -20226824.85548  20002050.9794   20002057.5234   20002051.548
        53.0004         49.0004
 -27527938.42048 -21396039.86848  20549134.2424   20549140.0094   20549133.648
        53.0004         48.0004
  -2323026.85747  -1785997.61946  24070629.2604   24070641.8964   24070629.712
        42.0004         38.0004
 -13175679.40347 -10260107.93146  23192287.2944   23192294.8944   23192287.690
        45.0004         41.0004
 -16926936.45648 -13185435.63647  21349372.2194   21349377.8074   21349371.750
        51.0004         46.0004
 -10000640.59046  -7774331.73445  23897432.5114   23897442.3314   23897432.971
        39.0004         34.0004
   -839489.27849   -650804.95848  20057418.4474   20057424.1624   20057418.330
        54.0004         49.0004
  -9945707.75547  -7722458.58347  22880893.0224   22880900.7734   22880893.376
        46.0004         42.0004
 -10272805.40947  -7951611.04147  22861326.4884   22861332.5214   22861326.376
        46.0004         42.0004
  -9911336.04147  -7669336.47447  23185301.6624   23185310.6834   23185301.488
        47.0004         43.0004
 14  5 23  0  8  0.0000000  0 11G13G08G04G26G10G07G20G09G28G02G17
  18985086.33346  14782280.02045  25056237.5724   25056241.7544   25056236.865
        38.0004         34.0004
 -25981630.68648 -20204443.71348  20007516.8454   20007523.0014   20007517.216
        53.0004         49.0004
 -27565930.24648 -21425643.84048  20541904.1884   20541910.4954   20541903.666
        53.0004         48.0004
  -2316379.45947  -1780817.70846  24071894.0344   24071906.5384   24071894.290
        43.0004         38.0004
 -13244319.51347 -10313593.57446  23179224.9254   23179233.4864   23179225.646
        45.0004         41.0004
 -16846121.46548 -13122462.89547  21364751.0244   21364756.0684   21364750.047
        51.0004         46.0004
  -9969564.75046  -7750116.76145  23903344.0914   23903356.6634   23903345.465
        39.0004         35.0004
   -816690.26849   -633039.45648  20061756.9334   20061762.4644   20061756.999
        54.0004         50.0004
 -10004150.42547  -7767998.20247  22869770.9434   22869780.0434   22869772.015
        46.0004         42.0004
 -10348839.70047  -8010858.40247  22846857.2424   22846863.1744   22846857.706
        46.0004         42.0004
  -9871165.56147  -7638034.74547  23192946.0584   23192953.3314   23192945.423
        47.0004         43.0004
 14  5 23  0  8 30.0000000  0 11G13G08G04G26G10G07G20G09G28G02G17
  19040975.25946  14825829.99045  25066871.5704   25066884.2434   25066872.627
        38.0004         34.0004
 -25952265.47448 -20181561.69048  20013104.8624   20013111.2634   20013105.058
        53.0004         49.0004
 -27603392.08448 -21454834.83248  20534775.2984   20534781.5464   20534774.913
        53.0004         48.0004
  -2309525.91447  -1775477.14846  24073199.0624   24073210.3464   24073198.573
        43.0004         38.0004
 -13313074.30247 -10367168.58046  23166141.0034   23166148.9044   23166142.428
        45.0004         41.0004
 -16764922.79048 -13059191.17447  21380202.1324   21380207.6794   21380201.556
        51.0004         46.0004
  -9938161.56646  -7725646.75045  23909320.7024   23909333.3654   23909321.217
        39.0004         34.0004
   -793309.08149   -614820.30348  20066206.2594   20066211.6824   20066206.159
        54.0004         49.0004
 -10062651.41147  -7813583.25647  22858641.2714   22858648.1194   22858639.452
        46.0004         42.0004
 -10424553.95347  -8069856.37247  22832449.0914   22832455.1014   22832450.149
        46.0004         42.0004
  -9831098.90647  -7606813.94147  23200570.3134   23200579.9384   23200569.210
        47.0004         42.0004
 14  5 23  0  9  0.0000000  0 11G13G08G04G26G10G07G20G09G28G02G17
                  14869172.76445                  25077464.1244   25077457.623
                        33.0004
 -25922263.35048 -20158183.37548  20018813.9934   20018820.1604   20018814.222
        53.0004         49.0004
 -27640327.65648 -21483615.74048  20527746.8084   20527752.8954   20527746.278
        53.0004         48.0004
  -2302472.85247  -1769981.11246  24074540.5704   24074552.5334   24074540.153
        43.0004         38.0004
 -13381946.34947 -10420834.95346  23153035.8914   23153043.5374   23153036.119
        46.0004         41.0004
 -16683348.37448 -12995626.67547  21395725.1814   21395730.6014   21395724.752
        51.0004         46.0004
  -9906434.54446  -7700924.37745  23915359.1734   23915373.1004   23915358.526
        39.0004         34.0004
   -769352.04849   -596152.43948  20070765.0634   20070770.7494   20070764.737
        54.0004         49.0004
 -10121212.96947  -7859215.50547  22847495.4014   22847502.4664   22847495.507
        46.0004         42.0004
 -10499950.78747  -8128607.00747  22818101.4834   22818107.2584   22818100.896
        47.0004         42.0004
  -9791143.31247  -7575679.65947  23208173.1854   23208182.6244   23208172.494
        47.0004         42.0004
 14  5 23  0  9 30.0000000  0 11G13G08G04G26G10G07G20G09G28G02G17
  19151968.51946  14912318.60345  25087994.5784   25088002.0624   25087993.497
        38.0004         33.0004
 -25891612.09648 -20134299.24248  20024646.7124   20024652.5644   20024647.071
        53.0004         49.0004
 -27676722.25248 -21511975.10448  20520821.0054   20520826.8954   20520820.653
        53.0004         48.0004
  -2295209.00547  -1764320.82746  24075922.8224   24075934.2494   24075922.800
        43.0004         38.0004
 -13450920.40147 -10474580.80946  23139911.1084   23139918.3334   23139910.748
        46.0004         41.0004
 -16601387.47948 -12931761.01447  21411321.9824   21411326.8244   21411321.370
        51.0004         46.0004
  -9874369.81246  -7675938.86245  23921460.7954   23921473.1044   23921461.114
        39.0004         35.0004
   -744807.00749   -577026.39048  20075435.7814   20075441.3614   20075435.728
        54.0004         50.0004
 -10179819.28347  -7904882.61647  22836341.7244   22836350.3904   22836342.913
        46.0004         42.0004
 -10575015.18847  -8187098.60347  22803817.6704   22803823.1134   22803816.848
        47.0004         42.0004
  -9751286.65647  -7544622.47147  23215758.8054   23215766.2924   23215757.359
        47.0004         43.0004
 14  5 23  0 10  0.0000000  0 11G13G08G04G26G10G07G20G09G28G02G17
  19207077.52746  14955260.86245  25098483.7244   25098485.6724   25098480.123
        38.0004         33.0004
 -25860321.04148 -20109916.56448  20030601.3554   20030607.2804   20030601.641
        53.0004         49.0004
 -27712583.04848 -21539918.51848  20513996.8234   20514003.0354   20513996.469
        53.0004         48.0004
  -2287744.73847  -1758504.36946  24077342.7834   24077354.6914   24077342.899
        43.0004         38.0004
 -13520002.73147 -10528411.04246  23126764.7984   23126771.9174   23126764.764
        46.0004         41.0004
 -16519050.99448 -12867602.68947  21426989.8404   21426995.2394   21426989.582
        51.0004         46.0004
  -9841975.14246  -7650696.24545  23927624.9004   23927634.9874   23927625.301
        39.0004         34.0004
   -719683.73149   -557449.76748  20080216.5224   20080221.9254   20080216.400
        54.0004         50.0004
 -10238476.14247  -7950589.11347  22825180.6734   22825190.1954   22825180.997
        46.0004         42.0004
 -10649752.65347  -8245335.43247  22789594.8414   22789600.4644   22789595.479
        47.0004         42.0004
  -9711539.07547  -7513650.27147  23223321.1714   23223331.2034   23223321.081
        47.0004         43.0004
 14  5 23  0 10 30.0000000  0 11G13G08G04G26G10G07G20G09G28G02G17
  19261925.27946  14997999.58745  25108918.0174   25108923.5404   25108918.120
        38.0004         33.0004
 -25828390.95548 -20085035.93848  20036676.9354   20036682.9464   20036677.436
        53.0004         49.0004
 -27747908.41848 -21567444.71748  20507274.5294   20507280.7334   20507274.315
        53.0004         48.0004
  -2280081.42447  -1752532.81446  24078802.1604   24078812.5654   24078800.933
        43.0004         38.0004
 -13589190.50347 -10582323.43346  23113598.3974   23113606.0004   23113598.383
        46.0004         41.0004
 -16436341.23948 -12803153.49247  21442729.4544   21442734.7404   21442728.578
        51.0004         46.0004
  -9809248.82046  -7625195.21645  23933853.9954   23933860.8394   23933853.740
        39.0004         35.0004
   -693982.78649   -537423.01348  20085106.8364   20085112.9944   20085107.364
        54.0004         50.0004
 -10297180.52347  -7996332.63947  22814010.4744   22814016.8194   22814009.736
        46.0004         42.0004
 -10724160.83947  -8303315.67947  22775435.2894   22775440.8684   22775435.986
        47.0004         42.0004
  -9671901.37147  -7482763.69847  23230864.7024   23230873.3794   23230863.610
        47.0004         42.0004
 14  5 23  0 11  0.0000000  0 11G13G08G04G26G10G07G20G09G28G02G17
  19316511.45846  15040534.48745  25119303.3914   25119317.1704   25119305.894
        37.0004         33.0004
 -25795823.40848 -20059658.59348  20042874.7674   20042880.4984   20042874.878
        53.0004         49.0004
 -27782697.32048 -21594552.89348  20500654.6604   20500660.9934   20500654.249
        53.0004         48.0004
  -2272221.42847  -1746407.98246  24080296.2694   24080309.0434   24080297.134
        43.0004         38.0004
 -13658482.16047 -10636316.77546  23100413.4064   23100420.2574   23100413.381
        46.0004         41.0004
 -16353261.25448 -12738415.81647  21458538.8274   21458543.8984   21458538.150
        51.0004         46.0004
  -9776190.71346  -7599435.61545  23940143.7174   23940154.9164   23940142.824
        39.0004         34.0004
   -667705.69749   -516947.31748  20090107.4814   20090113.3724   20090107.325
        54.0004         50.0004
 -10355930.09247  -8042111.38147  22802829.8594   22802836.8394   22802829.758
        46.0004         42.0004
 -10798237.74347  -8361037.79947  22761338.5874   22761344.6394   22761339.048
        47.0004         42.0004
  -9632375.91747  -7451964.59447  23238386.8154   23238394.5754   23238385.276
        47.0004         43.0004
 14  5 23  0 11 30.0000000  0 11G13G08G04G26G10G07G20G09G28G02G17
  19370836.02646  15082865.49445  25129641.5304   25129649.1364   25129642.647
        38.0004         33.0004
 -25762619.58048 -20033785.43948  20049192.6344   20049198.9994   20049193.364
        53.0004         49.0004
 -27816948.58348 -21621242.12448  20494136.5944   20494143.0244   20494136.040
        53.0004         48.0004
  -2264166.78747  -1740131.48046  24081828.3834   24081841.2714   24081828.685
        43.0004         38.0004
 -13727875.77347 -10690389.56546  23087206.7304   23087214.8234   23087207.054
        46.0004         41.0004
 -16269813.96148 -12673391.91947  21474418.2504   21474422.5914   21474417.610
        51.0004         46.0004
  -9742799.91346  -7573416.82545  23946495.6574   23946508.1984   23946497.828
        40.0004         35.0004
   -640853.80549   -496023.72248  20095217.2014   20095223.0714   20095217.290
        54.0004         50.0004
 -10414722.37547  -8087923.41047  22791642.0944   22791649.8064   22791642.232
        46.0004         42.0004
 -10871982.05347  -8418500.73647  22747305.3814   22747311.8444   22747306.975
        47.0004         42.0004
  -9592964.15947  -7421254.07947  23245885.3824   23245894.2914   23245884.975
        47.0004         43.0004
 14  5 23  0 12  0.0000000  0 11G13G08G04G26G10G07G20G09G28G02G17
  19424898.04346  15124991.95145  25139929.2554   25139934.1844   25139928.968
        38.0004         33.0004
 -25728780.84548 -20007417.55848  20055632.5874   20055638.4434   20055632.699
        53.0004         49.0004
 -27850661.61748 -21647511.95948  20487721.4744   20487727.4074   20487721.216
        53.0004         48.0004
  -2255919.64947  -1733704.98646  24083398.8524   24083410.6374   24083398.870
        43.0004         38.0004
 -13797369.31347 -10744540.21746  23073982.8174   23073989.9014   23073983.123
        46.0004         41.0004
 -16186002.07748 -12608083.92447  21490367.2794   21490372.2634   21490366.220
        50.0004         46.0004
  -9709076.10546  -7547138.52045  23952913.5544   23952923.6354   23952915.672
        40.0004         35.0004
   -613428.93549   -474653.64448  20100435.7834   20100441.9944   20100435.780
        54.0004         50.0004
 -10473554.93447  -8133766.81947  22780446.4214   22780454.4334   22780446.670
        47.0004         42.0004
 -10945391.64847  -8475702.87147  22733336.2344   22733341.5644   22733335.947
        47.0004         42.0004
  -9553667.79347  -7390633.48147  23253363.4184   23253371.3844   23253362.876
        47.0004         42.0004
 14  5 23  0 12 30.0000000  0 11G13G08G04G26G10G07G20G09G28G02G17
  19478697.59446  15166913.87245  25150164.6244   25150170.1054   25150167.492
        37.0004         33.0004
 -25694308.54648 -19980555.98948  20062192.2614   20062198.1284   20062192.507
        53.0004         49.0004
 -27883835.04248 -21673361.32048  20481408.0944   20481414.6124   20481408.065
        53.0004         48.0004
  -2247482.19647  -1727130.17846  24085005.0394   24085015.8144   24085003.888
        42.0004         38.0004
 -13866960.77547 -10798767.15246  23060739.7224   23060747.6694   23060740.157
        46.0004         41.0004
 -16101828.44948 -12542494.04547  21506384.5554   21506390.2284   21506384.063
        50.0004         46.0004
  -9675018.75746  -7520600.28745  23959395.8914   23959407.2074   23959396.426
        40.0004         35.0004
   -585432.27549   -452838.02748  20105763.4024   20105769.6364   20105763.513
        54.0004         50.0004
 -10532424.88647  -8179639.35947  22769244.2354   22769250.7784   22769243.852
        46.0004         42.0004
 -11018464.52747  -8532642.62247  22719430.8944   22719435.1254   22719431.093
        47.0004         42.0004
  -9514488.46547  -7360104.07747  23260818.7214   23260827.7004   23260818.257
        47.0004         43.0004
 14  5 23  0 13  0.0000000  0 11G13G08G04G26G10G07G20G09G28G02G17
  19532234.24846  15208630.93845  25160355.9294   25160360.7704   25160354.557
        37.0004         32.0004
 -25659204.00248 -19953201.76048  20068872.0934   20068878.4464   20068872.545
        53.0004         49.0004
 -27916467.98148 -21698789.52048  20475198.3844   20475204.9704   20475198.248
        53.0004         48.0004
  -2238856.25347  -1720408.48846  24086644.6534   24086658.5964   24086644.589
        42.0004         38.0004
 -13936648.07747 -10853068.78446  23047478.5554   23047485.9904   23047479.024
        46.0004         41.0004
 -16017296.12948 -12476624.66047  21522470.5784   21522475.7234   21522469.862
        50.0004         46.0004
  -9640626.39946  -7493801.04445  23965940.7204   23965950.2714   23965940.811
        39.0004         35.0004
   -556865.24349   -430577.95648  20111199.5354   20111205.4554   20111199.485
        54.0004         50.0004
 -10591329.87247  -8225539.21947  22758035.3224   22758042.3694   22758035.057
        46.0004         42.0004
 -11091198.35847  -8589318.17447  22705589.4224   22705595.7494   22705589.962
        47.0004         42.0004
  -9475427.85647  -7329667.18947  23268251.3214   23268260.4084   23268251.502
        47.0004         43.0004
 14  5 23  0 13 30.0000000  0 11G13G08G04G26G10G07G20G09G28G02G17
  19585507.63146  15250142.82645  25170493.2494   25170498.2274   25170493.127
        37.0004         33.0004
 -25623468.59048 -19925355.94948  20075672.7984   20075678.5634   20075672.947
        53.0004         49.0004
 -27948559.21948 -21723795.61948  20469091.8504   20469098.1024   20469091.357
        53.0004         48.0004
  -2230043.96847  -1713541.61646  24088321.6264   24088332.9024   24088322.086
        42.0004         38.0004
 -14006429.05947 -10907443.42146  23034199.3544   23034206.6434   23034200.349
        46.0004         41.0004
 -15932407.94848 -12410477.96747  21538623.6594   21538629.6754   21538623.666
        50.0004         46.0004
  -9605899.50046  -7466741.09245  23972548.0674   23972561.2954   23972548.973
        39.0004         35.0004
   -527729.23549   -407874.53148  20116743.8864   20116749.9534   20116744.169
        54.0004         50.0004
 -10650267.15247  -8271464.23447  22746818.3934   22746825.1314   22746819.157
        46.0004         42.0004
 -11163591.32647  -8645728.14447  22691814.0014   22691819.6294   22691814.205
        47.0004         42.0004
  -9436487.51747  -7299324.02347  23275662.2254   23275670.0004   23275661.578
        47.0004         43.0004
 14  5 23  0 14  0.0000000  0 11G13G08G04G26G10G07G20G09G28G02G17
  19638517.67546  15291449.50845  25180579.0694   25180585.1444   25180581.047
        37.0004         32.0004
 -25587104.14648 -19897019.98148  20082592.5134   20082598.2024   20082592.814
        53.0004         48.0004
 -27980108.32048 -21748379.27548  20463088.1684   20463094.1284   20463087.827
        53.0004         48.0004
  -2221047.77147  -1706531.42646  24090034.3444   24090046.1744   24090034.475
        42.0004         38.0004
 -14076301.85347 -10961889.58546  23020902.5634   23020910.4734   23020903.129
        46.0004         41.0004
 -15847166.88648 -12344056.31647  21554845.0274   21554850.6054   21554844.321
        50.0004         46.0004
  -9570836.70346  -7439419.44545  23979221.2714   23979231.2294   23979219.641
        39.0004         35.0004
   -498026.15949   -384729.23548  20122396.2724   20122401.8464   20122396.146
        54.0004         50.0004
 -10709234.61047  -8317412.76947  22735596.8344   22735605.2654   22735598.000
        47.0004         42.0004
 -11235641.70547  -8701871.13947  22678102.9584   22678109.6164   22678103.143
        47.0004         42.0004
  -9397669.36547  -7269076.06047  23283048.6724   23283058.1574   23283047.736
        47.0004         42.0004
 14  5 23  0 14 30.0000000  0 11G13G08G04G26G10G07G20G09G28G02G17
  19691261.50146  15332548.69045  25190618.6534   25190620.9904   25190616.197
        37.0004         33.0004
 -25550114.36548 -19868196.73848  20089631.5844   20089637.5714   20089631.625
        53.0004         48.0004
 -28011116.42348 -21772541.38048  20457187.7614   20457193.5664   20457187.363
        53.0004         48.0004
  -2211871.80547  -1699381.15746  24091781.0694   24091791.8264   24091779.851
        42.0004         38.0004
 -14146266.25447 -11016407.13946  23007588.8594   23007597.2804   23007589.737
        46.0004         41.0004
 -15761577.80348 -12277363.48147  21571132.1404   21571137.4284   21571131.652
        50.0004         46.0004
  -9535439.92846  -7411837.49945  23985955.4944   23985963.0864   23985956.768
        39.0004         35.0004
   -467759.74249   -361144.97248  20128155.8194   20128161.4664   20128155.866
        54.0004         50.0004
 -10768231.74347  -8363384.41347  22724371.0824   22724377.4254   22724370.691
        46.0004         42.0004
 -11307350.08247  -8757747.64747  22664457.3034   22664462.2164   22664457.651
        47.0004         43.0004
  -9358976.89247  -7238926.02947  23290411.6724   23290420.2174   23290410.889
        47.0004         42.0004
 14  5 23  0 15  0.0000000  0 11G13G08G04G26G10G07G20G09G28G02G17
  18168322.63046                  25200599.7524                   25200603.181
        37.0004
 -25512497.03748 -19838884.49248  20096789.4674   20096795.5674   20096789.838
        53.0004         48.0004
 -28041579.26348 -21796278.59548  20451390.3654   20451397.0484   20451389.795
        53.0004         48.0004
  -2202514.76447  -1692089.78646  24093559.7114   24093573.1064   24093560.200
        42.0004         38.0004
 -14216316.91447 -11070991.90646  22994258.7724   22994266.1884   22994259.664
        46.0004         41.0004
 -15675640.26748 -12210399.11647  21587485.1124   21587490.7744   21587484.501
        50.0004         46.0004
  -9499705.05246  -7383992.13445  23992755.5514   23992767.1014   23992755.985
        39.0004         34.0004
   -436928.04249   -337120.22748  20134022.7124   20134028.4424   20134022.637
        54.0004         50.0004
 -10827252.52447  -8409374.48947  22713139.7224   22713147.4324   22713139.699
        47.0004         42.0004
 -11378710.94447  -8813353.36447  22650877.6734   22650883.1204   22650878.136
        47.0004         42.0004
  -9320408.48347  -7208872.67847  23297751.0864   23297760.4484   23297750.374
        47.0004         43.0004
 14  5 23  0 15 30.0000000  0 11G13G08G04G26G10G07G20G09G28G02G17
                  14186530.95445                  25210549.9154   25210538.589
                        32.0004
 -25474256.19448 -19809086.39448  20104066.6834   20104072.2654   20104066.976
        53.0004         48.0004
 -28071498.11448 -21819591.92948  20445697.5654   20445703.2534   20445697.221
        53.0004         48.0004
  -2192981.26947  -1684660.93246  24095374.7764   24095387.0674   24095373.891
        42.0004         38.0004
 -14286454.29247 -11125644.24446  22980911.3524   22980919.7704   22980912.080
        46.0004         41.0004
 -15589359.49048 -12143167.30147  21603903.9974   21603909.6194   21603903.747
        50.0004         45.0004
  -9463634.42846  -7355885.16145  23999620.7124   23999631.8144   23999620.647
        39.0004         35.0004
   -405535.07249   -312658.13148  20139996.5624   20140002.4814   20139996.658
        54.0004         50.0004
 -10886296.68047  -8455382.79547  22701903.6974   22701909.6844   22701903.544
        47.0004         42.0004
 -11449724.78947  -8868688.68747  22637364.2164   22637368.9104   22637364.582
        47.0004         43.0004
  -9281968.32447  -7178919.25747  23305066.3604   23305074.4344   23305065.316
        47.0004         43.0004
 14  5 23  0 16  0.0000000  0 10G08G04G26G10G07G20G09G28G02G17
 -25435393.60648 -19778803.81548  20111461.8364   20111467.9914   20111462.005
        53.0004         48.0004
 -28100872.10648 -21842480.69148  20440107.6594   20440113.3524   20440106.875
        53.0004         49.0004
  -2183273.19547  -1677096.03546  24097221.8894   24097233.1554   24097221.635
        42.0004         38.0004
 -14356676.07447 -11180362.34346  22967548.1834   22967556.5554   22967549.471
        46.0004         41.0004
 -15502738.47348 -12075670.35847  21620386.8334   21620392.6814   21620386.412
        50.0004         45.0004
  -9427227.06246  -7327515.76345  24006546.9204   24006559.4984   24006549.133
        39.0004         34.0004
   -373582.32049   -287759.84048  20146077.2284   20146082.7224   20146077.255
        54.0004         50.0004
 -10945361.16047  -8501406.93947  22690664.5064   22690670.9204   22690663.955
        47.0004         42.0004
 -11520389.52247  -8923751.97847  22623917.4164   22623922.2624   22623916.837
        47.0004         43.0004
  -9243657.61047  -7149066.69947  23312357.0804   23312364.4364   23312355.675
        47.0004         43.0004
 14  5 23  0 16 30.0000000  0 10G08G04G26G10G07G20G09G28G02G17
 -25395908.83548 -19748036.42248  20118975.5544   20118981.5354   20118975.808
        53.0004         48.0004
 -28129698.75348 -21864942.95548  20434622.2534   20434628.4534   20434621.719
        53.0004         49.0004
  -2173391.06147  -1669395.50346  24099102.1944   24099113.6884   24099102.109
        42.0004         38.0004
 -14426978.52547 -11235143.31846  22954170.6654   22954177.3054   22954171.091
        46.0004         41.0004
 -15415778.28448 -12007909.11747  21636935.0114   21636940.7334   21636934.467
        50.0004         45.0004
  -9390480.91246  -7298882.37445  24013541.5174   24013552.2474   24013542.314
        39.0004         34.0004
   -341069.56949   -262425.18248  20152263.9384   20152269.6774   20152263.860
        54.0004         50.0004
 -11004442.06047  -8547443.86547  22679421.3474   22679427.4384   22679421.324
        47.0004         42.0004
 -11590701.84847  -8978540.66647  22610537.0534   22610541.6194   22610536.719
        47.0004         43.0004
  -9205476.11647  -7119314.84547  23319621.4284   23319630.1644   23319621.172
        47.0004         42.0004
 14  5 23  0 17  0.0000000  0 10G08G04G26G10G07G20G09G28G02G17
 -25355806.59248 -19716787.88248  20126607.0964   20126612.8774   20126606.860
        53.0004         48.0004
 -28157980.44248 -21886980.57848  20429239.9074   20429245.7884   20429239.552
        53.0004         49.0004
  -2163340.12347  -1661563.44246  24101013.4934   24101026.7794   24101014.009
        43.0004         38.0004
 -14497362.51547 -11289987.82447  22940776.5794   22940785.5044   22940777.601
        46.0004         42.0004
 -15328484.98348 -11939888.30647  21653545.8464   21653551.7314   21653546.498
        50.0004         45.0004
  -9353398.50546  -7269987.00645  24020597.6654   24020608.9964   24020598.241
        39.0004         35.0004
   -308001.75549   -236658.01148  20158556.7684   20158562.2644   20158556.537
        54.0004         50.0004
 -11063539.91547  -8593494.01547  22668174.5844   22668182.5764   22668174.738
        47.0004         42.0004
 -11660662.55747  -9033055.37247  22597222.9584   22597229.1834   22597223.860
        47.0004         43.0004
  -9167428.88847  -7089667.60147  23326862.4634   23326870.1254   23326861.722
        47.0004         42.0004
 14  5 23  0 17 30.0000000  0 10G08G04G26G10G07G20G09G28G02G17
 -25315085.49348 -19685057.11348  20134355.6384   20134361.5614   20134355.993
        53.0004         48.0004
 -28185713.38448 -21908590.60348  20423962.9604   20423968.6104   20423962.235
        53.0004         49.0004
  -2153119.40547  -1653599.07246  24102959.1254   24102970.5054   24102959.822
        42.0004         38.0004
 -14567822.92147 -11344891.86747  22927368.5674   22927376.3734   22927369.426
        46.0004         42.0004
 -15240858.40148 -11871607.79247  21670220.5454   21670226.9234   21670220.453
        50.0004         45.0004
  -9315976.12946  -7240826.69945  24027718.8964   24027732.1154   24027719.268
        39.0004         34.0004
   -274377.69949   -210457.40148  20164954.7974   20164960.3724   20164954.980
        54.0004         50.0004
 -11122649.12547  -8639553.01047  22656926.8954   22656933.0364   22656926.699
        47.0004         42.0004
 -11730266.94448  -9087292.42347  22583978.5074   22583982.6804   22583978.438
        48.0004         43.0004
  -9129514.26247  -7060123.69147  23334076.3104   23334084.3824   23334076.071
        47.0004         42.0004
 14  5 23  0 18  0.0000000  0 10G08G04G26G10G07G20G09G28G02G17
 -25273748.66748 -19652846.55848  20142221.5864   20142227.5214   20142221.887
        53.0004         48.0004
 -28212897.96648 -21929773.34248  20418789.4024   20418795.4754   20418789.157
        53.0004         49.0004
  -2142732.34147  -1645505.08046  24104935.9114   24104947.3914   24104934.974
        42.0004         38.0004
 -14638358.51347 -11399854.49547  22913945.9924   22913954.0904   22913946.248
        46.0004         42.0004
 -15152902.79248 -11803070.90247  21686958.7214   21686964.2224   21686958.299
        50.0004         45.0004
  -9278214.81146  -7211402.28445  24034903.7774   24034916.4134   24034904.325
        39.0004         34.0004
   -240200.41149   -183825.70248  20171458.4984   20171464.1954   20171458.386
        54.0004         50.0004
 -11181768.34547  -8685619.80747  22645675.1434   22645683.9444   22645676.644
        47.0004         42.0004
 -11799514.65948  -9141251.55147  22570801.5414   22570806.1814   22570801.404
        48.0004         43.0004
  -9091734.95047  -7030685.19947  23341265.8494   23341273.3284   23341265.004
        47.0004         42.0004
 14  5 23  0 18 30.0000000  0 10G08G04G26G10G07G20G09G28G02G17
 -25231799.81848 -19620159.10048  20150204.6144   20150210.3504   20150204.508
        53.0004         48.0004
 -28239535.46048 -21950529.77148  20413720.5714   20413726.3394   20413719.912
        53.0004         49.0004
  -2132183.09647  -1637284.71646  24106944.1694   24106955.7434   24106943.970
        42.0004         37.0004
 -14708969.16847 -11454875.62547  22900510.3204   22900516.6304   22900509.932
        46.0004         42.0004
 -15064623.08748 -11734281.46547  21703757.3534   21703762.6874   21703757.329
        50.0004         45.0004
  -9240115.98546  -7181714.89045  24042154.5294   24042168.4644   24042155.591
        39.0004         34.0004
   -205473.71749   -156765.89448  20178066.6494   20178072.8914   20178066.864
        54.0004         50.0004
 -11240896.62747  -8731693.66747  22634424.8864   22634431.0804   22634424.615
        47.0004         42.0004
 -11868405.54448  -9194932.62647  22557691.0464   22557696.5664   22557691.812
        48.0004         43.0004
  -9054094.56647  -7001354.98447  23348428.0464   23348436.9534   23348428.061
        47.0004         42.0004
 14  5 23  0 19  0.0000000  0 10G08G04G26G10G07G20G09G28G02G17
 -25189237.23548 -19586993.40348  20158303.8674   20158309.5304   20158303.935
        53.0004         48.0004
 -28265621.64348 -21970856.61648  20408756.3284   20408762.0344   20408756.251
        53.0004         49.0004
  -2121470.25847  -1628936.88246  24108980.7164   24108992.2674   24108980.522
        42.0004         38.0004
 -14779649.46447 -11509951.02147  22887058.5614   22887066.7654   22887059.803
        46.0004         42.0004
 -14976018.53448 -11665238.88947  21720618.7314   21720623.7454   21720618.225
        50.0004         45.0004
  -9201675.59246  -7151761.34045  24049470.4654   24049478.3974   24049469.716
        39.0004         34.0004
   -170195.75749   -129276.52448  20184779.8804   20184785.3824   20184779.807
        54.0004         50.0004
 -11300027.71847  -8777769.72947  22623172.8944   22623179.2664   22623172.181
        47.0004         42.0004
 -11936934.64948  -9248331.79747  22544650.5474   22544655.8214   22544649.758
        48.0004         43.0004
  -9016591.27347  -6972131.58147  23355565.0414   23355572.9944   23355564.686
        47.0004         42.0004
 14  5 23  0 19 30.0000000  0 10G08G04G26G10G07G20G09G28G02G17
 -25146064.82048 -19553352.51848  20166519.2374   20166524.8574   20166519.301
        53.0004         48.0004
 -28291158.21148 -21990755.18648  20403896.9624   20403902.6724   20403896.534
        53.0004         49.0004
  -2110598.22447  -1620465.00546  24111049.0574   24111061.7914   24111050.328
        42.0004         37.0004
 -14850399.45147 -11565080.72547  22873595.9324   22873603.6254   22873596.513
        46.0004         42.0004
 -14887094.66048 -11595947.49447  21737539.4944   21737545.8784   21737539.745
        50.0004         45.0004
  -9162895.84146  -7121543.32945  24056847.4604   24056860.9734   24056849.612
        39.0004         34.0004
   -134370.47449   -101360.67248  20191597.1724   20191602.9844   20191597.300
        54.0004         50.0004
 -11359161.36047  -8823847.77647  22611919.2764   22611926.7284   22611920.022
        47.0004         42.0004
 -12005102.31748  -9301449.33547  22531677.8474   22531684.2604   22531679.121
        48.0004         43.0004
  -8979228.55647  -6943017.72647  23362674.7304   23362683.2974   23362674.796
        47.0004         42.0004
 14  5 23  0 20  0.0000000  0 10G08G04G26G10G07G20G09G28G02G17
 -25102285.82948 -19519238.97448  20174850.1124   20174855.6664   20174850.351
        53.0004         48.0004
 -28316145.83848 -22010226.00748  20399142.0954   20399147.6614   20399141.692
        53.0004         49.0004
  -2099570.56047  -1611871.88546  24113149.2854   24113160.3964   24113148.522
        42.0004         37.0004
 -14921218.06147 -11620263.89547  22860118.9484   22860127.0514   22860120.485
        47.0004         42.0004
 -14797855.58248 -11526410.48747  21754521.4574   21754527.3304   21754521.310
        50.0004         45.0004
  -9123777.69246  -7091061.66145  24064293.9364   24064302.8594   24064292.469
        39.0004         34.0004
    -98001.07049    -73020.82348  20198517.8234   20198523.7634   20198517.736
        54.0004         50.0004
 -11418296.36747  -8869926.88847  22600666.5124   22600673.5384   22600666.640
        47.0004         43.0004
 -12072908.33148  -9354285.06347  22518774.2064   22518779.4824   22518775.119
        48.0004         43.0004
  -8942009.32247  -6914015.67247  23369757.9314   23369765.8034   23369756.958
        47.0004         42.0004
 14  5 23  0 20 30.0000000  0 10G08G04G26G10G07G20G09G28G02G17
 -25057898.86748 -19484651.68648  20183296.2014   20183302.4134   20183296.598
        53.0004         48.0004
 -28340580.67548 -22029266.08548  20394492.3314   20394498.2834   20394491.728
        53.0004         49.0004
  -2088386.21747  -1603156.66446  24115276.6824   24115287.7244   24115277.333
        42.0004         38.0004
 -14992100.15947 -11675496.55047  22846630.0724   22846638.1804   22846631.471
        47.0004         42.0004
 -14708301.00248 -11456627.63547  21771563.1194   21771568.8054   21771562.679
        49.0004         45.0004
  -9084317.49646  -7060313.47045  24071801.0644   24071812.6844   24071802.927
        39.0004         34.0004
    -61085.94549    -44255.74548  20205542.7984   20205548.0554   20205542.854
        54.0004         50.0004
 -11477426.71847  -8916002.37047  22589414.8444   22589422.2174   22589414.600
        47.0004         43.0004
 -12140347.25448  -9406834.76347  22505941.1104   22505948.2924   22505942.233
        48.0004         43.0004
  -8904931.80447  -6885124.05247  23376812.8734   23376821.9554   23376812.571
        47.0004         43.0004
 14  5 23  0 21  0.0000000  0 10G08G04G26G10G07G20G09G28G02G17
 -25012908.65448 -19449594.33148  20191857.8464   20191863.6324   20191858.050
        53.0004         48.0004
 -28364465.25848 -22047877.39248  20389946.9974   20389952.8934   20389946.556
        53.0004         49.0004
  -2077050.36347  -1594323.38246  24117433.8114   24117444.5904   24117433.772
        42.0004         38.0004
 -15063046.47147 -11730779.23947  22833130.1324   22833138.1494   22833130.172
        47.0004         42.0004
 -14618436.96248 -11386603.64647  21788663.8524   21788669.0714   21788663.433
        49.0004         45.0004
  -9044517.44746  -7029300.42045  24079377.0744   24079387.3044   24079375.686
        39.0004         34.0004
    -23630.30649    -15069.47848  20212670.3674   20212676.2054   20212670.427
        54.0004         50.0004
 -11536552.56647  -8962074.34147  22578161.6214   22578170.0004   22578163.254
        47.0004         43.0004
 -12207420.66048  -9459099.62647  22493179.3914   22493182.6944   22493178.736
        48.0004         43.0004
  -8868000.62047  -6856346.45147  23383840.2864   23383849.0104   23383840.263
        47.0004         42.0004
 14  5 23  0 21 30.0000000  0 10G08G04G26G10G07G20G09G28G02G17
 -24967314.53548 -19414066.40248  20200533.9924   20200539.5304   20200534.184
        53.0004         48.0004
 -28387796.69848 -22066057.68248  20385507.0214   20385513.1514   20385506.867
        53.0004         49.0004
  -2065562.87147  -1585371.93246  24119619.3374   24119631.2994   24119619.801
        42.0004         38.0004
 -15134052.09047 -11786108.14347  22819617.0254   22819625.7374   22819618.521
        46.0004         42.0004
 -14528264.17748 -11316339.07447  21805823.5464   21805827.8294   21805822.715
        49.0004         45.0004
  -9004375.33646  -6998020.87545  24087012.5444   24087022.3754   24087014.797
        39.0004         34.0004
     14366.43649     14538.41648  20219900.8634   20219906.5854   20219900.784
        54.0004         50.0004
 -11595669.11347  -9008139.06647  22566913.1344   22566919.3694   22566913.821
        47.0004         43.0004
 -12274124.47948  -9511076.50547  22480485.0904   22480490.0244   22480485.011
        48.0004         43.0004
  -8831214.90147  -6827682.20447  23390840.8044   23390849.3444   23390840.718
        47.0004         43.0004
 14  5 23  0 22  0.0000000  0 10G08G04G26G10G07G20G09G28G02G17
 -24921120.65948 -19378071.12648  20209324.4554   20209330.0884   20209324.562
        53.0004         48.0004
 -28410576.17348 -22083807.86548  20381171.9934   20381178.5464   20381171.886
        53.0004         49.0004
  -2053927.62447  -1576305.34346  24121834.3324   24121844.2584   24121833.781
        42.0004         38.0004
 -15205116.63847 -11841482.96147  22806094.6534   22806101.1494   22806095.300
        46.0004         42.0004
 -14437787.17548 -11245837.45247  21823040.3744   21823045.0744   21823039.622
        49.0004         45.0004
  -8963892.52746  -6966475.82545  24094718.6924   24094729.0064   24094717.271
        39.0004         34.0004
     52900.46149     44564.98548  20227233.5404   20227239.2274   20227233.601
        54.0004         50.0004
 -11654775.28347  -9054195.69247  22555665.8544   22555672.2064   22555665.798
        47.0004         43.0004
 -12340458.68348  -9562765.37247  22467861.7724   22467867.0134   22467862.136
        48.0004         43.0004
  -8794577.86447  -6799133.79347  23397812.7614   23397820.9654   23397812.197
        47.0004         42.0004
 14  5 23  0 22 30.0000000  0 10G08G04G26G10G07G20G09G28G02G17
 -24874327.20348 -19341608.64248  20218228.9024   20218235.0124   20218229.050
        53.0004         48.0004
 -28432801.40348 -22101126.17148  20376942.9944   20376948.4804   20376942.752
        53.0004         49.0004
  -2042145.04747  -1567123.92846  24124076.1794   24124087.8654   24124075.934
        42.0004         38.0004
 -15276236.21847 -11896900.67047  22792560.7154   22792567.5414   22792561.596
        46.0004         42.0004
 -14347007.22448 -11175099.76147  21840314.3004   21840320.6834   21840314.966
        49.0004         45.0004
  -8923067.03146  -6934663.74745  24102487.9274   24102497.6784   24102487.844
        39.0004         34.0004
     91971.62949     75010.10348  20234668.5114   20234674.2204   20234668.339
        54.0004         50.0004
 -11713866.63947  -9100240.78547  22544420.1054   22544427.7794   22544420.656
        47.0004         43.0004
 -12406419.84448  -9614163.54647  22455310.0934   22455314.7984   22455310.400
        48.0004         44.0004
  -8758089.24047  -6770701.04447  23404755.8614   23404763.8074   23404755.052
        47.0004         42.0004
 14  5 23  0 23  0.0000000  0 10G08G04G26G10G07G20G09G28G02G17
 -24826937.21248 -19304681.32948  20227247.3274   20227252.6334   20227247.414
        53.0004         48.0004
 -28454473.08048 -22118013.14248  20372818.5154   20372824.7174   20372818.219
        53.0004         49.0004
  -2030218.61347  -1557830.45546  24126345.9234   24126357.4014   24126345.338
        42.0004         38.0004
