     2.11           OBSERVATION DATA    G (GPS)             RINEX VERSION / TYPE
teqc  2013Mar15     gpsops              20140507 00:23:22UTCPGM / RUN BY / DATE
Linux 2.4.21-27.ELsmp|Opteron|gcc -static|Linux x86_64|=+   COMMENT
BIT 2 OF LLI FLAGS DATA COLLECTED UNDER A/S CONDITION       COMMENT
GLPS                                                        MARKER NAME
42005M002                                                   MARKER NUMBER
GGN                 JPL                                     OBSERVER / AGENCY
ZR220013847         ASHTECH UZ-12       CQ00                REC # / TYPE / VERS
CR519992104         ASH701945B_M    SCIT                    ANT # / TYPE
   -33801.4662 -6377516.5323   -82154.3508                  APPROX POSITION XYZ
        0.0083        0.0000        0.0000                  ANTENNA: DELTA H/E/N
     1     1                                                WAVELENGTH FACT L1/2
     7    L1    L2    P1    P2    C1    S1    S2            # / TYPES OF OBSERV
    30.0000                                                 INTERVAL
                                                            COMMENT
This data is provided as a public service by NASA/JPL.      COMMENT
No warranty is expressed or implied regarding suitability   COMMENT
for use.  For further information, contact:                 COMMENT
Dave Stowers, NASA/JPL m/s 238-600                          COMMENT
4800 Oak Grove Drive, Pasadena CA 91109 USA                 COMMENT
                                                            COMMENT
Forced Modulo Decimation to 30 seconds                      COMMENT
 SNR is mapped to RINEX snr flag value [0-9]                COMMENT
  L1 & L2: min(max(int(snr_dBHz/6), 0), 9)                  COMMENT
pseudorange smoothing corrections not applied               COMMENT
  2014     5     6     0     0    0.0000000     GPS         TIME OF FIRST OBS
                                                            END OF HEADER
 14  5  6  0  0  0.0000000  0 12G07G17G09G04G01G10G23G13G28G11G20G08
 -24122179.74249 -18766670.59748  20120554.4204   20120560.8784   20120554.042
        54.0004         50.0004
 -16982754.48948 -13184568.92347  22033958.0624   22033966.8634   22033957.536
        51.0004         46.0004
 -10291523.42448  -7998202.17348  20736094.5644   20736103.2734   20736094.476
        52.0004         48.0004
 -14678943.94147 -11391670.49847  22617788.1924   22617798.0594   22617788.965
        47.0004         42.0004
 -12632042.35147  -9801146.52447  22433494.5014   22433507.3544   22433494.137
        47.0004         43.0004
  -4927491.81646  -3830769.68546  24763061.4434   24763074.3384   24763063.570
        41.0004         36.0004
   1400824.36146   1147012.27845  25139150.4994   25139156.4704   25139148.920
        40.0004         35.0004
  -8319740.30947  -6430219.73146  22887203.8644   22887210.8684   22887202.576
        45.0004         40.0004
    760986.78747    592380.93146  24236795.3344   24236808.7744   24236796.524
        42.0004         38.0004
  -6206863.68947  -4810108.90746  24016255.4374   24016267.1254   24016254.598
        42.0004         38.0004
  -3635356.26147  -2781013.36846  23636137.0374   23636145.3974   23636137.581
        43.0004         38.0004
 -16439732.97848 -12805144.09148  20692463.9644   20692472.4624   20692463.863
        53.0004         48.0004
 14  5  6  0  0 30.0000000  0 12G07G17G09G04G01G10G23G13G28G11G20G08
 -24124820.58949 -18768728.33948  20120051.7924   20120057.6894   20120051.194
        54.0004         50.0004
 -16954178.39548 -13162301.85647  22039395.8954   22039404.9974   22039395.624
        51.0004         46.0004
 -10356250.32748  -8048638.57448  20723776.8974   20723786.0774   20723777.267
        52.0004         48.0004
 -14774342.60147 -11466006.99947  22599635.1214   22599643.4684   22599634.581
        47.0004         42.0004
 -12555823.85147  -9741755.55547  22447998.2764   22448012.1684   22447998.219
        47.0004         43.0004
  -4964306.04346  -3859455.94146  24756056.7134   24756067.6024   24756057.089
        41.0004         36.0004
   1482207.12446   1210427.54745  25154636.0564   25154643.3834   25154635.396
        40.0004         35.0004
  -8237572.82147  -6366193.08146  22902840.0164   22902846.7654   22902838.178
        45.0004         40.0004
    732389.03947    570097.11346  24231353.5514   24231366.6124   24231354.442
        43.0004         38.0004
  -6104552.64047  -4730386.00046  24035723.5284   24035736.8884   24035723.902
        42.0004         37.0004
  -3638713.62547  -2783629.44746  23635498.8454   23635508.8274   23635498.856
        43.0004         38.0004
 -16507729.32548 -12858128.12748  20679524.2114   20679532.7974   20679524.459
        53.0004         48.0004
 14  5  6  0  1  0.0000000  0 12G07G17G09G04G01G10G23G13G28G11G20G08
 -24126868.12749 -18770323.76548  20119662.0864   20119668.1564   20119661.518
        54.0004         50.0004
 -16925342.53248 -13139832.36047  22044883.0854   22044891.9324   22044882.598
        51.0004         46.0004
 -10420527.07648  -8098724.21248  20711545.5104   20711554.8164   20711545.440
        52.0004         48.0004
 -14869560.60847 -11540202.72247  22581515.6254   22581525.4604   22581515.563
        47.0004         43.0004
 -12479217.51047  -9682062.37147  22462577.4044   22462589.7414   22462576.540
        47.0004         43.0004
  -5001369.20846  -3888336.18346  24749004.8974   24749015.5634   24749003.473
        41.0004         36.0004
   1563368.02046   1273669.93946  25170079.3654   25170085.7214   25170079.391
        40.0004         36.0004
  -8155434.57647  -6302189.22346  22918471.2124   22918475.7714   22918469.127
        45.0004         41.0004
    703512.43447    547596.01246  24225858.9654   24225871.4804   24225859.573
        42.0004         38.0004
  -6002111.73947  -4650561.91146  24055219.4904   24055230.7064   24055217.834
        42.0004         37.0004
  -3641974.06947  -2786170.01746  23634878.1834   23634887.1134   23634878.438
        43.0004         39.0004
 -16575291.68548 -12910773.98948  20666667.3354   20666675.7084   20666667.546
        53.0004         48.0004
 14  5  6  0  1 30.0000000  0 12G07G17G09G04G01G10G23G13G28G11G20G08
 -24128321.77149 -18771456.41648  20119385.2824   20119391.3874   20119384.878
        54.0004         50.0004
 -16896248.86748 -13117161.98747  22050419.6934   22050428.2764   22050419.228
        51.0004         46.0004
 -10484351.09148  -8148457.06248  20699400.2614   20699408.4634   20699400.138
        52.0004         48.0004
 -14964595.30747 -11614255.61747  22563430.2154   22563439.6854   22563430.727
        47.0004         43.0004
 -12402225.39848  -9622068.57447  22477228.1024   22477240.8764   22477227.481
        48.0004         43.0004
  -5038681.67146  -3917410.66346  24741903.5834   24741915.2864   24741904.312
        41.0004         36.0004
   1644305.68446   1336738.36245  25185483.8924   25185487.4504   25185481.905
        40.0004         35.0004
  -8073328.09947  -6238210.12646  22934095.5334   22934099.6184   22934093.659
        45.0004         40.0004
    674357.54347    524878.07646  24220309.3214   24220324.8884   24220310.460
        42.0004         38.0004
  -5899543.63647  -4570638.69346  24074734.9334   24074748.2774   24074735.921
        42.0004         37.0004
  -3645135.62947  -2788633.50946  23634275.9194   23634287.4184   23634276.360
        43.0004         38.0004
 -16642416.87948 -12963079.21148  20653893.5774   20653902.7164   20653894.088
        53.0004         48.0004
 14  5  6  0  2  0.0000000  0 12G07G17G09G04G01G10G23G13G28G11G20G08
 -24129179.56249 -18772124.76648  20119222.1324   20119228.2434   20119221.594
        54.0004         50.0004
 -16866898.69048 -13094291.72947  22056003.9474   22056013.4914   22056004.158
        51.0004         46.0004
 -10547718.61248  -8197834.21848  20687341.7304   20687350.0534   20687341.703
        52.0004         48.0004
 -15059442.81447 -11688162.64047  22545382.9844   22545389.9264   22545382.052
        47.0004         43.0004
 -12324848.52247  -9561774.97147  22491952.1474   22491965.4664   22491951.755
        47.0004         43.0004
  -5076242.16646  -3946678.42746  24734755.4554   24734768.5504   24734756.442
        41.0004         36.0004
   1725019.97546   1399632.72245  25200839.5424   25200846.7804   25200841.020
        40.0004         35.0004
  -7991254.53247  -6174256.66546  22949711.5784   22949718.3344   22949711.110
        45.0004         40.0004
    644925.96647    501944.52246  24214709.9514   24214725.4534   24214710.044
        42.0004         38.0004
  -5796849.83047  -4490617.51346  24094277.4024   24094289.7854   24094277.740
        42.0004         37.0004
  -3648195.54047  -2791017.80646  23633694.6204   23633704.2514   23633694.169
        43.0004         38.0004
 -16709100.60148 -13015040.42948  20641204.0364   20641212.5474   20641204.420
        53.0004         48.0004
 14  5  6  0  2 30.0000000  0 12G07G17G09G04G01G10G23G13G28G11G20G08
 -24129443.54349 -18772330.40848  20119171.7894   20119177.6864   20119171.267
        54.0004         49.0004
 -16837296.95948 -13071225.46247  22061637.9254   22061647.0424   22061637.553
        51.0004         46.0004
 -10610629.29948  -8246855.39748  20675369.9604   20675378.9574   20675369.837
        52.0004         48.0004
 -15154102.85647 -11761923.60047  22527369.2784   22527377.0854   22527368.184
        47.0004         43.0004
 -12247091.50548  -9501185.15447  22506749.0964   22506761.7914   22506748.703
        48.0004         43.0004
  -5114053.53146  -3976141.67746  24727560.7424   24727573.1594   24727561.151
        41.0004         36.0004
   1805507.49646   1462350.38345  25216157.7394   25216166.7704   25216157.812
        40.0004         35.0004
  -7909218.88147  -6110332.74446  22965322.8534   22965329.5544   22965321.781
        45.0004         40.0004
    615215.50147    478793.67146  24209057.4924   24209070.6764   24209056.871
        42.0004         38.0004
  -5694035.28146  -4410502.25046  24113844.2124   24113855.1334   24113843.149
        41.0004         36.0004
  -3651154.35047  -2793323.33146  23633131.0284   23633139.4394   23633131.987
        43.0004         39.0004
 -16775342.40548 -13066657.29648  20628598.6934   20628607.1514   20628598.956
        53.0004         48.0004
 14  5  6  0  3  0.0000000  0 12G07G17G09G04G01G10G23G13G28G11G20G08
 -24129110.49049 -18772070.83148  20119235.3164   20119241.1404   20119234.644
        54.0004         50.0004
 -16807443.82848 -13047963.29247  22067318.6874   22067327.1564   22067317.943
        51.0004         46.0004
 -10673078.17448  -8295516.71848  20663486.3204   20663494.6604   20663486.191
        52.0004         48.0004
 -15248570.16547 -11835534.36647  22509392.0484   22509401.2654   22509392.245
        47.0004         43.0004
 -12168954.01747  -9440298.87247  22521617.8664   22521631.3494   22521617.412
        47.0004         43.0004
  -5152113.14046  -4005798.34746  24720317.0384   24720329.1144   24720318.601
        41.0004         37.0004
   1885769.32246   1524892.15946  25231430.8564   25231437.2034   25231430.813
        40.0004         36.0004
  -7827221.60347  -6046438.71946  22980925.7574   22980931.7284   22980925.559
        45.0004         40.0004
    585229.01747    455427.71746  24203349.6414   24203363.3094   24203350.430
        43.0004         38.0004
  -5591100.52846  -4330293.30446  24133432.1174   24133443.0084   24133430.807
        41.0004         36.0004
  -3654007.49847  -2795546.53646  23632588.9344   23632597.3764   23632588.633
        43.0004         39.0004
 -16841136.59848 -13117925.38048  20616078.4534   20616086.8544   20616078.643
        53.0004         48.0004
 14  5  6  0  3 30.0000000  0 12G07G17G09G04G01G10G23G13G28G11G20G08
 -24128182.74249 -18771347.85148  20119411.4694   20119417.9054   20119410.970
        54.0004         50.0004
 -16777344.45948 -13024509.25247  22073046.4164   22073054.5024   22073046.064
        51.0004         46.0004
 -10735065.53848  -8343818.42248  20651690.4404   20651699.2414   20651690.512
        52.0004         48.0004
 -15342845.00147 -11908995.16247  22491451.8224   22491461.0044   22491451.883
        47.0004         43.0004
 -12090441.01147  -9379119.96347  22536558.6594   22536571.9554   22536558.091
        47.0004         43.0004
  -5190423.91346  -4035650.73246  24713026.6914   24713038.7424   24713027.993
        41.0004         37.0004
   1965801.39346   1587254.85846  25246659.9414   25246668.2034   25246660.268
        41.0004         36.0004
  -7745267.68147  -5982578.47946  22996522.1294   22996527.6574   22996521.000
        45.0004         40.0004
    554964.13047    431844.83546  24197589.1704   24197602.8134   24197590.599
        43.0004         38.0004
  -5488050.64046  -4249994.62446  24153041.0704   24153053.8694   24153040.577
        41.0004         36.0004
  -3656756.05047  -2797688.20746  23632064.3004   23632074.6034   23632064.987
        43.0004         38.0004
 -16906482.83248 -13168844.39748  20603643.1804   20603651.7994   20603643.657
        53.0004         48.0004
 14  5  6  0  4  0.0000000  0 12G07G17G09G04G01G10G23G13G28G11G20G08
 -24126655.60049 -18770157.81648  20119702.2484   20119708.6194   20119701.670
        54.0004         50.0004
 -16746997.23648 -13000862.07647  22078821.6344   22078829.5784   22078821.100
        51.0004         46.0004
 -10796584.79948  -8391755.37448  20639983.7944   20639991.8454   20639983.804
        52.0004         48.0004
 -15436920.13347 -11982300.33547  22473550.1624   22473557.7894   22473549.951
        47.0004         43.0004
 -12011550.25047  -9317646.70747  22551571.0274   22551583.7894   22551570.832
        47.0004         42.0004
  -5228981.78546  -4065695.67646  24705690.6924   24705701.5184   24705689.625
        41.0004         36.0004
   2045607.02846   1649441.12545  25261846.9404   25261851.1984   25261846.624
        40.0004         35.0004
  -7663355.07147  -5918750.43246  23012108.4334   23012116.4364   23012108.533
        45.0004         40.0004
    524425.57447    408048.70946  24191779.8084   24191793.9994   24191779.383
        42.0004         38.0004
  -5384883.74946  -4169604.76646  24172672.8784   24172686.2634   24172672.555
        41.0004         36.0004
  -3659393.58647  -2799743.38546  23631563.6484   23631572.1544   23631563.364
        43.0004         38.0004
 -16971373.53748 -13219408.46448  20591294.7864   20591302.9874   20591295.171
        53.0004         48.0004
 14  5  6  0  4 30.0000000  0 12G07G17G09G04G01G10G23G13G28G11G20G08
 -24124531.51749 -18768502.63148  20120106.4254   20120112.6884   20120105.698
        54.0004         50.0004
 -16716407.82148 -12977026.17947  22084641.6404   22084651.0624   22084641.580
        51.0004         46.0004
 -10857636.07548  -8439327.66848  20628366.1094   20628374.4304   20628365.744
        52.0004         48.0004
 -15530795.87347 -12055450.14547  22455686.5954   22455694.6564   22455685.833
        47.0004         43.0004
 -11932286.90647  -9255883.12547  22566653.8754   22566667.8014   22566653.945
        47.0004         42.0004
  -5267789.87346  -4095935.56546  24698304.7594   24698315.8354   24698304.617
        41.0004         36.0004
   2125182.19046   1711447.77046  25276986.3594   25276997.5434   25276988.801
        40.0004         36.0004
  -7581489.02847  -5854958.68446  23027687.4844   23027692.8284   23027687.004
        44.0004         40.0004
    493610.96347    384037.49046  24185915.6104   24185928.8474   24185915.262
        43.0004         38.0004
  -5281605.80146  -4089128.39046  24192325.9424   24192337.8594   24192325.512
        41.0004         36.0004
  -3661921.27347  -2801712.98546  23631082.4724   23631091.7554   23631082.519
        43.0004         38.0004
 -17035808.85048 -13269617.67348  20579032.7114   20579041.4384   20579033.359
        53.0004         48.0004
 14  5  6  0  5  0.0000000  0 12G07G17G09G04G01G10G23G13G28G11G20G08
 -24121809.96049 -18766381.88548  20120624.1374   20120630.5114   20120624.057
        54.0004         49.0004
 -16685578.24148 -12953003.13247  22090509.2824   22090517.7484   22090508.425
        51.0004         46.0004
 -10918216.83448  -8486533.32348  20616837.8014   20616845.9104   20616837.388
        52.0004         48.0004
 -15624469.25248 -12128442.27647  22437858.6084   22437867.8114   22437860.689
        48.0004         43.0004
 -11852652.98547  -9193830.77747  22581808.6564   22581822.2734   22581807.705
        47.0004         42.0004
  -5306847.50546  -4126369.93346  24690872.3824   24690882.6654   24690872.065
        41.0004         36.0004
   2204525.89446   1773274.04046  25292086.3904   25292095.9384   25292087.710
        40.0004         36.0004
  -7499672.11647  -5791205.20446  23043257.0214   23043263.1864   23043255.685
        44.0004         40.0004
    462520.99147    359811.68146  24179998.1654   24180011.7774   24179999.150
        43.0004         38.0004
  -5178218.91246  -4008567.09846  24212000.3424   24212009.4394   24211999.271
        41.0004         36.0004
  -3664337.05847  -2803595.39746  23630621.9934   23630632.3304   23630622.757
        43.0004         38.0004
 -17099785.71548 -13319469.65548  20566858.4454   20566867.0554   20566858.755
        53.0004         48.0004
 14  5  6  0  5 30.0000000  0 11G07G17G09G04G01G10G13G28G11G20G08
 -24118487.88349 -18763793.19948  20121256.4504   20121262.5844   20121255.910
        54.0004         49.0004
 -16654508.86148 -12928793.23947  22096421.2174   22096429.7624   22096420.819
        51.0004         46.0004
 -10978322.10148  -8533368.46948  20605399.9014   20605407.8874   20605400.194
        53.0004         48.0004
 -15717935.34948 -12201272.88747  22420073.9714   22420081.6994   22420073.936
        48.0004         43.0004
 -11772648.53847  -9131489.71247  22597032.4204   22597045.7904   22597031.928
        47.0004         42.0004
  -5346152.76746  -4156997.24946  24683391.6394   24683404.5564   24683392.958
        41.0004         36.0004
  -7417904.52347  -5727490.14646  23058816.8104   23058824.1824   23058815.430
        44.0004         40.0004
    431158.17947    335373.29146  24174031.1384   24174043.4184   24174030.656
        43.0004         38.0004
  -5074723.42446  -3927921.18846  24231694.1474   24231704.5524   24231693.622
        41.0004         36.0004
  -3666636.85847  -2805387.40746  23630184.1724   23630194.3974   23630184.299
        43.0004         38.0004
 -17163298.43348 -13368959.96448  20554772.5294   20554780.8504   20554772.823
        53.0004         49.0004
 14  5  6  0  6  0.0000000  0 11G07G17G09G04G01G10G13G28G11G20G08
 -24114567.14049 -18760738.01848  20122002.2124   20122008.3324   20122001.870
        54.0004         49.0004
 -16623204.19148 -12904399.99947  22102378.2754   22102387.2754   22102377.940
        51.0004         46.0004
 -11037951.59348  -8579832.87648  20594052.3584   20594060.9394   20594052.533
        53.0004         48.0004
 -15811193.55848 -12273941.50447  22402328.3354   22402335.9474   22402327.786
        48.0004         43.0004
 -11692277.74047  -9068863.18247  22612327.2964   22612339.6004   22612326.183
        47.0004         42.0004
  -5385707.72546  -4187819.11746  24675865.8754   24675877.2084   24675865.817
        41.0004         36.0004
  -7336190.48947  -5663816.82146  23074365.3054   23074374.5714   23074365.129
        44.0004         40.0004
    399521.22747    310721.27646  24168009.9324   24168023.9264   24168010.221
        42.0004         38.0004
  -4971124.16446  -3847194.40746  24251408.1804   24251419.5794   24251407.897
        41.0004         36.0004
  -3668820.83447  -2807089.17546  23629769.4104   23629778.6104   23629769.250
        43.0004         39.0004
 -17226345.94948 -13418087.78148  20542774.8454   20542783.6324   20542775.267
        53.0004         49.0004
 14  5  6  0  6 30.0000000  0 11G07G17G09G04G01G10G13G28G11G20G08
 -24110047.69349 -18757216.31648  20122862.1764   20122868.5334   20122861.812
        54.0004         49.0004
 -16591667.05548 -12879825.62047  22108379.2904   22108388.8004   22108378.825
        51.0004         46.0004
 -11097102.99448  -8625924.74448  20582796.1844   20582804.6004   20582796.332
        53.0004         48.0004
 -15904241.01748 -12346445.90547  22384621.0444   22384629.5264   22384621.475
        48.0004         43.0004
 -11611543.00447  -9005953.06847  22627690.8274   22627702.6644   22627689.812
        47.0004         43.0004
  -5425512.66946  -4218835.78846  24668290.3374   24668301.5234   24668290.613
        41.0004         36.0004
  -7254532.71847  -5600187.35346  23089905.1914   23089912.1094   23089904.597
        44.0004         40.0004
    367610.11147    285855.62546  24161937.5494   24161950.9484   24161937.979
        42.0004         38.0004
  -4867423.93946  -3766388.92946  24271140.6864   24271153.4434   24271141.178
        41.0004         36.0004
  -3670887.38947  -2808699.45346  23629376.0124   23629385.4434   23629375.818
        43.0004         38.0004
 -17288925.66248 -13466851.07548  20530866.3814   20530874.8064   20530866.338
        53.0004         49.0004
 14  5  6  0  7  0.0000000  0 11G07G17G09G04G01G10G13G28G11G20G08
 -24104926.28949 -18753225.55448  20123837.0884   20123843.0634   20123836.507
        54.0004         49.0004
 -16559897.11048 -12855069.83547  22114425.6304   22114434.1844   22114424.402
        50.0004         46.0004
 -11155771.11448  -8671640.03348  20571631.9504   20571640.4384   20571631.919
        53.0004         48.0004
 -15997072.52648 -12418782.03847  22366956.5834   22366964.6444   22366955.936
        48.0004         43.0004
 -11530443.73947  -8942758.89647  22643122.8664   22643136.2074   22643122.200
        47.0004         42.0004
  -5465564.52446  -4250044.83846  24660668.1144   24660680.8444   24660668.843
        41.0004         36.0004
  -7172930.59847  -5536601.23246  23105432.4724   23105438.9324   23105432.870
        44.0004         39.0004
    335428.47447    260779.19946  24155813.7454   24155826.7244   24155813.899
        43.0004         38.0004
  -4763622.23046  -3685504.37646  24290893.4494   24290905.5724   24290893.504
        41.0004         36.0004
  -3672831.57447  -2810214.37346  23629004.7084   23629014.5114   23629006.142
        43.0004         38.0004
 -17351031.62648 -13515245.21748  20519048.1234   20519056.2464   20519048.119
        53.0004         49.0004
 14  5  6  0  7 30.0000000  0 11G07G17G09G04G01G10G13G28G11G20G08
 -24099206.52449 -18748768.53948  20124925.2594   20124931.2404   20124924.583
        54.0004         49.0004
 -16527900.76848 -12830137.62947  22120513.8954   22120523.0424   22120513.659
        51.0004         46.0004
 -11213957.51448  -8716979.95248  20560559.3884   20560567.8614   20560559.367
        53.0004         48.0004
 -16089689.16248 -12490950.72947  22349332.9044   22349340.4784   22349331.710
        48.0004         43.0004
 -11448986.13447  -8879285.50247  22658623.5324   22658636.8664   22658622.976
        47.0004         42.0004
  -5505867.72046  -4281449.75046  24652999.2564   24653009.9954   24652998.827
        41.0004         36.0004
  -7091390.58747  -5473063.51646  23120948.8194   23120956.7054   23120949.583
        44.0004         39.0004
    302972.89347    235489.29646  24149637.1224   24149649.7984   24149637.447
        43.0004         38.0004
  -4659725.67546  -3604545.92746  24310664.0794   24310678.0204   24310664.206
        41.0004         36.0004
  -3674655.51047  -2811635.59146  23628658.7514   23628667.4074   23628659.019
        43.0004         38.0004
 -17412664.81848 -13563270.95848  20507319.1914   20507328.0104   20507319.540
        53.0004         49.0004
 14  5  6  0  8  0.0000000  0 11G07G17G09G04G01G10G13G28G11G20G08
 -24092884.32449 -18743842.09148  20126128.3794   20126134.5204   20126127.687
        54.0004         49.0004
 -16495676.93648 -12805028.16647  22126646.2944   22126654.6424   22126645.516
        51.0004         46.0004
 -11271655.95448  -8761939.64548  20549579.8394   20549588.3324   20549579.794
        53.0004         48.0004
 -16182084.30848 -12562946.83547  22331749.3644   22331757.9334   22331749.478
        48.0004         43.0004
 -11367168.72047  -8815531.74547  22674193.9304   22674206.4774   22674192.466
        47.0004         42.0004
  -5546418.11746  -4313047.28846  24645283.4344   24645293.0864   24645282.170
        41.0004         37.0004
  -7009911.14547  -5409572.98646  23136454.6764   23136462.4734   23136454.398
        44.0004         40.0004
    270247.49647    209989.15146  24143409.9464   24143423.2834   24143409.881
        43.0004         38.0004
  -4555733.14946  -3523512.63646  24330454.3604   24330465.7544   24330453.458
        40.0004         36.0004
  -3676353.58247  -2812958.74546  23628335.7824   23628344.0504   23628336.146
        43.0004         38.0004
 -17473818.72248 -13610923.23548  20495682.2064   20495690.1984   20495682.526
        53.0004         49.0004
 14  5  6  0  8 30.0000000  0 11G07G17G09G04G01G10G13G28G11G20G08
 -24085961.74849 -18738447.82248  20127445.3464   20127451.7704   20127444.793
        54.0004         49.0004
 -16463230.02048 -12779744.87447  22132820.0084   22132829.1584   22132819.677
        51.0004         46.0004
 -11328866.08148  -8806518.83448  20538693.0624   20538701.3334   20538693.052
        53.0004         48.0004
 -16274257.45748 -12634769.95947  22314209.7524   22314216.3474   22314208.481
        48.0004         43.0004
 -11284995.89447  -8751501.03247  22689830.7374   22689843.5354   22689829.681
        47.0004         42.0004
  -5587217.79346  -4344839.06746  24637519.2804   24637530.8074   24637518.945
        41.0004         37.0004
  -6928496.70147  -5346133.10746  23151947.5374   23151955.4314   23151946.958
        44.0004         40.0004
    237250.90847    184277.67946  24137130.4304   24137143.2244   24137130.678
        43.0004         38.0004
  -4451649.36946  -3442408.26946  24350258.9774   24350273.5444   24350259.314
        41.0004         36.0004
  -3677926.01147  -2814183.98046  23628035.7414   23628044.4774   23628036.335
        43.0004         38.0004
 -17534492.27148 -13658201.20548  20484136.0694   20484144.7684   20484136.139
        53.0004         49.0004
 14  5  6  0  9  0.0000000  0 11G07G17G09G04G01G10G13G28G11G20G08
 -24078438.09649 -18732585.17948  20128877.2334   20128883.3684   20128876.782
        54.0004         49.0004
 -16430562.67448 -12754289.81047  22139036.5074   22139045.8134   22139035.973
        51.0004         46.0004
 -11385585.16848  -8850715.40148  20527899.5004   20527907.6624   20527899.834
        53.0004         48.0004
 -16366205.50048 -12706417.68947  22296711.9534   22296720.4074   22296711.697
        48.0004         43.0004
 -11202469.59647  -8687194.88747  22705534.9204   22705547.2404   22705534.338
        47.0004         42.0004
  -5628266.39547  -4376824.82646  24629706.3324   24629719.0194   24629707.445
        42.0004         37.0004
  -6847149.54347  -5282745.65946  23167427.3204   23167434.7534   23167426.865
        44.0004         39.0004
    203984.01947    158355.60246  24130800.4694   24130813.5974   24130799.958
        43.0004         39.0004
  -4347476.70046  -3361234.61846  24370082.6664   24370096.4104   24370082.854
        41.0004         36.0004
  -3679370.59547  -2815309.59946  23627761.1154   23627770.2124   23627761.524
        43.0004         38.0004
 -17594682.16948 -13705102.31048  20472682.2134   20472690.5434   20472682.456
        53.0004         49.0004
 14  5  6  0  9 30.0000000  0 11G07G17G09G04G01G10G13G28G11G20G08
 -24070313.89149 -18726254.57348  20130423.4924   20130429.4324   20130422.709
        54.0004         49.0004
 -16397677.96448 -12728665.37547  22145294.5464   22145303.6334   22145294.144
        51.0004         46.0004
 -11441811.53448  -8894528.02448  20517199.9004   20517208.0584   20517199.733
        53.0004         48.0004
 -16457926.34648 -12777888.36347  22279257.6524   22279266.6524   22279257.713
        48.0004         43.0004
 -11119592.71347  -8622615.55547  22721305.8994   22721318.2724   22721305.310
        47.0004         42.0004
  -5669564.38347  -4409004.89746  24621849.6274   24621860.2604   24621849.559
        42.0004         37.0004
  -6765872.41947  -5219412.77146  23182893.9304   23182900.7814   23182893.042
        44.0004         39.0004
    170446.70847    132222.81346  24124418.7384   24124430.5964   24124418.087
        43.0004         39.0004
  -4243217.95246  -3279993.90046  24389922.9564   24389935.7334   24389922.347
        41.0004         36.0004
  -3680686.36047  -2816334.85746  23627510.7734   23627519.6284   23627510.902
        43.0004         38.0004
 -17654386.05348 -13751624.70848  20461320.5224   20461329.3954   20461321.124
        53.0004         49.0004
 14  5  6  0 10  0.0000000  0 11G07G17G09G04G01G10G13G28G11G20G08
 -24061585.16449 -18719452.91248  20132084.1544   20132090.1564   20132083.647
        54.0004         49.0004
 -16364574.62348 -12702870.58547  22151593.7964   22151603.5864   22151593.285
        51.0004         46.0004
 -11497539.09148  -8937951.96848  20506595.1334   20506603.4324   20506595.172
        53.0004         48.0004
 -16549413.50048 -12849176.94147  22261849.4274   22261855.7724   22261848.342
        48.0004         43.0004
 -11036363.79247  -8557761.91247  22737143.1514   22737156.5724   22737143.081
        47.0004         42.0004
  -5711107.98047  -4441376.34646  24613942.5384   24613953.4764   24613943.032
        42.0004         37.0004
  -6684663.76047  -5156133.24546  23198347.1354   23198354.4414   23198346.942
        44.0004         39.0004
    136643.47547    105882.81346  24117985.2334   24117998.9544   24117985.405
        43.0004         38.0004
  -4138872.10246  -3198685.29746  24409778.0044   24409793.6134   24409778.361
        41.0004         36.0004
  -3681867.34247  -2817255.09046  23627286.1964   23627294.8974   23627287.037
        43.0004         38.0004
 -17713597.62148 -13797763.47748  20450053.1364   20450061.5654   20450053.746
        53.0004         49.0004
 14  5  6  0 10 30.0000000  0 11G07G17G09G04G01G10G13G28G11G20G08
 -24052256.84849 -18712184.04148  20133859.2254   20133865.0784   20133858.797
        54.0004         49.0004
 -16331260.22848 -12676911.32447  22157933.5604   22157942.5814   22157932.630
        50.0004         46.0004
 -11552770.65748  -8980989.42448  20496084.9894   20496092.9284   20496084.930
        53.0004         48.0004
 -16640669.32748 -12920285.27547  22244482.8014   22244490.9194   22244483.101
        48.0004         43.0004
 -10952790.19447  -8492639.69547  22753046.9994   22753060.1074   22753046.547
        47.0004         42.0004
  -5752902.21447  -4473943.09846  24605988.8294   24606001.8334   24605989.357
        42.0004         37.0004
  -6603531.22247  -5092913.03046  23213785.2064   23213793.1884   23213785.067
        44.0004         39.0004
    102569.70147     79331.98846  24111500.4794   24111516.5114   24111500.899
        43.0004         38.0004
  -4034446.78846  -3117314.75145  24429647.9794   24429662.2284   24429649.671
        40.0004         35.0004
  -3682916.85647  -2818072.87346  23627086.4004   23627096.2424   23627086.803
        43.0004         39.0004
 -17772318.75648 -13843520.09348  20438879.1954   20438887.1334   20438879.309
        53.0004         49.0004
 14  5  6  0 11  0.0000000  0 11G07G17G09G04G01G10G13G28G11G20G08
 -24042317.39849 -18704438.95648  20135750.5574   20135756.6414   20135750.336
        54.0004         49.0004
 -16297725.96548 -12650780.74847  22164315.4044   22164323.6074   22164314.375
        50.0004         46.0004
 -11607492.30148  -9023629.53748  20485671.8024   20485679.6664   20485671.611
        53.0004         48.0004
 -16731679.61948 -12991202.26947  22227163.4934   22227172.1184   22227163.989
        48.0004         43.0004
 -10868862.77647  -8427241.77547  22769017.6624   22769030.2014   22769017.647
        46.0004         42.0004
  -5794935.38747  -4506696.04946  24597989.7054   24598001.2364   24597990.406
        42.0004         37.0004
  -6522465.33247  -5029744.75146  23229210.9594   23229219.9244   23229211.607
        44.0004         39.0004
     68237.71847     52579.96846  24104967.8944   24104981.3604   24104968.282
        43.0004         39.0004
  -3929933.12646  -3035875.40845  24449538.7984   24449550.2774   24449538.182
        40.0004         35.0004
  -3683821.41747  -2818777.70646  23626915.3134   23626924.0724   23626915.434
        43.0004         39.0004
 -17830535.16248 -13888883.41348  20427800.6024   20427808.8524   20427800.663
        53.0004         49.0004
 14  5  6  0 11 30.0000000  0 11G07G17G09G04G01G10G13G28G11G20G08
 -24031784.60649 -18696231.52948  20137754.8754   20137761.0254   20137754.328
        54.0004         49.0004
 -16263992.05348 -12624494.59947  22170734.4824   22170742.8134   22170733.831
        50.0004         46.0004
 -11661719.52848  -9065884.39248  20475352.1524   20475360.7514   20475352.071
        53.0004         48.0004
 -16822459.37748 -13061939.63347  22209891.0574   22209896.9294   22209888.907
        48.0004         44.0004
 -10784601.68147  -8361583.83046  22785052.2514   22785065.7524   22785051.801
        46.0004         41.0004
  -5837225.23847  -4539648.99946  24589943.9164   24589955.5034   24589943.706
        42.0004         37.0004
  -6441486.02147  -4966643.92546  23244621.4014   23244629.2534   23244621.421
        44.0004         39.0004
     33630.22347     25613.26246  24098381.8484   24098394.1384   24098382.534
        43.0004         39.0004
  -3825351.21046  -2954382.82745  24469439.8184   24469451.6354   24469438.883
        40.0004         35.0004
  -3684596.80547  -2819381.88646  23626767.6294   23626776.5814   23626766.985
        43.0004         38.0004
 -17888261.77148 -13933865.07548  20416815.3004   20416823.7724   20416815.434
        53.0004         49.0004
 14  5  6  0 12  0.0000000  0 11G07G17G09G04G01G10G13G28G11G20G08
 -24020649.94349 -18687555.11348  20139873.6794   20139879.6554   20139873.352
        54.0004         49.0004
 -16230052.98248 -12598048.58547  22177192.5314   22177201.6574   22177192.326
        50.0004         46.0004
 -11715441.99848  -9107745.92748  20465129.4084   20465137.2464   20465129.089
        53.0004         48.0004
 -16912997.58448 -13132488.77747  22192661.1974   22192668.4164   22192660.499
        48.0004         44.0004
 -10700001.01547  -8295661.29346  22801151.1184   22801163.3774   22801150.318
        46.0004         41.0004
  -5879763.59247  -4572795.58846  24581849.5184   24581859.3044   24581848.515
        42.0004         37.0004
  -6360587.74847  -4903606.25646  23260017.4114   23260022.7224   23260016.034
        44.0004         39.0004
     -1243.96347     -1561.24646  24091745.8564   24091758.2334   24091746.038
        43.0004         39.0004
  -3720695.34746  -2872832.63445  24489354.0814   24489368.5794   24489354.115
        40.0004         35.0004
  -3685232.67947  -2819877.36246  23626646.0364   23626654.9864   23626646.964
        43.0004         39.0004
 -17945487.43948 -13978456.39148  20405925.5694   20405933.6604   20405925.318
        53.0004         49.0004
 14  5  6  0 12 30.0000000  0 11G07G17G09G04G01G10G13G28G11G20G08
 -24008910.65849 -18678407.56148  20142107.3604   20142112.9914   20142107.234
        54.0004         49.0004
 -16195907.68348 -12571441.87047  22183689.9854   22183699.2624   22183689.721
        50.0004         46.0004
 -11768654.21248  -9149209.86648  20455003.3084   20455011.2484   20455003.183
        53.0004         48.0004
 -17003288.42648 -13202845.17847  22175479.2544   22175486.2334   22175478.123
        48.0004         44.0004
 -10615060.05247  -8229473.60346  22817315.3404   22817328.4704   22817314.618
        46.0004         41.0004
  -5922547.13047  -4606133.23446  24573706.9664   24573719.4864   24573707.335
        42.0004         37.0004
  -6279769.27947  -4840630.75846  23275395.0684   23275404.7024   23275395.181
        44.0004         39.0004
    -36380.81247    -28940.43146  24085059.1644   24085072.9464   24085059.355
        43.0004         39.0004
  -3615965.33846  -2791224.65545  24509284.1364   24509297.5484   24509283.938
        39.0004         34.0004
  -3685725.13347  -2820261.07646  23626551.3824   23626561.0854   23626552.128
        43.0004         38.0004
 -18002206.18548 -14022652.71448  20395132.2294   20395140.3314   20395132.423
        53.0004         49.0004
 14  5  6  0 13  0.0000000  0 11G07G17G09G04G01G10G13G28G11G20G08
 -23996570.37849 -18668791.70648  20144455.8884   20144461.9724   20144455.429
        54.0004         49.0004
 -16161562.88948 -12544679.70747  22190226.0304   22190235.2874   22190225.311
        50.0004         46.0004
 -11821357.45848  -9190277.20948  20444974.1464   20444981.8604   20444974.147
        53.0004         48.0004
 -17093332.67548 -13273009.41347  22158344.8684   22158351.3764   22158343.988
        48.0004         44.0004
 -10529784.65347  -8163025.31246  22833542.2654   22833555.6414   22833542.416
        46.0004         41.0004
  -5965579.20947  -4639664.56146  24565516.6204   24565528.6464   24565518.622
        42.0004         37.0004
  -6199036.36247  -4777721.92646  23290758.2304   23290765.6974   23290758.546
        44.0004         39.0004
    -71783.25747    -56526.57146  24078322.7314   24078334.7284   24078322.325
        43.0004         39.0004
  -3511167.10346  -2709563.52545  24529224.2924   24529240.3154   24529225.974
        39.0004         34.0004
  -3686075.65347  -2820534.20046  23626485.6624   23626495.4514   23626486.314
        43.0004         38.0004
 -18058418.77748 -14066454.62348  20384435.4124   20384443.5644   20384435.540
        53.0004         49.0004
 14  5  6  0 13 30.0000000  0 11G07G17G09G04G01G10G13G28G11G20G08
 -23983627.75449 -18658706.49048  20146918.7034   20146924.6004   20146918.452
        54.0004         49.0004
 -16127020.26948 -12517763.38547  22196798.7574   22196807.7914   22196798.620
        50.0004         46.0004
 -11873548.62248  -9230945.52448  20435042.4064   20435050.2064   20435042.406
        53.0004         48.0004
 -17183126.80948 -13342978.76247  22141256.5554   22141264.4814   22141256.240
        49.0004         44.0004
 -10444176.23447  -8096317.52246  22849833.2894   22849846.4654   22849833.035
        46.0004         41.0004
  -6008858.70247  -4673388.65746  24557281.5424   24557291.1454   24557282.505
        42.0004         37.0004
  -6118390.58647  -4714881.01246  23306104.7394   23306112.0354   23306104.107
        43.0004         39.0004
   -107449.90347    -84318.57246  24071534.4554   24071548.1844   24071534.788
        43.0004         39.0004
  -3406302.12646  -2627850.34245  24549180.7384   24549193.5024   24549181.081
        38.0004         33.0004
  -3686280.59747  -2820693.88546  23626445.4474   23626455.8394   23626446.695
        43.0004         38.0004
 -18114121.35748 -14109859.13048  20373835.8134   20373843.1824   20373835.893
        53.0004         49.0004
 14  5  6  0 14  0.0000000  0 11G07G17G09G04G01G10G13G28G11G20G08
 -23970082.45549 -18648151.65448  20149496.1064   20149502.0524   20149495.769
        54.0004         49.0004
 -16092281.46648 -12490694.19247  22203409.1784   22203418.7904   22203409.244
        50.0004         46.0004
 -11925224.88548  -9271212.62148  20425208.6504   20425216.7694   20425208.684
        53.0004         49.0004
 -17272667.24948 -13412750.42747  22124217.0524   22124226.0304   22124217.186
        49.0004         44.0004
 -10358236.58847  -8029351.63746  22866186.8574   22866200.4304   22866186.856
        46.0004         41.0004
  -6052384.78747  -4707304.91746  24549000.7654   24549009.0404   24548999.348
        42.0004         37.0004
  -6037833.61747  -4652109.28446  23321434.2054   23321441.5814   23321433.741
        43.0004         39.0004
   -143379.13047   -112315.20346  24064697.5524   24064711.6664   24064697.868
        43.0004         39.0004
  -3301372.43346  -2546086.74445  24569147.9574   24569161.9014   24569148.926
        38.0004         33.0004
  -3686338.15647  -2820738.71646  23626434.9934   23626444.7094   23626435.613
        43.0004         38.0004
 -18169310.69648 -14152863.69748  20363333.2624   20363341.4974   20363333.150
        53.0004         49.0004
 14  5  6  0 14 30.0000000  0 11G07G17G09G04G01G10G13G28G11G20G08
 -23955933.65349 -18637126.55648  20152188.5144   20152194.2654   20152188.056
        54.0004         49.0004
 -16057347.94348 -12463473.27547  22210057.8094   22210066.8924   22210057.330
        50.0004         46.0004
 -11976382.91948  -9311075.89648  20415473.4024   20415481.5824   20415473.551
        53.0004         48.0004
 -17361950.44048 -13482321.63147  22107227.3424   22107235.0814   22107227.547
        49.0004         44.0004
 -10271967.00347  -7962128.65246  22882604.4984   22882617.0064   22882602.959
        46.0004         41.0004
  -6096156.18547  -4741412.34146  24540669.3614   24540680.1144   24540669.386
        42.0004         37.0004
  -5957366.13947  -4589407.29146  23336746.8194   23336753.1134   23336745.630
        43.0004         38.0004
   -179569.39947   -140515.24146  24057810.1844   24057822.9034   24057810.964
        44.0004         39.0004
                  -2464273.61045                  24589138.5894   24589128.102
                        32.0004
  -3686245.01047  -2820666.13446  23626453.2844   23626461.7034   23626454.069
        43.0004         38.0004
 -18223982.90149 -14195465.31348  20352929.5624   20352937.4044   20352929.699
        54.0004         49.0004
 14  5  6  0 15  0.0000000  0 11G07G17G09G04G01G10G13G28G11G20G08
 -23941184.06049 -18625633.31248  20154995.2174   20155001.3834   20154994.683
        54.0004         49.0004
 -16022225.42148 -12436105.08447  22216741.0824   22216749.6354   22216740.769
        50.0004         46.0004
 -12027023.42148  -9350535.90748  20405836.4154   20405844.5194   20405836.763
        53.0004         49.0004
 -17450976.36448 -13551692.38447  22090286.0884   22090294.4434   22090286.407
        49.0004         44.0004
 -10185372.68847  -7894652.62846  22899082.2064   22899095.9804   22899081.684
        46.0004         41.0004
  -6140175.30447  -4775712.77946  24532294.0814   24532303.8214   24532293.166
        42.0004         37.0004
  -5876993.24347  -4526779.00046  23352040.3654   23352047.8714   23352040.405
        43.0004         39.0004
   -216022.40947   -168920.01246  24050873.3784   24050886.2124   24050873.811
        43.0004         39.0004
                                                                  24609118.663

  -3686002.31547  -2820477.01846  23626498.3054   23626508.4184   23626499.361
        43.0004         38.0004
 -18278137.96849 -14237663.95948  20342623.7224   20342631.9164   20342624.099
        54.0004         49.0004
 14  5  6  0 15 30.0000000  0 11G07G17G09G04G01G10G13G28G11G20G08
 -23925832.12449 -18613670.70948  20157916.2814   20157922.2534   20157916.025
        54.0004         49.0004
 -15986914.13448 -12408589.79947  22223460.3334   22223469.8524   22223460.168
        50.0004         46.0004
 -12077142.56948  -9389589.66748  20396299.6754   20396307.5434   20396299.513
        53.0004         49.0004
 -17539740.39548 -13620859.05247  22073395.6404   22073403.0124   22073394.622
        49.0004         44.0004
 -10098454.13447  -7826923.95046  22915622.4594   22915636.3774   22915621.985
        46.0004         41.0004
  -6184440.01547  -4810204.59246  24523871.4424   24523880.3904   24523868.896
        42.0004         37.0004
  -5796715.40447  -4464224.77846  23367316.9144   23367323.6684   23367316.425
        43.0004         38.0004
   -252735.67447   -197527.59446  24043885.6794   24043899.6714   24043887.632
        43.0004         38.0004
                                                                  24629119.872

  -3685606.24647  -2820168.39746  23626574.6954   23626582.6674   23626575.152
        43.0004         38.0004
 -18331771.27449 -14279456.04348  20332418.1334   20332425.6974   20332418.261
        54.0004         49.0004
 14  5  6  0 16  0.0000000  0 11G07G17G09G04G01G10G13G28G11G20G08
 -23909878.17249 -18601239.00148  20160952.7684   20160958.2764   20160952.152
        54.0004         49.0004
 -15951416.96348 -12380929.66747  22230214.9384   22230224.2704   22230214.928
        50.0004         46.0004
 -12126738.26548  -9428235.53948  20386861.2754   20386869.3454   20386861.490
        53.0004         49.0004
 -17628240.02048 -13689819.69047  22056554.1404   22056561.4844   22056553.775
        49.0004         44.0004
 -10011214.04647  -7758944.74747  22932223.6834   22932237.1334   22932223.145
        46.0004         42.0004
  -6228950.55547  -4844887.95446  24515399.4384   24515410.5704   24515399.310
        42.0004         37.0004
  -5716534.84747  -4401746.36746  23382574.8554   23382580.5744   23382575.028
        43.0004         39.0004
   -289708.75847   -226337.62246  24036851.7274   24036863.9844   24036851.766
        43.0004         38.0004
                                                                  24649131.566

  -3685055.08347  -2819738.91946  23626679.4154   23626688.7024   23626679.381
        43.0004         38.0004
 -18384880.27749 -14320839.57848  20322311.1844   20322319.5014   20322311.476
        54.0004         49.0004
 14  5  6  0 16 30.0000000  0 11G07G17G09G04G01G10G13G28G11G20G08
 -23893321.13749 -18588337.36448  20164103.1564   20164108.9144   20164102.716
        54.0004         49.0004
 -15915735.32648 -12353125.80247  22237005.1864   22237014.3324   22237004.723
        50.0004         46.0004
 -12175806.98148  -9466470.78048  20377524.1204   20377531.5234   20377523.772
        53.0004         49.0004
 -17716471.12648 -13758571.09847  22039764.0664   22039771.1494   22039763.710
        49.0004         44.0004
  -9923653.44547  -7690715.78246  22948886.2064   22948899.6944   22948885.322
        46.0004         41.0004
  -6273705.27347  -4879761.58146  24506883.1714   24506894.2714   24506882.798
        42.0004         37.0004
  -5636452.32547  -4339344.34546  23397814.0804   23397820.3394   23397814.138
        43.0004         39.0004
   -326939.49847   -255348.42846  24029766.4984   24029779.8334   24029766.773
        43.0004         39.0004
                                                                  24669153.026

  -3684345.93247  -2819186.34546  23626814.7974   23626823.7334   23626815.385
        42.0004         38.0004
 -18437461.12149 -14361811.56648  20312305.4584   20312313.3234   20312306.018
        54.0004         49.0004
 14  5  6  0 17  0.0000000  0 11G07G17G09G04G01G10G13G28G11G20G08
 -23876163.90449 -18574968.03848  20167368.0984   20167373.9284   20167367.749
        54.0004         49.0004
 -15879874.42448 -12325182.24347  22243828.8024   22243838.2044   22243828.824
        50.0004         46.0004
 -12224349.44548  -9504295.95748  20368286.5674   20368294.4244   20368286.523
        53.0004         49.0004
 -17804433.42848 -13827113.04747  22023025.9264   22023032.3344   22023025.164
        49.0004         45.0004
  -9835777.35547  -7622240.97546  22965609.2114   22965622.4694   22965607.873
        46.0004         41.0004
  -6318706.46747  -4914827.26746  24498317.3294   24498330.0124   24498319.466
        42.0004         37.0004
  -5556472.51047  -4277022.34946  23413034.0184   23413041.3624   23413034.338
        43.0004         39.0004
   -364429.50447   -284561.26046  24022632.9864   24022645.5444   24022632.767
        43.0004         38.0004
                                                                  24689185.233

  -3683479.10347  -2818510.90746  23626978.8094   23626989.7214   23626979.685
        42.0004         37.0004
 -18489513.60349 -14402371.83348  20302400.4084   20302407.8964   20302400.302
        54.0004         49.0004
 14  5  6  0 17 30.0000000  0 10G07G17G09G04G01G10G13G28G20G08
 -23858405.37749 -18561130.17148  20170747.3434   20170753.1904   20170746.679
        54.0004         49.0004
 -15843835.65448 -12297100.09747  22250687.2954   22250696.2244   22250686.797
        50.0004         46.0004
 -12272362.47248  -9541708.58948  20359150.1874   20359157.7144   20359150.050
        53.0004         49.0004
 -17892123.47448 -13895442.85447  22006338.0094   22006345.7114   22006337.979
        49.0004         44.0004
  -9747587.07647  -7553521.35546  22982390.6384   22982404.2934   22982389.800
        46.0004         41.0004
  -6363952.77047  -4950083.94446  24489708.0264   24489718.9874   24489709.145
        42.0004         38.0004
  -5476596.42547  -4214781.19246  23428234.7314   23428240.3394   23428233.853
        43.0004         39.0004
   -402176.87047   -313974.64346  24015448.4894   24015460.7274   24015448.950
        43.0004         39.0004
  -3682452.00747  -2817710.57746  23627175.3234   23627183.3354   23627175.560
        42.0004         38.0004
 -18541033.78349 -14442517.33048  20292596.0324   20292603.9354   20292596.713
        54.0004         49.0004
 14  5  6  0 18  0.0000000  0 10G07G17G09G04G01G10G13G28G20G08
 -23840043.89649 -18546822.47248  20174241.6464   20174247.0924   20174241.134
        54.0004         49.0004
 -15807619.97048 -12268880.08947  22257578.9344   22257588.0914   22257578.673
        50.0004         46.0004
 -12319842.04248  -9578705.53648  20350114.7884   20350122.5914   20350114.740
        53.0004         49.0004
 -17979536.29848 -13963556.63947  21989703.7284   21989711.2814   21989703.632
        49.0004         44.0004
  -9659083.05647  -7484557.25846  22999232.4384   22999245.7854   22999232.028
        46.0004         41.0004
  -6409441.85147  -4985529.80046  24481050.7174   24481063.0594   24481052.730
        42.0004         37.0004
  -5396824.29047  -4152621.02946  23443414.2424   23443419.6824   23443414.338
        43.0004         39.0004
   -440178.77047   -343586.37646  24008217.0474   24008230.1284   24008217.497
        43.0004         39.0004
  -3681260.73147  -2816782.31546  23627400.6004   23627410.4494   23627402.282
        42.0004         37.0004
 -18592017.04249 -14482244.44448  20282894.2594   20282902.1224   20282894.431
        54.0004         49.0004
 14  5  6  0 18 30.0000000  0 10G07G17G09G04G01G10G13G28G20G08
 -23821082.89249 -18532047.60848  20177849.3824   20177855.1894   20177849.198
        54.0004         49.0004
 -15771232.03348 -12240525.86647  22264502.6804   22264512.6634   22264502.621
        50.0004         46.0004
 -12366788.85948  -9615287.35748  20341181.3834   20341188.8864   20341180.906
        53.0004         49.0004
 -18066672.04448 -14031454.52247  21973123.1704   21973129.9854   21973122.536
        49.0004         44.0004
  -9570270.48347  -7415352.74346  23016132.1824   23016146.1624   23016131.928
        46.0004         41.0004
  -6455176.11647  -5021166.69646  24472348.4454   24472360.2104   24472348.939
        42.0004         37.0004
  -5317160.91547  -4090545.60846  23458574.0854   23458580.7824   23458573.246
        43.0004         39.0004
   -478437.19447   -373398.00146  24000936.5864   24000949.7744   24000937.474
        43.0004         39.0004
  -3679906.11547  -2815726.79346  23627660.0924   23627668.1434   23627659.708
        42.0004         37.0004
 -18642463.71049 -14521553.43848  20273294.5964   20273302.1614   20273294.941
        54.0004         49.0004
 14  5  6  0 19  0.0000000  0 10G07G17G09G04G01G10G13G28G20G08
 -23801521.28149 -18516804.74348  20181572.0114   20181577.5244   20181571.477
        54.0004         49.0004
 -15734673.42648 -12212038.64747  22271460.8774   22271469.3784   22271459.901
        50.0004         46.0004
 -12413199.69348  -9651451.53048  20332349.1994   20332356.7994   20332349.194
        53.0004         49.0004
 -18153526.55648 -14099133.26447  21956594.6724   21956602.5444   21956594.455
        49.0004         45.0004
  -9481150.57847  -7345908.73146  23033091.0324   23033105.7784   23033090.987
        46.0004         41.0004
  -6501154.10947  -5056993.50046  24463599.5204   24463610.1644   24463599.500
        42.0004         38.0004
  -5237607.01447  -4028555.49546  23473713.3324   23473718.7914   23473712.123
        43.0004         38.0004
   -516950.06247   -403407.87346  23993607.9104   23993621.4964   23993608.311
        43.0004         39.0004
  -3678385.11347  -2814541.58946  23627948.9584   23627956.5174   23627948.962
        42.0004         37.0004
 -18692370.13949 -14560441.46548  20263797.7444   20263805.3974   20263797.637
        54.0004         49.0004
 14  5  6  0 19 30.0000000  0 10G07G17G09G04G01G10G13G28G20G08
 -23781360.71149 -18501095.15348  20185408.4454   20185413.7544   20185408.030
        54.0004         49.0004
 -15697947.87248 -12183421.34247  22278448.9254   22278458.0084   22278448.594
        50.0004         46.0004
 -12459073.82148  -9687197.49048  20323619.7624   20323627.1334   20323619.673
        53.0004         49.0004
 -18240098.58348 -14166591.88247  21940119.6334   21940127.7744   21940119.999
        49.0004         44.0004
  -9391727.06247  -7276228.15646  23050108.6014   23050121.8904   23050107.990
        46.0004         41.0004
  -6547376.69447  -5093010.92146  24454803.2724   24454814.1414   24454803.757
        42.0004         38.0004
  -5158166.02747  -3966653.36246  23488828.2034   23488835.4154   23488828.452
        43.0004         38.0004
   -555717.51447   -433616.14946  23986230.8504   23986243.2164   23986231.021
        43.0004         39.0004
  -3676696.95647  -2813226.16246  23628269.8144   23628279.3444   23628270.488
        42.0004         37.0004
 -18741734.74349 -14598907.29048  20254403.8424   20254411.6084   20254404.101
        54.0004         49.0004
 14  5  6  0 20  0.0000000  0 10G07G17G09G04G01G10G13G28G20G08
 -23760597.34849 -18484915.85848  20189359.5454   20189364.8944   20189358.986
        54.0004         49.0004
 -15661053.90348 -12154672.80547  22285469.5044   22285478.0884   22285469.350
        50.0004         46.0004
 -12504404.86448  -9722520.27048  20314993.3384   20315000.9054   20314993.186
        53.0004         49.0004
 -18326380.88448 -14233824.74047  21923700.8884   21923709.2634   21923701.112
        49.0004         45.0004
  -9301998.07547  -7206309.53946  23067183.7024   23067197.6944   23067182.771
        46.0004         41.0004
  -6593839.14447  -5129215.24446  24445963.2694   24445971.6184   24445962.839
        43.0004         38.0004
  -5078835.59847  -3904837.38246  23503924.8024   23503932.2104   23503924.892
        43.0004         38.0004
   -594734.81147   -464019.08546  23978805.2604   23978818.4694   23978806.334
        43.0004         39.0004
  -3674835.54847  -2811775.73146  23628623.4604   23628633.0884   23628624.312
        42.0004         37.0004
 -18790550.60449 -14636945.52648  20245114.2474   20245121.8904   20245114.287
        54.0004         49.0004
 14  5  6  0 20 30.0000000  0 10G07G17G09G04G01G10G13G28G20G08
 -23739237.18249 -18468271.52248  20193424.1574   20193429.5374   20193423.748
        54.0004         49.0004
 -15623999.53848 -12125799.29647  22292521.1694   22292529.8784   22292520.401
        50.0004         46.0004
 -12549196.75948  -9757422.93348  20306469.8234   20306477.2044   20306469.752
        53.0004         49.0004
 -18412376.69248 -14300834.36347  21907337.1394   21907344.6244   21907336.440
        49.0004         45.0004
  -9211971.81747  -7136159.29046  23084315.0654   23084327.8634   23084314.172
        46.0004         41.0004
  -6640547.10647  -5165610.86946  24437074.5724   24437084.7994   24437074.382
        42.0004         38.0004
  -4999623.74247  -3843113.79446  23518999.1614   23519005.6744   23518998.388
        43.0004         38.0004
   -634006.31347   -494620.12346  23971331.8894   23971344.9294   23971333.188
        43.0004         39.0004
  -3672804.71647  -2810193.28246  23629010.1594   23629019.8474   23629010.694
        42.0004         37.0004
 -18838820.67549 -14674558.47748  20235928.6074   20235936.3154   20235929.108
        54.0004         49.0004
 14  5  6  0 21  0.0000000  0 10G07G17G09G04G01G10G13G28G20G08
 -23717277.66449 -18451160.15948  20197603.0164   20197608.5064   20197602.637
        54.0004         49.0004
 -15586784.15148 -12096800.30647  22299602.7474   22299611.7614   22299602.376
        50.0004         46.0004
 -12593444.33248  -9791901.45848  20298049.1254   20298056.7184   20298049.486
        53.0004         49.0004
 -18498079.94048 -14367616.01647  21891028.6384   21891035.5434   21891028.146
        49.0004         45.0004
  -9121647.56047  -7065776.84146  23101503.4384   23101515.0594   23101502.027
        45.0004         41.0004
  -6687496.88247  -5202194.90746  24428139.8754   24428150.4584   24428140.526
        42.0004         38.0004
  -4920528.79147  -3781481.29946  23534050.5114   23534058.7284   23534050.204
        43.0004         38.0004
   -673527.87947   -525416.01146  23963811.0454   23963824.2804   23963812.421
        43.0004         39.0004
  -3670599.54647  -2808474.98046  23629430.0154   23629440.2544   23629429.416
        42.0004         37.0004
 -18886539.15949 -14711741.61348  20226847.9944   20226855.8114   20226848.339
        54.0004         49.0004
 14  5  6  0 21 30.0000000  0 10G07G17G09G04G01G10G13G28G20G08
 -23694718.23749 -18433581.33048  20201895.9724   20201901.3504   20201895.302
        54.0004         49.0004
 -15549409.30948 -12067677.06547  22306715.0734   22306723.6784   22306714.610
        50.0004         45.0004
 -12637144.67648  -9825953.56848  20289733.6924   20289741.1764   20289733.490
        53.0004         49.0004
 -18583486.96048 -14434166.83647  21874774.7454   21874783.2254   21874775.121
        49.0004         45.0004
  -9031026.78347  -6995163.32946  23118746.5854   23118760.8554   23118747.576
        45.0004         40.0004
  -6734687.04647  -5238966.28446  24419159.2644   24419168.9964   24419159.536
        42.0004         38.0004
  -4841552.00747  -3719940.87646  23549079.1524   23549084.8744   23549078.319
        43.0004         38.0004
   -713297.54747   -556405.23146  23956243.8124   23956255.7374   23956244.092
        44.0004         39.0004
  -3668217.44447  -2806618.83646  23629883.4754   23629894.0434   23629884.047
        42.0004         37.0004
 -18933702.82249 -14748492.43048  20217873.3394   20217880.7204   20217873.684
        54.0004         49.0004
 14  5  6  0 22  0.0000000  0 10G07G17G09G04G01G10G13G28G20G08
 -23671563.51449 -18415538.63748  20206301.9464   20206307.3784   20206301.316
        54.0004         49.0004
 -15511881.88748 -12038434.93347  22313856.3074   22313865.9484   22313855.941
        50.0004         45.0004
 -12680300.10048  -9859581.06848  20281520.9534   20281528.7614   20281521.105
        53.0004         49.0004
 -18668598.90948 -14500487.74047  21858579.7694   21858586.4654   21858578.840
        49.0004         45.0004
  -8940116.05247  -6924323.89146  23136046.6934   23136061.3704   23136046.698
        45.0004         41.0004
  -6782121.08747  -5275927.68346  24410133.7024   24410141.4044   24410132.708
        42.0004         38.0004
  -4762699.36247  -3658497.20946  23564083.8574   23564090.7734   23564083.515
        43.0004         38.0004
   -753318.64647   -587590.35146  23948628.5104   23948640.0774   23948628.560
        44.0004         39.0004
  -3665660.50947  -2804626.44846  23630369.4824   23630379.2754   23630370.051
        42.0004         37.0004
 -18980313.01849 -14784811.96848  20209003.2114   20209011.1314   20209003.358
        54.0004         49.0004
 14  5  6  0 22 30.0000000  0 10G07G17G09G04G01G10G13G28G20G08
 -23647808.48749 -18397028.17248  20210821.9704   20210827.5724   20210821.810
