     2.11           OBSERVATION DATA    G (GPS)             RINEX VERSION / TYPE
teqc  2008Oct2      gpsops              20090117 00:09:25UTCPGM / RUN BY / DATE
    30.0000                                                 INTERVAL
     1     1                                                WAVELENGTH FACT L1/2
     7    L1    L2    P1    P2    C1    S1    S2            # / TYPES OF OBSERV
Linux 2.4.20-8|Pentium IV|gcc -static|Linux|486/DX+         COMMENT
     2.10           OBSERVATION DATA    GPS                 COMMENT
soc2rnx ver 1.20    gpsops              17-Jan-2009 00:09:21COMMENT
S1, if present, is the SNR for the C/A data stream on L1.   COMMENT
 SNR is mapped to RINEX snr flag value [1,4-9]              COMMENT
    SNR:   >316  >100  >31.6  >10  >3.2    >0 bad=0         COMMENT
L1 & L2:      9     8     7     6     5     4     1         COMMENT
                                                            COMMENT
This data is provided as a public service by NASA/JPL.      COMMENT
No warranty is expressed or implied regarding suitability   COMMENT
for use.  For further information, contact:                 COMMENT
Dave Stowers, NASA/JPL m/s 238-600                          COMMENT
4800 Oak Grove Drive, Pasadena CA 91109 USA                 COMMENT
                                                            COMMENT
Forced Modulo Decimation to 30 seconds                      COMMENT
  2009     1    16     0     0    0.0000000     GPS         TIME OF FIRST OBS
GGN                 JPL                                     OBSERVER / AGENCY
CR519992104         ASH701945B_M    SCIT                    ANT # / TYPE
   -33801.4662 -6377516.5323   -82154.3508                  APPROX POSITION XYZ
        0.0083        0.0000        0.0000                  ANTENNA: DELTA H/E/N
ZR220013847         ASHTECH UZ-12       CQ00                REC # / TYPE / VERS
GLPS                                                        MARKER NAME
42005M002                                                   MARKER NUMBER
                                                            END OF HEADER
 09  1 16  0  0  0.0000000  0 12G 5G29G 6G14G24G 9G31G22G30G21G12G18
 124661977.68447  97139176.63247  23722405.1034   23722411.4844   23722405.8084
        45.000          39.000
 117182078.16047  91310689.49447  22299022.0494   22299026.6674   22299022.8724
        50.000          45.000
 130092473.00547 101370726.34447  24755797.7524   24755805.0964   24755797.9174
        42.000          36.000
 115172555.72247  89744835.46147  21916618.8164   21916623.7014   21916619.1864
        50.000          45.000
 113203612.02647  88210582.55047  21541948.3994   21541953.3354   21541948.1364
        52.000          46.000
 116497714.75847  90777421.44347  22168794.2504   22168800.6524   22168794.7284
        50.000          44.000
 124298722.87847  96856127.98347  23653275.8414   23653279.4504   23653275.6084
        46.000          40.000
 127247022.81947  99153507.55747  24214315.3804   24214317.7764   24214315.2954
        42.000          37.000
 122820785.91747  95704484.36147  23372037.1754   23372041.4464   23372036.5714
        47.000          41.000
 107146858.13847  83491043.10947  20389382.3564   20389385.3144   20389382.7864
        54.000          49.000
 128170233.78747  99872888.12547  24389999.1024   24390004.2454   24389999.2364
        45.000          39.000
 123849743.99247  96506279.40747  23567833.6544   23567837.6164   23567834.0444
        46.000          40.000
 09  1 16  0  0 30.0000000  0 12G 5G29G 6G14G24G 9G31G22G30G21G12G18
 124647926.90447  97128227.99247  23719731.8954   23719737.5974   23719732.2324
        45.000          39.000
 117256942.50747  91369025.34047  22313269.0634   22313272.8684   22313268.9844
        50.000          45.000
 130038820.63447 101328919.38147  24745588.4164   24745594.0774   24745588.3594
        42.000          36.000
 115178767.38247  89749675.73247  21917801.3314   21917805.4904   21917801.2884
        51.000          45.000
 113234514.69747  88234662.56547  21547828.4864   21547834.1334   21547828.6044
        52.000          46.000
 116560952.46047  90826697.61047  22180828.6664   22180833.3914   22180828.6664
        50.000          44.000
 124195450.48647  96775656.09047  23633623.1744   23633627.0954   23633623.3224
        46.000          40.000
 127227177.58047  99138043.83647  24210539.0284   24210542.6154   24210539.0784
        44.000          37.000
 122799232.84947  95687689.81047  23367935.4224   23367939.8864   23367935.1874
        48.000          41.000
 107097289.57047  83452418.28547  20379949.9084   20379952.6384   20379950.2854
        54.000          49.000
 128171046.55947  99873521.46947  24390153.9904   24390159.9154   24390153.8044
        44.000          39.000
 123828138.87247  96489444.31647  23563722.2824   23563725.3204   23563722.8764
        47.000          40.000
 09  1 16  0  1  0.0000000  0 12G 5G29G 6G14G24G 9G31G22G30G21G12G18
 124633862.68247  97117268.88747  23717055.4284   23717061.2314   23717056.1964
        46.000          39.000
 117331864.33647  91427405.97847  22327525.9134   22327530.0034   22327525.5274
        50.000          44.000
 129985469.93947 101287347.49347  24735435.9264   24735442.2864   24735435.9314
        41.000          36.000
 115185378.91747  89754827.61347  21919059.4054   21919063.2954   21919059.5714
        51.000          45.000
 113265888.13247  88259109.40147  21553798.6994   21553804.1384   21553798.7994
        52.000          46.000
 116624667.50247  90876345.73847  22192953.1834   22192957.5484   22192953.1774
        50.000          44.000
 124092232.22047  96695226.37747  23613981.1474   23613985.0574   23613981.1284
        46.000          40.000
 127207109.90447  99122406.76147  24206720.9234   24206723.3324   24206720.9814
        43.000          37.000
 122777537.83147  95670784.63647  23363806.8874   23363811.1744   23363806.5454
        47.000          41.000
 107048187.87247  83414157.25747  20370605.9504   20370608.8574   20370606.3064
        55.000          49.000
 128171847.92947  99874145.91347  24390306.8294   24390312.4664   24390306.5204
        44.000          38.000
 123806328.84047  96472449.54647  23559572.0274   23559575.2964   23559572.2444
        47.000          40.000
 09  1 16  0  1 30.0000000  0 12G 5G29G 6G14G24G 9G31G22G30G21G12G18
 124619790.75547  97106303.76247  23714377.7024   23714383.7174   23714378.4004
        45.000          39.000
 117406844.81047  91485832.31847  22341794.3014   22341798.2624   22341794.1214
        50.000          45.000
 129932424.70947 101246013.63847  24725341.6494   24725348.3514   24725341.2704
        43.000          36.000
 115192392.35047  89760292.65047  21920393.9894   21920397.8424   21920394.2434
        51.000          45.000
 113297735.79847  88283925.77447  21559859.0604   21559864.7704   21559859.3214
        52.000          46.000
 116688862.08947  90926367.52247  22205168.8254   22205173.6854   22205168.9984
        50.000          44.000
 123989074.48847  96614843.83847  23594350.6514   23594354.8384   23594350.3484
        45.000          40.000
 127186822.91147  99106598.77047  24202860.2534   24202862.9774   24202860.3354
        44.000          38.000
 122755705.68647  95653772.62047  23359652.3594   23359656.7944   23359652.2874
        47.000          41.000
 106999559.45147  83376265.00647  20361352.3524   20361355.1454   20361352.7234
        55.000          49.000
 128172642.72647  99874765.23747  24390457.7684   24390463.5764   24390457.7664
        45.000          38.000
 123784318.20947  96455298.48047  23555383.1524   23555386.8104   23555383.8174
        47.000          40.000
 09  1 16  0  2  0.0000000  0 12G 5G29G 6G14G24G 9G31G22G30G21G12G18
 124605709.10947  97095331.06047  23711697.8814   23711704.0154   23711698.3794
        45.000          39.000
 117481877.43547  91544299.29647  22356072.6874   22356076.5864   22356072.5684
        50.000          45.000
 129879681.33247 101204914.98647  24715304.6924   24715311.4114   24715304.8294
        43.000          37.000
 115199802.08147  89766066.49647  21921804.1894   21921807.9024   21921804.4214
        51.000          45.000
 113330053.40047  88309108.32947  21566009.0984   21566014.4774   21566009.3534
        52.000          46.000
 116753530.44647  90976758.46647  22217475.1334   22217479.4254   22217475.1594
        49.000          43.000
 123885976.11547  96534507.55047  23574731.2614   23574735.7984   23574730.1464
        45.000          40.000
 127166311.99747  99090616.27847  24198957.5264   24198959.7054   24198957.5234
        44.000          38.000
 122733733.90747  95636651.78747  23355471.2114   23355475.7914   23355471.1104
        48.000          41.000
 106951402.92147  83338740.46747  20352188.5364   20352191.2494   20352188.9814
        55.000          49.000
 128173428.79847  99875377.74947  24390607.3834   24390613.7654   24390607.1494
        44.000          39.000
 123762103.65947  96437988.50047  23551156.2994   23551159.3174   23551156.5484
        47.000          40.000
 09  1 16  0  2 30.0000000  0 12G 5G29G 6G14G24G 9G31G22G30G21G12G18
 124591623.06147  97084354.94047  23709017.4384   23709023.2204   23709017.8774
        45.000          39.000
 117556963.05847  91602807.56147  22370360.9374   22370364.9724   22370360.7474
        50.000          44.000
 129827243.43647 101164054.37247  24705325.5074   24705332.1274   24705325.8444
        42.000          36.000
 115207609.50347  89772150.24247  21923289.5574   21923293.4264   21923289.6464
        51.000          45.000
 113362844.30647  88334659.69347  21572248.9094   21572254.3324   21572249.1364
        52.000          46.000
 116818674.37847  91027519.99947  22229871.2664   22229875.9124   22229871.4024
        49.000          43.000
 123782943.12247  96454222.20847  23555124.8434   23555129.1804   23555123.1254
        45.000          40.000
 127145580.14447  99074461.63647  24195012.1974   24195014.3394   24195012.4784
        44.000          38.000
 122711627.54847  95619426.08447  23351264.6704   23351269.1184   23351264.0614
        47.000          41.000
 106903724.27347  83301588.30247  20343115.4014   20343118.3314   20343115.8144
        55.000          49.000
 128174211.74747  99875987.82647  24390756.7594   24390762.5184   24390756.3904
        43.000          39.000
 123739689.16147  96420522.72147  23546890.5174   23546893.7404   23546890.9864
        47.000          40.000
 09  1 16  0  3  0.0000000  0 12G 5G29G 6G14G24G 9G31G22G30G21G12G18
 124577532.24047  97073375.10347  23706335.7184   23706342.1484   23706336.3684
        45.000          39.000
 117632096.61947  91661353.19047  22384658.3564   22384662.2004   22384658.0174
        50.000          44.000
 129775108.75247 101123430.05147  24695404.7834   24695411.6354   24695404.8314
        41.000          36.000
 115215810.57847  89778540.72547  21924850.2154   21924854.0344   21924850.2604
        51.000          45.000
 113396105.58847  88360577.57547  21578578.3194   21578583.7064   21578578.4944
        52.000          46.000
 116884289.67847  91078648.82547  22242357.5004   22242362.1444   22242357.4734
        49.000          43.000
 123679976.12847  96373988.30747  23535530.5614   23535535.2554   23535529.7494
        45.000          40.000
 127124625.03647  99058133.02147  24191024.5074   24191027.0784   24191024.4354
        44.000          38.000
 122689385.45147  95602094.61047  23347032.1444   23347036.4904   23347031.9734
        47.000          41.000
 106856523.91547  83264808.82647  20334133.7004   20334136.3544   20334134.1034
        55.000          49.000
 128174990.79847  99876594.89647  24390904.5374   24390910.2274   24390904.5914
        43.000          38.000
 123717073.07647  96402899.84547  23542586.7744   23542590.1324   23542587.2594
        47.000          40.000
 09  1 16  0  3 30.0000000  0 12G 5G29G 6G14G24G 9G31G22G30G21G12G18
 124563439.31747  97062393.61347  23703654.3834   23703660.5224   23703654.7684
        46.000          39.000
 117707276.50847  91719934.90647  22398964.4594   22398968.6844   22398964.3434
        49.000          44.000
 129723278.42447 101083042.86647  24685541.8174   24685548.7394   24685541.9754
        41.000          36.000
 115224404.26747  89785237.15047  21926485.4204   21926489.6304   21926485.8224
        51.000          45.000
 113429838.17647  88386862.71447  21584997.5454   21585002.7754   21584997.6254
        52.000          46.000
 116950375.54247  91130144.34647  22254933.7244   22254937.8444   22254933.6904
        50.000          43.000
 123577078.63647  96293808.56547  23515949.6664   23515954.2304   23515949.1184
        45.000          41.000
 127103446.83447  99041630.55747  24186994.7164   24186996.3284   24186994.3404
        44.000          38.000
 122667009.95647  95584659.18147  23342773.6874   23342778.8994   23342773.3164
        48.000          41.000
 106809804.76947  83228404.32747  20325243.1404   20325245.9414   20325243.4894
        55.000          49.000
 128175768.84547  99877201.18647  24391051.5644   24391058.4754   24391051.5784
        43.000          38.000
 123694257.05047  96385121.18347  23538245.3134   23538248.8084   23538245.6414
        47.000          40.000
 09  1 16  0  4  0.0000000  0 12G 5G29G 6G14G24G 9G31G22G30G21G12G18
 124549347.53347  97051413.03447  23700972.5024   23700978.7244   23700973.5194
        45.000          39.000
 117782501.26447  91778551.59547  22413279.1054   22413283.2694   22413278.8444
        49.000          44.000
 129671753.68847 101042893.81247  24675736.9794   24675743.3044   24675736.6284
        42.000          37.000
 115233389.57147  89792238.73447  21928195.3884   21928199.3274   21928195.5974
        51.000          45.000
 113464042.76847  88413515.64747  21591506.2984   21591511.7554   21591506.3464
        52.000          46.000
 117016931.70247  91182006.32347  22267598.3314   22267603.0694   22267598.1834
        49.000          43.000
 123474254.22447  96213685.76747  23496382.7404   23496387.2834   23496382.0564
        45.000          40.000
 127082046.76847  99024955.23547  24182921.8864   24182924.8544   24182921.9524
        44.000          38.000
 122644503.76147  95567121.91347  23338491.3034   23338496.2244   23338491.2614
        48.000          41.000
 106763570.48847  83192377.64847  20316444.9414   20316447.7524   20316445.4324
        54.000          49.000
 128176548.96147  99877809.09147  24391201.2294   24391206.9154   24391201.3214
        44.000          38.000
 123671243.15147  96367188.32447  23533865.6944   23533869.2414   23533866.3484
        47.000          40.000
 09  1 16  0  4 30.0000000  0 12G 5G29G 6G14G24G 9G31G22G30G21G12G18
 124535256.27447  97040432.85447  23698290.8384   23698297.6524   23698291.7264
        45.000          39.000
 117857765.56847  91837199.09747  22427601.3424   22427605.5704   22427601.0834
        49.000          44.000
 129620532.14647 101002980.99547  24665989.8134   24665996.2284   24665989.8894
        42.000          36.000
 115242762.06347  89799542.02747  21929978.8954   21929982.6954   21929979.1894
        51.000          45.000
 113498716.32347  88440534.01047  21598104.4384   21598110.0404   21598104.5074
        52.000          46.000
 117083953.56347  91234231.18247  22280352.2174   22280356.8524   22280352.3994
        50.000          43.000
 123371503.20947  96133620.15947  23476829.7444   23476834.3394   23476829.1234
        45.000          40.000
 127060421.41547  99008104.39147  24178807.0084   24178809.2334   24178807.0604
        45.000          38.000
 122621865.62447  95549481.83147  23334183.3674   23334188.0924   23334183.1484
        48.000          41.000
 106717820.98147  83156728.71747  20307739.0504   20307741.9444   20307739.4534
        54.000          49.000
 128177329.82247  99878417.56947  24391349.8824   24391354.8854   24391349.7504
        43.000          38.000
 123648029.29747  96349099.66847  23529448.1714   23529451.4624   23529448.3764
        47.000          40.000
 09  1 16  0  5  0.0000000  0 12G 5G29G 6G14G24G 9G31G22G30G21G12G18
 124521169.24747  97029455.98147  23695610.2644   23695616.6204   23695611.0444
        45.000          39.000
 117933068.93347  91895877.03547  22441931.3354   22441935.1354   22441931.3284
        50.000          44.000
 129569615.69247 100963305.91747  24656300.6724   24656306.4194   24656301.1194
        42.000          37.000
 115252521.76347  89807147.03547  21931835.8624   21931840.0004   21931836.1274
        51.000          45.000
 113533860.02247  88467918.72147  21604791.9184   21604797.5774   21604792.0184
        52.000          46.000
 117151441.45647  91286819.19447  22293194.8734   22293199.3924   22293195.1694
        48.000          43.000
 123268830.17747  96053615.32847  23457291.7504   23457296.0024   23457291.6634
        46.000          40.000
 127038572.09847  98991079.01747  24174649.4424   24174651.4394   24174649.6324
        44.000          38.000
 122599099.00147  95531741.62347  23329850.8424   23329855.5234   23329850.8714
        48.000          41.000
 106672560.77247  83121461.05347  20299126.3444   20299129.1994   20299126.7544
        54.000          49.000
 128178115.43547  99879029.79247  24391498.7234   24391504.8124   24391498.2434
        43.000          38.000
 123624618.18947  96330857.31747  23524992.8574   23524996.5084   23524993.4054
        47.000          40.000
 09  1 16  0  5 30.0000000  0 12G 5G29G 6G14G24G 9G31G22G30G21G12G18
 124507088.55447  97018484.04547  23692931.0624   23692936.5814   23692931.4114
        45.000          39.000
 118008408.84047  91954583.44047  22456267.8604   22456271.6454   22456268.2654
        49.000          44.000
 129519004.53247 100923868.70947  24646669.8734   24646676.2504   24646670.0684
        41.000          37.000
 115262666.88947  89815052.38947  21933766.5074   21933770.3184   21933766.7804
        51.000          45.000
 113569473.70447  88495669.66147  21611569.1614   21611574.4494   21611569.2694
        52.000          46.000
 117219393.55047  91339768.89447  22306125.2324   22306130.5534   22306125.3374
        49.000          43.000
 123166237.95347  95973673.44247  23437769.1744   23437773.1404   23437769.1384
        46.000          41.000
 127016498.94447  98973879.21447  24170448.6384   24170450.9904   24170448.2754
        44.000          37.000
 122576205.33447  95513902.41047  23325494.4744   23325499.4084   23325493.7534
        47.000          41.000
 106627792.04647  83086576.36247  20290607.1444   20290610.0524   20290607.5654
        54.000          49.000
 128178907.59447  99879647.09947  24391649.5534   24391655.3284   24391649.4694
        44.000          38.000
 123601010.47047  96312461.75247  23520500.6374   23520503.9134   23520500.8414
        47.000          39.000
 09  1 16  0  6  0.0000000  0 12G 5G29G 6G14G24G 9G31G22G30G21G12G18
 124493015.71947  97007518.23547  23690252.7464   23690258.9634   23690253.4764
        45.000          39.000
 118083782.74247  92013316.35447  22470611.4034   22470614.9324   22470611.0554
        50.000          44.000
 129468698.33547 100884669.15247  24637097.1174   24637103.9364   24637096.6214
        41.000          37.000
 115273194.62147  89823255.86847  21935769.7524   21935773.8164   21935769.8994
        51.000          45.000
 113605556.55247  88523786.17647  21618435.6984   21618440.9804   21618435.9154
        53.000          46.000
 117287807.47347  91393078.46647  22319144.5704   22319149.2634   22319144.6154
        49.000          43.000
 123063728.79247  95893796.27647  23418262.2024   23418266.2104   23418262.4004
        46.000          41.000
 126994200.91047  98956504.21747  24166205.0534   24166207.5264   24166205.1734
        45.000          38.000
 122553185.38447  95495964.81847  23321113.9864   23321118.7874   23321114.1014
        48.000          41.000
 106583517.38247  83052076.65147  20282181.8574   20282184.7644   20282182.3204
        54.000          49.000
 128179707.62047  99880270.57447  24391802.3044   24391808.1364   24391801.5764
        44.000          38.000
 123577206.71547  96293913.42447  23515970.8454   23515974.5604   23515971.2414
        47.000          39.000
 09  1 16  0  6 30.0000000  0 12G 5G29G 6G14G24G 9G31G22G30G21G12G18
 124478952.96847  96996560.29547  23687576.9624   23687582.9214   23687577.5754
        45.000          39.000
 118159187.73647  92072073.49247  22484960.4604   22484964.2364   22484959.9424
        49.000          44.000
 129418697.45347 100845707.49147  24627581.8274   24627588.0584   24627581.8904
        42.000          36.000
 115284103.50947  89831756.35347  21937845.5624   21937849.5194   21937845.7224
        50.000          45.000
 113642108.47247  88552268.19947  21625391.2954   21625396.7034   21625391.4264
        52.000          46.000
 117356681.47547  91446746.56347  22332250.7054   22332255.3484   22332251.1084
        50.000          43.000
 122961305.72347  95813986.19047  23398771.8134   23398775.7184   23398771.8014
        47.000          41.000
 126971678.00247  98938954.04047  24161919.0624   24161921.0964   24161919.2744
        45.000          38.000
 122530041.07847  95477930.31947  23316709.7124   23316714.7364   23316710.0164
        47.000          41.000
 106539738.79447  83017963.48647  20273851.1584   20273853.9444   20273851.5454
        54.000          49.000
 128180517.89847  99880902.03547  24391956.3604   24391961.6554   24391955.9774
        43.000          38.000
 123553207.65347  96275212.92147  23511403.8484   23511407.1864   23511404.3294
        47.000          39.000
 09  1 16  0  7  0.0000000  0 12G 5G29G 6G14G24G 9G31G22G30G21G12G18
 124464902.78447  96985612.13647  23684902.7804   23684909.7654   23684903.5354
        45.000          39.000
 118234621.93947  92130853.38147  22499314.9324   22499319.2424   22499314.4064
        49.000          44.000
 129369002.63247 100806984.30747  24618125.2554   24618131.2064   24618126.1404
        41.000          36.000
 115295392.06147  89840552.68447  21939993.5724   21939997.5134   21939993.9474
        50.000          45.000
 113679129.51847  88581115.77347  21632436.0874   21632441.6164   21632436.2784
        52.000          46.000
 117426014.60347  91500772.39947  22345444.1134   22345448.9314   22345444.1984
        49.000          43.000
 122858972.02447  95734245.73847  23379298.3874   23379302.1164   23379297.8174
        46.000          41.000
 126948930.76047  98921229.03347  24157590.4444   24157592.3414   24157590.3684
        44.000          38.000
 122506774.15147  95459800.25347  23312282.2574   23312286.4104   23312281.5634
        48.000          41.000
 106496459.25847  82984239.20347  20265615.2224   20265618.1714   20265615.6194
        55.000          49.000
 128181341.15447  99881543.61747  24392113.0474   24392118.3614   24392112.6114
        43.000          38.000
 123529014.91247  96256361.51047  23506800.1304   23506803.6964   23506800.4474
        47.000          39.000
 09  1 16  0  7 30.0000000  0 12G 5G29G 6G14G24G 9G31G22G30G21G12G18
 124450865.37347  96974673.93247  23682231.8904   23682237.9184   23682232.1014
        45.000          39.000
 118310081.03247  92189652.67347  22513674.4154   22513678.6144   22513674.1214
        50.000          44.000
 129319611.88547 100768498.07047  24608726.4114   24608732.2994   24608726.4384
        41.000          36.000
 115307056.55547  89849641.94547  21942213.0014   21942217.2304   21942213.1244
        50.000          44.000
 113716617.16247  88610326.93147  21639569.5324   21639575.1394   21639569.7414
        52.000          46.000
 117495802.98647  91555152.97747  22358724.5514   22358729.0834   22358724.7874
        49.000          43.000
 122756728.68847  95654575.69247  23359841.8274   23359846.0754   23359841.0964
        46.000          41.000
 126925956.40847  98903327.04347  24153218.5194   24153220.3214   24153218.6044
        44.000          38.000
 122483384.31447  95441574.43047  23307831.6704   23307835.3894   23307831.2274
        47.000          41.000
 106453679.43747  82950904.30347  20257474.6104   20257477.3204   20257475.0134
        55.000          49.000
 128182176.30347  99882194.45347  24392272.3344   24392277.3984   24392272.0494
        44.000          38.000
 123504627.43047  96237358.35047  23502159.0474   23502162.7484   23502159.7984
        47.000          40.000
 09  1 16  0  8  0.0000000  0 12G 5G29G 6G14G24G 9G31G22G30G21G12G18
 124436846.28347  96963750.01147  23679563.5714   23679569.9664   23679564.2894
        45.000          39.000
 118385566.22847  92248472.28847  22528038.9294   22528043.2464   22528038.8084
        50.000          44.000
 129270528.92847 100730251.68447  24599386.0824   24599393.0224   24599385.8944
        42.000          36.000
 115319098.41847  89859025.26447  21944504.6844   21944508.6414   21944504.9014
        51.000          44.000
 113754574.58047  88639904.15347  21646792.6454   21646798.0444   21646792.8734
        52.000          46.000
 117566048.29847  91609889.60547  22372091.7134   22372096.2224   22372091.8534
        49.000          43.000
 122654582.16947  95574981.08747  23340404.1564   23340408.0514   23340403.4914
        46.000          41.000
 126902758.69547  98885251.03647  24148803.8544   24148806.2244   24148803.9954
        43.000          38.000
 122459876.93447  95423257.00947  23303358.1074   23303362.5744   23303357.8034
        47.000          41.000
 106411405.38247  82917963.51147  20249429.9744   20249432.7354   20249430.3144
        55.000          49.000
 128183029.27047  99882859.16747  24392434.3994   24392439.5544   24392434.6504
        44.000          38.000
 123480049.49147  96218206.78647  23497482.2534   23497485.1804   23497482.3154
        47.000          40.000
 09  1 16  0  8 30.0000000  0 12G 5G29G 6G14G24G 9G31G22G30G21G12G18
 124422844.77947  96952839.78747  23676899.3864   23676905.4334   23676899.8994
        45.000          39.000
 118461072.30847  92307308.18147  22542407.4084   22542411.3034   22542407.2214
        49.000          44.000
 129221751.01047 100692242.95247  24590104.6384   24590110.7734   24590104.4924
        42.000          37.000
 115331513.07547  89868699.06047  21946867.0954   21946871.1174   21946867.4024
        51.000          45.000
 113792998.33947  88669844.75247  21654104.3334   21654109.9084   21654104.5234
        52.000          46.000
 117636745.90047  91664978.66647  22385545.1394   22385549.4204   22385545.2604
        49.000          43.000
 122552532.25947  95495461.76347  23320984.6454   23320988.5484   23320984.1554
        47.000          41.000
 126879334.62847  98866998.66147  24144345.9314   24144348.9784   24144345.7904
        43.000          38.000
 122436250.60547  95404846.90847  23298861.8854   23298866.7254   23298861.5694
        47.000          41.000
 106369636.42347  82885416.29347  20241481.8264   20241484.5204   20241482.2464
        54.000          49.000
 128183899.20747  99883537.08047  24392600.2804   24392605.5884   24392599.8044
        43.000          38.000
 123455279.40847  96198905.47547  23492768.7014   23492771.5604   23492769.1884
        47.000          40.000
 09  1 16  0  9  0.0000000  0 12G 5G29G 6G14G24G 9G31G22G30G21G12G18
 124408862.98847  96941944.91547  23674238.8104   23674244.7654   23674238.9784
        44.000          39.000
 118536596.81747  92366158.44747  22556779.2424   22556782.9454   22556779.0104
        49.000          44.000
 129173278.36447 100654472.12147  24580879.9074   24580885.8914   24580880.2494
        42.000          37.000
 115344298.35147  89878661.66147  21949300.0394   21949303.9644   21949300.3794
        50.000          44.000
 113831888.07747  88700148.44947  21661504.9354   21661510.3154   21661505.1504
        52.000          46.000
 117707894.01347  91720418.80147  22399084.6424   22399088.4254   22399084.5064
        50.000          43.000
 122450581.96147  95416020.04147  23301584.2364   23301588.0474   23301583.9024
        47.000          41.000
 126855683.91447  98848569.69747  24139845.9504   24139848.2854   24139845.8924
        44.000          38.000
 122412507.17147  95386345.55147  23294343.1184   23294348.3944   23294342.7434
        48.000          41.000
 106328374.90647  82853264.50347  20233629.8034   20233632.6094   20233630.1254
        54.000          49.000
 128184787.96647  99884229.71147  24392768.6194   24392773.9174   24392768.4534
        43.000          38.000
 123430317.96747  96179455.07747  23488018.5964   23488021.9354   23488019.0774
        48.000          40.000
 09  1 16  0  9 30.0000000  0 12G 5G29G 6G14G24G 9G31G22G30G21G12G18
 124394903.30647  96931067.25747  23671582.9124   23671588.3614   23671583.3784
        46.000          39.000
 118612137.74947  92425021.49447  22571153.9004   22571157.9804   22571153.8474
        49.000          44.000
 129125111.39247 100616939.46547  24571713.9894   24571720.7004   24571714.0764
        43.000          37.000
 115357452.78147  89888911.91147  21951803.0764   21951806.8414   21951803.1234
        51.000          44.000
 113871243.73347  88730815.21347  21668994.0574   21668999.3524   21668994.1564
        52.000          46.000
 117779491.23247  91776208.88147  22412708.8324   22412712.9054   22412709.0494
        50.000          43.000
 122348734.52747  95336658.47047  23282203.4274   23282206.8914   23282202.9454
        47.000          42.000
 126831806.89147  98829964.37947  24135301.5304   24135304.3794   24135301.8574
        44.000          38.000
 122388648.60847  95367754.48947  23289803.3014   23289808.1374   23289803.2234
        47.000          41.000
 106287623.86647  82821510.47247  20225875.2824   20225877.7964   20225875.7524
        55.000          49.000
 128185697.99647  99884938.89347  24392941.4574   24392947.3714   24392941.0964
        43.000          38.000
 123405166.53247  96159856.62147  23483232.6864   23483235.7134   23483233.0454
        47.000          40.000
 09  1 16  0 10  0.0000000  0 12G 5G29G 6G14G24G 9G31G22G30G21G12G18
 124380968.26447  96920208.80547  23668930.9844   23668936.6604   23668931.5404
        45.000          39.000
 118687693.13447  92483895.81447  22585531.5354   22585535.7184   22585531.1884
        49.000          43.000
 129077250.65747 100579645.44447  24562606.5104   24562613.2194   24562606.8774
        43.000          37.000
 115370974.70347  89899448.51947  21954376.3064   21954379.9404   21954376.7294
        51.000          44.000
 113911064.98947  88761844.78047  21676571.8894   21676577.0284   21676571.9174
        52.000          46.000
 117851536.03447  91832347.72847  22426418.2754   22426422.6354   22426418.4304
        50.000          43.000
 122246993.20747  95257379.58947  23262842.6874   23262846.0834   23262842.4514
        47.000          42.000
 126807703.71947  98811182.81347  24130714.5334   24130717.4664   24130714.3834
        43.000          38.000
 122364676.72047  95349075.11047  23285241.9594   23285246.4324   23285241.4244
        48.000          41.000
 106247385.74647  82790156.12647  20218218.1614   20218220.7994   20218218.5984
        54.000          49.000
 128186631.57447  99885666.37547  24393119.1394   24393125.1714   24393118.5064
        44.000          38.000
 123379826.36547  96140111.09947  23478410.0734   23478413.3544   23478410.5804
        47.000          39.000
 09  1 16  0 10 30.0000000  0 12G 5G29G 6G14G24G 9G31G22G30G21G12G18
 124367059.31547  96909370.72047  23666284.0354   23666290.1514   23666284.3284
        45.000          39.000
 118763259.90747  92542778.99747  22599911.3224   22599915.4724   22599911.2884
        49.000          43.000
 129029695.31347 100542589.39347  24553556.5614   24553562.9174   24553557.0334
        43.000          37.000
 115384861.46447  89910269.42047  21957018.8904   21957022.5874   21957019.1574
        50.000          44.000
 113951350.91547  88793236.41947  21684238.0854   21684243.2094   21684238.0804
        52.000          46.000
 117924025.44447  91888833.02547  22440212.2294   22440216.7184   22440212.3954
        49.000          43.000
 122145360.26047  95178185.13347  23243502.4324   23243505.9124   23243502.2504
        47.000          42.000
 126783373.46947  98792224.33547  24126085.1674   24126087.1944   24126084.6894
        45.000          38.000
 122340592.70147  95330308.36547  23280658.8954   23280663.3264   23280658.7044
        48.000          41.000
 106207662.30147  82759202.82247  20210658.9934   20210661.4934   20210659.3234
        55.000          49.000
 128187589.92747  99886413.18247  24393301.4754   24393307.4334   24393301.7124
        43.000          38.000
 123354297.99547  96120218.91747  23473552.3704   23473555.2614   23473552.7244
        47.000          39.000
 09  1 16  0 11  0.0000000  0 12G 5G29G 6G14G24G 9G31G22G30G21G12G18
 124353180.19847  96898555.84647  23663642.5994   23663648.6934   23663643.1734
        44.000          39.000
 118838837.47547  92601670.60547  22614293.3824   22614297.4804   22614293.4914
        48.000          43.000
 128982447.10347 100505772.68247  24544565.5074   24544571.4424   24544565.9834
        42.000          37.000
 115399112.75347  89921374.36447  21959730.7134   21959734.5054   21959730.8644
        51.000          44.000
 113992102.42647  88824990.85347  21691992.5564   21691998.0514   21691992.7544
        52.000          46.000
 117996959.51647  91945664.79147  22454091.1204   22454095.6804   22454091.0244
        49.000          42.000
 122043840.27647  95099078.71647  23224183.4974   23224187.3764   23224182.9274
        47.000          42.000
 126758817.59747  98773090.06147  24121412.0824   24121414.3434   24121412.7554
        45.000          38.000
 122316399.80547  95311456.78047  23276054.5154   23276059.3314   23276054.6234
        48.000          41.000
 106168457.73247  82728653.83547  20203198.6974   20203201.2794   20203199.1724
        54.000          49.000
 128188576.75847  99887182.15447  24393489.4994   24393494.9134   24393488.5974
        42.000          38.000
 123328583.83347  96100181.98247  23468658.4054   23468661.9494   23468659.0964
        47.000          40.000
 09  1 16  0 11 30.0000000  0 12G 5G29G 6G14G24G 9G31G22G30G21G12G18
 124339329.75247  96887763.32547  23661006.5714   23661013.0634   23661007.2954
        45.000          39.000
 118914420.35247  92660566.34447  22628676.3354   22628680.4984   22628675.9174
        48.000          43.000
 128935502.93447 100469192.88547  24535632.1674   24535638.9064   24535632.0624
        42.000          37.000
 115413723.47447  89932759.37247  21962511.2744   21962514.9604   21962511.4884
        51.000          45.000
 114033315.71447  88857105.12147  21699835.3754   21699840.5834   21699835.6744
        52.000          45.000
 118070333.26547  92002839.16947  22468053.7124   22468058.0594   22468053.8804
        49.000          42.000
 121942432.74247  95020059.92347  23204886.1674   23204890.0564   23204885.1684
        46.000          42.000
 126734032.76747  98753777.36147  24116696.0514   24116698.2274   24116696.2984
        45.000          39.000
 122292096.18447  95292518.91447  23271429.9854   23271434.9464   23271429.4394
        47.000          41.000
 106129770.89847  82698508.28147  20195836.6864   20195839.2324   20195836.9614
        55.000          49.000
 128189591.10647  99887972.61147  24393682.2794   24393687.4674   24393682.1604
        43.000          38.000
 123302681.78947  96079998.62447  23463729.8644   23463733.1074   23463730.1714
        47.000          40.000
 09  1 16  0 12  0.0000000  0 12G 5G29G 6G14G24G 9G31G22G30G21G12G18
 124325514.87647  96876998.53047  23658377.7524   23658384.0514   23658378.2064
        44.000          39.000
 118990010.89247  92719468.04747  22643060.7064   22643065.0084   22643060.1224
        48.000          43.000
 128888867.54647 100432853.69847  24526758.3704   24526764.5704   24526758.2004
        42.000          37.000
 115428696.03447  89944426.35247  21965360.5264   21965364.1094   21965360.8384
        51.000          45.000
 114074995.09947  88889582.57647  21707766.6104   21707771.8144   21707766.7754
        52.000          45.000
 118144149.33347  92060358.23247  22482100.4764   22482104.7824   22482100.7314
        49.000          42.000
 121841145.62947  94941134.97847  23185611.7194   23185615.6454   23185611.1304
        47.000          42.000
 126709023.67447  98734289.92347  24111936.6274   24111939.0204   24111936.6934
        45.000          39.000
 122267688.39647  95273499.87847  23266785.1124   23266790.2394   23266785.0634
        47.000          41.000
 106091608.64647  82668771.48647  20188574.7294   20188577.0744   20188575.1164
        54.000          49.000
 128190638.91347  99888789.14447  24393881.8764   24393887.6854   24393881.4244
        43.000          38.000
 123276597.48847  96059673.23147  23458766.2104   23458768.8784   23458766.6244
        48.000          40.000
 09  1 16  0 12 30.0000000  0 12G 5G29G 6G14G24G 9G31G22G30G21G12G18
 124311731.38547  96866258.16847  23655754.9044   23655761.0364   23655755.5204
        45.000          39.000
 119065600.08147  92778368.70547  22657444.8334   22657449.2884   22657444.6954
        48.000          43.000
 128842534.50347 100396750.09347  24517940.6454   24517946.5124   24517940.9614
        40.000          37.000
 115444021.38747  89956368.22247  21968276.6734   21968280.4244   21968276.8674
        51.000          45.000
 114117133.33147  88922417.57847  21715785.4214   21715790.6314   21715785.5824
        52.000          46.000
 118218399.69547  92118215.68947  22496229.2544   22496234.0114   22496229.8774
        48.000          42.000
 121739975.27047  94862301.01347  23166359.2864   23166363.6384   23166359.1424
        47.000          41.000
 126683783.90047  98714622.72347  24107133.6564   24107135.5394   24107133.1514
        45.000          39.000
 122243172.07847  95254396.28647  23262119.7154   23262124.7474   23262119.3284
        47.000          41.000
 106053966.75147  82639440.17047  20181411.4874   20181414.1494   20181411.9024
        54.000          49.000
 128191716.13447  99889628.58547  24394086.6704   24394091.8844   24394086.7744
        43.000          38.000
 123250325.76147  96039201.81347  23453766.7934   23453770.1334   23453767.0104
        47.000          40.000
 09  1 16  0 13  0.0000000  0 12G 5G29G 6G14G24G 9G31G22G30G21G12G18
 124297987.38047  96855548.58447  23653139.9694   23653145.5364   23653140.5964
        45.000          39.000
 119141191.93347  92837271.44247  22671829.6104   22671834.2604   22671829.4784
        48.000          43.000
 128796509.84247 100360886.82447  24509182.8354   24509189.0454   24509182.3524
        42.000          37.000
 115459704.76647  89968589.08147  21971261.2064   21971264.6934   21971261.5254
        51.000          45.000
 114159735.76747  88955614.29747  21723892.4204   21723897.3404   21723892.4424
        52.000          45.000
 118293088.26447  92176414.60447  22510442.5674   22510447.1374   22510442.4074
        49.000          42.000
 121638930.77347  94783565.10647  23147131.2774   23147135.0754   23147130.3024
        47.000          42.000
 126658319.43647  98694780.42147  24102287.1814   24102289.6404   24102287.7124
        45.000          39.000
 122218554.88947  95235214.08647  23257435.5034   23257440.2124   23257435.0104
        48.000          41.000
 106016853.92047  82610521.10547  20174349.4264   20174351.8454   20174349.8354
        54.000          49.000
 128192830.76947  99890497.19047  24394298.7164   24394304.1644   24394298.3224
        44.000          38.000
 123223873.54147  96018589.74247  23448732.9644   23448736.1164   23448733.4874
        48.000          40.000
 09  1 16  0 13 30.0000000  0 12G 5G29G 6G14G24G 9G31G22G30G21G12G18
 124284280.98047  96844868.31847  23650531.4234   23650537.3684   23650531.7384
        45.000          39.000
 119216780.05447  92896171.25847  22686213.4934   22686218.0974   22686213.3184
        48.000          43.000
 128750789.62447 100325260.77247  24500482.2004   24500488.2254   24500482.2574
        41.000          36.000
 115475739.79247  89981083.95247  21974312.4264   21974316.0554   21974312.5784
        51.000          45.000
 114202798.00047  88989169.29847  21732086.6014   21732091.9624   21732086.8124
        52.000          45.000
 118368208.80647  92234950.11947  22524737.6174   22524741.8414   22524738.0034
        49.000          42.000
 121538010.93147  94704926.34947  23127926.9204   23127930.6574   23127926.5934
        48.000          42.000
 126632626.28647  98674759.94047  24097398.8724   24097400.5214   24097398.6864
        45.000          39.000
 122193834.41547  95215951.39647  23252731.4394   23252736.0574   23252730.8434
        48.000          41.000
 105980268.19447  82582012.77247  20167387.0614   20167389.6454   20167387.3934
        54.000          49.000
 128193980.68747  99891393.28647  24394517.1934   24394523.4384   24394516.6614
        43.000          38.000
 123197238.06547  95997834.87447  23443664.5774   23443667.5924   23443664.8234
        47.000          40.000
 09  1 16  0 14  0.0000000  0 12G 5G29G 6G14G24G 9G31G22G30G21G12G18
 124270616.64947  96834220.82347  23647931.1094   23647937.2614   23647931.6854
        46.000          39.000
 119292364.39647  92955068.13847  22700596.5084   22700601.2124   22700596.2034
        48.000          43.000
 128705376.12347 100289873.74047  24491840.5914   24491846.5584   24491840.4684
        41.000          37.000
 115492126.41147  89993852.79247  21977430.7394   21977434.1314   21977430.8604
        51.000          45.000
 114246321.54747  89023083.76247  21740368.7034   21740374.4094   21740368.7584
        52.000          45.000
 118443761.47747  92293822.34747  22539114.8914   22539119.2794   22539114.9624
        49.000          42.000
 121437220.89947  94626388.74247  23108747.3204   23108750.6674   23108747.3194
        48.000          42.000
 126606706.73447  98654563.03947  24092465.8334   24092467.5884   24092465.9554
        45.000          39.000
 122169014.61547  95196611.32647  23248008.3404   23248013.0664   23248008.3204
        48.000          41.000
 105944214.30847  82553918.86347  20160526.2894   20160528.7604   20160526.6264
        55.000          49.000
 128195170.30547  99892320.29547  24394743.9304   24394748.9324   24394743.7484
        44.000          39.000
 123170422.52947  95976939.70347  23438561.7104   23438565.1944   23438561.9334
        48.000          40.000
 09  1 16  0 14 30.0000000  0 12G 5G29G 6G14G24G 9G31G22G30G21G12G18
 124256994.21647  96823605.96547  23645339.3184   23645344.7234   23645339.7494
        46.000          39.000
 119367940.48747  93013958.59847  22714978.3604   22714982.7674   22714977.9404
        48.000          43.000
 128660266.88947 100254723.78547  24483256.7874   24483262.6994   24483256.5764
        41.000          37.000
 115508860.21447  90006892.15447  21980615.0184   21980618.5734   21980615.2244
        51.000          45.000
 114290303.33447  89057355.30347  21748738.2834   21748743.7954   21748738.5224
        52.000          45.000
 118519741.93647  92353027.91847  22553573.5404   22553577.7164   22553573.6014
        49.000          42.000
 121336561.16347  94547952.66547  23089592.4874   23089595.9734   23089592.4334
        48.000          42.000
 126580558.35847  98634187.79647  24087490.0384   24087492.2474   24087489.8984
        45.000          39.000
 122144095.19047  95177193.62847  23243266.4534   23243271.0674   23243266.2444
        47.000          41.000
 105908691.72247  82526238.95547  20153766.5464   20153769.1104   20153767.0334
        54.000          49.000
 128196399.32247  99893278.02547  24394977.8254   24394983.1864   24394977.7664
        44.000          39.000
 123143425.74447  95955903.30847  23433424.1824   23433427.6344   23433424.7924
        47.000          40.000
 09  1 16  0 15  0.0000000  0 12G 5G29G 6G14G24G 9G31G22G30G21G12G18
 124243418.96547  96813027.88647  23642756.1774   23642761.5044   23642756.8424
        45.000          39.000
 119443509.03547  93072843.18647  22729358.5394   22729363.1374   22729358.4434
        48.000          43.000
 128615464.89347 100219813.24147  24474731.0384   24474736.5694   24474730.5424
        42.000          36.000
 115525942.10047  90020202.75347  21983865.4304   21983869.0684   21983865.5264
        51.000          45.000
 114334745.80747  89091985.82047  21757195.3054   21757200.5954   21757195.4094
        51.000          45.000
 118596151.53247  92412567.90247  22568113.5274   22568117.8204   22568113.6714
        49.000          42.000
 121236038.02747  94469623.03047  23070463.6834   23070467.0084   23070463.0304
        48.000          42.000
 126554184.00347  98613636.48247  24082471.1284   24082472.6114   24082471.0124
        45.000          39.000
 122119080.75347  95157701.88747  23238506.2174   23238510.6484   23238505.8624
        48.000          41.000
 105873706.05047  82498977.42147  20147109.0124   20147111.5144   20147109.4354
        54.000          49.000
 128197672.56347  99894270.21747  24395219.6064   24395225.4814   24395219.7104
        44.000          39.000
 123116251.94647  95934728.95747  23428253.0474   23428256.1004   23428253.6944
        48.000          40.000
 09  1 16  0 15 30.0000000  0 12G 5G29G 6G14G24G 9G31G22G30G21G12G18
 124229889.13047  96802485.18847  23640181.1654   23640187.1484   23640181.7714
        45.000          40.000
 119519064.10847  93131717.25947  22743736.1484   22743740.8224   22743736.0124
        48.000          43.000
 128570966.36547 100185139.14947  24466263.3444   24466269.2364   24466263.5214
        41.000          37.000
 115543366.33247  90033780.11547  21987181.2904   21987184.7924   21987181.5754
        51.000          45.000
 114379644.53647  89126971.85647  21765738.9254   21765744.4724   21765739.0584
        51.000          45.000
 118672984.31747  92472437.64047  22582734.1824   22582738.3894   22582734.3384
        48.000          42.000
 121135650.62447  94391399.15847  23051360.6434   23051363.7264   23051360.1354
        48.000          42.000
 126527580.05047  98592906.24247  24077408.0754   24077410.5114   24077408.3574
        45.000          39.000
 122093969.22047  95138134.48747  23233727.6514   23233732.5784   23233727.2494
        47.000          41.000
 105839255.39147  82472132.78147  20140552.9704   20140556.0424   20140553.3534
        54.000          49.000
 128198988.28847  99895295.51747  24395470.1454   24395475.8524   24395470.0864
        43.000          38.000
 123088898.50947  95913414.63847  23423048.2734   23423051.3514   23423048.5624
        48.000          40.000
 09  1 16  0 16  0.0000000  0 12G 5G29G 6G14G24G 9G31G22G30G21G12G18
 124216409.46247  96791981.58547  23637616.1914   23637621.5974   23637616.6684
        46.000          39.000
 119594605.90647  93190580.99447  22758111.2724   22758115.4044   22758110.9114
        48.000          43.000
 128526773.61647 100150703.36247  24457853.0624   24457859.9944   24457853.3954
        43.000          37.000
 115561133.08047  90047624.37247  21990562.0224   21990565.6324   21990562.2834
        51.000          45.000
 114425001.26047  89162314.77747  21774370.2984   21774375.4344   21774370.4524
        51.000          45.000
 118750240.75847  92532637.48047  22597435.2694   22597440.1674   22597435.2064
        48.000          42.000
 121035404.36447  94313285.27847  23032284.0234   23032287.4574   23032284.2164
        49.000          42.000
 126500748.97047  98571999.01447  24072302.2394   24072304.0624   24072302.5224
        45.000          39.000
 122068764.91247  95118494.79847  23228931.5914   23228935.9304   23228930.9784
        48.000          42.000
 105805344.18947  82445708.50247  20134099.7934   20134102.9364   20134100.1254
        54.000          49.000
 128200351.12347  99896357.50047  24395729.4464   24395735.6854   24395729.4774
        43.000          38.000
 123061368.63847  95891962.83447  23417809.6174   23417812.9494   23417809.9694
        48.000          40.000
 09  1 16  0 16 30.0000000  0 12G 5G29G 6G14G24G 9G31G22G30G21G12G18
 124202981.82047  96781518.52347  23635060.7964   23635066.8334   23635061.1724
        45.000          40.000
 119670131.83947  93249432.37047  22772483.4354   22772487.3424   22772482.8444
        48.000          43.000
 128482886.37247 100116505.58547  24449502.4534   24449507.5514   24449502.6004
        41.000          37.000
 115579240.05047  90061733.74247  21994007.5624   21994011.2414   21994007.6274
        51.000          45.000
 114470814.78147  89198013.63647  21783088.4654   21783093.6324   21783088.7394
        52.000          45.000
 118827918.33747  92593165.49447  22612217.0494   22612221.4244   22612217.0434
        48.000          42.000
 120935302.05547  94235283.56147  23013235.1634   23013238.6194   23013234.3364
        48.000          42.000
 126473690.69947  98550914.74747  24067153.4554   24067155.2254   24067153.5714
        45.000          39.000
 122043469.49647  95098784.11747  23224117.8144   23224122.3834   23224117.8054
        48.000          41.000
 105771974.25647  82419705.97847  20127749.9594   20127752.6244   20127750.3894
        54.000          49.000
 128201762.56547  99897457.36647  24395997.8824   24396003.7734   24395997.5354
        44.000          38.000
 123033663.59747  95870374.55147  23412537.1874   23412540.4934   23412537.2294
        48.000          40.000
 09  1 16  0 17  0.0000000  0 12G 5G29G 6G14G24G 9G31G22G30G21G12G18
 124189607.20647  96771096.77147  23632516.1454   23632521.2734   23632516.3364
        46.000          40.000
 119745638.59947  93308268.79647  22786852.0484   22786855.8194   22786851.8754
        48.000          43.000
 128439303.32447 100082544.83347  24441207.6454   24441214.0344   24441208.1184
        42.000          36.000
 115597683.95647  90076105.65947  21997517.4174   21997521.1894   21997517.7314
        51.000          45.000
 114517083.06747  89234066.85947  21791893.0404   21791898.3174   21791893.0574
        52.000          45.000
 118906013.95547  92654019.24947  22627078.0434   22627082.5514   22627078.2544
        48.000          42.000
 120835345.34047  94157395.28647  22994214.0754   22994217.5614   22994213.2094
        48.000          42.000
 126446403.74147  98529652.25747  24061960.4444   24061962.5324   24061960.4824
        45.000          39.000
 122018083.51147  95079002.86647  23219286.8744   23219291.4714   23219286.6774
        48.000          41.000
 105739146.75747  82394126.13847  20121503.0204   20121505.7254   20121503.3074
        54.000          49.000
 128203223.65147  99898595.89447  24396276.3004   24396281.5514   24396276.0494
        44.000          39.000
 123005783.59647  95848649.89547  23407231.8064   23407234.6634   23407232.2464
        48.000          41.000
 09  1 16  0 17 30.0000000  0 12G 5G29G 6G14G24G 9G31G22G30G21G12G18
 124176288.70547  96760718.75447  23629981.0074   23629987.1244   23629981.3354
        45.000          39.000
 119821124.66347  93367089.09947  22801216.5464   22801220.3944   22801216.2174
        48.000          43.000
 128396025.19447 100048821.67347  24432972.3494   24432978.5384   24432973.1614
        42.000          37.000
 115616463.67947  90090739.24847  22001090.9624   22001094.6614   22001091.3094
        50.000          44.000
 114563806.18847  89270474.49247  21800784.0504   21800789.4904   21800784.3854
        51.000          45.000
 118984526.37947  92715197.80347  22642018.7224   22642022.9024   22642018.8374
        48.000          42.000
 120735538.11247  94079623.51547  22975221.2114   22975224.9824   22975221.2004
        48.000          43.000
 126418889.56647  98508212.72447  24056724.9314   24056726.6804   24056724.9984
        45.000          39.000
 121992609.66647  95059153.15047  23214439.2124   23214444.1024   23214438.7584
        48.000          41.000
 105706864.54347  82368971.19147  20115360.1334   20115362.5754   20115360.5744
        54.000          49.000
 128204737.18047  99899775.30447  24396564.5914   24396569.6174   24396564.2404
        45.000          39.000
 122977730.30847  95826790.24247  23401893.2114   23401896.3694   23401893.8144
        49.000          40.000
 09  1 16  0 18  0.0000000  0 12G 5G29G 6G14G24G 9G31G22G30G21G12G18
 124163028.03247  96750385.78747  23627457.9074   23627463.5824   23627458.4534
        45.000          39.000
 119896587.70347  93425891.47147  22815576.7924   22815580.5384   22815576.3234
        49.000          43.000
 128353051.50547 100015335.72647  24424795.3784   24424800.5684   24424795.4934
        42.000          37.000
 115635576.72047  90105632.56747  22004727.9184   22004731.5574   22004728.1594
        50.000          44.000
 114610983.03647  89307235.68847  21809761.2294   21809767.0194   21809761.4194
        51.000          45.000
 119063453.03947  92776699.14647  22657037.7874   22657041.8694   22657037.9854
        48.000          42.000
 120635883.01847  94001970.27047  22956257.4614   22956261.4194   22956256.8614
        49.000          43.000
 126391147.43247  98486595.57147  24051445.6694   24051447.2364   24051446.2214
        45.000          39.000
 121967049.38247  95039236.08247  23209575.4574   23209580.0544   23209575.3974
        48.000          41.000
 105675129.25647  82344242.42547  20109320.8634   20109323.4904   20109321.2874
        54.000          49.000
 128206304.51947  99900996.67047  24396862.7834   24396867.6614   24396862.5344
        44.000          38.000
 122949504.55947  95804796.17447  23396522.1434   23396525.1564   23396522.6224
        48.000          40.000
 09  1 16  0 18 30.0000000  0 12G 5G29G 6G14G24G 9G31G22G30G21G12G18
 124149827.25547  96740099.50547  23624945.9834   23624951.7034   23624946.5414
        46.000          39.000
 119972025.32147  93484674.01947  22829932.4124   22829936.0094   22829931.7664
        49.000          43.000
 128310381.80947  99982086.69147  24416675.0404   24416681.1004   24416675.2924
        42.000          37.000
 115655020.49147  90120783.60647  22008427.9714   22008431.6394   22008428.1934
        50.000          44.000
 114658612.72247  89344349.74247  21818825.1964   21818830.5064   21818825.3734
        52.000          45.000
 119142791.92647  92838521.69047  22672135.7104   22672139.7184   22672135.7484
        47.000          41.000
 120536382.65047  93924437.59547  22937323.0074   22937326.9314   22937322.8874
        49.000          43.000
 126363177.37347  98464800.82647  24046123.1084   24046124.7694   24046123.0584
        46.000          39.000
 121941404.32047  95019252.94947  23204695.4844   23204699.7664   23204695.2004
        48.000          42.000
 105643942.71847  82319941.24947  20103386.4764   20103388.9144   20103386.8544
        54.000          49.000
 128207927.44947  99902261.33947  24397171.4064   24397176.0694   24397170.9734
        43.000          38.000
 122921107.75347  95782668.82747  23391118.3124   23391121.2754   23391118.8674
        48.000          40.000
 09  1 16  0 19  0.0000000  0 12G 5G29G 6G14G24G 9G31G22G30G21G12G18
 124136688.60247  96729861.62347  23622445.5534   23622451.1644   23622445.8604
        45.000          39.000
 120047435.23047  93543434.98647  22844282.5874   22844286.2044   22844282.0064
        48.000          43.000
 128268016.12947  99949074.50447  24408613.2774   24408619.0024   24408613.3934
        43.000          37.000
 115674792.72947  90136190.59447  22012190.4094   22012194.2214   22012190.5994
        50.000          45.000
 114706694.44247  89381816.03447  21827974.8314   21827979.9114   21827974.9924
        51.000          45.000
 119222540.78747  92900663.68947  22687311.0534   22687315.5484   22687311.4804
        47.000          41.000
 120437040.19147  93847027.95447  22918418.7584   22918422.4304   22918418.3714
        49.000          43.000
 126334979.50447  98442828.53147  24040756.6894   24040759.1034   24040756.7694
        44.000          39.000
 121915676.26247  94999205.13847  23199799.6404   23199803.8394   23199799.2044
        48.000          42.000
 105613306.92847  82296069.23347  20097556.4944   20097559.0204   20097556.9114
        54.000          49.000
 128209608.47147  99903571.27047  24397490.3994   24397496.1414   24397490.1064
        42.000          38.000
 122892540.86747  95760408.95247  23385682.2224   23385685.3064   23385682.6474
        48.000          40.000
 09  1 16  0 19 30.0000000  0 12G 5G29G 6G14G24G 9G31G22G30G21G12G18
 124123615.05347  96719674.46147  23619957.6804   23619963.3744   23619957.6934
        45.000          39.000
 120122816.14447  93602173.36747  22858626.9124   22858630.7534   22858626.6644
        49.000          43.000
 128225954.94347  99916299.61147  24400608.6544   24400615.2724   24400609.2154
        41.000          37.000
 115694892.11647  90151852.49047  22016015.1814   22016019.0374   22016015.3564
        50.000          44.000
 114755227.96947  89419634.38147  21837210.2524   21837215.7574   21837210.2884
        51.000          45.000
 119302697.72347  92963123.67047  22702564.3694   22702568.7554   22702564.3634
        47.000          41.000
 120337859.43947  93769744.33047  22899545.1674   22899548.8464   22899544.9934
        48.000          43.000
 126306554.67447  98420679.39947  24035347.9864   24035349.6384   24035347.9374
        45.000          39.000
 121889867.96347  94979094.81347  23194888.5594   23194892.5374   23194887.9574
        48.000          42.000
 105583224.93247  82272628.74547  20091832.2444   20091834.7214   20091832.6344
        54.000          50.000
 128211350.15347  99904928.44847  24397822.3344   24397828.0524   24397822.1944
        43.000          38.000
 122863805.66347  95738017.90747  23380214.3884   23380216.9684   23380214.8314
        47.000          40.000
 09  1 16  0 20  0.0000000  0 12G 5G29G 6G14G24G 9G31G22G30G21G12G18
 124110606.96447  96709538.33647  23617481.8764   23617487.9644   23617482.2164
        45.000          39.000
 120198164.09747  93660886.05047  22872965.1314   22872968.9484   22872964.9254
        48.000          43.000
 128184196.25647  99883760.43047  24392662.1184   24392668.9354   24392662.2004
        42.000          37.000
 115715314.75247  90167766.28147  22019901.3524   22019905.2364   22019901.7694
        50.000          44.000
 114804210.51347  89457802.60747  21846531.3404   21846536.8284   21846531.2884
        51.000          45.000
 119383259.34547  93025899.00447  22717894.6294   22717899.1984   22717894.6244
        47.000          41.000
 120238841.55447  93692587.59747  22880702.5194   22880706.1964   22880702.0994
        48.000          43.000
 126277901.37447  98398352.23847  24029895.5224   24029896.8724   24029895.6234
        46.000          39.000
 121863979.39147  94958921.93047  23189961.9874   23189966.4814   23189961.8834
        48.000          41.000
 105553696.28947  82249619.43947  20086212.8764   20086215.6464   20086213.3074
        54.000          50.000
 128213152.47247  99906332.91947  24398165.5494   24398170.6804   24398165.3444
        43.000          38.000
 122834902.06747  95715495.64347  23374713.8904   23374716.9354   23374714.5324
        47.000          40.000
 09  1 16  0 20 30.0000000  0 12G 5G29G 6G14G24G 9G31G22G30G21G12G18
 124097667.80347  96699455.92047  23615019.2474   23615025.5684   23615019.8504
        45.000          39.000
 120273478.16947  93719572.33447  22887296.4264   22887300.7794   22887296.5034
        48.000          43.000
 128142741.17947  99851457.79847  24384774.4554   24384779.4254   24384774.5184
        43.000          37.000
