     2.11           OBSERVATION DATA    G (GPS)             RINEX VERSION / TYPE
teqc  2008Oct2      gpsops              20090113 00:09:52UTCPGM / RUN BY / DATE
    30.0000                                                 INTERVAL
     1     1                                                WAVELENGTH FACT L1/2
     7    L1    L2    P1    P2    C1    S1    S2            # / TYPES OF OBSERV
Linux 2.4.20-8|Pentium IV|gcc -static|Linux|486/DX+         COMMENT
     2.10           OBSERVATION DATA    GPS                 COMMENT
soc2rnx ver 1.20    gpsops              13-Jan-2009 00:09:46COMMENT
S1, if present, is the SNR for the C/A data stream on L1.   COMMENT
 SNR is mapped to RINEX snr flag value [1,4-9]              COMMENT
    SNR:   >316  >100  >31.6  >10  >3.2    >0 bad=0         COMMENT
L1 & L2:      9     8     7     6     5     4     1         COMMENT
                                                            COMMENT
This data is provided as a public service by NASA/JPL.      COMMENT
No warranty is expressed or implied regarding suitability   COMMENT
for use.  For further information, contact:                 COMMENT
Dave Stowers, NASA/JPL m/s 238-600                          COMMENT
4800 Oak Grove Drive, Pasadena CA 91109 USA                 COMMENT
                                                            COMMENT
Forced Modulo Decimation to 30 seconds                      COMMENT
  2009     1    12     0     0    0.0000000     GPS         TIME OF FIRST OBS
GGN                 JPL                                     OBSERVER / AGENCY
CR519992104         ASH701945B_M    SCIT                    ANT # / TYPE
   -33801.4662 -6377516.5323   -82154.3508                  APPROX POSITION XYZ
        0.0083        0.0000        0.0000                  ANTENNA: DELTA H/E/N
ZR220013847         ASHTECH UZ-12       CQ00                REC # / TYPE / VERS
GLPS                                                        MARKER NAME
42005M002                                                   MARKER NUMBER
                                                            END OF HEADER
 09  1 12  0  0  0.0000000  0 11G24G14G 9G 5G30G18G31G21G22G12G29
 112445046.12247  87619495.97347  21397597.5954   21397602.5284   21397597.7544
        53.000          47.000
 115247242.20247  89803034.77147  21930828.5724   21930832.1834   21930829.5694
        50.000          44.000
 114687249.24847  89366673.88947  21824268.1944   21824272.2244   21824268.4144
        51.000          45.000
 125066802.87647  97454626.83847  23799440.8184   23799444.6134   23799440.8184
        46.000          39.000
 123444396.39047  96190421.02747  23490700.6204   23490703.9624   23490700.4074
        46.000          40.000
 124438450.60547  96965031.48147  23679846.1564   23679846.5134   23679845.8674
        47.000          40.000
 127741402.54647  99538721.19547  24308410.3644   24308412.6754   24308408.5714
        43.000          37.000
 109023796.79847  84953605.91547  20746539.7274   20746542.3264   20746540.1994
        54.000          48.000
 127786448.24347  99573852.46847  24316953.2554   24316956.2444   24316954.3994
        45.000          38.000
 128161270.56947  99865903.63647  24388296.2304   24388300.1184   24388296.2274
        43.000          38.000
 114823628.34547  89472942.12047  21850221.9304   21850226.0664   21850221.7954
        51.000          46.000
 09  1 12  0  0 30.0000000  0 11G24G14G 9G 5G30G18G31G21G22G12G29
 112460438.11247  87631489.73847  21400526.4184   21400531.1624   21400526.5364
        53.000          47.000
 115239180.24347  89796752.75347  21929295.0234   21929297.9964   21929295.4064
        50.000          44.000
 114734012.53747  89403112.82647  21833167.1514   21833170.8504   21833167.2954
        51.000          45.000
 125054159.39947  97444774.80547  23797033.8804   23797039.0574   23797034.8844
        46.000          39.000
 123428147.92147  96177759.91047  23487608.4244   23487612.8884   23487608.2764
        47.000          40.000
 124423828.59947  96953637.73347  23677062.9594   23677065.2304   23677063.0854
        46.000          39.000
 127637779.63147  99457976.17547  24288690.3354   24288695.1314   24288690.2334
        43.000          37.000
 108960298.70947  84904126.88647  20734456.7994   20734458.8284   20734457.0574
        54.000          48.000
 127773567.26747  99563815.41047  24314503.0504   24314505.0504   24314503.4414
        45.000          38.000
 128163440.23847  99867594.31047  24388708.6284   24388713.8304   24388708.3264
        42.000          38.000
 114895267.97347  89528765.19747  21863854.8404   21863858.1904   21863854.7894
        51.000          46.000
 09  1 12  0  1  0.0000000  0 11G24G14G 9G 5G30G18G31G21G22G12G29
 112476295.22547  87643845.93847  21403543.9744   21403548.6704   21403544.1294
        53.000          47.000
 115231566.61147  89790820.07347  21927846.2884   21927849.3994   21927846.4884
        51.000          44.000
 114781293.07247  89439954.81847  21842164.3864   21842168.0304   21842164.5804
        51.000          45.000
 125041441.51547  97434864.78247  23794613.6534   23794618.7844   23794614.1724
        46.000          39.000
 123411717.39747  96164956.92347  23484482.2064   23484486.2994   23484481.7344
        47.000          40.000
 124408985.65847  96942071.83747  23674238.2934   23674240.2954   23674238.4734
        47.000          39.000
 127534125.24647  99377206.64047  24268965.1624   24268969.8064   24268965.2654
        43.000          38.000
 108897174.32447  84854939.05247  20722444.5834   20722446.6204   20722445.0424
        54.000          48.000
 127760483.25047  99553620.12447  24312013.4744   24312014.5934   24312013.7224
        45.000          38.000
 128165541.06947  99869231.35547  24389108.4744   24389113.2644   24389108.0484
        43.000          38.000
 114967050.91647  89584699.95847  21877514.5334   21877517.9794   21877514.2104
        51.000          46.000
 09  1 12  0  1 30.0000000  0 11G24G14G 9G 5G30G18G31G21G22G12G29
 112492620.75447  87656567.14047  21406650.5374   21406655.2014   21406650.5364
        53.000          46.000
 115224402.87047  89785237.96247  21926483.0534   21926486.0304   21926483.2714
        50.000          44.000
 114829092.91447  89477201.46047  21851259.9514   21851264.2694   21851260.0374
        51.000          45.000
 125028653.52347  97424900.13347  23792180.6374   23792185.6354   23792180.8814
        46.000          39.000
 123395108.52847  96152014.96247  23481321.4054   23481325.8494   23481320.8004
        46.000          40.000
 124393924.87347  96930336.17747  23671372.1024   23671374.5504   23671372.7984
        46.000          39.000
 127430444.21847  99296416.34447  24249235.3224   24249240.0424   24249234.6574
        42.000          38.000
 108834429.55547  84806047.03247  20710504.4774   20710506.8344   20710504.8484
        54.000          48.000
 127747197.77647  99543267.89447  24309485.5284   24309486.2494   24309485.8024
        45.000          38.000
 128167577.07947  99870817.88247  24389495.9954   24389501.1394   24389495.9354
        43.000          38.000
 115038977.16847  89640746.38547  21891201.4894   21891205.1174   21891200.8174
        51.000          46.000
 09  1 12  0  2  0.0000000  0 11G24G14G 9G 5G30G18G31G21G22G12G29
 112509412.93047  87669651.96047  21409845.9204   21409850.7554   21409846.1414
        53.000          46.000
 115217685.42347  89780003.61647  21925204.5754   21925207.9694   21925204.9604
        51.000          44.000
 114877408.71547  89514850.15247  21860454.4834   21860458.1694   21860454.7474
        51.000          45.000
 125015794.86447  97414880.42947  23789733.1224   23789738.8814   23789733.9894
        44.000          39.000
 123378320.16247  96138933.15047  23478126.2244   23478130.9604   23478125.8394
        46.000          40.000
 124378644.47347  96918429.38047  23668464.4464   23668467.0154   23668464.7394
        46.000          39.000
 127326736.54047  99215605.27747  24229499.9034   24229504.7094   24229498.8304
        42.000          38.000
 108772064.99347  84757451.27847  20698636.9784   20698639.2634   20698637.2924
        54.000          48.000
 127733707.79147  99532756.29847  24306917.7334   24306919.7354   24306918.3884
        45.000          39.000
 128169547.55647  99872353.30347  24389870.8104   24389875.7234   24389870.1634
        42.000          38.000
 115111041.77547  89696900.61647  21904914.9524   21904918.5664   21904914.9614
        51.000          46.000
 09  1 12  0  2 30.0000000  0 11G24G14G 9G 5G30G18G31G21G22G12G29
 112526673.78447  87683101.98047  21413130.6314   21413135.4124   21413130.7774
        53.000          46.000
 115211414.45247  89775117.17747  21924011.3504   21924014.4064   21924011.5834
        50.000          44.000
 114926240.67747  89552901.05347  21869747.0054   21869750.7374   21869746.9884
        51.000          45.000
 125002868.84047  97404808.20847  23787273.2954   23787278.7314   23787273.9414
        45.000          39.000
 123361354.80047  96125713.40447  23474897.7654   23474902.5564   23474897.5604
        47.000          41.000
 124363145.73347  96906352.46347  23665515.0274   23665516.7604   23665515.3044
        47.000          39.000
 127223006.32347  99134776.65347  24209761.1384   24209765.6364   24209759.8494
        43.000          38.000
 108710085.31447  84709155.42847  20686842.7284   20686844.8444   20686843.1634
        54.000          48.000
 127720014.42547  99522086.21847  24304311.9944   24304313.5864   24304312.2904
        45.000          38.000
 128171456.45547  99873840.75647  24390234.1754   24390239.1804   24390233.7024
        43.000          38.000
 115183243.71747  89753161.85847  21918654.7064   21918658.1984   21918654.7224
        51.000          46.000
 09  1 12  0  3  0.0000000  0 11G24G14G 9G 5G30G18G31G21G22G12G29
 112544402.46047  87696916.53747  21416504.1874   21416508.8224   21416504.3854
        53.000          46.000
 115205587.53247  89770576.74447  21922902.5634   21922905.6924   21922902.6264
        50.000          45.000
 114975586.76447  89591352.56447  21879137.2784   21879141.1184   21879137.3634
        51.000          45.000
 124989875.87947  97394683.84247  23784800.6954   23784806.5964   23784800.9644
        45.000          39.000
 123344212.22447  96112355.57047  23471636.0634   23471640.7394   23471635.9074
        47.000          41.000
 124347427.85047  96894104.79547  23662524.2604   23662526.2724   23662524.2594
        46.000          39.000
 127119254.83747  99053931.45747  24190017.8054   24190022.5054   24190017.3924
        44.000          39.000
 108648491.87647  84661160.55247  20675121.8334   20675123.9564   20675122.1954
        54.000          48.000
 127706115.34247  99511255.83447  24301667.5274   24301668.6814   24301667.9454
        44.000          39.000
 128173303.12147  99875279.71047  24390585.5494   24390590.6444   24390585.4994
        43.000          38.000
 115255578.51847  89809526.64047  21932419.5774   21932423.0134   21932419.0154
        51.000          46.000
 09  1 12  0  3 30.0000000  0 11G24G14G 9G 5G30G18G31G21G22G12G29
 112562601.91647  87711097.93047  21419967.2274   21419972.2444   21419967.2634
        53.000          46.000
 115200206.44147  89766383.70847  21921878.5194   21921881.8934   21921878.7374
        50.000          45.000
 115025449.02147  89630206.29347  21888625.6974   21888629.2544   21888625.9214
        51.000          45.000
 124976820.52747  97384510.86147  23782316.3464   23782321.5584   23782316.6224
        45.000          39.000
 123326895.94247  96098862.37947  23468340.6434   23468345.6984   23468340.6934
        47.000          41.000
 124331494.07447  96881688.88747  23659491.7274   23659493.8424   23659491.9334
        46.000          39.000
 127015487.29847  98973073.75247  24170271.3354   24170275.5584   24170271.9274
        44.000          39.000
 108587290.48547  84613471.16147  20663475.6674   20663477.6454   20663476.0244
        54.000          48.000
 127692013.24347  99500267.24247  24298983.5184   24298984.6564   24298983.3844
        45.000          38.000
 128175092.67147  99876674.17147  24390926.1474   24390930.7174   24390925.5584
        43.000          38.000
 115328046.46047  89865995.15047  21946209.9474   21946213.1674   21946209.8654
        51.000          46.000
 09  1 12  0  4  0.0000000  0 11G24G14G 9G 5G30G18G31G21G22G12G29
 112581268.17947  87725643.06547  21423519.5714   21423524.2944   21423519.6424
        53.000          47.000
 115195264.82747  89762533.12047  21920938.1874   21920941.4674   21920938.3544
        50.000          45.000
 115075821.76247  89669457.79547  21898211.3434   21898214.8424   21898211.4254
        51.000          45.000
 124963699.94947  97374287.06347  23779819.2834   23779824.7414   23779819.9144
        44.000          39.000
 123309402.67447  96085231.28847  23465011.8704   23465016.4374   23465011.8124
        47.000          41.000
 124315339.97947  96869101.29547  23656417.6144   23656420.3084   23656417.8904
        45.000          39.000
 126911701.48047  98892201.78647  24150521.6484   24150526.0304   24150522.0574
        44.000          39.000
 108526479.59647  84566086.06247  20651903.4544   20651905.6334   20651903.8904
        55.000          48.000
 127677701.81347  99489115.55947  24296260.5964   24296261.7864   24296260.2134
        45.000          39.000
 128176821.81647  99878021.62447  24391255.3034   24391259.9514   24391255.0004
        43.000          38.000
 115400639.91347  89922561.46947  21960024.1844   21960027.6164   21960024.0454
        51.000          46.000
 09  1 12  0  4 30.0000000  0 11G24G14G 9G 5G30G18G31G21G22G12G29
 112600406.53847  87740556.07447  21427161.5204   21427166.3444   21427161.5794
        53.000          47.000
 115190766.57947  89759028.03447  21920082.1024   21920085.5034   21920082.2974
        50.000          45.000
 115126708.84747  89709110.09747  21907894.7934   21907898.2704   21907894.8274
        51.000          44.000
 124950520.77747  97364017.61347  23777311.1154   23777317.2034   23777311.6514
        44.000          38.000
 123291738.16347  96071466.75847  23461650.5984   23461655.1434   23461650.0594
        47.000          41.000
 124298970.76347  96856346.08347  23653302.6064   23653304.9614   23653303.2024
        46.000          39.000
 126807904.64247  98811321.24247  24130769.7474   24130773.6824   24130769.0964
        43.000          39.000
 108466066.99747  84519011.31247  20640407.6594   20640409.6034   20640408.0634
        55.000          48.000
 127663185.55147  99477804.26947  24293497.6104   24293499.1974   24293498.0024
        44.000          39.000
 128178497.38947  99879327.29747  24391574.1544   24391579.2464   24391573.6454
        42.000          38.000
 115473361.25647  89979227.44547  21973862.2994   21973866.0744   21973861.8794
        51.000          46.000
 09  1 12  0  5  0.0000000  0 11G24G14G 9G 5G30G18G31G21G22G12G29
 112620013.43147  87755834.17347  21430892.5374   21430897.2794   21430892.7274
        53.000          47.000
 115186706.45247  89755864.32147  21919309.3724   21919312.5534   21919309.6544
        51.000          45.000
 115178105.72147  89749159.62847  21917675.3334   21917678.6834   21917675.3734
        51.000          44.000
 124937281.20447  97353701.09847  23774791.7674   23774797.3824   23774792.0464
        44.000          39.000
 123273900.03947  96057566.94247  23458256.2774   23458260.7214   23458255.9244
        47.000          41.000
 124282383.17947  96843420.70347  23650146.1024   23650148.6304   23650146.7174
        46.000          39.000
 126704096.04647  98730431.52447  24111015.7244   24111019.5964   24111014.5454
        44.000          39.000
 108406051.80547  84472246.23647  20628987.1754   20628989.2054   20628987.5484
        55.000          49.000
 127648459.90847  99466329.79747  24290694.9424   24290697.4184   24290695.2204
        44.000          39.000
 128180117.53347  99880589.76347  24391882.1824   24391886.7494   24391882.0994
        43.000          38.000
 115546204.11047  90035988.10247  21987723.9124   21987727.6224   21987723.6454
        51.000          46.000
 09  1 12  0  5 30.0000000  0 11G24G14G 9G 5G30G18G31G21G22G12G29
 112640091.51847  87771479.43647  21434713.1244   21434718.0774   21434713.2984
        53.000          47.000
 115183085.52747  89753042.84347  21918620.3814   21918623.7494   21918620.6634
        50.000          45.000
 115230013.44047  89789607.22147  21927552.8374   21927556.2604   21927553.0384
        50.000          44.000
 124923985.06547  97343340.51047  23772262.0074   23772267.6244   23772262.3864
        45.000          39.000
 123255891.63847  96043534.44347  23454828.8554   23454834.0894   23454829.3304
        47.000          41.000
 124265579.82047  96830327.20347  23646948.7544   23646950.7964   23646949.0754
        46.000          39.000
 126600280.23247  98649536.17047  24091260.3974   24091264.2114   24091259.0454
        44.000          39.000
 108346439.42947  84425795.04347  20617643.3544   20617645.3084   20617643.7174
        55.000          49.000
 127633526.58047  99454693.50647  24287853.7954   24287855.0094   24287853.9664
        44.000          38.000
 128181685.57647  99881811.65147  24392180.5054   24392185.1964   24392180.3874
        43.000          38.000
 115619167.88347  90092842.98647  22001608.4514   22001612.1534   22001608.2114
        50.000          46.000
 09  1 12  0  6  0.0000000  0 11G24G14G 9G 5G30G18G31G21G22G12G29
 112660639.32247  87787490.71147  21438623.5534   21438628.3554   21438623.7494
        53.000          47.000
 115179900.49847  89750561.03147  21918014.3224   21918017.4164   21918014.5494
        51.000          44.000
 115282429.34947  89830450.81147  21937527.2174   21937530.8014   21937527.4784
        51.000          44.000
 124910632.37247  97332935.85247  23769721.4004   23769726.4374   23769721.6084
        45.000          39.000
 123237712.36147  96029368.79147  23451369.2294   23451374.3034   23451368.9254
        47.000          41.000
 124248559.17447  96817064.37947  23643709.9744   23643711.9854   23643710.4014
        46.000          40.000
 126496457.90547  98568635.74347  24071503.6414   24071507.3554   24071503.5104
        44.000          39.000
 108287230.51547  84379658.23647  20606376.2074   20606378.2204   20606376.6114
        55.000          49.000
 127618383.04347  99442893.42147  24284972.1844   24284972.8654   24284971.8994
        45.000          38.000
 128183201.67147  99882993.04247  24392468.4684   24392473.9664   24392468.7084
        42.000          38.000
 115692248.07547  90149788.59147  22015515.0594   22015519.0494   22015514.9304
        50.000          46.000
 09  1 12  0  6 30.0000000  0 11G24G14G 9G 5G30G18G31G21G22G12G29
 112681659.05947  87803869.73347  21442623.5064   21442628.1324   21442623.7284
        53.000          46.000
 115177152.43847  89748419.71247  21917491.2204   21917494.5994   21917491.7364
        51.000          45.000
 115335354.24347  89871691.01447  21947598.4194   21947602.2874   21947598.5604
        50.000          44.000
 124897227.11047  97322490.22047  23767169.9704   23767176.0494   23767170.5944
        45.000          39.000
 123219365.24747  96015072.35647  23447877.7354   23447882.6824   23447877.2714
        46.000          41.000
 124231323.86347  96803634.28947  23640429.8744   23640432.2294   23640430.4764
        46.000          39.000
 126392633.53347  98487733.72547  24051746.6534   24051750.2024   24051746.9654
        45.000          38.000
 108228430.09547  84333839.74647  20595186.5974   20595189.0534   20595186.9634
        55.000          49.000
 127603030.62047  99430930.57947  24282050.7204   24282051.7894   24282050.9614
        45.000          38.000
 128184670.11547  99884137.28247  24392748.6464   24392753.5384   24392748.0974
        43.000          38.000
 115765444.05547  90206824.41747  22029443.5434   22029447.6654   22029443.4904
        50.000          46.000
 09  1 12  0  7  0.0000000  0 12G24G14G 9G 5G30G18G31G 6G21G22G12G29
 112703150.18047  87820616.06447  21446712.9704   21446717.7634   21446713.1634
        53.000          46.000
 115174838.50047  89746616.66847  21917051.0034   21917053.9134   21917051.1204
        51.000          44.000
 115388786.13847  89913326.27547  21957765.9044   21957769.8154   21957765.9584
        50.000          44.000
 124883770.03347  97312004.22747  23764609.4694   23764614.8724   23764609.9464
        44.000          39.000
 123200850.42747  96000645.23747  23444354.7694   23444359.2074   23444354.2784
        47.000          40.000
 124213872.99447  96790036.23247  23637109.3924   23637111.3614   23637109.6554
        47.000          39.000
 126288808.66047  98406831.31147  24031989.0324   24031992.7984   24031990.2654
        44.000          39.000
 131112974.34347 102165941.86547  24949977.5504   24949980.2184   24949975.7344
        39.000          36.000
 108170040.31347  84288341.22147  20584075.6974   20584077.9854   20584076.1774
        55.000          49.000
 127587467.64847  99418803.64547  24279089.0654   24279090.5644   24279089.2704
        45.000          38.000
 128186091.21547  99885244.65847  24393018.7794   24393023.8314   24393019.2444
        42.000          38.000
 115838752.01547  90263947.50247  22043393.5814   22043397.6754   22043393.2104
        50.000          45.000
 09  1 12  0  7 30.0000000  0 12G24G14G 9G 5G30G18G31G 6G21G22G12G29
 112725112.19847  87837729.33147  21450892.0514   21450896.7684   21450892.1304
        52.000          46.000
 115172956.73647  89745150.38247  21916693.0244   21916695.6004   21916693.2234
        51.000          44.000
 115442723.42247  89955355.35347  21968029.9984   21968033.7214   21968030.1644
        50.000          44.000
 124870262.28647  97301478.74547  23762038.8244   23762044.0934   23762039.5504
        45.000          39.000
 123182168.43447  95986087.86747  23440799.7844   23440804.5284   23440800.0834
        47.000          41.000
 124196206.85147  96776270.41347  23633747.4464   23633749.8214   23633748.3724
        47.000          39.000
 126184985.28047  98325930.06447  24012232.2354   24012235.6564   24012232.5834
        45.000          39.000
 141053771.34657  92119813.94257  24938707.9895   24938712.7385   24938707.2405
        39.000          35.000
 108112063.08747  84243164.16947  20573042.8974   20573045.0964   20573043.2924
        54.000          49.000
 127571692.73947  99406511.56447  24276087.2984   24276088.1654   24276087.3784
        45.000          38.000
 128187465.64547  99886315.61247  24393280.1894   24393285.3054   24393279.9064
        43.000          38.000
 115912168.78247  90321155.37947  22057364.2174   22057368.4574   22057363.8474
        50.000          45.000
 09  1 12  0  8  0.0000000  0 12G24G14G 9G 5G30G18G31G 6G21G22G12G29
 112747547.02447  87855211.01247  21455161.2844   21455166.2654   21455161.5794
        52.000          46.000
 115171507.57247  89744021.18547  21916417.0764   21916420.4514   21916417.3004
        51.000          45.000
 115497165.93047  89997778.10947  21978390.1204   21978394.3334   21978390.0664
        50.000          44.000
 124856707.29747  97290916.43447  23759459.8954   23759465.0804   23759460.1974
        45.000          39.000
 123163322.05447  95971402.41147  23437213.2354   23437218.3734   23437213.0144
        47.000          41.000
 124178327.37647  96762338.36747  23630344.9014   23630347.2764   23630345.6474
        46.000          39.000
 126081167.76347  98245033.36147  23992476.4354   23992479.5614   23992475.6204
        44.000          39.000
 140994849.48647  92073900.82947  24927495.2144   24927500.1284   24927494.6184
        37.000          35.000
 108054503.17947  84198312.30447  20562089.4594   20562091.8274   20562089.7134
        55.000          49.000
 127555706.66447  99394054.97147  24273045.4884   24273046.6524   24273045.5754
        44.000          39.000
 128188797.25947  99887353.20147  24393534.0494   24393538.5064   24393533.5574
        43.000          38.000
 115985693.08447  90378447.03547  22071355.5824   22071359.5574   22071355.3854
        50.000          45.000
 09  1 12  0  8 30.0000000  0 12G24G14G 9G 5G30G18G31G 6G21G22G12G29
 112770452.73647  87873059.62547  21459520.0264   21459524.8564   21459520.0354
        53.000          46.000
 115170487.61547  89743226.44247  21916223.3104   21916226.0874   21916223.7044
        51.000          45.000
 115552110.95447  90040592.43147  21988845.6674   21988849.6874   21988845.7754
        50.000          44.000
 124843105.06847  97280317.34147  23756871.2454   23756876.3594   23756871.8694
        45.000          39.000
 123144310.64447  95956588.34747  23433595.9394   23433600.4914   23433595.2674
        47.000          41.000
 124160232.65547  96748238.61247  23626901.6744   23626904.1194   23626901.6954
        46.000          39.000
 125977356.62447  98164141.63047  23972721.7404   23972725.0954   23972721.4584
        45.000          39.000
 140936222.32347  92028217.36247  24916339.1044   24916343.3944   24916338.9094
        38.000          35.000
 107997361.35447  84153786.21847  20551215.8534   20551218.0084   20551216.2274
        55.000          49.000
 127539507.34147  99381432.17747  24269962.0424   24269963.8254   24269962.4524
        44.000          38.000
 128190085.75347  99888357.20147  24393779.3284   24393784.0544   24393779.2774
        44.000          38.000
 116059320.35047  90435818.92247  22085366.5254   22085370.3044   22085366.3834
        50.000          45.000
 09  1 12  0  9  0.0000000  0 12G24G14G 9G 5G30G18G31G 6G21G22G12G29
 112793832.00047  87891277.23547  21463969.3154   21463973.9164   21463969.5564
        53.000          46.000
 115169897.79647  89742766.86447  21916110.8544   21916113.9444   21916111.1084
        51.000          45.000
 115607559.54247  90083799.15047  21999397.5204   21999400.6064   21999397.6764
        50.000          44.000
 124829459.77647  97269684.67347  23754274.0794   23754279.7864   23754274.5684
        45.000          39.000
 123125137.73147  95941648.42347  23429947.3504   23429952.1704   23429946.8244
        47.000          41.000
 124141925.80247  96733973.54647  23623417.6374   23623420.0844   23623418.2794
        46.000          39.000
 125873556.99747  98083258.88347  23952968.9064   23952972.8244   23952969.1224
        45.000          39.000
 140877892.97447  91982765.96047  24905238.5314   24905244.8494   24905239.1534
        39.000          35.000
 107940642.85747  84109589.99947  20540422.4294   20540424.7654   20540422.7774
        55.000          49.000
 127523096.27547  99368644.38047  24266839.4344   24266840.8254   24266839.4944
        44.000          38.000
 128191335.47447  99889331.01047  24394016.7864   24394021.4424   24394016.4194
        42.000          38.000
 116133050.35147  90493270.86347  22099396.9894   22099400.5674   22099396.7624
        50.000          45.000
 09  1 12  0  9 30.0000000  0 12G24G14G 9G 5G30G18G31G 6G21G22G12G29
 112817682.42647  87909861.98347  21468507.6664   21468512.6194   21468507.9624
        53.000          46.000
 115169733.84047  89742639.13547  21916079.7774   21916082.7714   21916080.0324
        51.000          45.000
 115663508.04347  90127395.41147  22010044.0644   22010047.4974   22010044.0334
        51.000          44.000
 124815770.77947  97259017.97447  23751669.7124   23751674.8224   23751670.0184
        45.000          39.000
 123105802.03647  95926581.67447  23426268.1384   23426272.5134   23426268.1274
        46.000          41.000
 124123404.81647  96719541.65147  23619893.5534   23619895.8194   23619893.5294
        46.000          39.000
 125769768.78147  98002385.01447  23933218.4934   23933222.2784   23933217.9674
        45.000          39.000
 140819859.37247  91937545.00247  24894194.9604   24894201.5694   24894195.4864
        41.000          35.000
 107884348.03547  84065723.90647  20529710.1284   20529712.2344   20529710.4544
        55.000          49.000
 127506470.52847  99355689.33147  24263675.2804   24263677.1294   24263675.4664
        43.000          38.000
 128192545.41747  99890273.81347  24394247.2344   24394251.3344   24394246.9394
        44.000          38.000
 116206878.18247  90550799.03347  22113445.9764   22113449.5274   22113445.4954
        50.000          45.000
 09  1 12  0 10  0.0000000  0 12G24G14G 9G 5G30G18G31G 6G21G22G12G29
 112842007.17847  87928816.33647  21473136.6504   21473141.3154   21473136.7374
        53.000          46.000
 115169996.98047  89742844.21247  21916129.6864   21916132.5574   21916129.9624
        51.000          45.000
 115719957.84747  90171382.29647  22020786.0974   22020789.7444   22020786.2524
        51.000          44.000
 124802042.47947  97248320.64047  23749056.7174   23749062.2384   23749057.3454
        45.000          39.000
 123086307.22947  95911390.93947  23422557.7284   23422562.8374   23422557.6524
        47.000          41.000
 124104672.85247  96704945.32547  23616329.0464   23616331.2204   23616329.3824
        46.000          39.000
 125665997.09547  97921524.02947  23913471.1914   23913474.8924   23913470.2244
        44.000          39.000
 140762124.49547  91892556.76147  24883208.4424   24883213.7954   24883209.1754
        40.000          35.000
 107828482.64147  84022192.43847  20519079.1264   20519081.2904   20519079.5144
        54.000          49.000
 127489632.25047  99342568.66147  24260470.6494   24260473.0934   24260470.4554
        42.000          37.000
 128193719.94547  99891189.01347  24394470.8484   24394475.7154   24394470.5534
        44.000          39.000
 116280803.40547  90608403.09147  22127513.3834   22127517.1194   22127513.3414
        50.000          45.000
 09  1 12  0 10 30.0000000  0 12G24G14G 9G 5G30G18G31G 6G21G22G12G29
 112866804.27447  87948138.75947  21477855.4004   21477860.2214   21477855.6114
        53.000          46.000
 115170684.13347  89743379.68847  21916260.3944   21916263.5404   21916260.5214
        51.000          45.000
 115776905.81347  90215757.36847  22031622.9414   22031626.4594   22031623.3424
        51.000          44.000
 124788274.98147  97237592.71147  23746437.2574   23746442.0694   23746437.8354
        45.000          39.000
 123066652.99347  95896075.98447  23418817.9234   23418822.3974   23418817.3844
        47.000          41.000
 124085728.52647  96690183.55047  23612723.7944   23612726.0974   23612724.4054
        46.000          39.000
 125562242.73147  97840676.54247  23893727.6104   23893731.2134   23893726.6674
        45.000          39.000
 140704687.08747  91847800.34447  24872278.6384   24872283.9764   24872278.9344
        41.000          35.000
 107773047.15347  83978995.96047  20508530.1714   20508532.2504   20508530.5594
        55.000          49.000
 127472578.57947  99329280.16347  24257225.5464   24257226.9684   24257225.8604
        43.000          37.000
 128194859.23147  99892076.74947  24394687.4964   24394692.2574   24394687.6084
        45.000          39.000
 116354821.49947  90666079.51647  22141598.7504   22141602.1354   22141598.6134
        50.000          45.000
 09  1 12  0 11  0.0000000  0 12G24G14G 9G 5G30G18G31G 6G21G22G12G29
 112892073.32147  87967828.92747  21482663.8114   21482668.6184   21482663.9584
        53.000          46.000
 115171793.11447  89744243.85547  21916471.3634   21916474.7514   21916471.6014
        51.000          45.000
 115834350.32247  90260519.34547  22042554.1954   22042558.0364   22042554.4184
        50.000          44.000
 124774469.77247  97226835.46147  23743809.9134   23743815.2994   23743810.0884
        45.000          39.000
 123046840.05747  95880637.35947  23415047.9094   23415051.8594   23415047.3134
        47.000          41.000
 124066571.92047  96675256.34747  23609078.3214   23609080.9764   23609078.6974
        47.000          40.000
 125458507.81147  97759844.21047  23873987.6564   23873990.8604   23873987.5194
        45.000          39.000
 140647547.26447  91803275.78047  24861405.8904   24861409.8414   24861405.5534
        41.000          35.000
 107718044.17747  83936136.50647  20498063.6004   20498065.6134   20498064.0454
        54.000          49.000
 127455308.81147  99315823.26747  24253938.9874   24253940.8934   24253938.7574
        43.000          37.000
 128195964.33947  99892937.87147  24394897.8844   24394902.3024   24394897.9104
        44.000          38.000
 116428929.47747  90723826.00247  22155700.6654   22155704.4464   22155700.1214
        50.000          45.000
 09  1 12  0 11 30.0000000  0 12G24G14G 9G 5G30G18G31G 6G21G22G12G29
 112917815.55647  87987887.81247  21487562.4054   21487567.3544   21487562.6234
        53.000          46.000
 115173323.55247  89745436.43647  21916762.5184   21916765.7014   21916762.7464
        51.000          45.000
 115892291.16447  90305668.06947  22053579.8764   22053583.5274   22053580.1474
        50.000          44.000
 124760630.13647  97216051.38247  23741176.5244   23741181.2134   23741177.2344
        45.000          39.000
 123026871.09647  95865077.14347  23411247.8254   23411251.5444   23411247.9204
        47.000          41.000
 124047204.91047  96660165.17147  23605393.1594   23605395.5644   23605393.2424
        46.000          40.000
 125354796.88447  97679030.57947  23854252.0164   23854255.3984   23854251.7954
        46.000          39.000
 140590706.77947  91758984.49247  24850589.4704   24850593.4624   24850589.0434
        42.000          35.000
 107663477.73447  83893617.21147  20487679.8694   20487682.0134   20487680.1884
        55.000          49.000
 127437823.69547  99302198.54347  24250611.8704   24250613.7164   24250611.6874
        43.000          37.000
 128197038.72447  99893775.05147  24395102.7494   24395106.5114   24395102.3824
        44.000          38.000
 116503126.23847  90781641.66047  22169820.0694   22169823.7644   22169819.6074
        50.000          45.000
 09  1 12  0 12  0.0000000  0 12G24G14G 9G 5G30G18G31G 6G21G22G12G29
 112944031.04447  88008315.46747  21492551.0514   21492555.7484   21492551.1374
        53.000          46.000
 115175274.15247  89746956.41547  21917133.8584   21917136.9214   21917134.1804
        51.000          45.000
 115950726.78247  90351202.34747  22064699.7514   22064703.2774   22064699.9784
        50.000          44.000
 124746757.57447  97205241.63347  23738536.7714   23738541.7044   23738537.4924
        45.000          39.000
 123006746.99747  95849396.05647  23407418.3744   23407422.2694   23407418.0894
        47.000          41.000
 124027627.81947  96644910.32147  23601667.8544   23601670.0534   23601668.2884
        46.000          39.000
 125251111.94047  97598237.19847  23834521.1744   23834524.7264   23834520.6854
        45.000          40.000
 140534165.85147  91714926.65447  24839829.7844   24839834.7754   24839830.1084
        41.000          35.000
 107609350.35447  83851440.03747  20477379.8944   20477381.9264   20477380.4004
        55.000          49.000
 127420122.56247  99288405.51747  24247243.2724   24247244.2704   24247243.3774
        42.000          37.000
 128198083.49247  99894589.15147  24395301.1884   24395305.6714   24395300.8344
        44.000          38.000
 116577408.80247  90839524.16847  22183955.6724   22183959.1274   22183955.3134
        50.000          45.000
 09  1 12  0 12 30.0000000  0 12G24G14G 9G 5G30G18G31G 6G21G22G12G29
 112970719.41047  88029111.59547  21497629.5954   21497634.2694   21497629.7034
        53.000          46.000
 115177642.36947  89748801.80947  21917584.5394   21917587.4644   21917584.8714
        51.000          45.000
 116009655.68647  90397121.00047  22075913.5614   22075916.7014   22075913.5854
        50.000          44.000
 124732853.56547  97194407.36147  23735891.1254   23735896.1034   23735891.2914
        45.000          39.000
 122986468.55547  95833594.71347  23403559.3924   23403563.2924   23403558.9444
        47.000          41.000
 124007840.96247  96629492.00847  23597902.5064   23597904.3614   23597903.0614
        46.000          39.000
 125147455.26547  97517465.85247  23814795.6114   23814799.8424   23814795.4874
        45.000          40.000
 140477924.47447  91671102.21447  24829127.4084   24829132.6114   24829127.7654
        41.000          35.000
 107555664.35447  83809606.79947  20467163.5064   20467165.6514   20467163.9184
        55.000          49.000
 127402204.19947  99274443.21947  24243833.6084   24243835.1024   24243833.2704
        43.000          37.000
 128199100.31547  99895381.45747  24395494.7854   24395499.4594   24395494.5094
        45.000          38.000
 116651773.83547  90897470.95447  22198107.0514   22198110.3934   22198106.6084
        50.000          45.000
 09  1 12  0 13  0.0000000  0 12G24G14G 9G 5G30G18G31G 6G21G22G12G29
 112997881.16747  88050276.59447  21502798.3504   21502803.1994   21502798.5614
        53.000          46.000
 115180427.44247  89750972.02147  21918114.1944   21918117.3874   21918114.4274
        51.000          45.000
 116069076.91547  90443423.28347  22087221.0174   22087224.3414   22087221.0784
        50.000          44.000
 124718920.60847  97183550.53347  23733239.3074   23733244.6864   23733240.4224
        45.000          39.000
 122966037.66047  95817674.58647  23399671.3644   23399675.8044   23399671.1554
        47.000          41.000
 123987845.41847  96613911.07747  23594097.4124   23594099.4254   23594097.9644
        47.000          40.000
 125043829.88947  97436718.89647  23795076.0824   23795080.4214   23795076.1534
        45.000          40.000
 140421983.55447  91627511.89747  24818481.3544   24818488.0654   24818481.8274
        41.000          35.000
 107502422.91447  83768119.97147  20457031.9184   20457034.2264   20457032.3614
        54.000          49.000
 127384068.76347  99260311.78947  24240382.6644   24240384.1874   24240383.0404
        44.000          38.000
 128200091.62047  99896153.88447  24395683.1384   24395687.6884   24395682.8954
        44.000          38.000
 116726219.37547  90955480.45847  22212273.4154   22212276.8714   22212272.8524
        50.000          45.000
 09  1 12  0 13 30.0000000  0 12G24G14G 9G 5G30G18G31G 6G21G22G12G29
 113025515.35647  88071809.73247  21508057.0594   21508061.5774   21508057.1884
        53.000          46.000
 115183626.43347  89753464.77547  21918723.1894   21918726.0554   21918723.2984
        51.000          45.000
 116128987.89647  90490107.19047  22098621.5074   22098625.2254   22098621.6394
        50.000          44.000
 124704959.30647  97172671.61247  23730582.9254   23730588.1334   23730583.4344
        44.000          39.000
 122945454.44847  95801635.75347  23395754.8694   23395758.6434   23395754.3454
        47.000          41.000
 123967640.15747  96598166.74847  23590252.4204   23590254.5774   23590252.7404
        46.000          39.000
 124940237.51047  97355997.65447  23775363.2804   23775367.6914   23775362.7754
        45.000          40.000
 140366342.18947  91584154.98347  24807894.6354   24807898.8234   24807894.5474
        42.000          35.000
 107449627.92047  83726981.02147  20446985.3664   20446987.6054   20446985.7424
        54.000          49.000
 127365714.50947  99246009.82647  24236889.9344   24236891.2244   24236890.3434
        44.000          38.000
 128201057.83347  99896906.80747  24395866.6444   24395872.0124   24395866.5064
        44.000          38.000
 116800741.59847  91013549.72247  22226454.6274   22226457.8944   22226454.3744
        50.000          45.000
 09  1 12  0 14  0.0000000  0 12G24G14G 9G 5G30G18G31G 6G21G22G12G29
 113053623.14647  88093711.90447  21513405.7114   21513410.3354   21513405.7134
        53.000          46.000
 115187239.01847  89756279.81047  21919410.4784   21919413.4264   21919410.6624
        51.000          45.000
 116189388.51047  90537172.61847  22110115.4494   22110119.3624   22110115.4824
        50.000          43.000
 124690973.13247  97161773.31747  23727920.9694   23727925.9634   23727921.1664
        44.000          39.000
 122924721.61247  95785480.33447  23391808.9624   23391813.2754   23391808.8004
        47.000          41.000
 123947227.49747  96582260.79547  23586368.0624   23586370.0414   23586368.5124
        47.000          39.000
 124836681.99147  97275305.13947  23755657.2774   23755661.2894   23755656.2414
        44.000          40.000
 140311002.28047  91541033.01647  24797363.4624   24797369.9724   24797363.2304
        41.000          36.000
 107397283.31847  83686193.03347  20437024.4414   20437026.7594   20437024.8074
        54.000          49.000
 127347142.45047  99231538.13047  24233355.6424   24233356.7214   24233355.9024
        43.000          38.000
 128202001.93547  99897642.49247  24396046.6274   24396051.4244   24396046.0514
        44.000          38.000
 116875339.46147  91071677.92247  22240649.9754   22240653.2694   22240649.8414
        50.000          45.000
 09  1 12  0 14 30.0000000  0 12G24G14G 9G 5G30G18G31G 6G21G22G12G29
 113082205.23447  88115983.66247  21518844.5774   21518849.3434   21518844.6654
        53.000          46.000
 115191264.28547  89759416.40747  21920176.4964   21920179.5804   21920176.7024
        51.000          45.000
 116250277.96347  90584618.97047  22121702.5244   22121705.9214   22121702.6364
        50.000          44.000
 124676964.51547  97150857.56547  23725255.4134   23725260.7244   23725255.7614
        45.000          39.000
 122903841.16847  95769209.89647  23387835.3414   23387839.8854   23387834.8194
        47.000          41.000
 123926608.50447  96566194.06047  23582444.4834   23582446.5634   23582444.7824
        47.000          40.000
 124733166.69147  97194643.96547  23735958.8494   23735962.8994   23735958.2534
        45.000          40.000
 140255964.80447  91498146.71147  24786889.5704   24786894.3814   24786889.9014
        41.000          35.000
 107345392.20947  83645758.41047  20427150.0604   20427152.3264   20427150.4104
        55.000          49.000
 127328352.70947  99216896.84647  24229780.0274   24229781.4744   24229779.7564
        44.000          38.000
 128202926.48047  99898362.95047  24396222.9164   24396227.5904   24396222.8554
        44.000          38.000
 116950010.99147  91129863.52447  22254859.6204   22254862.8144   22254859.4434
        50.000          45.000
 09  1 12  0 15  0.0000000  0 12G24G14G 9G 5G30G18G31G 6G21G22G12G29
 113111258.50547  88138622.58047  21524373.4664   21524378.0054   21524373.6544
        53.000          46.000
 115195697.98547  89762871.26847  21921020.2804   21921023.2014   21921020.5484
        51.000          45.000
 116311651.84347  90632442.80347  22133381.3664   22133384.8944   22133381.3224
        49.000          44.000
 124662932.79147  97139923.75947  23722585.1474   23722590.7524   23722585.4924
        45.000          39.000
 122882811.91747  95752823.50447  23383833.9434   23383838.0504   23383833.5334
        48.000          41.000
 123905781.39247  96549965.15547  23578480.9534   23578483.0854   23578481.5564
        46.000          40.000
 124629691.69247  97114014.20447  23716268.1764   23716272.2324   23716268.1344
        45.000          40.000
 140201227.46847  91455494.24747  24776473.8304   24776479.1464   24776473.5164
        41.000          36.000
 107293954.98647  83605677.46647  20417361.9634   20417364.0104   20417362.4104
        54.000          49.000
 127309342.07847  99202083.43047  24226162.2144   24226164.0344   24226161.7574
        43.000          38.000
 128203830.93747  99899067.75647  24396395.2874   24396399.1084   24396395.0404
        45.000          38.000
 117024750.67747  91188102.23247  22269082.1924   22269085.5694   22269081.9604
        50.000          45.000
 09  1 12  0 15 30.0000000  0 12G24G14G 9G 5G30G18G31G 6G21G22G12G29
 113140785.85647  88161630.90647  21529992.2644   21529996.8454   21529992.4314
        53.000          46.000
 115200541.05047  89766645.11247  21921941.7284   21921944.7434   21921941.9134
        51.000          45.000
 116373511.78647  90680645.37147  22145152.5974   22145156.1964   22145152.8944
        50.000          43.000
 124648882.63547  97128975.59947  23719911.0794   23719916.7114   23719911.8854
        45.000          39.000
 122861638.00847  95736324.36747  23379804.6394   23379808.8724   23379804.7904
        47.000          41.000
 123884749.60047  96533576.74847  23574478.8074   23574481.1814   23574479.1734
        46.000          40.000
 124526262.74147  97033420.33147  23696586.1904   23696590.1434   23696585.9024
        45.000          40.000
 140146793.35847  91413078.07247  24766114.9294   24766119.6674   24766115.3494
        41.000          36.000
 107242976.92747  83565954.30847  20407661.0584   20407663.2474   20407661.3774
        54.000          49.000
 127290113.01647  99187099.79647  24222503.1224   24222504.9844   24222503.2184
        44.000          38.000
 128204719.54047  99899760.22247  24396563.8064   24396568.5064   24396563.8784
        44.000          39.000
 117099558.96947  91246394.40047  22283317.7794   22283321.1504   22283317.2194
        50.000          45.000
 09  1 12  0 16  0.0000000  0 12G24G14G 9G 5G30G18G31G 6G21G22G12G29
 113170779.23347  88185002.37347  21535699.9284   21535704.4684   21535700.1604
        53.000          46.000
 115205783.80347  89770730.40647  21922939.2424   21922942.4194   21922939.4604
        50.000          45.000
 116435848.40647  90729219.38947  22157015.2314   22157018.7684   22157015.3854
        50.000          43.000
 124634808.07047  97118008.42747  23717232.8564   23717238.7784   23717233.3204
        45.000          39.000
 122840312.69047  95719707.25447  23375746.3644   23375750.6494   23375745.6374
        47.000          41.000
 123863505.61947  96517023.02347  23570436.0754   23570437.9904   23570436.5264
        47.000          39.000
 124422874.26747  96952857.97647  23676912.2834   23676915.6654   23676911.6124
        45.000          40.000
 140092654.94147  91370892.34747  24755813.0454   24755818.2194   24755813.1704
        41.000          36.000
 107192452.68147  83526584.77247  20398046.6054   20398048.6984   20398046.9214
        54.000          49.000
 127270656.81547  99171939.17147  24218800.8934   24218802.4554   24218801.0644
        43.000          38.000
 128205586.32347  99900435.66947  24396729.2754   24396733.5954   24396728.7114
        44.000          39.000
 117174425.01647  91304731.57847  22297564.2734   22297567.7574   22297564.1284
        50.000          45.000
 09  1 12  0 16 30.0000000  0 12G24G14G 9G 5G30G18G31G 6G21G22G12G29
 113201251.29547  88208746.84047  21541498.3784   21541503.3734   21541498.6914
        52.000          46.000
 115211437.54447  89775135.95047  21924015.1774   21924018.2464   21924015.4254
        51.000          45.000
 116498672.92147  90778173.56847  22168970.1294   22168973.9554   22168970.4244
        49.000          43.000
 124620723.83447  97107033.74147  23714552.9474   23714558.3254   23714553.8904
        45.000          39.000
 122818850.33347  95702983.35647  23371662.2234   23371666.4774   23371661.7714
        48.000          41.000
 123842062.90347  96500314.42947  23566355.9844   23566357.5694   23566356.7254
        47.000          40.000
 124319541.84547  96872339.30247  23657248.7714   23657252.0984   23657248.1254
        46.000          40.000
 140038825.29747  91328947.19247  24745569.7564   24745574.2874   24745569.8594
        42.000          36.000
 107142397.85947  83487581.02547  20388521.3504   20388523.4864   20388521.6784
        54.000          49.000
 127250986.15247  99156611.43147  24215057.5954   24215059.3874   24215057.6324
        43.000          38.000
 128206446.08147  99901105.63247  24396892.4414   24396897.1264   24396892.2204
        44.000          39.000
 117249359.22647  91363121.85947  22311823.9314   22311827.4004   22311823.9154
        50.000          45.000
 09  1 12  0 17  0.0000000  0 12G24G14G 9G 5G30G18G31G 6G21G22G12G29
 113232195.93247  88232859.54247  21547386.9864   21547391.7674   21547387.0964
        53.000          46.000
 115217494.56047  89779855.73547  21925167.6104   21925170.8094   21925167.8814
        50.000          45.000
 116561977.60147  90827501.90747  22181016.6924   22181020.1944   22181017.0654
        50.000          43.000
 124606626.09147  97096048.50847  23711870.3004   23711875.3694   23711870.6894
        46.000          39.000
 122797246.28547  95686149.04647  23367551.2944   23367555.2334   23367551.0734
        47.000          41.000
 123820416.50147  96483447.13047  23562237.1054   23562238.6684   23562237.3844
        48.000          40.000
 124216262.12747  96791861.70747  23637595.0474   23637598.1814   23637594.7444
        46.000          40.000
 139985298.84147  91287238.27747  24735383.9434   24735388.2524   24735384.6874
        41.000          36.000
 107092809.01047  83448940.37347  20379085.0314   20379087.0484   20379085.4914
        54.000          49.000
 127231094.40647  99141111.43347  24211272.4354   24211273.2764   24211272.4324
        43.000          37.000
 128207294.48547  99901766.75847  24397054.2774   24397058.6574   24397053.8234
        43.000          39.000
 117324353.13247  91421558.65347  22326094.7334   22326098.2514   22326094.4094
        50.000          45.000
 09  1 12  0 17 30.0000000  0 12G24G14G 9G 5G30G18G31G 6G21G22G12G29
 113263613.19547  88257340.52747  21553365.5864   21553370.1434   21553365.6804
        52.000          46.000
 115223953.26547  89784888.52547  21926396.7644   21926399.9144   21926396.9424
        51.000          44.000
 116625761.47847  90877203.66547  22193154.3604   22193157.3824   22193154.4264
        50.000          43.000
 124592516.74047  97085054.24347  23709185.7824   23709190.7154   23709186.4114
        46.000          40.000
 122775501.96847  95669205.45347  23363413.7284   23363417.3574   23363413.2174
        47.000          41.000
 123798567.02447  96466421.57447  23558079.0794   23558081.2094   23558079.2954
        47.000          40.000
 124113037.70347  96711427.18847  23617952.0164   23617955.0584   23617951.7484
        46.000          40.000
 139932075.79847  91245765.81547  24725255.4954   24725261.0764   24725255.6234
        41.000          36.000
 107043688.90047  83410664.97147  20369737.5994   20369739.8684   20369737.8864
        55.000          49.000
 127210981.45547  99125439.09647  24207444.2904   24207445.5584   24207444.7464
        43.000          37.000
 128208133.48247  99902420.55347  24397213.9724   24397217.9554   24397213.7364
        43.000          38.000
 117399404.33947  91480040.11647  22340376.4804   22340379.9134   22340376.0764
        50.000          45.000
 09  1 12  0 18  0.0000000  0 12G24G14G 9G 5G30G18G31G 6G21G22G12G29
 113295503.38547  88282190.02647  21559434.0054   21559439.0124   21559434.2074
        52.000          46.000
 115230811.65247  89790232.75347  21927701.9054   21927704.7554   21927702.1084
        51.000          45.000
 116690022.97347  90927277.57347  22205382.9594   22205386.4764   22205383.0014
        50.000          43.000
 124578398.11347  97074052.72247  23706499.2244   23706503.9744   23706499.7154
        46.000          40.000
 122753619.21547  95652153.98447  23359249.2664   23359253.3964   23359249.1954
        48.000          41.000
 123776515.61147  96449238.67247  23553882.6674   23553884.9504   23553883.1294
        47.000          40.000
 124009872.32647  96631038.68647  23598319.8924   23598323.0534   23598319.6104
        46.000          40.000
 139879156.91747  91204530.35647  24715185.7664   24715191.1494   24715185.7694
        42.000          36.000
 106995040.31747  83372756.99047  20360480.1884   20360482.3484   20360480.4604
        54.000          49.000
 127190647.24347  99109594.30347  24203574.8634   24203576.1994   24203575.1994
        43.000          37.000
 128208965.25147  99903068.72647  24397372.3014   24397376.6494   24397371.8424
        44.000          39.000
 117474510.72747  91538564.56447  22354668.7634   22354672.3444   22354668.4384
        50.000          45.000
 09  1 12  0 18 30.0000000  0 12G24G14G 9G 5G30G18G31G 6G21G22G12G29
 113327864.32847  88307406.34747  21565592.3844   21565596.8484   21565592.4404
        53.000          46.000
 115238067.17947  89795886.43747  21929082.5434   21929085.3024   21929082.8674
        50.000          44.000
 116754758.78347  90977721.08347  22217701.9454   22217704.9694   22217702.1354
        49.000          43.000
 124564270.55247  97063044.23747  23703810.3994   23703815.9594   23703810.6894
        45.000          40.000
 122731597.41747  95634994.16147  23355059.1194   23355062.6544   23355058.7414
        48.000          41.000
 123754261.20447  96431897.59147  23549647.8984   23549649.4594   23549648.2344
        47.000          40.000
 123906766.86147  96550696.86447  23578699.3494   23578702.6294   23578698.2234
        45.000          40.000
 139826540.70447  91163530.71147  24705173.5574   24705178.4794   24705172.9294
        41.000          36.000
 106946864.35147  83335217.28047  20351312.7914   20351314.7714   20351313.2224
        54.000          49.000
 127170090.21747  99093575.88347  24199663.6764   24199664.4864   24199663.5954
        43.000          37.000
 128209790.14647  99903711.54147  24397529.2594   24397534.0044   24397529.0244
        44.000          39.000
 117549667.87447  91597128.56247  22368970.7884   22368974.2474   22368970.6814
        50.000          45.000
 09  1 12  0 19  0.0000000  0 12G24G14G 9G 5G30G18G31G 6G21G22G12G29
 113360696.34847  88332989.74447  21571839.8434   21571844.4924   21571840.0754
        52.000          46.000
 115245718.07847  89801848.20447  21930538.2144   21930541.3374   21930538.3534
        50.000          44.000
 116819967.79247  91028533.31847  22230110.6924   22230113.8444   22230110.5634
        49.000          43.000
 124550136.64147  97052030.83647  23701120.5184   23701125.9454   23701121.2634
        45.000          39.000
 122709438.86247  95617727.77047  23350842.6264   23350846.3124   23350841.9394
        48.000          41.000
 123731805.17447  96414399.38447  23545374.2454   23545376.6064   23545374.5864
        48.000          40.000
 123803724.30947  96470404.06147  23559090.8874   23559093.9654   23559089.5204
        45.000          40.000
 139774227.95247  91122767.56647  24695218.4054   24695223.6474   24695218.1394
        40.000          36.000
 106899164.14447  83298048.29947  20342235.6334   20342237.6994   20342236.0254
        55.000          49.000
 127149309.44547  99077383.12547  24195708.3524   24195709.9584   24195708.6734
        44.000          37.000
 128210610.40147  99904350.75547  24397685.4604   24397689.1644   24397685.4344
        44.000          39.000
 117624873.79247  91655730.57547  22383282.1954   22383284.9884   22383281.9924
        50.000          44.000
 09  1 12  0 19 30.0000000  0 12G24G14G 9G 5G30G18G31G 6G21G22G12G29
 113394001.47347  88358941.79047  21578177.7304   21578182.3684   21578178.0134
        52.000          46.000
 115253764.63147  89808118.27847  21932069.4724   21932072.5114   21932069.4924
        50.000          45.000
 116885650.86047  91079714.94947  22242609.7884   22242613.0144   22242609.8404
        50.000          43.000
 124536000.55847  97041015.73347  23698430.3734   23698435.7664   23698430.7464
        45.000          39.000
 122687147.24847  95600357.70947  23346600.2634   23346604.3874   23346599.9084
        47.000          41.000
 123709150.54447  96396746.44347  23541063.2554   23541066.0674   23541063.9914
        47.000          40.000
 123700750.01547  96390164.45147  23539495.5044   23539498.8744   23539494.7024
        45.000          40.000
 139722221.19047  91082242.85847  24685321.3214   24685327.1454   24685321.5254
        42.000          37.000
 106851944.55747  83261253.81947  20333250.1674   20333252.1334   20333250.5704
        55.000          49.000
 127128307.38347  99061017.92847  24191711.8854   24191713.0574   24191711.5594
        43.000          37.000
 128211430.18247  99904989.58747  24397840.8934   24397845.5764   24397840.7894
        43.000          38.000
 117700128.18647  91714370.35147  22397602.0464   22397605.4594   22397601.8964
        50.000          44.000
 09  1 12  0 20  0.0000000  0 12G24G14G 9G 5G30G18G31G 6G21G22G12G29
 113427777.05947  88385260.43547  21584604.9064   21584609.4894   21584605.0884
        52.000          46.000
 115262202.84847  89814693.53047  21933674.9974   21933678.4714   21933675.1714
        51.000          45.000
 116951803.85447  91131262.76947  22255198.3824   22255201.6014   22255198.6974
        50.000          43.000
 124521862.12747  97029998.79247  23695740.0304   23695745.6104   23695740.7834
        45.000          39.000
 122664722.05847  95582883.56547  23342332.7194   23342337.2014   23342332.2014
        48.000          41.000
 123686295.74647  96378937.50947  23536714.3994   23536716.4354   23536714.7874
        47.000          40.000
 123597844.10647  96309978.11747  23519913.1564   23519916.6854   23519912.6014
        45.000          40.000
 139670518.51247  91041955.08347  24675482.8764   24675487.9134   24675482.9544
        41.000          37.000
 106805205.84347  83224834.04847  20324355.9384   20324358.0204   20324356.3214
        55.000          49.000
 127107081.55947  99044478.36547  24187673.4924   24187674.1014   24187673.0954
        44.000          37.000
 128212249.40847  99905627.99347  24397996.6044   24398001.5274   24397996.7234
        44.000          38.000
 117775426.33847  91773044.21947  22411931.3304   22411934.4524   22411930.8694
        49.000          44.000
 09  1 12  0 20 30.0000000  0 12G24G14G 9G 5G30G18G31G 6G21G22G12G29
 113462022.23847  88411944.98747  21591121.4184   21591126.1704   21591121.5094
        52.000          46.000
 115271030.61947  89821572.34247  21935355.1144   21935358.2494   21935355.4194
        51.000          45.000
 117018424.58047  91183175.04947  22267875.5214   22267879.0674   22267875.4024
        49.000          43.000
 124507722.63447  97018981.05247  23693049.3144   23693054.2864   23693049.6934
        45.000          39.000
 122642163.83047  95565305.74747  23338040.0104   23338044.2414   23338039.9814
        47.000          41.000
 123663240.80747  96360972.62547  23532326.9314   23532329.2154   23532327.1914
        48.000          39.000
 123495009.02047  96229846.97947  23500343.8364   23500347.6744   23500343.6684
        45.000          40.000
 139619119.37347  91001903.83447  24665701.5054   24665706.4924   24665701.8034
        43.000          37.000
 106758949.78647  83188790.37447  20315553.6654   20315555.7614   20315554.0514
        54.000          49.000
 127085630.79847  99027763.53847  24183590.9634   24183592.4614   24183590.8924
        43.000          38.000
 128213068.91347  99906266.59547  24398152.7444   24398156.9054   24398152.8884
        43.000          38.000
 117850764.81347  91831749.52347  22426267.2954   22426270.8294   22426266.9344
        49.000          44.000
 09  1 12  0 21  0.0000000  0 12G24G14G 9G 5G30G18G31G 6G21G22G12G29
 113496739.70347  88438997.55647  21597728.0214   21597732.9004   21597728.0694
        52.000          46.000
 115280248.70047  89828755.29447  21937109.4514   21937112.2704   21937109.7304
        51.000          45.000
 117085514.03747  91235452.56947  22280642.5194   22280646.0604   22280642.5474
        50.000          43.000
 124493587.07547  97007966.34247  23690359.4504   23690365.0054   23690360.0324
        45.000          39.000
 122619477.23247  95547627.90247  23333722.9894   23333727.0784   23333722.7504
        48.000          41.000
