     2.11           OBSERVATION DATA    G (GPS)             RINEX VERSION / TYPE
teqc  2008Oct2      gpsops              20090127 00:09:50UTCPGM / RUN BY / DATE
    30.0000                                                 INTERVAL
     1     1                                                WAVELENGTH FACT L1/2
     7    L1    L2    P1    P2    C1    S1    S2            # / TYPES OF OBSERV
Linux 2.4.20-8|Pentium IV|gcc -static|Linux|486/DX+         COMMENT
     2.10           OBSERVATION DATA    GPS                 COMMENT
soc2rnx ver 1.20    gpsops              27-Jan-2009 00:09:43COMMENT
S1, if present, is the SNR for the C/A data stream on L1.   COMMENT
 SNR is mapped to RINEX snr flag value [1,4-9]              COMMENT
    SNR:   >316  >100  >31.6  >10  >3.2    >0 bad=0         COMMENT
L1 & L2:      9     8     7     6     5     4     1         COMMENT
                                                            COMMENT
This data is provided as a public service by NASA/JPL.      COMMENT
No warranty is expressed or implied regarding suitability   COMMENT
for use.  For further information, contact:                 COMMENT
Dave Stowers, NASA/JPL m/s 238-600                          COMMENT
4800 Oak Grove Drive, Pasadena CA 91109 USA                 COMMENT
                                                            COMMENT
Forced Modulo Decimation to 30 seconds                      COMMENT
  2009     1    26     0     0    0.0000000     GPS         TIME OF FIRST OBS
GGN                 JPL                                     OBSERVER / AGENCY
CR519992104         ASH701945B_M    SCIT                    ANT # / TYPE
   -33801.4662 -6377516.5323   -82154.3508                  APPROX POSITION XYZ
        0.0083        0.0000        0.0000                  ANTENNA: DELTA H/E/N
ZR220013847         ASHTECH UZ-12       CQ00                REC # / TYPE / VERS
GLPS                                                        MARKER NAME
42005M002                                                   MARKER NUMBER
                                                            END OF HEADER
 09  1 26  0  0  0.0000000  0 12G30G14G 5G 6G 9G22G18G24G29G31G12G21
 120742761.09747  94085256.39147  22976591.5104   22976595.2414   22976591.0974
        49.000          42.000
 116792010.52647  91006748.58947  22224791.6834   22224793.9974   22224792.0134
        50.000          44.000
 123766512.28847  96441413.44847  23552001.4874   23552008.1764   23552002.0044
        45.000          40.000
 126775183.97947  98785845.40747  24124522.8744   24124528.4084   24124523.4604
        42.000          38.000
 123113262.03847  95932403.73447  23427679.3584   23427684.8744   23427681.6954
        44.000          38.000
 124867278.45847  97299173.36147  23761456.0004   23761458.5954   23761456.7604
        46.000          39.000
 121499586.28447  94674989.18347  23120613.1854   23120615.8294   23120613.6094
        48.000          41.000
 117260314.00547  91371656.52947  22313906.7894   22313910.6284   22313906.3704
        49.000          43.000
 123177652.30147  95982570.17047  23439939.0664   23439943.5434   23439939.1974
        47.000          41.000
 116197230.46347  90543285.81647  22111607.1654   22111608.6034   22111606.5734
        51.000          45.000
 128286303.22447  99963342.51647  24412080.8034   24412084.0344   24412080.3834
        43.000          38.000
 104840180.34647  81693634.58347  19950432.3034   19950434.4534   19950432.9224
        54.000          50.000
 09  1 26  0  0 30.0000000  0 12G30G14G 5G 6G 9G22G18G24G29G31G12G21
 120715357.80947  94063903.18147  22971377.2174   22971381.0934   22971376.7054
        49.000          42.000
 116824618.19047  91032157.17847  22230996.8204   22230999.3784   22230997.0374
        50.000          44.000
 123758516.14647  96435182.70147  23550479.8224   23550485.7524   23550480.6764
        45.000          40.000
 126745888.48747  98763017.76847  24118948.5244   24118953.5214   24118948.6294
        44.000          37.000
 123208942.61647  96006959.99647  23445888.5574   23445892.4744   23445888.8044
        44.000          38.000
 124829099.71747  97269423.72247  23754191.1914   23754192.0154   23754191.5554
        45.000          39.000
 121464619.89747  94647742.65047  23113959.0914   23113961.3914   23113959.5954
        48.000          41.000
 117327509.48347  91424016.60447  22326693.3074   22326697.8334   22326693.5684
        50.000          43.000
 123249632.23047  96038658.37647  23453636.6734   23453640.2434   23453636.6014
        46.000          41.000
 116108205.88647  90473916.04447  22094666.2544   22094668.4084   22094665.8244
        51.000          45.000
 128292348.87647  99968053.44047  24413230.3844   24413234.3504   24413230.5304
        43.000          38.000
 104836130.89647  81690479.16547  19949662.0254   19949664.0364   19949662.4414
        54.000          50.000
 09  1 26  0  1  0.0000000  0 12G30G14G 5G 6G 9G22G18G24G29G31G12G21
 120687962.17847  94042555.95047  22966164.0354   22966167.6454   22966163.8044
        49.000          42.000
 116857439.38847  91057732.15547  22237242.3744   22237244.9664   22237242.6324
        50.000          44.000
 123750680.27347  96429076.84047  23548989.0924   23548994.3704   23548989.6394
        45.000          40.000
 126716870.34547  98740406.22747  24113426.8344   24113431.1674   24113427.2204
        42.000          37.000
 123304917.08147  96081745.29247  23464152.1984   23464156.0244   23464152.1574
        45.000          38.000
 124790707.56447  97239507.76947  23746885.1284   23746886.4844   23746884.9974
        45.000          39.000
 121429546.90747  94620413.05147  23107284.9964   23107287.0644   23107285.4974
        48.000          41.000
 117395093.30347  91476679.30047  22339554.2814   22339559.1424   22339554.5814
        49.000          43.000
 123321494.91347  96094655.21847  23467311.5114   23467315.4144   23467311.4374
        46.000          41.000
 116019475.03847  90404775.16047  22077781.2494   22077783.5834   22077781.0284
        51.000          45.000
 128298538.00947  99972876.17847  24414408.6044   24414411.8124   24414408.6744
        43.000          38.000
 104832691.63447  81687799.22247  19949007.4654   19949009.6444   19949007.8774
        54.000          50.000
 09  1 26  0  1 30.0000000  0 12G30G14G 5G 6G 9G22G18G24G29G31G12G21
 120660578.69347  94021218.17247  22960952.8564   22960956.5814   22960952.5894
        49.000          42.000
 116890473.68647  91083473.18447  22243528.5734   22243531.1834   22243528.7504
        50.000          44.000
 123743008.92847  96423099.15447  23547529.6064   23547534.2404   23547529.9054
        46.000          40.000
 126688130.52647  98718011.57747  24107957.7874   24107962.2484   24107957.4294
        43.000          38.000
 123401184.97247  96156759.23447  23482471.2484   23482474.9774   23482471.2824
        44.000          38.000
 124752104.88647  97209427.77847  23739539.2864   23739540.6394   23739539.1574
        46.000          40.000
 121394371.48047  94593003.61647  23100591.0484   23100593.2804   23100591.6714
        48.000          41.000
 117463066.02247  91529645.03047  22352489.3624   22352494.0374   22352489.4274
        50.000          43.000
 123393240.41147  96150560.75147  23480964.2754   23480968.5234   23480963.8694
        46.000          41.000
 115931043.20547  90335867.26647  22060953.1104   22060955.4374   22060952.5854
        51.000          45.000
 128304874.75247  99977813.91247  24415614.1954   24415617.9744   24415613.9704
        43.000          38.000
 104829865.22547  81685596.82447  19948469.6644   19948471.7314   19948470.1254
        54.000          50.000
 09  1 26  0  2  0.0000000  0 12G30G14G 5G 6G 9G22G18G24G29G31G12G21
 120633206.14147  93999888.91647  22955744.0224   22955748.2934   22955743.9824
        49.000          42.000
 116923715.30547  91109375.76547  22249854.3094   22249856.8044   22249854.5194
        50.000          44.000
 123735501.05147  96417248.86847  23546100.6684   23546105.4604   23546101.0394
        45.000          39.000
 126659665.20447  98695830.81747  24102541.2854   24102545.5504   24102541.6924
        43.000          38.000
 123497740.28147  96231997.14247  23500845.1464   23500849.0084   23500845.2334
        45.000          39.000
 124713289.21747  97179181.81947  23732153.3544   23732154.0704   23732153.5024
        46.000          40.000
 121359091.91047  94565513.04647  23093877.5364   23093879.7214   23093878.0284
        48.000          41.000
 117531422.86547  91582910.06847  22365496.9504   22365501.8784   22365497.0084
        49.000          43.000
 123464864.07047  96206371.33147  23494594.0094   23494598.4854   23494593.7094
        45.000          41.000
 115842910.17347  90267192.19847  22044182.0544   22044184.1874   22044181.5944
        51.000          45.000
 128311357.95747  99982865.77847  24416847.6134   24416851.5434   24416847.5924
        43.000          38.000
 104827649.16347  81683870.01747  19948047.9264   19948049.9104   19948048.3544
        54.000          50.000
 09  1 26  0  2 30.0000000  0 12G30G14G 5G 6G 9G22G18G24G29G31G12G21
 120605850.34747  93978572.71247  22950538.7884   22950542.2104   22950538.3484
        49.000          42.000
 116957165.62447  91135440.95747  22256219.1814   22256221.9184   22256219.4864
        50.000          44.000
 123728162.64447  96411530.63247  23544704.1384   23544708.8264   23544704.6044
        46.000          40.000
 126631477.23047  98673866.18647  24097176.9474   24097181.5544   24097176.7104
        43.000          38.000
 123594584.35447  96307460.07947  23519274.4524   23519277.9234   23519274.6244
        46.000          39.000
 124674265.07847  97148773.40547  23724727.4524   23724727.8514   23724727.5414
        46.000          40.000
 121323713.62647  94537945.52847  23087145.3394   23087147.3594   23087146.0234
        48.000          41.000
 117600165.79547  91636475.96047  22378578.3114   22378583.1074   22378578.5004
        49.000          43.000
 123536367.94447  96262088.58447  23508200.8824   23508204.9144   23508200.6824
        45.000          41.000
 115755082.75447  90198755.27047  22027468.9044   22027471.1774   22027468.6274
        51.000          46.000
 128317993.13747  99988036.05647  24418111.0364   24418114.3434   24418110.2894
        43.000          38.000
 104826047.84347  81682622.23047  19947743.2504   19947745.1074   19947743.5894
        54.000          49.000
 09  1 26  0  3  0.0000000  0 12G30G14G 5G 6G 9G22G18G24G29G31G12G21
 120578511.19347  93957269.47247  22945336.1014   22945339.8044   22945335.6664
        49.000          43.000
 116990819.27447  91161664.59947  22262623.6494   22262626.1324   22262624.0044
        50.000          44.000
 123720993.15747  96405944.01747  23543340.3524   23543344.6484   23543340.5884
        45.000          40.000
 126603562.98247  98652114.82847  24091865.0424   24091869.7384   24091865.2174
        43.000          38.000
 123691711.63447  96383143.68547  23537757.0504   23537760.3734   23537757.4074
        45.000          38.000
 124635030.06647  97118200.68447  23717260.8334   23717262.1094   23717260.7224
        46.000          40.000
 121288236.00147  94510300.63747  23080394.2154   23080395.9974   23080394.5374
        48.000          41.000
 117669290.53847  91690339.37347  22391732.4534   22391736.9744   22391732.7524
        50.000          43.000
 123607747.71947  96317709.11647  23521784.0984   23521788.2824   23521784.1634
        46.000          41.000
 115667560.94447  90130556.48247  22010814.0144   22010816.4864   22010813.5794
        51.000          46.000
 128324779.31247  99993324.03147  24419401.9154   24419405.5504   24419401.6244
        44.000          39.000
 104825059.23147  81681851.88647  19947555.0474   19947556.9074   19947555.3954
        54.000          49.000
 09  1 26  0  3 30.0000000  0 12G30G14G 5G 6G 9G22G18G24G29G31G12G21
 120551192.80147  93935982.42047  22940137.6284   22940141.0564   22940137.5864
        49.000          42.000
 117024675.81147  91188046.32647  22269066.1674   22269068.7364   22269066.4944
        50.000          44.000
 123713996.61547  96400492.18747  23542008.4514   23542013.3594   23542009.0034
        45.000          40.000
 126575923.70847  98630577.74347  24086605.6384   24086610.2994   24086605.0204
        43.000          38.000
 123789121.28447  96459047.29447  23556293.6364   23556297.2444   23556294.0674
        44.000          38.000
 124595587.39547  97087466.14347  23709754.9974   23709756.5494   23709755.3974
        47.000          40.000
 121252662.85247  94482581.29447  23073624.7624   23073627.0164   23073625.0714
        48.000          41.000
 117738797.21747  91744500.39347  22404958.9724   22404964.0774   22404958.8914
        49.000          43.000
 123679003.71747  96373233.19647  23535343.4354   23535347.9384   23535343.7554
        45.000          40.000
 115580349.77247  90062599.75147  21994218.2144   21994220.8114   21994217.4164
        51.000          46.000
 128331720.31047  99998732.61147  24420722.7334   24420725.8064   24420722.8284
        44.000          38.000
 104824685.83647  81681560.92947  19947484.0054   19947485.8584   19947484.4344
        54.000          49.000
 09  1 26  0  4  0.0000000  0 12G30G14G 5G 6G 9G22G18G24G29G31G12G21
 120523895.33647  93914711.67347  22934943.3464   22934946.4074   22934942.7564
        49.000          42.000
 117058730.27547  91214582.29747  22275546.6644   22275549.0494   22275546.9064
        50.000          44.000
 123707173.34847  96395175.37447  23540710.1034   23540714.9944   23540710.8114
        46.000          40.000
 126548556.36447  98609252.55647  24081397.7654   24081402.0934   24081398.1814
        43.000          38.000
 123886808.68447  96535167.32647  23574882.6194   23574886.3344   23574882.9494
        44.000          38.000
 124555935.56647  97056568.62447  23702209.8574   23702210.9284   23702210.0824
        47.000          40.000
 121216993.92747  94454787.32147  23066837.3314   23066839.6784   23066837.6364
        48.000          41.000
 117808682.03447  91798956.05147  22418257.5064   22418262.4314   22418257.7054
        49.000          43.000
 123750132.46847  96428658.13147  23548878.6124   23548883.3524   23548878.8474
        45.000          40.000
 115493450.18947  89994885.81247  21977681.9754   21977684.2964   21977681.5764
        51.000          46.000
 128338816.63847 100004262.24247  24422072.8234   24422076.1104   24422072.7574
        44.000          38.000
 104824926.07247  81681748.12847  19947529.8504   19947531.6274   19947530.1394
        54.000          49.000
 09  1 26  0  4 30.0000000  0 12G30G14G 5G 6G 9G22G18G24G29G31G12G21
 120496621.92347  93893459.66047  22929752.8874   22929756.7264   22929752.6854
        49.000          42.000
 117092981.74047  91241271.75847  22282064.5334   22282066.9484   22282064.5654
        50.000          44.000
 123700526.30547  96389995.87247  23539445.5884   23539449.9494   23539446.1604
        46.000          40.000
 126521460.90747  98588139.23547  24076241.4744   24076245.7304   24076241.2314
        43.000          37.000
 123984771.92747  96611502.36547  23593524.3114   23593528.0654   23593524.3244
        44.000          38.000
 124516076.52447  97025509.64847  23694624.7144   23694625.6944   23694624.5744
        47.000          40.000
 121181231.88347  94426920.79647  23060031.8584   23060034.2624   23060032.1814
        47.000          41.000
 117878944.32947  91853705.86947  22431628.2054   22431632.7864   22431628.3934
        50.000          43.000
 123821133.13847  96483983.27147  23562389.6754   23562394.1234   23562389.4014
        46.000          40.000
 115406866.16747  89927417.76347  21961205.6374   21961207.7464   21961205.2184
        51.000          46.000
 128346070.43747 100009914.59647  24423453.1484   24423457.0994   24423452.8074
        43.000          39.000
 104825781.38147  81682414.60147  19947692.5464   19947694.4954   19947692.9134
        54.000          49.000
 09  1 26  0  5  0.0000000  0 12G30G14G 5G 6G 9G22G18G24G29G31G12G21
 120469373.97247  93872227.49547  22924567.9094   22924571.9794   22924567.7024
        49.000          42.000
 117127426.24847  91268111.65447  22288619.1714   22288621.3804   22288619.5174
        50.000          44.000
 123694056.65847  96384954.58847  23538214.5854   23538219.0044   23538215.2394
        45.000          39.000
 126494635.76347  98567236.52347  24071136.8544   24071140.6094   24071136.6264
        44.000          38.000
 124083007.55347  96688049.57747  23612218.1074   23612221.2194   23612217.8594
        44.000          38.000
 124476009.97147  96994288.95247  23687000.2924   23687001.2324   23687000.0244
        47.000          40.000
 121145377.67547  94398982.44947  23053208.7604   23053211.1344   23053209.1144
        48.000          41.000
 117949581.13847  91908747.50747  22445070.2574   22445074.6244   22445070.4644
        49.000          43.000
 123892003.00147  96539206.47347  23575876.0424   23575880.5254   23575876.1084
        46.000          41.000
 115320599.48847  89860196.99847  21944789.6294   21944791.4714   21944789.5504
        52.000          46.000
 128353482.82847 100015690.50247  24424863.8674   24424867.8244   24424863.6694
        44.000          39.000
 104827251.30747  81683559.99747  19947972.3854   19947974.1874   19947972.7414
        54.000          49.000
 09  1 26  0  5 30.0000000  0 12G30G14G 5G 6G 9G22G18G24G29G31G12G21
 120442155.69447  93851018.45047  22919388.7614   22919392.0674   22919388.3954
        49.000          42.000
 117162063.68547  91295101.88047  22295210.4644   22295212.7744   22295210.5904
        50.000          44.000
 123687768.74047  96380054.90847  23537017.7984   23537022.2484   23537018.2754
        45.000          39.000
 126468081.73047  98546545.07147  24066084.0954   24066087.7814   24066083.8934
        44.000          37.000
 124181514.67647  96764808.31747  23630963.6474   23630967.0224   23630963.5604
        44.000          38.000
 124435738.45447  96962908.53947  23679337.0244   23679337.7774   23679337.4514
        47.000          40.000
 121109434.99747  94370975.16947  23046369.1374   23046371.8264   23046369.6864
        47.000          41.000
 118020592.72047  91964081.17347  22458583.1534   22458587.7794   22458583.4704
        49.000          43.000
 123962742.85547  96594328.38747  23589337.5694   23589341.5904   23589337.2364
        45.000          41.000
 115234655.40647  89793227.59847  21928435.0304   21928436.8724   21928434.7854
        51.000          46.000
 128361057.62347 100021592.95947  24426305.1764   24426308.4424   24426304.5464
        43.000          39.000
 104829338.67547  81685186.51947  19948369.3934   19948371.2524   19948369.7774
        54.000          49.000
 09  1 26  0  6  0.0000000  0 12G30G14G 5G 6G 9G22G18G24G29G31G12G21
 120414967.73547  93829833.02647  22914214.7814   22914218.1064   22914214.4994
        49.000          42.000
 117196889.42547  91322238.84947  22301837.2154   22301839.7364   22301837.4594
        50.000          43.000
 123681662.99147  96375297.19447  23535855.7064   23535860.4634   23535856.3774
        45.000          40.000
 126441796.43847  98526063.02547  24061081.9674   24061085.9984   24061082.1104
        44.000          37.000
 124280289.22247  96841775.55247  23649759.6854   23649763.1014   23649759.7124
        44.000          38.000
 124395261.51047  96931368.05747  23671634.6254   23671635.3654   23671634.7834
        46.000          40.000
 121073404.29747  94342899.30447  23039512.9194   23039515.3014   23039512.9894
        47.000          41.000
 118091975.90047  92019704.39847  22472166.7114   22472171.5644   22472166.9274
        49.000          43.000
 124033349.39847  96649346.42047  23602773.8064   23602778.0494   23602773.3854
        46.000          41.000
 115149034.90447  89726510.33947  21912142.1784   21912143.8304   21912141.5364
        52.000          46.000
 128368795.19447 100027622.27547  24427776.9944   24427781.2234   24427777.2204
        43.000          39.000
 104832041.75947  81687292.81747  19948883.6334   19948885.6664   19948884.0674
        54.000          49.000
 09  1 26  0  6 30.0000000  0 12G30G14G 5G 6G 9G22G18G24G29G31G12G21
 120387811.96047  93808672.68147  22909047.2514   22909050.8184   22909047.1004
        49.000          42.000
 117231900.72847  91349520.39847  22308499.6854   22308502.2304   22308499.7684
        50.000          44.000
 123675740.94747  96370682.62847  23534728.3494   23534733.8284   23534728.9744
        45.000          40.000
 126415778.38647  98505789.21747  24056131.3584   24056134.3694   24056131.2824
        43.000          37.000
 124379327.92447  96918948.64947  23668606.2044   23668609.1754   23668606.3964
        44.000          39.000
 124354579.18747  96899667.56247  23663892.7684   23663893.6544   23663892.1824
        46.000          40.000
 121037286.55447  94314755.60747  23032640.0164   23032642.1044   23032640.4244
        48.000          41.000
 118163728.07547  92075615.14847  22485820.8804   22485825.5944   22485820.7854
        49.000          43.000
 124103820.69847  96704259.06547  23616184.0964   23616187.9974   23616183.9834
        45.000          40.000
 115063740.52447  89660047.20547  21895911.0114   21895912.9314   21895910.6424
        52.000          46.000
 128376696.61647 100033779.25147  24429281.0524   24429285.1194   24429280.6934
        44.000          39.000
 104835360.57247  81689878.90447  19949515.2774   19949517.1874   19949515.5994
        54.000          49.000
 09  1 26  0  7  0.0000000  0 12G30G14G 5G 6G 9G22G18G24G29G31G12G21
 120360692.03147  93787540.25947  22903886.4744   22903890.1214   22903886.0524
        49.000          42.000
 117267096.12447  91376945.39847  22315197.2014   22315199.5964   22315197.2734
        49.000          44.000
 123670006.09647  96366213.92347  23533637.1784   23533642.2084   23533637.7344
        45.000          40.000
 126390027.93547  98485723.93147  24051230.6754   24051234.4134   24051230.7894
        43.000          37.000
 124478629.21947  96996326.28647  23687502.4154   23687504.9384   23687502.5784
        44.000          38.000
 124313693.55147  96867808.63047  23656112.2464   23656113.1724   23656112.4064
        46.000          39.000
 121001085.32747  94286546.86247  23025751.0434   23025753.6934   23025751.6434
        47.000          41.000
 118235848.68447  92131812.99547  22499544.7034   22499549.9304   22499545.0064
        49.000          42.000
 124174156.19547  96759065.88947  23629568.2614   23629572.0934   23629568.0464
        45.000          40.000
 114978776.29847  89593841.33247  21879742.5984   21879744.7784   21879742.2944
        51.000          46.000
 128384765.23547 100040066.52447  24430816.6224   24430820.0504   24430816.3554
        44.000          39.000
 104839296.64747  81692945.96847  19950264.3584   19950266.1054   19950264.7694
        54.000          49.000
 09  1 26  0  7 30.0000000  0 12G30G14G 5G 6G 9G22G18G24G29G31G12G21
 120333607.48647  93766435.41747  22898732.4104   22898736.4974   22898731.9914
        49.000          42.000
 117302470.47147  91404509.84747  22321928.7504   22321931.0674   22321928.7244
        49.000          44.000
 123664457.95847  96361890.69347  23532581.6014   23532586.4294   23532582.1314
        45.000          40.000
 126364541.51847  98465864.36247  24046381.3654   24046384.8904   24046380.9224
        43.000          38.000
 124578187.95847  97073904.56647  23706448.0614   23706450.2954   23706447.4924
        44.000          38.000
 124272603.21747  96835790.18147  23648293.5224   23648293.9594   23648293.4674
        46.000          39.000
 120964800.01647  94258272.60047  23018846.2344   23018848.4734   23018846.6384
        48.000          41.000
 118308333.25547  92188294.44747  22513338.3644   22513343.1294   22513338.1054
        48.000          42.000
 124244351.83947  96813763.74547  23642925.8374   23642929.9554   23642925.9384
        46.000          40.000
 114894142.76247  89527893.13847  21863637.5304   21863639.6174   21863636.9554
        51.000          46.000
 128393000.39947 100046483.54547  24432383.9434   24432387.3784   24432382.8604
        44.000          39.000
 104843847.88247  81696492.38347  19951130.5534   19951132.1364   19951131.0294
        54.000          49.000
 09  1 26  0  8  0.0000000  0 12G30G14G 5G 6G 9G22G18G24G29G31G12G21
 120306564.08647  93745362.63147  22893586.1504   22893590.2914   22893585.8974
        49.000          42.000
 117338024.80547  91432214.54547  22328694.3864   22328696.9754   22328694.6004
        49.000          44.000
 123659102.08847  96357717.27947  23531562.4444   23531567.1144   23531562.7744
        45.000          40.000
 126339321.33947  98446212.27847  24041581.5344   24041586.0504   24041581.7884
        44.000          38.000
 124678004.57547  97151683.77447  23725441.8894   23725445.3534   23725442.0474
        44.000          38.000
 124231311.98847  96803615.22347  23640435.6774   23640436.7344   23640436.0244
        46.000          39.000
 120928435.64347  94229936.74547  23011926.4294   23011928.7604   23011927.0364
        47.000          41.000
 118381183.49847  92245060.83147  22527201.2314   22527206.2934   22527201.5394
        49.000          42.000
 124314409.61947  96868354.17547  23656257.6464   23656261.4524   23656257.2514
        45.000          40.000
 114809845.78547  89462207.20647  21847596.2244   21847598.6494   21847596.0644
        52.000          46.000
 128401407.22547 100053034.34547  24433983.7384   24433986.9014   24433982.9834
        44.000          39.000
 104849018.05047  81700521.08347  19952114.4614   19952116.1374   19952114.9414
        54.000          49.000
 09  1 26  0  8 30.0000000  0 12G30G14G 5G 6G 9G22G18G24G29G31G12G21
 120279563.15547  93724322.95147  22888448.0264   22888452.2224   22888448.0114
        49.000          42.000
 117373755.38247  91460056.56847  22335493.7354   22335496.0574   22335493.9214
        50.000          44.000
 123653939.64047  96353694.60447  23530579.8184   23530584.7754   23530580.4564
        45.000          40.000
 126314365.76147  98426766.35747  24036833.1944   24036836.7164   24036832.9684
        43.000          38.000
 124778075.29047  97229660.97747  23744484.7294   23744487.8734   23744484.5734
        43.000          38.000
 124189819.98047  96771283.80547  23632539.9704   23632540.9494   23632540.2044
        46.000          39.000
 120891993.40547  94201540.20847  23004991.8384   23004993.9084   23004992.0404
        48.000          41.000
 118454396.36047  92302109.77847  22541133.1504   22541138.5084   22541133.1434
        48.000          42.000
 124384327.29847  96922835.42547  23669562.2454   23669566.9614   23669561.9974
        44.000          40.000
 114725887.60547  89396785.27247  21831619.5034   21831622.0774   21831619.0804
        52.000          46.000
 128409986.92047 100059719.84347  24435615.9504   24435619.7474   24435615.6864
        45.000          39.000
 104854806.40447  81705031.48447  19953215.8964   19953217.8074   19953216.2804
        54.000          49.000
 09  1 26  0  9  0.0000000  0 12G30G14G 5G 6G 9G22G18G24G29G31G12G21
 120252605.58447  93703317.05047  22883317.9584   22883322.1264   22883317.5574
        48.000          42.000
 117409658.58847  91488033.10147  22342326.0684   22342328.3914   22342326.4384
        49.000          44.000
 123648971.34247  96349823.21247  23529634.5924   23529639.4534   23529635.0234
        46.000          40.000
 126289672.33847  98407524.73047  24032133.6714   24032138.1574   24032133.5954
        42.000          38.000
 124878396.00347  97307832.99047  23763574.9094   23763578.5044   23763575.0754
        44.000          38.000
 124148126.73347  96738795.58947  23624606.1724   23624606.9124   23624606.0974
        46.000          40.000
 120855473.61447  94173083.23647  22998042.3194   22998044.4594   22998042.7444
        48.000          41.000
 118527969.03747  92359439.08947  22555133.8014   22555138.7184   22555133.8034
        48.000          42.000
 124454101.82647  96977205.13447  23682840.1704   23682844.4654   23682839.0564
        44.000          40.000
 114642269.91947  89331628.65147  21815707.5934   21815710.1424   21815707.1274
        52.000          46.000
 128418739.38447 100066539.98047  24437281.8604   24437285.2624   24437281.2554
        45.000          39.000
 104861211.62147  81710022.55847  19954434.8434   19954436.6504   19954435.2264
        54.000          49.000
 09  1 26  0  9 30.0000000  0 12G30G14G 5G 6G 9G22G18G24G29G31G12G21
 120225694.50347  93682347.37447  22878197.4654   22878201.2124   22878197.1934
        49.000          43.000
 117445732.68747  91516142.80347  22349190.5464   22349193.3254   22349190.8634
        49.000          44.000
 123644200.28547  96346105.51847  23528726.9114   23528731.2144   23528727.0584
        45.000          40.000
 126265240.81047  98388487.18247  24027484.8824   24027489.0914   24027485.0534
        43.000          38.000
 124978964.95747  97386198.42847  23782712.6454   23782716.4104   23782712.8924
        44.000          37.000
 124106233.98947  96706151.89747  23616634.1304   23616635.1584   23616633.8224
        46.000          40.000
 120818879.37747  94144568.24847  22991078.6464   22991080.4974   22991078.7834
        48.000          41.000
 118601900.36447  92417047.87747  22569202.4604   22569207.0104   22569202.5684
        48.000          42.000
 124523732.63547  97031462.85247  23696090.6084   23696095.0544   23696089.7514
        44.000          40.000
 114558996.48747  89266740.27947  21799861.3774   21799863.4594   21799860.9354
        52.000          46.000
 128427667.46147 100073496.95647  24438980.7044   24438983.9684   24438979.9524
        43.000          39.000
 104868234.96547  81715495.29547  19955771.3814   19955773.1834   19955771.8404
        54.000          49.000
 09  1 26  0 10  0.0000000  0 12G30G14G 5G 6G 9G22G18G24G29G31G12G21
 120198831.56447  93661415.22747  22873085.4954   22873089.2334   22873085.2734
        49.000          42.000
 117481974.23047  91544382.98747  22356087.2914   22356089.5394   22356087.3024
        50.000          44.000
 123639627.74647  96342542.50947  23527856.6044   23527861.0654   23527856.9774
        45.000          40.000
 126241069.44147  98369652.35347  24022884.8644   24022888.4574   24022885.0844
        43.000          38.000
 125079778.56647  97464754.53747  23801896.6254   23801900.5504   23801897.0094
        44.000          37.000
 124064141.82247  96673352.83647  23608624.0624   23608625.0964   23608624.1074
        47.000          40.000
 120782211.72347  94115996.05847  22984100.9474   22984102.7974   22984101.3244
        48.000          41.000
 118676187.41047  92474933.86347  22583338.8164   22583343.3174   22583339.0304
        48.000          42.000
 124593217.50047  97085606.86547  23709312.7544   23709317.3714   23709312.2334
        44.000          40.000
 114476069.05047  89202121.51347  21784080.9724   21784082.6734   21784080.6204
        53.000          46.000
 128436772.27447 100080591.64647  24440712.8674   24440716.7424   24440712.5134
        45.000          39.000
 104875875.73247  81721449.13747  19957225.2864   19957227.1554   19957225.7074
        54.000          49.000
 09  1 26  0 10 30.0000000  0 12G30G14G 5G 6G 9G22G18G24G29G31G12G21
 120172019.89347  93640523.01147  22867983.4454   22867987.0724   22867982.9104
        49.000          42.000
 117518381.65947  91572752.43547  22363015.2074   22363017.6404   22363015.5474
        50.000          44.000
 123635256.75847  96339136.55247  23527024.8364   23527029.5734   23527025.4674
        45.000          40.000
 126217158.26247  98351020.25547  24018335.0874   24018338.7894   24018334.9804
        43.000          38.000
 125180835.34347  97543500.13747  23821127.4444   23821130.9444   23821127.5564
        44.000          37.000
 124021852.23147  96640399.92347  23600576.9474   23600578.0184   23600577.0104
        47.000          41.000
 120745473.47747  94087368.85247  22977110.1054   22977111.9184   22977110.4284
        48.000          42.000
 118750829.41747  92533096.43347  22597542.9014   22597547.0334   22597542.9994
        48.000          42.000
 124662556.30247  97139637.03547  23722507.9154   23722512.1684   23722507.5764
        44.000          40.000
 114393491.70747  89137775.55247  21768366.7074   21768368.6084   21768366.3934
        52.000          46.000
 128446056.81547 100087826.37247  24442479.9594   24442483.4754   24442479.6824
        44.000          39.000
 104884135.19947  81727885.08547  19958796.8494   19958798.9664   19958797.1704
        54.000          49.000
 09  1 26  0 11  0.0000000  0 12G30G14G 5G 6G 9G22G18G24G29G31G12G21
 120145260.04947  93619671.19447  22862891.0044   22862895.0494   22862890.7014
        48.000          42.000
 117554950.44647  91601247.60247  22369974.0424   22369976.5004   22369974.3384
        50.000          44.000
 123631087.41747  96335887.73047  23526231.1844   23526236.1534   23526231.2534
        45.000          39.000
 126193504.04547  98332588.40047  24013833.6714   24013837.6564   24013833.9804
        43.000          38.000
 125282130.50347  97622431.46547  23840403.2784   23840407.2074   23840402.9254
        44.000          37.000
 123979364.18947  96607292.37147  23592491.8944   23592492.4044   23592491.8994
        47.000          41.000
 120708664.47947  94058686.53247  22970105.5464   22970107.2354   22970105.7354
        48.000          42.000
 118825822.33747  92591532.43747  22611813.6464   22611817.9584   22611813.6384
        49.000          42.000
 124731744.80747  97193550.10147  23735674.1094   23735678.1834   23735673.6184
        45.000          40.000
 114311265.24847  89073703.00847  21752719.2544   21752721.3534   21752718.7954
        52.000          46.000
 128455520.74947 100095200.87647  24444281.0024   24444284.2084   24444280.4354
        44.000          39.000
 104893011.41347  81734801.61147  19960486.0554   19960488.0044   19960486.3564
        54.000          49.000
 09  1 26  0 11 30.0000000  0 12G30G14G 5G 6G 9G22G18G24G29G31G12G21
 120118556.60047  93598863.30547  22857809.5164   22857813.2654   22857809.2014
        49.000          42.000
 117591680.78847  91629868.66447  22376963.4734   22376965.9084   22376963.7204
        49.000          43.000
 123627124.31947  96332799.61147  23525477.3794   23525482.1024   23525478.0614
        45.000          40.000
 126170108.40247  98314358.03747  24009381.8724   24009385.7104   24009381.8414
        44.000          38.000
 125383663.33247  97701548.02747  23859724.0264   23859727.7914   23859724.2064
        44.000          37.000
 123936680.96947  96574032.73847  23584369.6024   23584370.3004   23584369.4514
        47.000          41.000
 120671789.34947  94029952.68747  22963088.2264   22963090.3004   22963088.6074
        48.000          42.000
 118901166.67147  92650242.26847  22626151.0244   22626155.7624   22626151.1624
        48.000          42.000
 124800784.41047  97247347.14147  23748811.7664   23748816.8014   23748811.4314
        45.000          40.000
 114229395.15347  89009908.14147  21737140.0154   21737141.9484   21737139.5744
        53.000          46.000
 128465168.23547 100102718.40347  24446116.6684   24446120.4884   24446116.4084
        45.000          39.000
 104902506.56647  81742200.42647  19962292.8484   19962294.8134   19962293.2754
        54.000          49.000
 09  1 26  0 12  0.0000000  0 12G30G14G 5G 6G 9G22G18G24G29G31G12G21
 120091910.61847  93578100.20147  22852738.9644   22852742.8064   22852738.5754
        49.000          42.000
 117628568.05347  91658611.99847  22383982.9894   22383985.5424   22383983.1624
        50.000          44.000
 123623367.95147  96329872.56647  23524762.3604   23524767.2154   23524762.7324
        45.000          40.000
 126146968.53247  98296326.96347  24004978.2954   24004982.4444   24004978.3684
        43.000          38.000
 125485429.60247  97780846.46847  23879089.9824   23879093.2834   23879090.0094
        43.000          37.000
 123893801.86447  96540620.47847  23576209.7194   23576210.8024   23576209.7214
        47.000          40.000
 120634848.48047  94001167.61847  22956058.6214   22956060.7384   22956058.9654
        49.000          42.000
 118976858.82347  92709223.11747  22640554.8844   22640559.5064   22640555.0664
        49.000          42.000
 124869672.11247  97301025.82847  23761920.8814   23761925.2994   23761920.3534
        45.000          40.000
 114147882.32647  88946391.66647  21721628.6574   21721630.5544   21721628.4324
        52.000          46.000
 128474999.44747 100110379.12847  24447987.0224   24447991.0054   24447986.7444
        43.000          38.000
 104912619.37147  81750080.52747  19964217.2794   19964219.1914   19964217.6504
        54.000          49.000
 09  1 26  0 12 30.0000000  0 12G30G14G 5G 6G 9G22G18G24G29G31G12G21
 120065324.02147  93557383.36547  22847680.0764   22847683.3254   22847679.5064
        49.000          42.000
 117665609.87247  91687475.77747  22391032.0054   22391034.3254   22391032.1724
        50.000          44.000
 123619820.16047  96327108.06747  23524087.2654   23524092.6164   23524087.7724
        45.000          40.000
 126124083.13447  98278494.19347  24000623.2774   24000627.5414   24000623.5834
        43.000          38.000
 125587426.54947  97860324.65047  23898499.7654   23898501.6404   23898499.4224
        43.000          37.000
 123850728.00047  96507056.45747  23568012.9144   23568013.7194   23568012.6464
        46.000          40.000
 120597843.76047  93972332.77947  22949017.0404   22949018.9844   22949017.3504
        49.000          42.000
 119052896.66847  92768473.34047  22655024.5324   22655029.2644   22655024.7104
        48.000          42.000
 124938406.57347  97354585.09947  23775000.6964   23775004.9774   23775000.3584
        45.000          40.000
 114066729.42047  88883155.63947  21706185.8954   21706187.6674   21706185.3314
        52.000          46.000
 128485015.96847 100118184.22547  24449893.3084   24449896.8894   24449893.0824
        44.000          38.000
 104923349.70747  81758441.82247  19966259.0754   19966261.0064   19966259.4824
        54.000          49.000
 09  1 26  0 13  0.0000000  0 12G30G14G 5G 6G 9G22G18G24G29G31G12G21
 120038800.42747  93536715.62747  22842632.2994   22842636.2014   22842632.1254
        49.000          42.000
 117702804.94247  91716458.96247  22398109.6794   22398112.2814   22398110.0784
        49.000          44.000
 123616484.60747  96324508.94047  23523452.3754   23523457.5574   23523452.9264
        45.000          40.000
 126101452.62847  98260860.04547  23996316.4084   23996320.8984   23996316.5204
        43.000          37.000
 125689652.70647  97939981.43747  23917952.5854   23917955.2134   23917952.9034
        42.000          37.000
 123807461.48547  96473342.30947  23559779.4224   23559780.0854   23559779.6144
        47.000          40.000
 120560778.92047  93943451.10247  22941963.6584   22941965.8654   22941964.0054
        48.000          42.000
 119129279.74747  92827992.58047  22669559.6984   22669564.5284   22669559.9584
        48.000          42.000
 125006987.72647  97408024.91647  23788051.3004   23788055.3994   23788051.4124
        46.000          40.000
 113985941.01747  88820203.64247  21690812.4244   21690814.1874   21690812.0584
        52.000          46.000
 128495221.24447 100126136.41347  24451835.4124   24451838.9544   24451835.0614
        44.000          39.000
 104934699.16747  81767285.56147  19968419.0104   19968420.7384   19968419.3954
        54.000          49.000
 09  1 26  0 13 30.0000000  0 12G30G14G 5G 6G 9G22G18G24G29G31G12G21
 120012341.23347  93516098.08147  22837597.5484   22837601.1524   22837597.2704
        49.000          42.000
 117740149.80447  91745558.86647  22405216.2554   22405218.7244   22405216.6024
        49.000          43.000
 123613362.13747  96322075.85947  23522858.4664   23522863.3414   23522858.8334
        45.000          40.000
 126079074.83347  98243422.80247  23992058.3894   23992062.1774   23992058.6464
        43.000          37.000
 125792103.94447  98019813.56047  23937448.1044   23937450.5314   23937448.3034
        41.000          36.000
 123764002.15947  96439477.91847  23551509.4504   23551510.2584   23551509.2634
        47.000          40.000
 120523654.30147  93914522.83947  22934899.1404   22934900.7674   22934899.5794
        48.000          42.000
 119206005.16047  92887778.57647  22684160.0354   22684165.0214   22684160.2864
        48.000          42.000
 125075413.43647  97461343.59447  23801072.2944   23801076.3974   23801072.5864
        45.000          40.000
 113905518.63047  88757536.86347  21675508.5554   21675510.3224   21675508.1334
        52.000          47.000
 128505616.24447 100134236.44447  24453813.7814   24453817.1694   24453813.4974
        44.000          39.000
 104946666.41147  81776610.67847  19970696.3164   19970697.9894   19970696.8134
        54.000          49.000
 09  1 26  0 14  0.0000000  0 12G30G14G 5G 6G 9G22G18G24G29G31G12G21
 119985947.51347  93495531.54547  22832575.2614   22832578.5854   22832574.9554
        49.000          42.000
 117777640.34847  91774772.28847  22412350.2434   22412352.7884   22412350.5464
        49.000          43.000
 123610453.35547  96319809.29247  23522304.7934   23522309.8034   23522305.1724
        45.000          40.000
 126056947.25047  98226180.53347  23987847.5064   23987851.8724   23987848.2274
        43.000          37.000
 125894776.33247  98099818.07047  23956985.8114   23956988.8054   23956985.8614
        41.000          37.000
 123720349.80347  96405463.12247  23543203.0024   23543203.9254   23543202.8194
        47.000          40.000
 120486470.67147  93885548.59847  22927823.1514   22927825.0464   22927823.5004
        48.000          42.000
 119283069.17947  92947828.41647  22698824.7604   22698829.8674   22698824.7704
        48.000          42.000
 125143680.07947  97514538.33847  23814063.3294   23814067.2264   23814063.3244
        45.000          40.000
 113825463.71747  88695156.43047  21660274.6304   21660276.4254   21660274.1684
        52.000          47.000
 128516200.61447 100142484.04947  24455827.7734   24455831.4914   24455827.9594
        44.000          39.000
 104959249.67047  81786415.81347  19973090.8214   19973092.7064   19973091.1564
        54.000          49.000
 09  1 26  0 14 30.0000000  0 12G30G14G 5G 6G 9G22G18G24G29G31G12G21
 119959623.83547  93475019.58447  22827565.9094   22827569.5874   22827565.8184
        49.000          42.000
 117815276.26347  91804098.98147  22419512.0314   22419514.6514   22419512.2634
        49.000          43.000
 123607762.76547  96317712.73547  23521792.8894   23521797.5764   23521793.2984
        46.000          40.000
 126035070.88847  98209134.02547  23983685.1484   23983688.9324   23983685.0734
        43.000          38.000
 125997669.45647  98179994.49747  23976565.6744   23976569.1384   23976565.8264
        41.000          37.000
 123676507.79947  96371300.54047  23534859.9814   23534860.7534   23534859.8784
        46.000          40.000
 120449232.39747  93856531.76947  22920736.8164   22920738.8474   22920737.2804
        48.000          41.000
 119360472.34647  93008142.53147  22713554.2404   22713559.0054   22713554.4644
        48.000          42.000
 125211789.28347  97567610.40747  23827024.1584   23827028.3484   23827023.9194
        45.000          40.000
 113745781.35547  88633066.30647  21645111.1184   21645113.4714   21645110.8554
        52.000          46.000
 128526978.70347 100150882.57347  24457878.7584   24457882.0204   24457878.3924
        44.000          39.000
 104972451.42547  81796702.89247  19975602.9884   19975604.8374   19975603.2974
        54.000          49.000
 09  1 26  0 15  0.0000000  0 12G30G14G 5G 6G 9G22G18G24G29G31G12G21
 119933372.61847  93454564.09047  22822570.2954   22822574.0444   22822569.8994
        49.000          42.000
 117853055.14847  91833537.09047  22426701.2574   22426703.5534   22426701.7604
        49.000          43.000
 123605292.19947  96315787.62947  23521323.2614   23521327.9104   23521323.8064
        46.000          40.000
 126013444.51547  98192282.30947  23979569.9224   23979573.7034   23979569.7544
        44.000          38.000
 126100780.43047  98260340.73747  23996186.3734   23996190.4324   23996186.6834
        41.000          37.000
 123632477.01347  96336990.86347  23526480.8944   23526481.7694   23526480.9644
        46.000          40.000
 120411941.64147  93827474.05447  22913640.7404   22913642.7664   22913641.0994
        48.000          41.000
 119438212.41847  93068719.17847  22728347.7684   22728352.3694   22728347.9474
        48.000          42.000
 125279739.54247  97620558.61547  23839954.6774   23839958.4384   23839954.8814
        45.000          40.000
 113666474.25947  88571268.58947  21630019.3904   21630021.7344   21630018.8184
        52.000          47.000
 128537952.31447 100159433.46547  24459966.9364   24459970.5944   24459966.8114
        44.000          39.000
 104986271.61047  81807471.86347  19978232.8954   19978234.6634   19978233.2834
        54.000          49.000
 09  1 26  0 15 30.0000000  0 12G30G14G 5G 6G 9G22G18G24G29G31G12G21
 119907194.57147  93434165.60647  22817588.7744   22817592.5354   22817588.4534
        49.000          43.000
 117890972.62547  91863083.18147  22433917.0984   22433919.0824   22433917.1414
        49.000          43.000
 123603042.20347  96314034.38647  23520894.4764   23520899.5734   23520895.0494
        46.000          40.000
 125992065.54447  98175623.36747  23975501.6744   23975505.4144   23975501.4954
        43.000          38.000
 126204104.83747  98340853.25147  24015848.9764   24015852.2434   24015848.6024
        41.000          37.000
 123588256.84047  96302533.64247  23518066.5464   23518066.6334   23518066.4364
        47.000          40.000
 120374598.59047  93798375.58147  22906534.5084   22906536.8774   22906534.8834
        48.000          41.000
 119516285.55847  93129555.34747  22743204.1844   22743209.3304   22743204.2424
        48.000          42.000
 125347527.72847  97673380.53447  23852854.5544   23852857.8854   23852854.3764
        45.000          39.000
 113587543.57047  88509764.17847  21614999.4524   21615001.5014   21614999.2914
        52.000          47.000
 128549121.40747 100168136.67047  24462092.3804   24462095.7334   24462091.7154
        44.000          39.000
 105000708.36447  81818721.28147  19980980.0794   19980981.9554   19980980.4434
        54.000          49.000
 09  1 26  0 16  0.0000000  0 12G30G14G 5G 6G 9G22G18G24G29G31G12G21
 119881092.10847  93413826.02947  22812621.9064   22812625.4444   22812621.6134
        49.000          42.000
 117929026.74447  91892735.75047  22441158.4914   22441161.0274   22441158.6854
        49.000          43.000
 123601015.15647  96312454.89247  23520509.1644   23520513.3594   23520509.6574
        45.000          40.000
 125970933.22347  98159156.63647  23971479.8024   23971483.9654   23971479.7414
        42.000          38.000
 126307640.32347  98421530.25347  24035550.7404   24035554.6474   24035551.0454
        44.000          38.000
 123543848.71547  96267929.94047  23509615.7354   23509616.1024   23509616.0034
        47.000          40.000
 120337205.94247  93769238.45747  22899418.8694   22899421.0424   22899419.3064
        47.000          41.000
 119594690.35947  93190649.94547  22758124.3494   22758129.6214   22758124.9574
        48.000          42.000
 125415153.06047  97726075.56847  23865723.2944   23865726.3414   23865722.8874
        45.000          39.000
 113508992.44647  88448555.53147  21600051.7564   21600053.8204   21600051.0414
        53.000          47.000
 128560488.01147 100176993.79847  24464255.2644   24464258.3604   24464254.9134
        44.000          38.000
 105015761.57347  81830451.05247  19983844.5774   19983846.4304   19983845.0034
        54.000          49.000
 09  1 26  0 16 30.0000000  0 12G30G14G 5G 6G 9G22G18G24G29G31G12G21
 119855067.36247  93393546.99047  22807669.0864   22807673.0664   22807668.6694
        49.000          43.000
 117967214.43047  91922492.39747  22448425.1634   22448427.7614   22448425.5144
        49.000          43.000
 123599212.64447  96311050.35647  23520165.3954   23520170.3944   23520165.8954
        45.000          39.000
 125950045.83947  98142880.73647  23967504.5574   23967509.5434   23967504.8414
        42.000          37.000
 126411383.44747  98502369.16947  24055292.6414   24055295.9194   24055292.9914
        42.000          38.000
 123499253.35047  96233180.32647  23501129.2794   23501129.9324   23501129.2074
        46.000          40.000
 120299765.19647  93740063.86147  22892294.1494   22892296.0774   22892294.7234
        48.000          41.000
 119673424.29747  93252001.02547  22773107.2614   22773112.3504   22773107.4104
        48.000          42.000
 125482613.69747  97778642.26047  23878560.5334   23878563.9044   23878560.6474
        45.000          39.000
 113430823.16747  88387644.42147  21585176.8014   21585178.8004   21585176.5964
        53.000          47.000
 128572053.86647 100186006.16647  24466456.6224   24466459.7094   24466455.5924
        45.000          39.000
 105031430.68947  81842660.75047  19986826.4084   19986828.1604   19986826.7724
        54.000          49.000
 09  1 26  0 17  0.0000000  0 12G30G14G 5G 6G 9G22G18G24G29G31G12G21
 119829122.72747  93373330.40147  22802732.5044   22802735.9974   22802732.4434
        49.000          43.000
 118005533.24647  91952351.23147  22455716.8424   22455719.1914   22455717.1234
        49.000          43.000
 123597636.78047  96309822.41847  23519866.0014   23519870.6004   23519866.6544
        45.000          39.000
 125929402.26047  98126794.83447  23963576.8414   23963580.8104   23963576.7664
        43.000          37.000
 126515331.61247  98583367.74847  24075073.5284   24075076.8084   24075074.1104
        42.000          38.000
 123454471.60647  96198285.50147  23492607.4444   23492608.3414   23492607.2614
        46.000          40.000
 120262278.52547  93710853.49347  22885160.6964   22885162.5794   22885161.1774
        48.000          41.000
 119752485.53547  93313607.13947  22788151.8154   22788157.0564   22788151.9944
        48.000          42.000
 125549908.50547  97831079.72947  23891366.3194   23891370.0434   23891365.9554
        44.000          39.000
 113353038.56347  88327033.05447  21570374.9784   21570376.8064   21570374.5834
        52.000          47.000
 128583820.35647 100195174.90547  24468695.1804   24468698.4514   24468695.0984
        44.000          38.000
 105047715.86347  81855350.49047  19989925.3844   19989927.1804   19989925.6814
        54.000          49.000
 09  1 26  0 17 30.0000000  0 12G30G14G 5G 6G 9G22G18G24G29G31G12G21
 119803261.94747  93353179.13047  22797810.9014   22797814.5374   22797810.4404
        49.000          42.000
 118043981.57547  91982310.97047  22463033.4434   22463035.8844   22463033.5934
        49.000          43.000
 123596290.65547  96308773.49847  23519609.0074   23519614.2284   23519609.4174
        45.000          39.000
 125909002.51547  98110898.92947  23959694.5684   23959699.3824   23959694.5424
        43.000          37.000
 126619483.04347  98664524.73947  24094893.3754   24094896.2444   24094893.4624
        43.000          38.000
 123409506.15347  96163247.52847  23484051.0944   23484051.5734   23484050.8214
        46.000          40.000
 120224749.35547  93681609.98547  22878018.7184   22878021.1794   22878019.3834
        48.000          41.000
 119831873.01647  93375467.44747  22803259.1314   22803264.0954   22803259.4314
        48.000          42.000
 125617037.43947  97883387.93347  23904140.1324   23904144.4394   23904139.7984
        44.000          39.000
 113275642.46347  88266724.42147  21555646.9314   21555648.6524   21555646.5294
        53.000          47.000
 128595790.41747 100204502.23147  24470972.4744   24470976.4504   24470972.1804
        43.000          39.000
 105064617.63447  81868520.69147  19993141.7944   19993143.4754   19993142.2484
        54.000          49.000
 09  1 26  0 18  0.0000000  0 12G30G14G 5G 6G 9G22G18G24G29G31G12G21
 119777487.59547  93333095.22947  22792906.4834   22792909.7514   22792906.3424
        49.000          42.000
 118082557.74747  92012370.33647  22470374.3124   22470376.4614   22470374.4874
        49.000          43.000
 123595176.97047  96307905.69147  23519397.7084   23519401.8374   23519398.0464
        45.000          39.000
 125888845.92547  98095192.48847  23955858.9654   23955863.1404   23955859.5094
        42.000          37.000
 126723835.68347  98745838.50847  24114751.1454   24114753.8304   24114750.9894
        44.000          38.000
 123364358.61747  96128067.65447  23475460.1404   23475459.9404   23475460.1184
        46.000          40.000
 120187180.20547  93652335.35647  22870870.0294   22870872.0474   22870870.3524
        48.000          41.000
 119911585.25547  93437580.83847  22818428.1174   22818432.8404   22818428.1134
        48.000          41.000
 125683999.86247  97935566.39247  23916882.5034   23916886.8744   23916881.9544
        43.000          39.000
 113198638.25347  88206721.16047  21540993.4484   21540995.3954   21540993.0884
        52.000          47.000
 128607966.34247 100213989.98947  24473289.8294   24473293.1904   24473289.3214
        44.000          38.000
 105082136.26147  81882171.55947  19996475.4124   19996477.1854   19996475.8224
        54.000          49.000
 09  1 26  0 18 30.0000000  0 12G30G14G 5G 6G 9G22G18G24G29G31G12G21
 119751800.05847  93313078.96147  22788018.1974   22788022.4704   22788018.0194
        49.000          42.000
 118121257.21947  92042525.78247  22477738.5104   22477740.6924   22477738.7864
        49.000          43.000
 123594295.49647  96307218.84047  23519230.0464   23519234.8544   23519230.2594
        45.000          40.000
 125868929.11947  98079672.89647  23952069.0334   23952073.4784   23952068.8804
        43.000          37.000
 126828384.49147  98827305.14847  24134645.3634   24134648.6814   24134645.8524
        43.000          38.000
 123319027.72147  96092744.90347  23466833.7634   23466834.1254   23466833.8774
        47.000          40.000
 120149570.88347  93623029.40547  22863713.1254   22863714.9744   22863713.4884
        48.000          41.000
 119991617.84047  93499943.83947  22833657.4704   22833662.7124   22833657.7144
        48.000          41.000
 125750792.30947  97987612.40647  23929592.8694   23929597.0954   23929592.4984
        44.000          39.000
 113122026.60947  88147023.78747  21526414.8894   21526416.7494   21526414.4414
        53.000          47.000
 128620347.71647 100223637.82647  24475645.4824   24475649.3394   24475645.0874
        44.000          38.000
 105100269.04547  81896300.99047  19999925.9234   19999927.7764   19999926.3134
        54.000          49.000
 09  1 26  0 19  0.0000000  0 12G30G14G 5G 6G 9G22G18G24G29G31G12G21
 119726201.76747  93293132.23247  22783147.0314   22783150.8024   22783146.9554
        49.000          42.000
 118160077.07247  92072775.01947  22485125.3144   22485127.9674   22485125.7264
        49.000          43.000
 123593648.19047  96306714.47347  23519106.9474   23519111.6504   23519107.4154
        45.000          40.000
 125849250.77847  98064339.13747  23948324.2204   23948328.8014   23948324.2884
        43.000          37.000
 126933126.64147  98908922.44347  24154577.4674   24154580.5134   24154577.6544
        43.000          38.000
 123273514.45747  96057280.06747  23458172.4274   23458173.0634   23458172.3934
        47.000          40.000
 120111923.37447  93593693.66747  22856549.0184   22856551.0484   22856549.4304
        49.000          42.000
 120071968.57547  93562554.75647  22848947.9694   22848952.7914   22848948.2244
        48.000          41.000
 125817413.29347  98039524.80747  23942270.4664   23942274.8594   23942270.4424
        44.000          39.000
 113045809.75547  88087634.05747  21511910.9104   21511913.1144   21511910.8434
        52.000          47.000
 128632935.82847 100233446.78247  24478041.4034   24478044.9794   24478041.0684
        44.000          39.000
 105119015.84047  81910908.87647  20003493.3464   20003495.2434   20003493.7724
        54.000          49.000
 09  1 26  0 19 30.0000000  0 12G30G14G 5G 6G 9G22G18G24G29G31G12G21
 119700701.14547  93273261.61147  22778294.5164   22778297.9694   22778294.1414
        49.000          42.000
 118199020.91447  92103120.88647  22492535.9934   22492538.6894   22492536.5864
        49.000          43.000
 123593243.05747  96306398.78247  23519029.4614   23519034.6844   23519030.1364
        46.000          40.000
 125829815.82147  98049194.99447  23944626.0774   23944630.1594   23944626.4374
        43.000          38.000
 127038065.45247  98990692.97747  24174546.5944   24174549.3174   24174546.8814
        43.000          37.000
 123227826.32347  96021678.94247  23449478.5744   23449478.8754   23449478.4364
        47.000          41.000
 120074246.10147  93564334.73147  22849379.2654   22849381.2184   22849379.8574
        48.000          42.000
 120152641.65447  93625416.84447  22864299.6084   22864304.7014   22864299.7504
        48.000          41.000
 125883867.68247  98091307.41947  23954916.1214   23954920.4984   23954916.0954
        44.000          39.000
 112969996.78647  88028559.02747  21497484.3664   21497486.3594   21497483.6224
        53.000          47.000
 128645738.79647 100243423.12447  24480477.1134   24480481.5564   24480476.4034
        44.000          38.000
 105138382.31947  81925999.63747  20007178.5454   20007180.3944   20007178.9104
        54.000          49.000
 09  1 26  0 20  0.0000000  0 12G30G14G 5G 6G 9G22G18G24G29G31G12G21
 119675287.76947  93253458.98147  22773458.4354   22773462.1144   22773458.0524
        49.000          43.000
 118238073.65147  92133551.59547  22499967.8284   22499970.3374   22499968.0674
        49.000          43.000
 123593069.47447  96306263.54347  23518996.7944   23519001.6474   23518996.9514
        45.000          40.000
 125810610.27347  98034229.65547  23940970.8514   23940975.5634   23940970.7494
        43.000          38.000
 127143185.50547  99072604.74247  24194549.6134   24194552.9134   24194550.3194
        42.000          37.000
 123181951.73047  95985932.53047  23440748.8444   23440749.6864   23440749.1204
        47.000          41.000
 120036528.62847  93534944.48447  22842201.8864   22842203.9864   22842202.1734
        49.000          41.000
 120233622.12247  93688518.43247  22879709.4544   22879714.6704   22879709.5754
        47.000          41.000
 125950141.79947  98142949.55747  23967527.9654   23967532.3464   23967528.0384
        44.000          39.000
 112894577.92847  87969791.10047  21483132.6144   21483134.5564   21483132.4564
        53.000          47.000
 128658745.45347 100253558.19747  24482952.9674   24482956.0314   24482952.5614
        45.000          39.000
 105158355.14447  81941562.86947  20010979.2824   20010981.1814   20010979.5964
        54.000          49.000
 09  1 26  0 20 30.0000000  0 12G30G14G 5G 6G 9G22G18G24G29G31G12G21
 119649974.35347  93233734.23147  22768641.4794   22768645.2144   22768641.0454
        49.000          43.000
 118277242.96347  92164073.14947  22507421.4154   22507424.0634   22507421.8154
        49.000          43.000
 123593139.60947  96306318.21947  23519009.4864   23519014.5364   23519010.1004
        45.000          39.000
