     2.11           OBSERVATION DATA    G (GPS)             RINEX VERSION / TYPE
teqc  2008Oct2      gpsops              20090121 00:10:34UTCPGM / RUN BY / DATE
    30.0000                                                 INTERVAL
     1     1                                                WAVELENGTH FACT L1/2
     7    L1    L2    P1    P2    C1    S1    S2            # / TYPES OF OBSERV
Linux 2.4.20-8|Pentium IV|gcc -static|Linux|486/DX+         COMMENT
     2.10           OBSERVATION DATA    GPS                 COMMENT
soc2rnx ver 1.20    gpsops              21-Jan-2009 00:10:24COMMENT
S1, if present, is the SNR for the C/A data stream on L1.   COMMENT
 SNR is mapped to RINEX snr flag value [1,4-9]              COMMENT
    SNR:   >316  >100  >31.6  >10  >3.2    >0 bad=0         COMMENT
L1 & L2:      9     8     7     6     5     4     1         COMMENT
                                                            COMMENT
This data is provided as a public service by NASA/JPL.      COMMENT
No warranty is expressed or implied regarding suitability   COMMENT
for use.  For further information, contact:                 COMMENT
Dave Stowers, NASA/JPL m/s 238-600                          COMMENT
4800 Oak Grove Drive, Pasadena CA 91109 USA                 COMMENT
                                                            COMMENT
Forced Modulo Decimation to 30 seconds                      COMMENT
  2009     1    20     0     0    0.0000000     GPS         TIME OF FIRST OBS
GGN                 JPL                                     OBSERVER / AGENCY
CR519992104         ASH701945B_M    SCIT                    ANT # / TYPE
   -33801.4662 -6377516.5323   -82154.3508                  APPROX POSITION XYZ
        0.0083        0.0000        0.0000                  ANTENNA: DELTA H/E/N
ZR220013847         ASHTECH UZ-12       CQ00                REC # / TYPE / VERS
GLPS                                                        MARKER NAME
42005M002                                                   MARKER NUMBER
                                                            END OF HEADER
 09  1 20  0  0  0.0000000  0 12G14G 5G 6G21G18G24G22G12G29G30G 9G31
 115547088.29147  90036673.79947  21987894.2104   21987897.5094   21987894.8874
        50.000          45.000
 124250063.90047  96818206.72347  23644019.9434   23644023.9504   23644019.8174
        46.000          40.000
 128527298.91947 100151122.22147  24457947.0484   24457953.1384   24457947.8384
        42.000          37.000
 105777109.38347  82423717.97047  20128716.4764   20128718.3114   20128716.9214
        54.000          49.000
 123045148.22547  95879327.68947  23414717.3804   23414722.0434   23414718.6264
        48.000          40.000
 114460743.83247  89190171.15147  21781169.6504   21781174.5914   21781168.8644
        51.000          45.000
 126476202.19847  98552887.57147  24067617.6674   24067619.2914   24067618.5144
        44.000          39.000
 128172404.23047  99874577.92747  24390413.2014   24390418.4524   24390412.8444
        43.000          38.000
 119600709.74747  93195341.86947  22759269.3854   22759273.4574   22759269.1264
        47.000          43.000
 122050874.39047  95104554.57547  23225529.4714   23225532.7594   23225527.8404
        48.000          41.000
 118817393.83447  92584960.46647  22610215.1834   22610218.8854   22610215.3004
        48.000          42.000
 120923826.70947  94226341.57647  23011051.5074   23011055.0164   23011050.7704
        48.000          42.000
 09  1 20  0  0 30.0000000  0 12G14G 5G 6G21G18G24G22G12G29G30G 9G31
 115565693.41047  90051171.30447  21991434.8534   21991437.9094   21991435.0074
        50.000          44.000
 124236731.84547  96807818.11847  23641482.8684   23641487.6804   23641483.3974
        45.000          39.000
 128483596.31447 100117068.20847  24449630.9814   24449636.1024   24449631.0954
        41.000          37.000
 105744218.40447  82398088.63747  20122457.4654   20122459.7864   20122457.8754
        54.000          49.000
 123017273.74747  95857607.33247  23409414.3234   23409416.5944   23409414.4214
        48.000          40.000
 114506923.63047  89226155.38947  21789956.4074   21789961.2164   21789956.3694
        51.000          45.000
 126448961.04647  98531660.71547  24062434.0754   24062435.4624   24062434.0584
        44.000          38.000
 128173798.07047  99875664.10247  24390678.5234   24390682.7964   24390678.6034
        44.000          38.000
 119676138.60047  93254117.56147  22773623.1914   22773627.3994   22773622.8094
        48.000          43.000
 122025535.57447  95084810.07947  23220706.4114   23220710.6654   23220706.0744
        48.000          41.000
 118895411.74447  92645753.65047  22625061.1054   22625064.7364   22625061.2894
        48.000          42.000
 120823876.79847  94148458.59347  22992032.1144   22992035.1164   22992031.1854
        48.000          42.000
 09  1 20  0  1  0.0000000  0 12G14G 5G 6G21G18G24G22G12G29G30G 9G31
 115584632.29747  90065928.88247  21995038.8774   21995041.7774   21995039.2104
        50.000          45.000
 124223453.97547  96797471.74147  23638956.0104   23638961.2724   23638956.2994
        45.000          39.000
 128440196.77747 100083250.36347  24441372.6474   24441377.7484   24441372.5074
        42.000          36.000
 105711870.56347  82372882.52247  20116302.2364   20116304.0964   20116302.6504
        54.000          49.000
 122989223.45047  95835749.97047  23404076.4914   23404078.3594   23404076.8334
        48.000          40.000
 114553556.73547  89262492.85047  21798830.4824   21798835.2894   21798830.6044
        51.000          45.000
 126421490.76647  98510255.31047  24057206.5614   24057207.7744   24057206.3694
        45.000          39.000
 128175241.60247  99876788.97147  24390953.4774   24390958.0614   24390952.9184
        43.000          38.000
 119751546.73147  93312877.09247  22787973.1364   22787977.0854   22787973.0044
        48.000          43.000
 122000106.93047  95064995.57247  23215867.3354   23215871.8674   23215866.6724
        48.000          41.000
 118973844.98347  92706870.46847  22639986.7344   22639990.2334   22639987.0654
        48.000          42.000
 120724074.62847  94070690.74347  22973039.9844   22973043.6374   22973040.0784
        48.000          42.000
 09  1 20  0  1 30.0000000  0 12G14G 5G 6G21G18G24G22G12G29G30G 9G31
 115603905.51847  90080946.98447  21998706.3324   21998709.4504   21998706.4844
        50.000          44.000
 124210235.26647  96787171.44347  23636440.6704   23636445.6584   23636440.9114
        46.000          40.000
 128397102.94647 100049670.73747  24433172.1814   24433176.5414   24433172.4174
        43.000          36.000
 105680071.25647  82348103.84247  20110250.8104   20110252.8554   20110251.1994
        55.000          49.000
 122961001.63547  95813758.97847  23398706.0024   23398708.4154   23398706.1574
        48.000          40.000
 114600645.40747  89299185.29747  21807791.0774   21807796.0584   21807791.2064
        51.000          45.000
 126393794.14147  98488673.56247  24051936.2314   24051937.1094   24051936.4374
        45.000          39.000
 128176739.96047  99877956.56747  24391238.7754   24391242.8474   24391238.4214
        44.000          38.000
 119826934.84347  93371621.04047  22802319.3844   22802323.1854   22802318.9354
        48.000          43.000
 121974593.03547  95045114.64047  23211012.7324   23211016.7424   23211012.3644
        48.000          41.000
 119052694.55747  92768311.72247  22654991.3114   22654994.4774   22654991.4124
        48.000          42.000
 120624426.03447  93993042.55647  22954077.4454   22954081.1294   22954076.9394
        48.000          43.000
 09  1 20  0  2  0.0000000  0 12G14G 5G 6G21G18G24G22G12G29G30G 9G31
 115623508.73347  90096222.22447  22002436.7594   22002439.6764   22002437.0174
        50.000          44.000
 124197075.79947  96776917.32647  23633936.5664   23633941.3634   23633937.2284
        46.000          40.000
 128354312.18347 100016327.27647  24425029.0584   24425033.8674   24425029.2014
        42.000          37.000
 105648819.73647  82323752.00647  20104303.9364   20104305.9944   20104304.3294
        54.000          49.000
 122932607.42247  95791633.62147  23393302.7174   23393304.8194   23393303.0964
        48.000          40.000
 114648186.50947  89336230.29247  21816838.0514   21816842.8604   21816838.1434
        51.000          45.000
 126365868.97947  98466913.74247  24046622.3234   24046623.4694   24046622.2624
        45.000          39.000
 128178292.55647  99879166.44347  24391533.9894   24391537.8364   24391533.8034
        43.000          38.000
 119902298.68247  93430346.07447  22816660.4954   22816664.8104   22816660.0584
        48.000          43.000
 121948993.63147  95025167.08247  23206141.0854   23206145.1184   23206140.6714
        48.000          41.000
 119131956.09547  92830073.97747  22670074.2984   22670077.5544   22670074.5114
        47.000          41.000
 120524931.69047  93915514.56147  22935144.2884   22935147.8784   22935143.9474
        48.000          43.000
 09  1 20  0  2 30.0000000  0 12G14G 5G 6G21G18G24G22G12G29G30G 9G31
 115643440.24847  90111753.28347  22006229.6874   22006232.7934   22006229.8064
        51.000          45.000
 124183978.18547  96766711.41547  23631443.9714   23631449.1394   23631444.4044
        45.000          39.000
 128311825.14247  99983220.48847  24416943.9064   24416948.8004   24416944.1894
        43.000          37.000
 105618118.55847  82299829.00747  20098461.6794   20098463.6784   20098462.0794
        54.000          49.000
 122904042.44647  95769375.20547  23387866.4354   23387869.2004   23387867.0454
        47.000          40.000
 114696179.64947  89373627.52647  21825970.7074   21825975.4494   21825971.0064
        51.000          45.000
 126337716.26347  98444976.56247  24041264.8054   24041265.9554   24041264.8494
        45.000          39.000
 128179901.92747  99880420.54747  24391839.4404   24391843.6724   24391839.4214
        43.000          38.000
 119977636.35647  93489050.71947  22830997.0374   22831000.9834   22830996.6174
        48.000          43.000
 121923311.20547  95005154.83147  23201253.8084   23201257.9914   23201253.1354
        48.000          41.000
 119211627.97147  92892155.96247  22685234.9984   22685238.7144   22685235.2614
        47.000          41.000
 120425595.16147  93838109.54447  22916241.0594   22916244.6494   22916240.7764
        48.000          43.000
 09  1 20  0  3  0.0000000  0 12G14G 5G 6G21G18G24G22G12G29G30G 9G31
 115663699.03047  90127539.35647  22010084.8554   22010087.7144   22010085.0614
        50.000          44.000
 124170945.49447  96756556.09447  23628963.6634   23628969.3864   23628964.3444
        45.000          39.000
 128269642.73047  99950351.06147  24408917.6504   24408921.8764   24408917.5084
        42.000          37.000
 105587970.75547  82276337.21447  20092724.6154   20092726.8694   20092724.9744
        54.000          49.000
 122875308.56747  95746985.18347  23382399.0404   23382401.3404   23382399.6084
        48.000          40.000
 114744624.64747  89411376.85647  21835189.4234   21835194.5554   21835189.4324
        51.000          45.000
 126309336.44047  98422862.43047  24035864.5034   24035865.3524   24035864.6124
        47.000          39.000
 128181571.38847  99881721.48647  24392157.3024   24392161.9764   24392157.3454
        43.000          38.000
 120052946.64747  93547734.02747  22845328.1024   22845332.0784   22845327.8854
        48.000          43.000
 121897548.15647  94985079.76447  23196351.3764   23196355.3854   23196350.7984
        47.000          42.000
 119291708.79947  92954556.61247  22700473.7614   22700477.6294   22700474.0294
        47.000          41.000
 120326420.02047  93760830.28547  22897368.7554   22897372.0274   22897368.2124
        48.000          43.000
 09  1 20  0  3 30.0000000  0 12G14G 5G 6G21G18G24G22G12G29G30G 9G31
 115684280.71447  90143577.04047  22014001.1734   22014004.4314   22014001.0624
        50.000          44.000
 124157978.10747  96746451.64947  23626496.0004   23626501.3344   23626496.5274
        45.000          39.000
 128227762.83647  99917717.37347  24400947.4434   24400952.6364   24400947.0494
        41.000          37.000
 105558376.49047  82253276.74847  20087093.0954   20087095.3034   20087093.5114
        54.000          49.000
 122846405.45247  95724463.26947  23376899.3474   23376900.8774   23376899.8794
        47.000          40.000
 114793518.96947  89449476.30047  21844493.7174   21844498.6624   21844493.7714
        51.000          45.000
 126280728.09647  98400570.24347  24030420.7974   24030421.4204   24030420.6544
        45.000          39.000
 128183300.59447  99883068.95947  24392486.8644   24392491.0324   24392486.6224
        44.000          38.000
 120128225.68347  93606392.98447  22859653.5414   22859657.0824   22859653.1854
        48.000          43.000
 121871704.61147  94964941.96547  23191433.3914   23191437.5244   23191433.3534
        48.000          41.000
 119372194.63447  93017272.87047  22715789.6704   22715793.2924   22715789.7494
        46.000          41.000
 120227407.67747  93683677.88147  22878527.1424   22878530.4444   22878526.2954
        48.000          43.000
 09  1 20  0  4  0.0000000  0 12G14G 5G 6G21G18G24G22G12G29G30G 9G31
 115705184.71047  90159865.88147  22017979.0024   22017982.2874   22017978.9744
        50.000          44.000
 124145079.70547  96736400.95747  23624041.2454   23624046.5614   23624041.6714
        45.000          39.000
 128186186.49447  99885320.19347  24393036.2614   24393041.0484   24393036.1124
        42.000          37.000
 105529339.08147  82230650.18947  20081567.4944   20081569.6644   20081567.8934
        54.000          50.000
 122817335.81147  95701811.60747  23371367.3734   23371369.4284   23371367.7924
        47.000          40.000
 114842863.28847  89487926.39847  21853883.6594   21853888.7724   21853883.8554
        51.000          45.000
 126251892.84947  98378101.23047  24024933.2494   24024934.1174   24024933.4824
        45.000          39.000
 128185092.89147  99884465.63447  24392828.2764   24392832.0254   24392828.5344
        44.000          39.000
 120203472.81547  93665027.07647  22873972.5144   22873976.2534   22873972.3354
        48.000          43.000
 121845783.74547  94944743.92347  23186500.6804   23186504.7304   23186501.0034
        48.000          41.000
 119453084.92447  93080304.28547  22731182.7224   22731186.2414   22731182.6584
        47.000          41.000
 120128562.77947  93606655.94847  22859717.6864   22859720.6874   22859717.0424
        48.000          43.000
 09  1 20  0  4 30.0000000  0 12G14G 5G 6G21G18G24G22G12G29G30G 9G31
 115726408.66847  90176404.03947  22022017.8344   22022021.0054   22022018.0484
        50.000          44.000
 124132252.39647  96726405.65447  23621600.9744   23621605.8704   23621601.6554
        45.000          39.000
 128144913.64247  99853159.49347  24385181.6674   24385186.7204   24385181.4444
        42.000          37.000
 105500860.34347  82208458.96247  20076148.2154   20076150.2654   20076148.5584
        54.000          49.000
 122788100.67947  95679031.00947  23365804.0294   23365805.6824   23365804.4694
        47.000          40.000
 114892656.48447  89526726.27247  21863359.0354   21863364.1274   21863359.1574
        51.000          45.000
 126222830.94747  98355455.61547  24019403.1654   24019404.2694   24019403.2414
        46.000          39.000
 128186950.72447  99885913.33347  24393181.4234   24393185.7414   24393180.9864
        43.000          38.000
 120278685.79847  93723634.55647  22888284.6944   22888288.9754   22888284.5944
        48.000          43.000
 121819787.69547  94924487.28447  23181553.6814   23181558.1074   23181552.9734
        48.000          41.000
 119534377.33047  93143649.03347  22746652.0434   22746655.4634   22746651.9374
        47.000          41.000
 120029888.05447  93529766.62547  22840940.3544   22840943.2464   22840940.5054
        49.000          43.000
 09  1 20  0  5  0.0000000  0 12G14G 5G 6G21G18G24G22G12G29G30G 9G31
 115747948.16147  90193188.06747  22026116.8974   22026119.7314   22026117.0514
        50.000          44.000
 124119496.35447  96716465.92247  23619173.3684   23619179.1274   23619173.8694
        45.000          39.000
 128103941.74147  99821233.31347  24377385.1414   24377390.8264   24377385.0394
        43.000          37.000
 105472940.33247  82186703.10847  20070835.0364   20070837.3424   20070835.3774
        54.000          50.000
 122758699.20947  95656120.76647  23360209.2834   23360211.0074   23360209.5534
        47.000          40.000
 114942895.51747  89565873.54947  21872919.3574   21872924.0504   21872919.7214
        51.000          45.000
 126193540.24047  98332631.71447  24013829.0214   24013830.3444   24013829.1234
        46.000          39.000
 128188873.76847  99887411.85747  24393547.3544   24393550.4804   24393547.2324
        44.000          38.000
 120353860.39047  93782212.11747  22902589.7134   22902594.1944   22902589.3274
        48.000          43.000
 121793716.19647  94904171.87147  23176592.5704   23176596.7354   23176592.6914
        48.000          41.000
 119616067.34747  93207303.59347  22762197.3634   22762201.0444   22762197.1664
        47.000          41.000
 119931384.29247  93453010.51647  22822195.7814   22822198.4464   22822195.8884
        49.000          43.000
 09  1 20  0  5 30.0000000  0 12G14G 5G 6G21G18G24G22G12G29G30G 9G31
 115769804.16647  90210218.71947  22030275.8304   22030278.6154   22030276.0574
        50.000          44.000
 124106816.65947  96706585.68447  23616760.5434   23616765.4824   23616760.6144
        46.000          39.000
 128063273.72147  99789543.91947  24369646.7774   24369651.6474   24369646.4804
        41.000          37.000
 105445583.33847  82165385.96247  20065629.2604   20065631.4184   20065629.6534
        54.000          49.000
 122729136.12447  95633084.59247  23354583.6944   23354585.9604   23354583.9294
        47.000          40.000
 114993582.24147  89605369.68247  21882564.6124   21882569.5794   21882564.7894
        51.000          45.000
 126164023.80747  98309631.91247  24008212.0814   24008213.2234   24008212.3234
        46.000          39.000
 128190867.23247  99888965.24747  24393926.6354   24393930.3424   24393925.8524
        43.000          38.000
 120428997.35647  93840760.36547  22916887.9574   22916892.3204   22916887.4944
        48.000          43.000
 121767574.01247  94883801.36447  23171617.9324   23171622.0764   23171617.6804
        47.000          41.000
 119698155.85847  93271268.69247  22777818.0484   22777821.5764   22777817.9684
        46.000          41.000
 119833057.65247  93376392.42447  22803485.0114   22803487.3834   22803484.5014
        49.000          43.000
 09  1 20  0  6  0.0000000  0 12G14G 5G 6G21G18G24G22G12G29G30G 9G31
 115791971.21747  90227491.75747  22034494.2104   22034496.9894   22034494.4204
        50.000          44.000
 124094212.66947  96696764.41447  23614361.9944   23614366.7234   23614362.3844
        45.000          39.000
 128022906.52847  99758088.92947  24361964.9364   24361970.1174   24361964.8414
        43.000          37.000
 105418788.59247  82144506.93647  20060530.2894   20060532.5154   20060530.6784
        54.000          49.000
 122699409.43047  95609920.94347  23348926.4174   23348929.1764   23348926.6584
        47.000          40.000
 115044712.96947  89645211.78147  21892294.6764   21892299.2704   21892294.7684
        51.000          45.000
 126134278.92247  98286454.09847  24002551.6714   24002552.9064   24002551.8564
        46.000          39.000
 128192930.03747  99890572.68847  24394319.0804   24394323.2674   24394318.9044
        44.000          38.000
 120504091.78647  93899275.46647  22931178.0214   22931182.6334   22931177.4674
        48.000          43.000
 121741360.29147  94863375.10447  23166629.3764   23166633.5914   23166628.8414
        48.000          41.000
 119780637.50647  93335540.11847  22793513.9034   22793517.3604   22793514.0384
        47.000          41.000
 119734908.27347  93299912.45347  22784807.7274   22784810.2884   22784806.9624
        49.000          43.000
 09  1 20  0  6 30.0000000  0 12G14G 5G 6G21G18G24G22G12G29G30G 9G31
 115814448.16047  90245006.26347  22038771.3414   22038773.9534   22038771.5984
        50.000          44.000
 124081687.45547  96687004.50747  23611978.7754   23611983.4344   23611979.3674
        46.000          39.000
 127982840.58547  99726868.67747  24354340.9504   24354345.7044   24354341.1004
        41.000          37.000
 105392558.54847  82124067.94047  20055538.9634   20055541.2564   20055539.3634
        54.000          49.000
 122669521.05947  95586631.30347  23343239.1254   23343241.2704   23343239.5274
        47.000          40.000
 115096287.66447  89685399.83747  21902108.9024   21902113.7034   21902109.0814
        51.000          45.000
 126104307.05147  98263099.42547  23996848.6444   23996849.7164   23996848.7304
        45.000          39.000
 128195064.99547  99892236.32747  24394725.2174   24394728.9734   24394725.0484
        44.000          38.000
 120579142.47047  93957756.47547  22945459.8794   22945463.9494   22945459.7004
        48.000          43.000
 121715077.71047  94842895.19847  23161627.9614   23161632.5774   23161627.7844
        48.000          42.000
 119863511.13747  93400116.99947  22809284.0574   22809287.9374   22809284.2694
        47.000          41.000
 119636940.04247  93223573.64447  22766164.8034   22766167.2794   22766164.5554
        49.000          43.000
 09  1 20  0  7  0.0000000  0 12G14G 5G 6G21G18G24G22G12G29G30G 9G31
 115837233.31147  90262760.93947  22043107.0624   22043109.8594   22043107.2444
        50.000          44.000
 124069243.60247  96677307.99547  23609610.6304   23609615.4774   23609611.2794
        46.000          39.000
 127943075.96347  99695883.23147  24346774.0184   24346778.4694   24346773.1914
        43.000          37.000
 105366895.49847  82104070.74947  20050655.5204   20050657.5824   20050655.9114
        54.000          50.000
 122639473.15747  95563217.34847  23337521.2244   23337523.4344   23337521.6334
        47.000          40.000
 115148305.50447  89725933.19147  21912007.7734   21912012.2624   21912007.7534
        51.000          45.000
 126074108.27947  98239567.92447  23991101.6124   23991103.0524   23991101.8184
        45.000          39.000
 128197274.29147  99893957.90947  24395145.5014   24395149.2694   24395145.1604
        44.000          38.000
 120654147.59947  94016202.00247  22959733.0514   22959737.3184   22959732.6134
        48.000          43.000
 121688728.46647  94822363.34347  23156613.9044   23156618.2934   23156613.5194
        48.000          42.000
 119946774.72847  93464997.73647  22825128.7074   22825132.4284   22825128.6354
        48.000          41.000
 119539156.16247  93147378.47847  22747556.8394   22747559.6574   22747556.2434
        48.000          43.000
 09  1 20  0  7 30.0000000  0 12G14G 5G 6G21G18G24G22G12G29G30G 9G31
 115860325.88647  90280755.16347  22047501.5944   22047504.2144   22047502.0384
        50.000          44.000
 124056885.20647  96667678.11447  23607259.2954   23607263.6594   23607259.7344
        46.000          39.000
 127903614.25047  99665133.80347  24339264.6944   24339269.5574   24339264.9494
        43.000          37.000
 105341803.00547  82084518.15747  20045880.5224   20045882.7804   20045880.8064
        54.000          50.000
 122609268.69147  95539681.41047  23331773.3394   23331775.7484   23331773.7184
        47.000          40.000
 115200767.36447  89766812.54747  21921990.7794   21921995.5674   21921990.8374
        51.000          45.000
 126043684.93447  98215861.44447  23985312.6134   23985313.3624   23985312.7514
        45.000          39.000
 128199562.10947  99895740.66747  24395580.9864   24395584.6544   24395580.2654
        44.000          38.000
 120729107.23947  94074612.06847  22973997.2614   22974001.2964   22973996.9814
        48.000          42.000
 121662316.68047  94801782.73947  23151587.9784   23151592.1314   23151587.5374
        48.000          41.000
 120030428.04547  93530182.16447  22841047.5284   22841050.9844   22841047.6004
        47.000          41.000
 119441561.68947  93071330.91047  22728985.0034   22728987.9344   22728984.7894
        48.000          43.000
 09  1 20  0  8  0.0000000  0 12G14G 5G 6G21G18G24G22G12G29G30G 9G31
 115883719.29047  90298983.79347  22051953.0944   22051956.0634   22051953.2014
        50.000          44.000
 124044609.98147  96658113.03947  23604923.2634   23604927.8114   23604923.4724
        45.000          39.000
 127864450.71047  99634616.72847  24331811.4804   24331816.7794   24331811.4844
        42.000          37.000
 105317278.55247  82065408.19347  20041213.6864   20041215.9354   20041214.0684
        54.000          50.000
 122578904.81347  95516021.23747  23325995.3734   23325997.7554   23325996.0714
        48.000          40.000
 115253667.85047  89808033.68047  21932057.3914   21932062.3454   21932057.7144
        51.000          45.000
 126013032.96147  98191976.80847  23979479.6794   23979479.8564   23979479.3974
        45.000          39.000
 128201925.99047  99897582.70447  24396030.9644   24396034.4994   24396030.7034
        45.000          39.000
 120804014.51047  94132981.32447  22988252.0534   22988256.0754   22988251.7894
        48.000          42.000
 121635839.53647  94781151.22547  23146549.2764   23146553.5434   23146549.3474
        49.000          42.000
 120114464.04947  93595664.79447  22857039.0224   22857042.3874   22857039.3384
        47.000          41.000
 119344155.00747  92995429.65747  22710449.1844   22710452.1174   22710448.8324
        49.000          43.000
 09  1 20  0  8 30.0000000  0 12G14G 5G 6G21G18G24G22G12G29G30G 9G31
 115907414.75747  90317447.81647  22056462.2434   22056465.2404   22056462.5514
        50.000          44.000
 124032423.85347  96648617.37547  23602603.6274   23602609.1194   23602604.2004
        45.000          39.000
 127825588.66747  99604334.56247  24324416.4824   24324421.4624   24324416.2804
        42.000          37.000
 105293327.32447  82046744.89747  20036655.8774   20036658.0784   20036656.3194
        54.000          50.000
 122548386.41547  95492240.67047  23320188.1254   23320190.0894   23320188.8654
        47.000          40.000
 115307009.30747  89849598.43547  21942207.8184   21942213.0094   21942208.0304
        51.000          45.000
 125982156.41947  98167917.16447  23973604.1604   23973604.7624   23973604.3904
        45.000          38.000
 128204371.41647  99899488.28247  24396496.5434   24396500.3314   24396496.3874
        44.000          39.000
 120878871.02847  94191311.04547  23002496.5774   23002500.2744   23002496.1014
        47.000          42.000
 121609303.10747  94760473.51447  23141499.9234   23141503.7234   23141499.3724
        48.000          42.000
 120198884.34847  93661446.85947  22873103.8934   22873107.2284   22873104.1054
        47.000          41.000
 119246943.14847  92919680.22447  22691950.4294   22691953.1614   22691950.3854
        49.000          43.000
 09  1 20  0  9  0.0000000  0 12G14G 5G 6G21G18G24G22G12G29G30G 9G31
 115931407.71947  90336143.63547  22061027.9054   22061030.9524   22061027.9484
        50.000          45.000
 124020326.57647  96639190.95147  23600302.3224   23600306.7384   23600302.6154
        45.000          39.000
 127787025.30247  99574285.14847  24317077.8024   24317083.0744   24317077.4424
        42.000          37.000
 105269948.78047  82028527.84547  20032207.0844   20032209.3814   20032207.4244
        54.000          50.000
 122517712.48347  95468338.90047  23314350.8134   23314352.9704   23314351.2744
        47.000          40.000
 115360788.12547  89891503.98847  21952441.8934   21952446.8554   21952442.0564
        51.000          45.000
 125951052.66247  98143680.50047  23967684.4804   23967686.3144   23967684.4594
        45.000          38.000
 128206898.34847  99901457.37547  24396976.8814   24396981.0144   24396976.6994
        43.000          38.000
 120953672.51247  94249597.87147  23016730.6594   23016734.9924   23016730.2514
        48.000          42.000
 121582706.57747  94739748.95547  23136439.0434   23136442.7904   23136438.6564
        48.000          42.000
 120283684.09147  93727524.58247  22889240.7044   22889244.3844   22889240.6284
        47.000          41.000
 119149926.59047  92844082.96047  22673488.6284   22673491.8544   22673488.0754
        48.000          43.000
 09  1 20  0  9 30.0000000  0 12G14G 5G 6G21G18G24G22G12G29G30G 9G31
 115955696.83647  90355070.22947  22065650.2264   22065653.0514   22065650.4974
        51.000          45.000
 124008321.67347  96629836.49047  23598017.3834   23598022.4094   23598017.6954
        46.000          39.000
 127748761.49647  99544469.15747  24309796.5224   24309801.9194   24309796.5354
        43.000          37.000
 105247145.45347  82010759.01847  20027867.8194   20027870.0064   20027868.1704
        54.000          50.000
 122486885.67147  95444317.99747  23308485.0104   23308486.5844   23308485.2594
        47.000          40.000
 115415004.62647  89933750.59547  21962759.0054   21962763.9354   21962759.0354
        51.000          45.000
 125919722.97247  98119267.78647  23961723.2624   23961724.1604   23961723.2374
        46.000          38.000
 128209509.63747  99903492.19047  24397473.6834   24397477.9434   24397473.7114
        44.000          38.000
 121028418.07947  94307841.13247  23030954.5164   23030958.5994   23030954.0474
        47.000          42.000
 121556052.98547  94718979.93547  23131366.6534   23131370.7614   23131366.1944
        48.000          41.000
 120368862.22147  93793897.18347  22905449.4654   22905452.3184   22905449.7144
        47.000          41.000
 119053109.27447  92768640.95247  22655064.8144   22655067.9974   22655064.3834
        49.000          43.000
 09  1 20  0 10  0.0000000  0 12G14G 5G 6G21G18G24G22G12G29G30G 9G31
 115980279.46247  90374225.53147  22070328.0404   22070330.9124   22070328.1624
        50.000          45.000
 123996410.66147  96620555.20247  23595750.9614   23595755.5094   23595751.3644
        45.000          39.000
 127710796.28847  99514885.85647  24302572.2374   24302577.6194   24302572.3264
        42.000          37.000
 105224918.69647  81993439.46147  20023638.2734   20023640.3454   20023638.6504
        54.000          50.000
 122455906.35547  95420178.27947  23302589.6564   23302591.7024   23302589.8994
        47.000          40.000
 115469656.99647  89976336.83747  21973159.1854   21973163.7454   21973159.2694
        51.000          45.000
 125888167.85347  98094679.39247  23955718.4984   23955718.7084   23955718.3884
        45.000          38.000
 128212206.52447  99905593.73047  24397986.9094   24397990.6914   24397986.8594
        43.000          38.000
 121103105.23147  94366038.87547  23045166.8984   23045170.9184   23045166.8164
        48.000          42.000
 121529344.13547  94698167.86147  23126283.9394   23126288.1294   23126283.7284
        48.000          41.000
 120454415.83947  93860562.36747  22921729.8294   22921733.1194   22921729.9954
        47.000          41.000
 118956493.87047  92693356.29347  22636679.6464   22636682.6344   22636679.6884
        49.000          43.000
 09  1 20  0 10 30.0000000  0 12G14G 5G 6G21G18G24G22G12G29G30G 9G31
 116005154.42247  90393608.62947  22075061.8474   22075064.4434   22075061.9384
        51.000          45.000
 123984597.15347  96611349.90347  23593502.6444   23593507.5704   23593503.2654
        46.000          40.000
 127673130.67147  99485535.98247  24295404.8514   24295409.7544   24295404.8514
        42.000          37.000
 105203271.22447  81976571.30447  20019518.8114   20019521.0534   20019519.2334
        54.000          50.000
 122424777.77547  95395922.24647  23296665.6924   23296668.2284   23296666.0104
        47.000          40.000
 115524745.38147  90019262.83147  21983641.8154   21983646.8514   21983641.9344
        51.000          44.000
 125856388.18447  98069916.02047  23949671.0024   23949671.8024   23949670.9724
        45.000          39.000
 128214992.42347  99907764.60847  24398517.4004   24398520.8014   24398516.8454
        44.000          38.000
 121177733.30747  94424190.59647  23059368.4494   23059372.1364   23059368.2134
        48.000          42.000
 121502583.37947  94677315.34147  23121191.2184   23121195.4274   23121190.5944
        48.000          41.000
 120540343.88447  93927519.30547  22938081.1554   22938084.4624   22938081.3674
        47.000          40.000
 118860084.64547  92618232.27547  22618333.7174   22618336.1984   22618333.1394
        50.000          43.000
 09  1 20  0 11  0.0000000  0 12G14G 5G 6G21G18G24G22G12G29G30G 9G31
 116030316.57447  90413215.50347  22079849.8164   22079852.5094   22079850.1344
        51.000          45.000
 123972880.27547  96602219.87947  23591273.1204   23591277.8964   23591273.5574
        46.000          39.000
 127635761.16647  99456416.85147  24288293.7344   24288299.0654   24288293.9304
        43.000          37.000
 105182201.49847  81960153.33047  20015509.3904   20015511.4294   20015509.7214
        54.000          50.000
 122393498.08947  95371548.47547  23290713.3284   23290715.6924   23290714.0704
        47.000          40.000
 115580265.71647  90062525.39747  21994207.0554   21994211.9984   21994207.2854
        51.000          45.000
 125824381.71747  98044975.93047  23943580.5064   23943581.7124   23943580.7494
        45.000          39.000
 128217866.76047  99910004.39647  24399064.3304   24399068.1314   24399063.7334
        44.000          38.000
 121252297.10347  94482292.21147  23073557.3954   23073561.4704   23073557.2044
        47.000          42.000
 121475769.69547  94656421.57147  23116088.8194   23116093.4324   23116088.5054
        48.000          41.000
 120626641.08447  93994763.89547  22954502.8724   22954506.5994   22954503.0094
        46.000          41.000
 118763881.68147  92543268.97947  22600026.7984   22600029.3054   22600026.3444
        49.000          43.000
 09  1 20  0 11 30.0000000  0 12G14G 5G 6G21G18G24G22G12G29G30G 9G31
 116055766.09947  90433046.30947  22084692.7534   22084695.3614   22084693.1744
        51.000          44.000
 123961265.05847  96593169.09047  23589062.6674   23589067.6334   23589063.0624
        45.000          39.000
 127598690.08047  99427530.24947  24281239.3584   24281243.8114   24281239.3124
        42.000          37.000
 105161714.16447  81944189.17747  20011610.7024   20011612.9224   20011611.0954
        54.000          49.000
 122362071.75847  95347060.42847  23284733.5544   23284735.3904   23284733.8994
        47.000          40.000
 115636219.52247  90106125.74947  22004854.7214   22004859.4864   22004854.9184
        51.000          44.000
 125792151.44347  98019861.45847  23937447.1974   23937448.3744   23937447.4194
        45.000          39.000
 128220834.12647  99912316.69847  24399628.4574   24399631.9574   24399628.4264
        44.000          38.000
 121326797.39447  94540344.36847  23087734.0244   23087738.3794   23087733.9444
        47.000          42.000
 121448907.52647  94635490.03447  23110977.0974   23110981.6734   23110976.8154
        48.000          41.000
 120713307.51447  94062296.19447  22970995.0034   22970998.8124   22970995.2264
        46.000          40.000
 118667890.74947  92468470.89547  22581760.3934   22581762.6934   22581759.6424
        50.000          44.000
 09  1 20  0 12  0.0000000  0 12G14G 5G 6G21G18G24G22G12G29G30G 9G31
 116081500.02447  90453098.72647  22089589.5724   22089592.5284   22089589.8504
        50.000          44.000
 123949752.94847  96584198.63747  23586871.9204   23586877.3874   23586872.4584
        45.000          39.000
 127561916.27847  99398875.30747  24274241.4274   24274246.5734   24274241.3664
        42.000          37.000
 105141809.69547  81928679.19847  20007823.0024   20007825.1794   20007823.3744
        54.000          49.000
 122330499.27747  95322458.48947  23278725.3124   23278727.7634   23278726.0434
        47.000          41.000
 115692604.74347  90150062.25947  22015584.5724   22015589.3774   22015584.7624
        51.000          44.000
 125759696.78647  97994572.11847  23931271.0604   23931272.1214   23931270.8344
        45.000          39.000
 128223895.64147  99914702.34247  24400211.0074   24400215.0714   24400211.0304
        44.000          39.000
 121401231.58447  94598345.00547  23101898.3274   23101902.5984   23101897.9884
        47.000          42.000
 121421998.28647  94614521.83247  23105856.6434   23105860.9454   23105856.4934
        48.000          41.000
 120800340.00847  94130113.73947  22987556.4364   22987559.9404   22987556.8924
        47.000          40.000
 118572113.98147  92393839.70647  22563534.4724   22563536.9274   22563534.2824
        50.000          44.000
 09  1 20  0 12 30.0000000  0 12G14G 5G 6G21G18G24G22G12G29G30G 9G31
 116107514.44447  90473369.70647  22094540.0054   22094542.8514   22094540.2414
        50.000          44.000
 123938344.83847  96575309.23047  23584700.8484   23584706.5654   23584701.2264
        45.000          39.000
 127525437.95647  99370450.60047  24267300.1234   24267305.6924   24267300.1554
        43.000          37.000
 105122488.17447  81913623.46447  20004146.2494   20004148.3564   20004146.6514
        54.000          50.000
 122298780.88147  95297742.87147  23272689.2194   23272691.9164   23272689.7594
        48.000          41.000
 115749418.94847  90194333.04647  22026396.3754   22026400.9354   22026396.3944
        51.000          44.000
 125727016.76347  97969107.17447  23925052.5174   23925053.6544   23925052.8514
        46.000          40.000
 128227051.57747  99917161.55847  24400811.6334   24400815.7004   24400811.6274
        45.000          39.000
 121475596.62947  94656291.77847  23116049.8064   23116053.9294   23116049.2334
        47.000          42.000
 121395042.60047  94593517.42847  23100726.8164   23100730.9804   23100726.2894
        47.000          41.000
 120887734.83647  94198213.62147  23004186.9104   23004190.5524   23004187.1144
        47.000          40.000
 118476553.28547  92319376.88747  22545349.7864   22545352.3864   22545349.3084
        49.000          44.000
 09  1 20  0 13  0.0000000  0 12G14G 5G 6G21G18G24G22G12G29G30G 9G31
 116133808.55647  90493858.63047  22099543.5414   22099546.3114   22099543.7824
        50.000          44.000
 123927044.32547  96566503.66047  23582550.3144   23582555.7824   23582550.7354
        45.000          39.000
 127489256.13547  99342256.93247  24260414.5554   24260419.2964   24260414.9664
        42.000          37.000
 105103752.66847  81899024.37147  20000581.0574   20000583.1844   20000581.4004
        54.000          50.000
 122266919.50947  95272915.83047  23266626.4174   23266629.0284   23266626.8194
        47.000          41.000
 115806662.10947  90238938.08447  22037288.9134   22037293.9644   22037289.3294
        51.000          44.000
 125694113.28347  97943468.11747  23918791.1414   23918792.1674   23918791.4944
        46.000          39.000
 128230305.77247  99919697.36147  24401430.5264   24401434.7334   24401430.1824
        44.000          39.000
 121549891.29447  94714183.69747  23130187.7034   23130191.6054   23130187.1684
        47.000          42.000
 121368043.82647  94572479.45547  23095589.2754   23095593.4474   23095588.6104
        48.000          41.000
 120975490.93847  94266595.02247  23020886.5034   23020890.2684   23020886.5544
        47.000          40.000
 118381213.01647  92245085.83347  22527206.8624   22527209.6344   22527206.4514
        49.000          44.000
 09  1 20  0 13 30.0000000  0 12G14G 5G 6G21G18G24G22G12G29G30G 9G31
 116160378.90347  90514562.80547  22104599.6724   22104602.4324   22104599.7324
        51.000          44.000
 123915852.40747  96557782.71647  23580420.5174   23580425.3584   23580420.9404
        45.000          39.000
 127453368.91347  99314292.82747  24253585.4474   24253591.2194   24253585.3554
        42.000          37.000
 105085603.12747  81884881.87347  19997127.4484   19997129.4884   19997127.8494
        54.000          50.000
 122234915.08147  95247977.31947  23260536.3304   23260538.6844   23260536.8814
        48.000          41.000
 115864331.63347  90283875.35747  22048263.2874   22048267.9554   22048263.3104
        51.000          44.000
 125660985.59347  97917654.33547  23912487.2224   23912488.0634   23912487.1244
        46.000          39.000
 128233658.93547  99922310.27447  24402068.6624   24402072.7774   24402068.6394
        44.000          38.000
 121624112.75947  94772018.57147  23144311.1464   23144315.4864   23144311.1164
        47.000          41.000
 121341002.69647  94551408.47647  23090443.4284   23090447.7644   23090443.5384
        48.000          41.000
 121063604.61747  94335255.05947  23037654.1094   23037657.4894   23037654.0814
        47.000          40.000
 118286094.87347  92170967.85947  22509106.3494   22509109.2784   22509105.9064
        49.000          44.000
 09  1 20  0 14  0.0000000  0 12G14G 5G 6G21G18G24G22G12G29G30G 9G31
 116187224.51947  90535481.46647  22109708.2254   22109711.1274   22109708.6194
        51.000          44.000
 123904773.05047  96549149.45247  23578311.9344   23578317.3634   23578312.5684
        45.000          39.000
 127417777.67547  99286559.35147  24246813.3014   24246818.6444   24246813.1354
        41.000          37.000
 105068042.79647  81871198.50047  19993785.7524   19993787.8744   19993786.2034
        54.000          50.000
 122202771.04747  95222930.02647  23254419.7794   23254421.8834   23254420.2484
        48.000          41.000
 115922428.46847  90329145.57647  22059318.7204   22059323.4014   22059318.8874
        51.000          44.000
 125627635.59447  97891667.35547  23906140.4284   23906141.5464   23906140.7624
        45.000          39.000
 128237114.88147  99925003.27547  24402726.1464   24402730.1094   24402725.4204
        44.000          38.000
 121698260.89447  94829796.32147  23158421.3934   23158425.0094   23158421.4054
        48.000          42.000
 121313923.23647  94530307.64047  23085290.1754   23085294.4914   23085290.0214
        47.000          41.000
 121152075.69647  94404193.58647  23054489.4754   23054493.1554   23054489.8994
        47.000          40.000
 118191203.81147  92097026.83547  22491049.4674   22491052.0254   22491049.1734
        50.000          44.000
 09  1 20  0 14 30.0000000  0 12G14G 5G 6G21G18G24G22G12G29G30G 9G31
 116214340.13347  90556610.51947  22114868.3884   22114871.1434   22114868.4584
        50.000          44.000
 123893805.22747  96540603.10547  23576224.9594   23576231.0614   23576225.6584
        45.000          39.000
 127382478.73447  99259053.66647  24240095.4074   24240100.7304   24240095.2804
        42.000          37.000
 105051069.96447  81857972.91447  19990555.9364   19990558.1284   19990556.2314
        54.000          50.000
 122170485.74447  95197772.65947  23248275.8664   23248278.2694   23248276.3774
        48.000          41.000
 115980947.73847  90374744.98547  22070454.4674   22070459.3194   22070454.6544
        51.000          44.000
 125594060.72147  97865505.12747  23899751.8814   23899752.5394   23899752.4494
        46.000          39.000
 128240672.31647  99927775.34647  24403403.3534   24403407.2244   24403402.9674
        43.000          38.000
 121772330.61547  94887512.96547  23172516.5694   23172520.0434   23172516.6914
        47.000          41.000
 121286804.49147  94509176.18547  23080129.9014   23080134.2864   23080129.6224
        48.000          42.000
 121240898.33547  94473406.06847  23071391.9784   23071394.8674   23071392.1374
        47.000          40.000
 118096539.44647  92023262.44547  22473035.3244   22473038.0064   22473034.7504
        50.000          44.000
 09  1 20  0 15  0.0000000  0 12G14G 5G 6G21G18G24G22G12G29G30G 9G31
 116241726.08647  90577950.22647  22120079.5104   22120082.4554   22120079.6194
        50.000          44.000
 123882954.23547  96532147.79547  23574160.5784   23574165.7914   23574160.9604
        45.000          39.000
 127347474.62947  99231777.70647  24233434.7134   24233440.3524   24233434.8434
        43.000          37.000
 105034689.18547  81845208.67247  19987438.6314   19987440.9474   19987439.0444
        54.000          49.000
 122138063.61347  95172508.66047  23242106.3764   23242108.3444   23242106.4804
        47.000          41.000
 116039891.19147  90420674.91347  22081671.0044   22081675.6454   22081671.0214
        51.000          44.000
 125560264.24747  97839170.20847  23893320.6554   23893321.7364   23893320.5824
        45.000          39.000
 128244335.94747  99930630.18147  24404100.4504   24404104.1824   24404099.8604
        44.000          38.000
 121846322.72347  94945169.12147  23186596.7174   23186600.6494   23186596.6994
        47.000          42.000
 121259651.23847  94488017.84247  23074962.8924   23074967.1454   23074962.4474
        48.000          42.000
 121330073.07547  94542892.90647  23088361.6594   23088364.5774   23088361.6664
        46.000          40.000
 118002107.88247  91949679.46047  22455065.6834   22455068.3604   22455065.4114
        50.000          44.000
 09  1 20  0 15 30.0000000  0 12G14G 5G 6G21G18G24G22G12G29G30G 9G31
 116269380.07947  90599498.79347  22125342.1864   22125345.0334   22125342.3794
        50.000          44.000
 123872222.43147  96523785.34647  23572118.4084   23572123.3724   23572118.9924
        45.000          39.000
 127312764.82747  99204731.05747  24226829.8634   24226835.3794   24226830.3544
        42.000          37.000
 105018901.53547  81832906.60747  19984434.4334   19984436.5674   19984434.8134
        54.000          50.000
 122105506.28247  95147139.31447  23235910.5274   23235913.1344   23235911.3034
        48.000          41.000
 116099257.55747  90466934.39547  22092968.0094   22092972.8814   22092968.1114
        51.000          44.000
 125526246.66947  97812663.00947  23886846.9114   23886848.1554   23886846.9084
        45.000          39.000
 128248108.18047  99933569.64147  24404818.4264   24404821.7814   24404817.9344
        43.000          38.000
 121920235.77547  95002763.67347  23200661.8764   23200666.2314   23200661.4784
        47.000          42.000
 121232465.64947  94466834.28247  23069789.3034   23069793.7254   23069788.7964
        48.000          42.000
 121419597.34547  94612652.11147  23105397.4114   23105400.5234   23105397.5584
        46.000          40.000
 117907912.24447  91876280.31247  22437140.6714   22437143.5074   22437140.2514
        50.000          44.000
 09  1 20  0 16  0.0000000  0 12G14G 5G 6G21G18G24G22G12G29G30G 9G31
 116297296.23547  90621251.64647  22130654.0484   22130657.0394   22130654.2784
        50.000          44.000
 123861608.35747  96515514.64447  23570098.7274   23570103.2654   23570099.4654
        46.000          39.000
 127278345.28547  99177910.60347  24220280.2104   24220284.7514   24220280.1364
        42.000          37.000
 105003704.71847  81821064.93147  19981542.6034   19981544.7364   19981542.9534
        54.000          50.000
 122072811.98647  95121663.25447  23229689.0244   23229691.4534   23229689.4194
        47.000          41.000
 116159041.81147  90513519.49547  22104344.6934   22104349.4164   22104344.9594
        51.000          44.000
 125492004.70247  97785980.98247  23880330.9194   23880331.7574   23880330.8664
        46.000          39.000
 128251987.28047  99936592.37047  24405556.8194   24405560.3534   24405556.8614
        44.000          38.000
 121994064.00447  95060292.12947  23214710.9404   23214715.0164   23214710.7264
        47.000          42.000
 121205246.55347  94445624.63647  23064609.6704   23064613.8684   23064609.5164
        49.000          41.000
 121509465.06647  94682678.92547  23122498.2024   23122502.1684   23122498.4984
        46.000          40.000
 117813952.12347  91803064.67147  22419260.6504   22419263.5814   22419259.9144
        50.000          44.000
 09  1 20  0 16 30.0000000  0 12G14G 5G 6G21G18G24G22G12G29G30G 9G31
 116325475.04947  90643209.16247  22136016.6044   22136019.2524   22136016.7094
        51.000          44.000
 123851117.12547  96507339.65947  23568102.1524   23568107.2034   23568103.1334
        46.000          39.000
 127244218.15647  99151317.99947  24213785.9984   24213791.0074   24213786.3264
        43.000          37.000
 104989102.94047  81809686.92547  19978764.0204   19978766.1754   19978764.4764
        54.000          50.000
 122039984.72647  95096083.55947  23223442.2734   23223444.3954   23223442.6544
        48.000          41.000
 116219245.55247  90560431.47547  22115801.1194   22115806.1414   22115801.4544
        51.000          44.000
 125457541.86347  97759126.85247  23873773.0654   23873773.6334   23873773.1844
        45.000          39.000
 128255978.40047  99939702.39447  24406315.6424   24406319.7894   24406315.1314
        43.000          38.000
 122067808.72347  95117755.51947  23228744.1474   23228748.3434   23228743.9824
        47.000          42.000
 121177998.74047  94424392.59247  23059424.9134   23059428.9614   23059424.3424
        48.000          42.000
 121599676.50947  94752973.57547  23139664.9734   23139669.0484   23139665.2124
        45.000          40.000
 117720233.38547  91730037.14047  22401426.5864   22401429.3754   22401426.3964
        50.000          44.000
 09  1 20  0 17  0.0000000  0 12G14G 5G 6G21G18G24G22G12G29G30G 9G31
 116353913.94847  90665369.34447  22141428.2284   22141430.9954   22141428.3484
        50.000          44.000
 123840750.93047  96499262.11347  23566129.6544   23566134.4414   23566130.3144
        45.000          39.000
 127210382.92347  99124952.83347  24207347.7354   24207352.1554   24207347.6664
        43.000          37.000
 104975097.45847  81798773.55847  19976098.9014   19976101.0154   19976099.3194
        54.000          50.000
 122007026.18447  95070401.56847  23217170.7294   23217172.6974   23217170.9314
        47.000          40.000
 116279867.33447  90607669.20547  22127336.8924   22127342.0354   22127337.0424
        51.000          44.000
 125422858.55847  97732100.89647  23867172.7084   23867173.5384   23867172.6654
        45.000          39.000
 128260083.30347  99942901.06347  24407096.7644   24407100.9634   24407096.7184
        43.000          38.000
 122141467.91847  95175152.26647  23242761.0034   23242765.1934   23242760.9494
        47.000          42.000
 121150724.07447  94403139.63347  23054234.7964   23054238.7054   23054234.2544
        48.000          42.000
 121690229.15847  94823534.09647  23156896.7294   23156900.7274   23156896.7824
        46.000          40.000
 117626758.95247  91657199.97247  22383638.7654   22383641.8384   22383638.8144
        49.000          44.000
 09  1 20  0 17 30.0000000  0 12G14G 5G 6G21G18G24G22G12G29G30G 9G31
 116382608.65947  90687728.87147  22146888.6704   22146891.5824   22146888.9744
        50.000          44.000
 123830510.23147  96491282.33347  23564180.4284   23564185.8674   23564181.0954
        45.000          39.000
 127176837.18047  99098813.27047  24200963.6844   24200967.9004   24200963.7834
        43.000          37.000
 104961687.73147  81788324.42047  19973547.0264   19973549.1834   19973547.4184
        54.000          50.000
 121973936.23047  95044617.19147  23210873.3984   23210875.8454   23210873.5064
        47.000          40.000
 116340903.85247  90655230.09847  22138951.8244   22138957.0974   22138952.2124
        50.000          44.000
 125387953.44247  97704902.10847  23860530.2364   23860531.2214   23860530.2674
        45.000          39.000
 128264301.86547  99946188.30147  24407899.5204   24407903.4484   24407899.2614
        42.000          38.000
 122215037.65647  95232479.29347  23256760.9294   23256765.0884   23256760.6384
        47.000          42.000
 121123423.20747  94381866.25447  23049039.4854   23049043.1844   23049039.1814
        48.000          42.000
 121781118.94747  94894357.31547  23174192.3264   23174196.0424   23174192.1864
        45.000          40.000
 117533529.86847  91584553.97947  22365897.7504   22365900.9414   22365896.9564
        50.000          44.000
 09  1 20  0 18  0.0000000  0 12G14G 5G 6G21G18G24G22G12G29G30G 9G31
 116411558.64047  90710287.29647  22152397.4384   22152400.5714   22152397.8094
        50.000          44.000
 123820399.09447  96483403.52547  23562256.7754   23562261.7574   23562257.2244
        45.000          39.000
 127143582.43847  99072900.44747  24194635.5854   24194640.3894   24194635.5104
        41.000          37.000
 104948876.75647  81778341.83647  19971109.1724   19971111.1704   19971109.5914
        54.000          49.000
 121940718.49647  95018733.25847  23204552.4034   23204554.9234   23204552.9144
        48.000          40.000
 116402355.68147  90703114.61247  22150646.1514   22150651.0294   22150646.2984
        51.000          44.000
 125352828.84447  97677532.31247  23853846.6414   23853847.5034   23853846.0634
        45.000          39.000
 128268638.17647  99949567.29047  24408724.8514   24408729.3784   24408724.4454
        43.000          38.000
 122288518.29247  95289736.90147  23270744.0824   23270748.1914   23270743.8054
        47.000          42.000
 121096099.84347  94360575.36347  23043839.7764   23043844.0104   23043839.6164
        48.000          42.000
 121872345.05747  94965442.61547  23191552.2024   23191555.7524   23191552.2844
        46.000          40.000
 117440551.13747  91512103.06847  22348204.3594   22348207.3054   22348203.9664
        50.000          44.000
 09  1 20  0 18 30.0000000  0 12G14G 5G 6G21G18G24G22G12G29G30G 9G31
 116440760.04147  90733041.64147  22157954.2594   22157957.1384   22157954.4204
        50.000          44.000
 123810418.03747  96475626.09047  23560357.3674   23560361.9964   23560357.7884
        45.000          39.000
 127110616.13547  99047212.38847  24188362.5004   24188367.7634   24188362.0124
        42.000          37.000
 104936664.06047  81768825.44647  19968785.1324   19968787.2514   19968785.5114
        54.000          50.000
 121907373.14047  94992749.86347  23198207.3644   23198209.6244   23198207.6624
        48.000          41.000
 116464219.80647  90751320.40547  22162418.1164   22162423.0744   22162418.4974
        50.000          44.000
 125317483.68947  97649990.64347  23847120.5774   23847121.0334   23847120.5314
        45.000          39.000
 128273092.43747  99953038.18947  24409572.6864   24409576.6084   24409572.8094
        42.000          38.000
 122361906.23947  95346922.27547  23284709.0914   23284713.6014   23284709.0194
        47.000          41.000
 121068754.72047  94339267.50847  23038636.2624   23038640.5984   23038635.7694
        48.000          42.000
 121963903.21247  95036786.66147  23208975.2934   23208978.0004   23208975.3684
        45.000          39.000
 117347824.20147  91439848.35847  22330558.9304   22330562.0244   22330558.6664
        50.000          44.000
 09  1 20  0 19  0.0000000  0 12G14G 5G 6G21G18G24G22G12G29G30G 9G31
 116470211.13047  90755990.53947  22163558.6444   22163561.7254   22163558.8934
        50.000          44.000
 123800570.37447  96467952.59647  23558483.2534   23558488.2034   23558483.9214
        46.000          39.000
 127077938.80747  99021749.49547  24182144.2474   24182149.3474   24182144.0874
        42.000          37.000
 104925051.71747  81759776.86247  19966575.5354   19966577.6054   19966575.9264
        54.000          50.000
 121873901.74847  94966668.27047  23191837.8934   23191840.1964   23191838.5094
        48.000          41.000
 116526495.68447  90799847.04647  22174269.0244   22174273.9004   22174269.1704
        50.000          44.000
 125281919.67347  97622278.42447  23840353.0854   23840354.0694   23840352.9754
        45.000          39.000
 128277667.55347  99956603.24947  24410442.7334   24410447.0074   24410442.7394
        43.000          38.000
 122435200.76647  95404034.85947  23298656.4614   23298661.0524   23298656.3504
        47.000          41.000
 121041390.81547  94317945.02147  23033429.0574   23033433.4004   23033429.0284
        48.000          42.000
 122055792.06347  95108388.37747  23226461.1574   23226464.0664   23226461.1634
        44.000          39.000
 117255353.14547  91367793.02547  22312962.3074   22312965.1314   22312961.8254
        50.000          44.000
 09  1 20  0 19 30.0000000  0 12G14G 5G 6G21G18G24G22G12G29G30G 9G31
 116499907.56547  90779130.61647  22169209.8514   22169212.5384   22169210.1214
        50.000          44.000
 123790856.24947  96460383.15747  23556634.6584   23556639.6394   23556635.2014
        46.000          39.000
 127045547.75147  98996509.68547  24175980.2134   24175984.8104   24175980.7314
        43.000          38.000
 104914038.88647  81751195.43147  19964479.8884   19964481.9784   19964480.2454
        54.000          50.000
 121840304.49347  94940488.60947  23185444.6584   23185446.3254   23185444.9994
        47.000          41.000
 116589179.80747  90848691.79347  22186197.3304   22186202.2024   22186197.5394
        51.000          44.000
 125246135.22447  97594394.44047  23833543.7534   23833544.3864   23833543.7194
        46.000          39.000
 128282363.77147  99960262.68147  24411336.9084   24411340.2064   24411336.5934
        43.000          38.000
 122508397.96247  95461071.62047  23312585.6264   23312589.9224   23312585.4884
        46.000          41.000
 121014007.86647  94296607.68547  23028218.3714   23028222.4444   23028217.9564
        48.000          42.000
 122148007.21547  95180244.36447  23244008.9924   23244012.0464   23244008.8694
        45.000          39.000
 117163138.97547  91295937.87447  22295414.5704   22295417.5984   22295414.2834
        50.000          44.000
 09  1 20  0 20  0.0000000  0 12G14G 5G 6G21G18G24G22G12G29G30G 9G31
 116529851.53947  90802463.59247  22174907.8764   22174910.5814   22174907.8634
        50.000          44.000
 123781282.23647  96452922.89547  23554813.4644   23554817.9594   23554814.1774
        46.000          39.000
 127013446.63747  98971495.79447  24169872.2784   24169877.1194   24169872.5814
        42.000          38.000
 104903630.78647  81743085.21547  19962499.1834   19962501.2644   19962499.5994
        54.000          50.000
 121806587.22447  94914215.43047  23179028.0784   23179030.3744   23179028.5944
        47.000          41.000
 116652275.08847  90897856.92847  22198204.3074   22198209.1594   22198204.4604
        50.000          44.000
 125210134.99947  97566342.32047  23826692.9274   23826693.8134   23826692.9784
        45.000          39.000
 128287187.30347  99964021.30547  24412254.9884   24412258.6144   24412255.0334
        43.000          38.000
 122581500.40847  95518034.52247  23326496.7514   23326501.1454   23326496.6744
        47.000          41.000
 120986612.70547  94275260.83447  23023005.4364   23023009.1074   23023005.1744
        49.000          42.000
 122240550.20047  95252355.79247  23261619.6254   23261622.1334   23261619.5754
        45.000          39.000
 117071188.92547  91224288.52847  22277916.8914   22277920.0894   22277916.5774
        49.000          45.000
 09  1 20  0 20 30.0000000  0 12G14G 5G 6G21G18G24G22G12G29G30G 9G31
 116560035.78747  90825983.79347  22180651.5734   22180654.4074   22180651.8184
        50.000          44.000
 123771846.24347  96445570.18147  23553017.4504   23553022.1734   23553017.9494
        46.000          39.000
 126981630.57547  98946704.01047  24163817.5354   24163822.3004   24163817.3284
        44.000          38.000
