     2.11           OBSERVATION DATA    G (GPS)             RINEX VERSION / TYPE
teqc  2008Oct2      gpsops              20090125 00:09:57UTCPGM / RUN BY / DATE
    30.0000                                                 INTERVAL
     1     1                                                WAVELENGTH FACT L1/2
     7    L1    L2    P1    P2    C1    S1    S2            # / TYPES OF OBSERV
Linux 2.4.20-8|Pentium IV|gcc -static|Linux|486/DX+         COMMENT
     2.10           OBSERVATION DATA    GPS                 COMMENT
soc2rnx ver 1.20    gpsops              25-Jan-2009 00:09:49COMMENT
S1, if present, is the SNR for the C/A data stream on L1.   COMMENT
 SNR is mapped to RINEX snr flag value [1,4-9]              COMMENT
    SNR:   >316  >100  >31.6  >10  >3.2    >0 bad=0         COMMENT
L1 & L2:      9     8     7     6     5     4     1         COMMENT
                                                            COMMENT
This data is provided as a public service by NASA/JPL.      COMMENT
No warranty is expressed or implied regarding suitability   COMMENT
for use.  For further information, contact:                 COMMENT
Dave Stowers, NASA/JPL m/s 238-600                          COMMENT
4800 Oak Grove Drive, Pasadena CA 91109 USA                 COMMENT
                                                            COMMENT
Forced Modulo Decimation to 30 seconds                      COMMENT
  2009     1    24     0     0    0.0000000     GPS         TIME OF FIRST OBS
GGN                 JPL                                     OBSERVER / AGENCY
CR519992104         ASH701945B_M    SCIT                    ANT # / TYPE
   -33801.4662 -6377516.5323   -82154.3508                  APPROX POSITION XYZ
        0.0083        0.0000        0.0000                  ANTENNA: DELTA H/E/N
ZR220013847         ASHTECH UZ-12       CQ00                REC # / TYPE / VERS
GLPS                                                        MARKER NAME
42005M002                                                   MARKER NUMBER
                                                            END OF HEADER
 09  1 24  0  0  0.0000000  0 12G 5G 6G30G 9G14G24G21G18G29G12G31G22
 123897869.26147  96543768.23747  23576999.0314   23577006.2354   23577000.3954
        45.000          39.000
 127279454.16947  99178771.76147  24220492.4734   24220499.5124   24220493.9294
        42.000          37.000
 121189152.36347  94433096.12947  23061534.8614   23061539.1544   23061534.5064
        48.000          42.000
 121584153.84747  94740882.44947  23136709.8254   23136712.8964   23136709.1604
        46.000          40.000
 116299928.11147  90623318.22147  22131140.8354   22131143.1234   22131141.6274
        51.000          44.000
 116210853.55347  90553892.12247  22114205.0844   22114210.2684   22114204.9244
        50.000          44.000
 104993007.71747  81812727.27247  19979507.0754   19979509.3844   19979507.7124
        54.000          50.000
 122053799.55047  95106843.40047  23226076.4934   23226077.3904   23226075.4854
        48.000          41.000
 122005948.24047  95069560.65547  23216967.1204   23216970.3584   23216966.3354
        47.000          42.000
 128223276.32247  99914217.70847  24400097.7544   24400103.3314   24400096.9454
        44.000          38.000
 117712060.06247  91723678.75047  22399862.8814   22399866.9074   22399863.2664
        50.000          44.000
 125464638.64047  97764647.01047  23875132.1624   23875131.5024   23875131.7644
        45.000          39.000
 09  1 24  0  0 30.0000000  0 12G 5G 6G30G 9G14G24G21G18G29G12G31G22
 123887514.65147  96535699.73347  23575029.2314   23575035.2504   23575029.6784
        45.000          39.000
 127245511.56747  99152322.99347  24214034.9154   24214039.4174   24214034.7544
        42.000          37.000
 121161900.59447  94411861.00347  23056349.0114   23056353.4394   23056348.6514
        48.000          41.000
 121674617.12247  94811373.33447  23153923.6934   23153927.8904   23153923.8884
        46.000          40.000
 116328539.33247  90645612.68347  22136585.9464   22136588.7694   22136586.2274
        51.000          44.000
 116271402.75047  90601073.31247  22125726.9164   22125732.6194   22125726.9584
        50.000          44.000
 104978976.90847  81801794.16347  19976837.2524   19976839.6154   19976837.6084
        54.000          50.000
 122020813.64847  95081140.12047  23219798.1944   23219800.6134   23219798.7084
        48.000          41.000
 122079594.09947  95126947.02347  23230980.7524   23230984.9954   23230980.4744
        47.000          42.000
 128227265.44347  99917326.17247  24400856.7534   24400862.1474   24400856.2974
        44.000          38.000
 117618590.72247  91650845.55347  22382076.4124   22382079.5974   22382076.1644
        50.000          45.000
 125430009.87347  97737663.56847  23868541.7414   23868543.1214   23868541.8724
        45.000          39.000
 09  1 24  0  1  0.0000000  0 12G 5G 6G30G 9G14G24G21G18G29G12G31G22
 123877286.91347  96527730.07147  23573082.9284   23573089.3414   23573083.6684
        45.000          39.000
 127211860.51947  99126101.39347  24207631.1024   24207635.5724   24207630.8784
        43.000          37.000
 121134623.61147  94390606.22547  23051158.2484   23051162.6564   23051158.0674
        48.000          42.000
 121765419.68947  94882128.58447  23171202.6034   23171206.7374   23171202.7024
        47.000          40.000
 116357408.04447  90668107.79147  22142079.6364   22142082.3364   22142079.9304
        50.000          44.000
 116332368.53947  90648579.11047  22137328.2274   22137333.9644   22137328.6564
        51.000          44.000
 104965543.18247  81791326.31647  19974280.8634   19974283.2354   19974281.1914
        54.000          50.000
 121987696.78447  95055334.76947  23213496.5424   23213498.6884   23213496.8744
        47.000          40.000
 122153153.69347  95184266.17047  23244978.6884   23244982.8844   23244978.5794
        47.000          42.000
 128231369.30247  99920524.04047  24401638.4044   24401642.4424   24401638.2894
        44.000          38.000
 117525368.58647  91578204.98047  22364336.7504   22364340.0634   22364335.9764
        50.000          45.000
 125395160.64547  97710508.33347  23861910.5884   23861911.8584   23861910.4714
        46.000          39.000
 09  1 24  0  1 30.0000000  0 12G 5G 6G30G 9G14G24G21G18G29G12G31G22
 123867187.31747  96519860.27847  23571161.3544   23571167.0164   23571161.6934
        46.000          39.000
 127178499.14947  99100105.52447  24201282.3764   24201287.1364   24201282.5634
        42.000          37.000
 121107322.67947  94369332.80947  23045962.8234   23045967.4334   23045962.3794
        48.000          42.000
 121856557.83147  94953145.33147  23188545.9094   23188549.4894   23188546.0074
        46.000          40.000
 116386530.68947  90690800.77247  22147621.2384   22147624.1014   22147621.4144
        50.000          44.000
 116393748.89747  90696407.94647  22149008.6414   22149014.1754   22149008.9434
        50.000          44.000
 104952706.79947  81781323.92847  19971838.2994   19971840.4364   19971838.7494
        54.000          50.000
 121954449.94647  95029428.14047  23207169.6844   23207172.2474   23207170.0004
        48.000          41.000
 122226624.14747  95241515.85847  23258959.5794   23258964.0984   23258959.3094
        47.000          42.000
 128235588.92947  99923812.12147  24402440.7874   24402445.7074   24402440.6164
        43.000          38.000
 117432395.61247  91505758.56847  22346644.3984   22346647.6294   22346643.6224
        50.000          45.000
 125360091.00847  97683181.38047  23855237.1624   23855237.8964   23855236.6704
        45.000          39.000
 09  1 24  0  2  0.0000000  0 12G 5G 6G30G 9G14G24G21G18G29G12G31G22
 123857216.64147  96512090.94647  23569263.6504   23569269.6544   23569264.3794
        45.000          39.000
 127145425.56747  99074333.91247  24194988.5184   24194993.9964   24194988.2424
        42.000          37.000
 121079998.51447  94348041.26847  23040763.5004   23040768.0734   23040763.1574
        49.000          42.000
 121948028.15947  95024420.93747  23205951.9154   23205955.6594   23205952.3424
        46.000          40.000
 116415903.28047  90713688.50947  22153210.6484   22153213.8834   22153210.6374
        50.000          44.000
 116455540.96247  90744557.59647  22160767.3314   22160772.7774   22160767.6154
        51.000          44.000
 104940467.60147  81771786.88247  19969509.0774   19969511.4604   19969509.4444
        54.000          50.000
 121921073.00947  95003420.12447  23200818.2934   23200820.8634   23200818.7644
        48.000          41.000
 122300002.13147  95298693.48447  23272922.9084   23272927.6134   23272922.6534
        47.000          42.000
 128239924.45247  99927190.49947  24403265.9794   24403270.5404   24403265.6314
        43.000          38.000
 117339673.41947  91433507.57547  22328999.4994   22329003.0064   22328999.4534
        50.000          45.000
 125324799.62247  97655681.61347  23848521.0004   23848521.9484   23848520.7944
        46.000          39.000
 09  1 24  0  2 30.0000000  0 12G 5G 6G30G 9G14G24G21G18G29G12G31G22
 123847379.34747  96504425.55847  23567392.0124   23567397.5754   23567392.4744
        45.000          39.000
 127112641.36447  99048787.78947  24188750.0644   24188754.9204   24188750.1574
        42.000          37.000
 121052655.28947  94326734.87847  23035560.3074   23035564.7934   23035559.9394
        48.000          42.000
 122039829.94047  95095954.81147  23223421.3314   23223424.6744   23223421.2814
        45.000          39.000
 116445525.62747  90736770.86147  22158847.6054   22158850.5594   22158847.6704
        50.000          44.000
 116517745.14447  90793028.38047  22172604.6134   22172610.0864   22172604.5704
        50.000          44.000
 104928828.68247  81762717.59047  19967294.4574   19967296.8644   19967294.7834
        54.000          50.000
 121887569.99047  94977313.89247  23194443.1324   23194445.2184   23194443.4504
        48.000          40.000
 122373288.30447  95355799.57447  23286869.1014   23286873.4514   23286868.6904
        46.000          41.000
 128244380.51647  99930662.82147  24404113.7104   24404118.5144   24404113.8364
        43.000          38.000
 117247207.31647  91361456.11647  22311404.0734   22311407.1084   22311403.3294
        50.000          45.000
 125289289.52747  97628011.42247  23841763.5494   23841765.1964   23841763.2774
        46.000          39.000
 09  1 24  0  3  0.0000000  0 12G 5G 6G30G 9G14G24G21G18G29G12G31G22
 123837678.21447  96496866.25747  23565545.8614   23565551.3124   23565546.2994
        45.000          39.000
 127080146.54247  99023467.18347  24182566.5664   24182571.1794   24182566.2964
        43.000          37.000
 121025295.69147  94305415.73047  23030354.1874   23030358.4584   23030353.8204
        49.000          42.000
 122131961.25747  95167745.46647  23240953.2664   23240956.6594   23240953.6544
        45.000          39.000
 116475395.79047  90760046.32347  22164531.5794   22164534.7304   22164531.7174
        50.000          44.000
 116580360.77947  90841819.76247  22184519.8264   22184525.2454   22184519.9454
        50.000          44.000
 104917792.16847  81754117.70447  19965194.2114   19965196.7354   19965194.6834
        54.000          50.000
 121853943.22347  94951111.21247  23188044.1194   23188046.4054   23188044.7084
        48.000          41.000
 122446481.37947  95412833.13047  23300796.8024   23300801.6284   23300796.4804
        46.000          41.000
 128248959.66547  99934231.03947  24404984.9574   24404989.8164   24404984.8484
        43.000          38.000
 117155000.79147  91289606.93347  22293857.7624   22293860.9054   22293857.5774
        50.000          45.000
 125253561.01447  97600171.04847  23834964.7674   23834965.9644   23834964.8434
        46.000          39.000
 09  1 24  0  3 30.0000000  0 12G 5G 6G30G 9G14G24G21G18G29G12G31G22
 123828113.47647  96489413.24147  23563725.9954   23563731.3634   23563726.6804
        45.000          39.000
 127047938.46247  98998369.98447  24176438.1264   24176441.9774   24176438.6254
        43.000          37.000
 120997920.26447  94284084.24947  23025144.7314   23025149.1244   23025144.4524
        49.000          42.000
 122224417.63847  95239789.41547  23258547.3794   23258550.3574   23258547.4894
        45.000          39.000
 116505509.44347  90783511.51347  22170261.9554   22170265.2184   22170262.1834
        50.000          44.000
 116643384.37847  90890929.04747  22196513.2234   22196518.3724   22196513.4124
        51.000          44.000
 104907356.74447  81745986.19847  19963208.3774   19963210.8584   19963208.7924
        54.000          50.000
 121820192.03247  94924811.58547  23181621.3184   23181623.8544   23181622.0604
        48.000          41.000
 122519577.49647  95469791.12247  23314706.5104   23314711.2724   23314706.3094
        46.000          41.000
 128253661.77947  99937895.06647  24405880.2064   24405884.9314   24405879.7204
        43.000          38.000
 117063055.11247  91217961.01147  22276360.9934   22276364.2644   22276360.6124
        50.000          45.000
 125217613.89947  97572160.33347  23828124.1374   23828125.5094   23828124.4434
        46.000          39.000
 09  1 24  0  4  0.0000000  0 12G 5G 6G30G 9G14G24G21G18G29G12G31G22
 123818685.70747  96482066.94547  23561931.3934   23561937.1344   23561931.8684
        45.000          39.000
 127016014.82147  98973494.42947  24170362.3714   24170366.9074   24170362.2534
        43.000          37.000
 120970529.50647  94262740.82247  23019932.1744   23019936.4874   23019931.6344
        49.000          42.000
 122317194.97447  95312083.46347  23276202.5584   23276205.1794   23276202.3484
        45.000          39.000
 116535862.60647  90807163.33447  22176038.0084   22176041.1784   22176038.0454
        50.000          44.000
 116706812.61547  90940353.64147  22208582.9814   22208588.1784   22208583.3134
        51.000          44.000
 104897522.04747  81738322.79747  19961336.8924   19961339.4174   19961337.2454
        54.000          50.000
 121786316.61347  94898415.14647  23175175.2974   23175177.6364   23175175.4214
        48.000          41.000
 122592573.35947  95526670.98947  23328597.2904   23328601.8754   23328596.9504
        46.000          41.000
 128258487.32047  99941655.28447  24406798.0814   24406803.1354   24406798.3324
        43.000          38.000
 116971371.46147  91146519.25847  22258914.2464   22258917.3424   22258913.4634
        50.000          45.000
 125181446.53047  97543977.98747  23821241.9324   23821242.9644   23821242.1004
        46.000          39.000
 09  1 24  0  4 30.0000000  0 12G 5G 6G30G 9G14G24G21G18G29G12G31G22
 123809401.82747  96474832.78647  23560165.0004   23560170.3874   23560165.3094
        46.000          39.000
 126984379.64647  98948843.67247  24164342.5774   24164347.3864   24164342.4484
        42.000          37.000
 120943129.95147  94241390.53947  23014718.2134   23014722.9564   23014717.9874
        48.000          42.000
 122410295.16747  95384629.09047  23293918.4964   23293921.4114   23293918.4614
        45.000          39.000
 116566457.57247  90831003.57347  22181860.2234   22181863.1174   22181860.1894
        50.000          44.000
 116770648.95247  90990096.23347  22220730.7774   22220736.1234   22220730.9824
        50.000          44.000
 104888293.80047  81731131.95647  19959580.8534   19959583.2554   19959581.2414
        54.000          50.000
 121752322.99047  94871926.61147  23168705.8974   23168708.6624   23168706.6794
        47.000          40.000
 122665471.78947  95583474.94647  23342469.4954   23342473.8224   23342469.4104
        46.000          41.000
 128263442.51447  99945516.53247  24407741.0984   24407745.9524   24407740.7084
        42.000          38.000
 116879957.48047  91075287.64147  22241519.0284   22241521.6924   22241518.8644
        51.000          45.000
 125145064.23147  97515628.16847  23814318.5704   23814319.5474   23814318.5054
        46.000          39.000
 09  1 24  0  5  0.0000000  0 12G 5G 6G30G 9G14G24G21G18G29G12G31G22
 123800259.09947  96467708.61747  23558425.0184   23558431.0224   23558425.0554
        45.000          39.000
 126953027.19547  98924413.19747  24158376.0184   24158381.4894   24158375.9084
        43.000          38.000
 120915719.09347  94220031.45847  23009502.1824   23009507.0854   23009501.5554
        49.000          42.000
 122503710.83247  95457420.54747  23311694.5704   23311698.1704   23311694.8174
        45.000          39.000
 116597286.73847  90855026.30647  22187726.7934   22187729.7054   22187726.9744
        50.000          44.000
 116834886.92147  91040151.78547  22232954.6074   22232960.0514   22232954.8764
        50.000          43.000
 104879668.09747  81724410.63347  19957939.4064   19957941.7554   19957939.8144
        54.000          49.000
 121718208.25047  94845343.69947  23162213.9384   23162216.7034   23162214.3584
        48.000          40.000
 122738266.04347  95640197.72547  23356321.9794   23356326.1674   23356322.0064
        47.000          41.000
 128268524.81947  99949476.82147  24408707.6414   24408712.7594   24408707.4564
        42.000          38.000
 116788811.42847  91004264.80247  22224174.3204   22224177.0684   22224174.2464
        51.000          45.000
 125108462.46047  97487107.34447  23807353.3664   23807354.2264   23807353.7254
        46.000          39.000
 09  1 24  0  5 30.0000000  0 12G 5G 6G30G 9G14G24G21G18G29G12G31G22
 123791263.47347  96460699.07247  23556713.6184   23556718.8344   23556714.2074
        45.000          39.000
 126921960.64247  98900205.50847  24152464.9124   24152469.2864   24152464.7734
        43.000          38.000
 120888302.71347  94198668.05847  23004285.1004   23004289.8164   23004284.8934
        49.000          42.000
 122597442.89347  95530458.54247  23329531.3874   23329534.9654   23329531.5334
        46.000          40.000
 116628351.35847  90879232.51347  22193638.2954   22193641.2344   22193638.6204
        50.000          44.000
 116899528.52347  91090521.85047  22245255.8884   22245260.6994   22245255.9114
        50.000          44.000
 104871649.69947  81718162.53647  19956413.4624   19956415.9704   19956413.8574
        54.000          49.000
 121683977.81247  94818670.60247  23155700.8374   23155703.0164   23155701.0734
        48.000          41.000
 122810957.83947  95696840.66947  23370154.7674   23370159.3574   23370154.6634
        46.000          41.000
 128273739.74447  99953540.42347  24409700.5704   24409704.6894   24409700.0494
        43.000          38.000
 116697939.97347  90933455.92547  22206882.0464   22206884.7314   22206881.4124
        51.000          45.000
 125071645.53347  97458418.85147  23800347.4664   23800348.3314   23800347.2484
        45.000          39.000
 09  1 24  0  6  0.0000000  0 12G 5G 6G30G 9G14G24G21G18G29G12G31G22
 123782415.45747  96453804.54947  23555029.5604   23555035.2774   23555029.7744
        45.000          39.000
 126891177.56247  98876218.71947  24146606.6224   24146611.9304   24146606.3554
        42.000          37.000
 120860881.57547  94177300.95747  22999066.9184   22999071.3814   22999066.2344
        48.000          42.000
 122691487.45047  95603740.03647  23347427.9644   23347431.4034   23347428.1004
        45.000          40.000
 116659647.30647  90903618.97747  22199593.6834   22199596.5734   22199593.8864
        50.000          44.000
 116964570.76847  91141204.11247  22257632.6444   22257637.9444   22257632.7454
        50.000          43.000
 104864237.36147  81712386.68747  19955002.9914   19955005.3414   19955003.4004
        54.000          49.000
 121649631.74047  94791907.43847  23149164.4354   23149166.9724   23149165.1524
        47.000          41.000
 122883544.30347  95753401.54847  23383967.5444   23383971.6414   23383967.4744
        46.000          41.000
 128279087.60547  99957707.63147  24410718.6574   24410722.4094   24410718.5704
        43.000          39.000
 116607344.19447  90862861.86647  22189642.1524   22189644.7884   22189641.7844
        51.000          45.000
 125034612.48447  97429561.94147  23793300.0054   23793301.2574   23793299.7834
        46.000          39.000
 09  1 24  0  6 30.0000000  0 12G 5G 6G30G 9G14G24G21G18G29G12G31G22
 123773717.02347  96447026.58047  23553374.2494   23553379.9864   23553374.8434
        45.000          39.000
 126860677.02147  98852452.08147  24140802.4244   24140807.0204   24140802.8894
        43.000          37.000
 120833457.31547  94155931.42547  22993848.2904   22993852.8604   22993847.9854
        49.000          42.000
 122785841.22547  95677262.49447  23365382.5944   23365386.1194   23365382.8904
        46.000          40.000
 116691171.99247  90928183.67247  22205592.4674   22205595.5684   22205592.8624
        50.000          44.000
 117030011.71647  91192197.04647  22270085.4754   22270091.2234   22270085.7144
        50.000          43.000
 104857431.80047  81707083.64947  19953708.1544   19953710.2714   19953708.6054
        54.000          50.000
 121615171.35647  94765055.17547  23142606.8764   23142609.7584   23142607.2974
        47.000          41.000
 122956023.19847  95809878.59747  23397759.9424   23397764.0104   23397759.6594
        47.000          41.000
 128284569.99047  99961979.68147  24411761.2724   24411766.0064   24411760.9664
        43.000          38.000
 116517027.19447  90792485.03947  22172455.1524   22172457.9144   22172454.5944
        50.000          45.000
 124997363.71347  97400536.96047  23786212.0314   23786212.7814   23786211.7354
        46.000          39.000
 09  1 24  0  7  0.0000000  0 12G 5G 6G30G 9G14G24G21G18G29G12G31G22
 123765169.78747  96440366.44347  23551747.6044   23551753.7494   23551748.2154
        45.000          39.000
 126830457.67147  98828904.55847  24135052.9314   24135056.4634   24135052.3904
        42.000          37.000
 120806031.54847  94134560.72347  22988628.8194   22988634.1224   22988628.6604
        49.000          42.000
 122880501.31047  95751023.62147  23383395.7854   23383399.7684   23383395.7714
        44.000          39.000
 116722922.17747  90952924.08447  22211634.3154   22211637.4834   22211634.4424
        50.000          44.000
 117095848.88647  91243498.72847  22282613.8544   22282619.5454   22282614.1074
        50.000          43.000
 104851233.79547  81702254.03447  19952528.5984   19952530.7874   19952529.0124
        54.000          50.000
 121580597.78947  94738114.74247  23136027.6174   23136030.5844   23136028.3274
        47.000          41.000
 123028392.18147  95866269.99347  23411531.1654   23411535.4764   23411531.1144
        47.000          41.000
 128290188.48147  99966357.79647  24412830.7614   24412834.5334   24412830.6354
        43.000          38.000
 116426991.32947  90722327.27647  22155321.7604   22155324.4994   22155321.0474
        51.000          45.000
 124959899.88547  97371344.40247  23779082.9874   23779083.9054   23779083.0504
        46.000          40.000
 09  1 24  0  7 30.0000000  0 12G 5G 6G30G 9G14G24G21G18G29G12G31G22
 123756776.78747  96433826.47147  23550150.5264   23550156.1044   23550151.1214
        46.000          39.000
 126800519.42847  98805576.09847  24129355.3024   24129359.3834   24129354.8574
        42.000          37.000
 120778607.09747  94113191.04247  22983410.4344   22983415.3194   22983410.1214
        49.000          42.000
 122975465.89747  95825022.01047  23401466.7044   23401470.8234   23401466.6744
        44.000          39.000
 116754896.05447  90977838.79347  22217718.9334   22217721.8214   22217718.9164
        50.000          44.000
 117162081.55947  91295108.58847  22295217.5384   22295223.0464   22295217.6114
        50.000          43.000
 104845644.68347  81697898.88347  19951464.9854   19951467.2304   19951465.4204
        54.000          50.000
 121545913.56747  94711088.07547  23129427.5434   23129430.2134   23129427.9124
        48.000          41.000
 123100650.55547  95922575.21847  23425281.3584   23425285.7464   23425281.3114
        46.000          41.000
 128295945.75447  99970844.03347  24413926.3054   24413930.6654   24413925.8214
        44.000          39.000
 116337240.50547  90652391.63347  22138242.7254   22138245.4084   22138242.5214
        51.000          45.000
 124922221.41947  97341984.57247  23771912.8354   23771914.3634   23771912.8964
        45.000          40.000
 09  1 24  0  8  0.0000000  0 12G 5G 6G30G 9G14G24G21G18G29G12G31G22
 123748540.12947  96427408.35447  23548583.5244   23548588.2174   23548584.0784
        46.000          39.000
 126770861.62547  98782466.13447  24123711.6504   24123715.9484   24123711.4684
        43.000          37.000
 120751186.33547  94091824.22647  22978192.3314   22978197.1574   22978192.4834
        49.000          42.000
 123070732.06147  95899255.40747  23419595.5564   23419599.4634   23419595.3434
        44.000          38.000
 116787091.15147  91002925.88647  22223845.2904   22223848.5344   22223845.7894
        50.000          44.000
 117228708.31147  91347025.52947  22307896.2784   22307901.6014   22307896.3974
        49.000          43.000
 104840665.23747  81694018.80147  19950517.3504   19950519.9054   19950517.7154
        54.000          50.000
 121511120.47547  94683976.56247  23122806.9054   23122809.7984   23122807.4984
        48.000          41.000
 123172796.65547  95978792.94047  23439010.3964   23439014.8394   23439010.0904
        46.000          41.000
 128301843.51047  99975439.72947  24415048.3924   24415052.8204   24415048.3354
        43.000          39.000
 116247777.27147  90582680.07847  22121218.4824   22121221.2664   22121218.0384
        51.000          45.000
 124884329.46847  97312458.39747  23764702.0364   23764703.0764   23764701.9254
        46.000          40.000
 09  1 24  0  8 30.0000000  0 12G 5G 6G30G 9G14G24G21G18G29G12G31G22
 123740461.56447  96421113.40347  23547045.6094   23547051.4904   23547046.0994
        45.000          40.000
 126741483.07147  98759573.78847  24118120.4994   24118125.5054   24118120.3264
        43.000          37.000
 120723771.14747  94070461.77147  22972975.4434   22972979.9624   22972975.1024
        49.000          42.000
 123166296.97147  95973721.59647  23437780.4014   23437784.5894   23437780.4854
        44.000          38.000
 116819504.54647  91028183.08547  22230013.4314   22230016.4534   22230013.7114
        50.000          44.000
 117295727.16547  91399247.99547  22320649.3954   22320654.8214   22320649.2894
        50.000          43.000
 104836295.70147  81690613.97347  19949685.7824   19949688.4474   19949686.0974
        54.000          50.000
 121476219.75047  94656781.19347  23116165.6144   23116167.9994   23116166.1464
        48.000          41.000
 123244827.93647  96034921.20647  23452717.2284   23452722.1074   23452716.9174
        46.000          41.000
 128307883.31447  99980146.10947  24416197.9164   24416202.2754   24416197.7694
        43.000          39.000
 116158604.47047  90513194.83147  22104249.5124   22104252.0324   22104249.0284
        51.000          45.000
 124846224.16147  97282765.97547  23757451.1204   23757452.0284   23757450.9414
        46.000          40.000
 09  1 24  0  9  0.0000000  0 12G 5G 6G30G 9G14G24G21G18G29G12G31G22
 123732543.50947  96414943.51747  23545538.8214   23545544.8784   23545539.3494
        45.000          40.000
 126712383.09747  98736898.48147  24112583.2404   24112588.2114   24112584.0284
        43.000          37.000
 120696363.91847  94049105.51347  22967760.2324   22967764.4984   22967759.9594
        49.000          42.000
 123262158.39547  96048418.82447  23456022.4664   23456026.5094   23456022.0084
        44.000          38.000
 116852134.09847  91053608.71947  22236222.4894   22236225.6064   22236223.0334
        50.000          44.000
 117363136.79847  91451774.96047  22333477.3744   22333482.7404   22333477.4954
        50.000          43.000
 104832537.29447  81687685.34647  19948970.6624   19948973.2764   19948971.0944
        54.000          50.000
 121441213.44347  94629503.53947  23109504.3314   23109506.5734   23109504.8384
        48.000          41.000
 123316743.18447  96090959.06147  23466402.3474   23466406.7584   23466401.8284
        46.000          41.000
 128314067.33547  99984964.88947  24417375.3714   24417379.2444   24417375.1254
        44.000          39.000
 116069725.40947  90443938.47847  22087336.5924   22087338.7204   22087336.3384
        51.000          45.000
 124807906.24447  97252907.88447  23750159.2814   23750160.2554   23750159.5794
        45.000          39.000
 09  1 24  0  9 30.0000000  0 12G 5G 6G30G 9G14G24G21G18G29G12G31G22
 123724789.70247  96408901.61047  23544063.3074   23544069.2964   23544063.7464
        45.000          40.000
 126683562.39847  98714440.81347  24107098.4244   24107104.2714   24107098.2064
        43.000          38.000
 120668968.49447  94027758.45747  22962546.8214   22962551.1384   22962546.6514
        49.000          42.000
 123358314.77647  96123345.91447  23474320.0914   23474323.7904   23474320.1954
        45.000          39.000
 116884978.72847  91079201.95247  22242472.5754   22242475.7934   22242472.8474
        50.000          44.000
 117430936.84347  91504606.15947  22346379.1734   22346384.7324   22346379.2054
        50.000          43.000
 104829392.12747  81685234.57247  19948372.1254   19948374.7814   19948372.4364
        54.000          50.000
 121406104.67447  94602146.04547  23102823.1834   23102825.7744   23102823.5364
        48.000          41.000
 123388542.27547  96146906.40447  23480065.1984   23480070.1004   23480064.4064
        46.000          41.000
 128320399.19547  99989898.85047  24418579.4254   24418584.0414   24418579.2204
        45.000          39.000
 115981144.31547  90374914.31447  22070479.9504   22070482.2874   22070479.5864
        51.000          45.000
 124769378.09847  97222885.96447  23742827.4764   23742828.9564   23742827.3324
        45.000          40.000
 09  1 24  0 10  0.0000000  0 12G 5G 6G30G 9G14G24G21G18G29G12G31G22
 123717197.41647  96402985.58247  23542618.9454   23542624.3754   23542619.5084
        44.000          40.000
 126655015.34947  98692196.36747  24101666.9474   24101671.4444   24101666.9684
        44.000          38.000
 120641581.90447  94006418.28347  22957335.2124   22957339.9294   22957334.9234
        49.000          42.000
 123454758.76347  96198497.12047  23492673.1894   23492676.7894   23492672.9484
        45.000          39.000
 116918031.16147  91104957.09847  22248762.5464   22248765.4234   22248762.6924
        50.000          44.000
 117499120.63947  91557736.36847  22359354.1894   22359359.9014   22359354.5774
        50.000          43.000
 104826855.61747  81683258.07247  19947889.5744   19947891.9784   19947889.9824
        54.000          50.000
 121370890.45847  94574706.38047  23096122.0904   23096124.5074   23096122.5284
        48.000          41.000
 123460218.51447  96202758.00847  23493704.8484   23493709.9094   23493704.4114
        46.000          41.000
 128326875.77147  99994945.58347  24419811.5404   24419816.0284   24419811.6244
        43.000          38.000
 115892859.46947  90306120.98547  22053679.8554   22053682.2574   22053679.3494
        51.000          46.000
 124730635.48247  97192696.92747  23735455.3924   23735456.6264   23735455.1834
        46.000          40.000
 09  1 24  0 10 30.0000000  0 12G 5G 6G30G 9G14G24G21G18G29G12G31G22
 123709774.20147  96397201.29547  23541205.8444   23541211.5834   23541206.2344
        46.000          40.000
 126626746.39647  98670168.62947  24096287.0094   24096291.5654   24096286.9824
        44.000          38.000
 120614211.81147  93985090.97247  22952127.1564   22952131.4354   22952126.5774
        49.000          42.000
 123551493.16647  96273874.61747  23511080.7864   23511085.0754   23511081.0254
        46.000          39.000
 116951294.14547  91130876.30847  22255092.0194   22255095.0994   22255092.2844
        50.000          44.000
 117567691.80647  91611168.43847  22372402.9184   22372408.5474   22372402.9164
        49.000          43.000
 104824934.10047  81681760.78547  19947523.7714   19947526.3434   19947524.1714
        54.000          50.000
 121335577.86247  94547190.04247  23089402.4444   23089404.5934   23089403.1424
        48.000          41.000
 123531775.63047  96258516.80847  23507321.7014   23507326.5434   23507321.5444
        46.000          41.000
 128333504.16547 100000110.59547  24421073.1144   24421077.2984   24421072.6984
        44.000          39.000
 115804878.87347  90237564.73047  22036937.7094   22036940.0774   22036937.1224
        51.000          46.000
 124691684.75647  97162345.73047  23728043.5244   23728044.1974   23728043.7374
        47.000          40.000
 09  1 24  0 11  0.0000000  0 12G 5G 6G30G 9G14G24G21G18G29G12G31G22
 123702518.71547  96391547.70347  23539825.4164   23539831.0494   23539825.9874
        45.000          40.000
 126598751.30747  98648354.26347  24090959.6814   24090965.2294   24090960.2964
        43.000          38.000
 120586857.38147  93963775.86747  22946921.5224   22946926.2114   22946921.1014
        50.000          42.000
 123648511.61247  96349473.45147  23529542.9494   23529546.9714   23529543.2564
        45.000          39.000
 116984761.56347  91156954.82847  22261460.4734   22261463.4514   22261460.4284
        50.000          44.000
 117636645.23247  91664898.36647  22385524.2944   22385529.5084   22385524.5124
        50.000          43.000
 104823624.87347  81680740.61347  19947274.5544   19947276.9884   19947274.9644
        54.000          49.000
 121300165.29747  94519595.82747  23082663.4124   23082665.9724   23082663.7954
        48.000          41.000
 123603208.73847  96314178.96347  23520915.0024   23520920.0014   23520915.0274
        46.000          41.000
 128340283.00447 100005392.87647  24422363.2794   24422367.3294   24422362.6074
        44.000          39.000
 115717202.38547  90169245.45447  22020253.2254   22020255.7664   22020252.9044
        52.000          46.000
 124652522.85047  97131829.97647  23720590.9534   23720591.7654   23720590.9274
        46.000          40.000
 09  1 24  0 11 30.0000000  0 12G 5G 6G30G 9G14G24G21G18G29G12G31G22
 123695435.11647  96386028.04547  23538477.4074   23538483.2084   23538477.9174
        46.000          40.000
 126571031.19847  98626754.18047  24085684.7014   24085690.4234   24085684.3834
        43.000          38.000
 120559522.58747  93942476.06447  22941719.8814   22941724.2844   22941719.5074
        49.000          42.000
 123745813.60247  96425293.22647  23548059.1124   23548062.5274   23548059.5884
        44.000          39.000
 117018432.85247  91183192.19747  22267868.0094   22267871.1004   22267868.4524
        50.000          44.000
 117705981.06147  91718926.27047  22398718.4494   22398723.8234   22398718.8004
        49.000          43.000
 104822930.50147  81680199.54447  19947142.5544   19947144.9274   19947142.9444
        54.000          50.000
 121264656.48147  94491926.60947  23075906.4784   23075909.1034   23075906.9074
        48.000          41.000
 123674518.15347  96369744.72847  23534484.6254   23534489.6244   23534484.6794
        45.000          41.000
 128347215.95947 100010795.22047  24423682.5324   24423686.0374   24423682.2904
        44.000          39.000
 115629834.65547  90101166.75547  22003627.6134   22003630.4914   22003626.8574
        51.000          46.000
 124613152.63447  97101151.90147  23713098.6994   23713100.3484   23713098.7244
        46.000          40.000
 09  1 24  0 12  0.0000000  0 12G 5G 6G30G 9G14G24G21G18G29G12G31G22
 123688523.23847  96380642.22647  23537162.2844   23537167.8484   23537162.6024
        45.000          40.000
 126543582.76347  98605365.79847  24080461.7764   24080466.7324   24080462.2964
        43.000          38.000
 120532207.51747  93921191.62347  22936521.8624   22936526.1564   22936521.9064
        50.000          42.000
 123843393.70247  96501329.70147  23566627.4224   23566631.5874   23566627.9304
        44.000          38.000
 117052303.35947  91209584.80447  22274313.3724   22274316.4234   22274313.6714
        49.000          44.000
 117775695.31447  91773249.04547  22411984.3104   22411990.3234   22411984.5224
        49.000          43.000
 104822848.81347  81680135.89547  19947127.0484   19947129.3774   19947127.4064
        54.000          49.000
 121229051.02047  94464182.06847  23069131.0624   23069133.7094   23069131.5164
        48.000          41.000
 123745699.92947  96425211.04747  23548030.0084   23548035.2294   23548029.7904
        45.000          41.000
 128354302.78947 100016317.46447  24425030.5464   24425034.7234   24425030.7154
        44.000          39.000
 115542776.60347  90033329.36847  21987061.0424   21987063.8324   21987060.5274
        52.000          46.000
 124573572.42847  97070310.19647  23705567.1564   23705568.2984   23705567.5144
        47.000          40.000
 09  1 24  0 12 30.0000000  0 12G 5G 6G30G 9G14G24G21G18G29G12G31G22
 123681787.55347  96375393.67647  23535880.5514   23535885.9344   23535881.0524
        45.000          40.000
 126516407.39547  98584190.18547  24075290.7264   24075295.1214   24075290.2204
        44.000          38.000
 120504916.37447  93899925.83447  22931328.6244   22931333.0004   22931328.3234
        49.000          42.000
 123941251.46347  96577582.53847  23585249.2514   23585253.0674   23585249.4634
        44.000          38.000
 117086372.71247  91236132.36547  22280796.4924   22280799.5034   22280796.9084
        50.000          44.000
 117845788.49147  91827867.09447  22425322.7184   22425328.4984   22425323.0104
        49.000          43.000
 104823382.86747  81680552.04147  19947228.6094   19947231.0544   19947228.9284
        54.000          50.000
 121193352.91647  94436365.34047  23062338.0564   23062340.4554   23062338.4064
        48.000          41.000
 123816754.67247  96480578.37047  23561551.3734   23561556.4394   23561550.9474
        46.000          41.000
 128361547.45047 100021962.71947  24426409.2484   24426413.6594   24426409.0444
        44.000          39.000
 115456033.27647  89965737.22247  21970554.3114   21970557.1004   21970553.9584
        52.000          46.000
 124533785.04547  97039307.06147  23697995.8644   23697997.1954   23697996.0844
        47.000          40.000
 09  1 24  0 13  0.0000000  0 12G 5G 6G30G 9G14G24G21G18G29G12G31G22
 123675229.65247  96370283.65347  23534632.6024   23534638.1364   23534633.4814
        45.000          40.000
 126489503.65347  98563226.23347  24070170.5554   24070175.3064   24070170.3024
        44.000          38.000
 120477650.98047  93878680.10447  22926140.3234   22926144.8824   22926139.8484
        49.000          42.000
 124039383.87047  96654049.38347  23603923.3234   23603926.8744   23603923.3714
        44.000          38.000
 117120637.95547  91262832.55647  22287317.0214   22287320.2694   22287317.3824
        51.000          44.000
 117916258.46347  91882778.74947  22438733.1944   22438738.5574   22438733.3394
        49.000          43.000
 104824532.64147  81681447.96747  19947447.4644   19947449.9404   19947447.7994
        54.000          50.000
 121157563.34847  94408477.33347  23055527.0694   23055529.6994   23055527.5264
        48.000          41.000
 123887680.05947  96535844.90147  23575048.1944   23575053.0234   23575047.8064
        46.000          41.000
 128368951.44847 100027732.12347  24427818.2784   24427822.7074   24427817.8594
        44.000          39.000
 115369607.08347  89898392.19247  21954107.9674   21954110.4234   21954107.5774
        52.000          46.000
 124493791.12047  97008142.96747  23690385.1414   23690386.5314   23690384.7024
        46.000          40.000
 09  1 24  0 13 30.0000000  0 12G 5G 6G30G 9G14G24G21G18G29G12G31G22
 123668850.14647  96365312.64047  23533418.2774   23533424.1494   23533418.9384
        45.000          39.000
 126462869.30047  98542472.17647  24065102.6154   24065106.9414   24065102.1114
        44.000          38.000
 120450411.98947  93857454.93247  22920956.7604   22920961.1784   22920956.5044
        49.000          42.000
 124137786.92847  96730727.13347  23622648.7714   23622652.7114   23622648.9244
        45.000          38.000
 117155094.81047  91289682.06547  22293874.1064   22293877.0374   22293874.5724
        50.000          44.000
 117987101.78547  91937981.32647  22452214.1324   22452219.3924   22452214.1614
        49.000          43.000
 104826297.09747  81682822.86547  19947783.3114   19947785.6244   19947783.7934
        54.000          49.000
 121121682.96947  94380518.55747  23048699.1764   23048702.2114   23048699.8124
        48.000          41.000
 123958473.48047  96591008.60947  23588519.9564   23588524.6484   23588519.3684
        46.000          41.000
 128376515.11247 100033625.92947  24429257.4024   24429261.8594   24429256.7614
        44.000          39.000
 115283499.64747  89831295.54947  21937722.3224   21937724.6564   21937722.2404
        52.000          46.000
 124453589.86347  96976817.30947  23682735.3774   23682735.9714   23682735.1964
        47.000          40.000
 09  1 24  0 14  0.0000000  0 12G 5G 6G30G 9G14G24G21G18G29G12G31G22
 123662653.28447  96360483.96447  23532239.3584   23532244.6184   23532239.8944
        45.000          40.000
 126436505.24147  98521928.75347  24060084.9844   24060090.2194   24060085.6154
        44.000          37.000
 120423203.90847  93836253.86047  22915779.5534   22915783.3744   22915779.1774
        49.000          42.000
 124236459.66647  96807615.02247  23641425.8774   23641429.0564   23641425.5834
        44.000          39.000
 117189743.09147  91316680.73547  22300467.4004   22300470.3094   22300467.6504
        50.000          44.000
 118058318.77647  91993475.06747  22465766.4084   22465771.7754   22465766.2134
        49.000          43.000
 104828678.64147  81684678.61347  19948236.4024   19948238.7944   19948236.7734
        54.000          49.000
 121085715.54847  94352491.96947  23041855.0984   23041857.9184   23041855.3624
        48.000          41.000
 124029135.19747  96646069.68447  23601966.2534   23601971.0034   23601965.8834
        46.000          41.000
 128384242.34147 100039647.21447  24430727.3144   24430732.0304   24430727.5024
        44.000          39.000
 115197715.73547  89764450.99047  21921398.1304   21921400.4364   21921397.5754
        52.000          46.000
 124413183.71247  96945331.99947  23675046.3214   23675046.7494   23675046.6304
        48.000          40.000
 09  1 24  0 14 30.0000000  0 12G 5G 6G30G 9G14G24G21G18G29G12G31G22
 123656638.95047  96355797.50647  23531094.3764   23531100.2754   23531095.2274
        46.000          40.000
 126410408.39247  98501593.53847  24055119.3894   24055124.3344   24055119.6984
        42.000          38.000
 120396026.81247  93815076.92547  22910607.3514   22910611.6424   22910607.2964
        49.000          42.000
 124335397.19947  96884709.23247  23660252.5784   23660256.3144   23660252.9234
        44.000          38.000
 117224577.89647  91343824.75247  22307095.9704   22307099.0644   22307096.2494
        50.000          44.000
 118129905.09347  92049256.60447  22479388.1964   22479394.3184   22479388.1424
        49.000          43.000
 104831675.56347  81687013.87747  19948806.5644   19948809.0744   19948806.9034
        54.000          49.000
 121049660.55747  94324397.13147  23034994.0574   23034996.9124   23034994.5984
        48.000          41.000
 124099661.53747  96701025.26947  23615386.9674   23615391.4964   23615386.8584
        46.000          40.000
 128392132.88847 100045795.74247  24432229.5954   24432233.9504   24432228.9794
        45.000          39.000
 115112255.99747  89697859.03447  21905135.5604   21905137.8684   21905135.0724
        52.000          46.000
 124372571.88147  96913686.41947  23667317.8324   23667318.5404   23667317.8224
        47.000          40.000
 09  1 24  0 15  0.0000000  0 12G 5G 6G30G 9G14G24G21G18G29G12G31G22
 123650811.02647  96351256.30747  23529985.8294   23529990.9654   23529985.9684
        46.000          40.000
 126384579.64847  98481467.26247  24050204.1454   24050208.8324   24050204.4784
        44.000          38.000
 120368884.53447  93793927.12347  22905442.7444   22905446.9104   22905442.5964
        49.000          42.000
 124434598.62447  96962009.10147  23679130.3714   23679133.4234   23679130.2294
        45.000          38.000
 117259598.46847  91371113.52147  22313760.2944   22313763.3994   22313760.5044
        50.000          44.000
 118201860.81647  92105325.98047  22493080.8064   22493087.0454   22493081.0014
        48.000          42.000
 104835289.89947  81689830.24447  19949494.4394   19949496.8374   19949494.8134
        54.000          49.000
 121013521.79947  94296237.03147  23028117.2894   23028120.0344   23028117.7494
        48.000          41.000
 124170052.56947  96755875.42647  23628782.1344   23628786.2294   23628781.7494
        45.000          40.000
 128400190.18547 100052074.21647  24433762.7354   24433766.5274   24433762.5884
        44.000          39.000
 115027125.12847  89631523.34647  21888935.6114   21888938.0484   21888935.3664
        52.000          46.000
 124331756.43247  96881882.19747  23659550.9324   23659551.8774   23659550.8344
        46.000          40.000
 09  1 24  0 15 30.0000000  0 12G 5G 6G30G 9G14G24G21G18G29G12G31G22
 123645170.03247  96346860.76847  23528911.8364   23528917.5824   23528912.4354
        45.000          40.000
 126359016.17047  98461547.65547  24045340.2424   24045343.9634   24045339.9354
        44.000          38.000
 120341777.71947  93772804.93847  22900284.2734   22900288.8454   22900283.7644
        49.000          42.000
 124534059.63947  97039511.23847  23698056.5444   23698060.2854   23698056.5284
        44.000          38.000
 117294800.39147  91398543.61147  22320459.0724   22320462.1804   22320459.4164
        50.000          44.000
 118274182.62947  92161680.62547  22506843.3894   22506849.4094   22506843.2224
        48.000          42.000
 104839520.03547  81693126.45347  19950299.5454   19950301.6794   19950299.9124
        54.000          50.000
 120977299.47147  94268011.80847  23021224.3064   23021226.8484   23021224.6034
        48.000          41.000
 124240305.04747  96810617.60747  23642150.6094   23642154.7964   23642150.5114
        45.000          40.000
 128408414.85847 100058483.09247  24435327.8384   24435332.1564   24435327.0604
        44.000          39.000
 114942324.29047  89565444.81447  21872798.5464   21872800.9314   21872797.7244
        52.000          46.000
 124290736.68847  96849918.74947  23651745.1964   23651746.2664   23651745.3564
        46.000          39.000
 09  1 24  0 16  0.0000000  0 12G 5G 6G30G 9G14G24G21G18G29G12G31G22
 123639720.09647  96342614.10447  23527874.8314   23527880.5944   23527875.2644
        45.000          40.000
 126333719.24947  98441835.77847  24040525.8304   24040530.6624   24040525.9334
        42.000          38.000
 120314710.86547  93751713.90447  22895133.7284   22895138.1304   22895133.3184
        49.000          42.000
 124633779.41647  97117215.00447  23717032.6134   23717036.2974   23717032.5614
        44.000          38.000
 117330183.41447  91426114.80747  22327192.2194   22327195.3184   22327192.4134
        49.000          44.000
 118346870.71247  92218320.67047  22520675.4744   22520681.6234   22520675.5344
        48.000          42.000
 104844368.74047  81696904.66147  19951222.3414   19951224.3724   19951222.7464
        54.000          50.000
 120940997.65847  94239724.64647  23014316.4864   23014319.2844   23014316.9834
        47.000          41.000
 124310419.47947  96865252.22747  23655492.8274   23655497.2484   23655492.4364
        45.000          40.000
 128416810.19747 100065024.96047  24436925.2164   24436929.4234   24436925.0734
        45.000          39.000
 114857858.40047  89499627.28647  21856725.2244   21856727.5974   21856724.9034
        52.000          46.000
 124249515.32547  96817798.21447  23643901.1254   23643901.7454   23643901.2734
        47.000          39.000
 09  1 24  0 16 30.0000000  0 12G 5G 6G30G 9G14G24G21G18G29G12G31G22
 123634461.29447  96338516.38147  23526874.4404   23526879.7414   23526875.2144
        46.000          40.000
 126308685.62847  98422329.07247  24035762.1844   24035766.7474   24035762.2394
        43.000          38.000
 120287684.22247  93730654.19347  22889990.6074   22889995.2344   22889990.3704
        49.000          42.000
 124733752.93047  97195116.48047  23736057.0474   23736060.5624   23736057.0094
        44.000          38.000
 117365742.75147  91453823.39047  22333958.8134   22333961.9464   22333959.1094
        50.000          44.000
 118419920.91647  92275242.88747  22534576.4454   22534582.9384   22534576.5144
        48.000          42.000
 104849834.00847  81701163.31247  19952262.1794   19952264.5144   19952262.6474
        54.000          49.000
 120904616.06847  94211375.32847  23007393.0934   23007395.8374   23007393.4334
        48.000          41.000
 124380392.32947  96919776.52147  23668808.1154   23668812.8734   23668807.5174
        44.000          40.000
 128425375.89047 100071699.57447  24438555.3934   24438559.2504   24438555.0104
        45.000          39.000
 114773728.37047  89434071.46847  21840715.6614   21840718.3754   21840715.4004
        52.000          46.000
 124208091.28247  96785519.77047  23636018.1004   23636018.9244   23636018.2714
        46.000          40.000
 09  1 24  0 17  0.0000000  0 12G 5G 6G30G 9G14G24G21G18G29G12G31G22
 123629396.45947  96334569.79047  23525910.3174   23525915.6424   23525911.0294
        46.000          40.000
 126283915.14147  98403027.39647  24031048.3444   24031052.8814   24031048.3044
        43.000          38.000
 120260700.67847  93709628.06647  22884855.6744   22884860.3204   22884855.3694
        48.000          42.000
 124833978.51347  97273214.38747  23755129.1104   23755132.6274   23755129.4404
        44.000          38.000
 117401476.67047  91481668.01147  22340758.9734   22340761.8054   22340759.3614
        50.000          44.000
 118493332.06547  92332446.36247  22548546.1484   22548552.3554   22548546.2864
        48.000          42.000
 104855917.03047  81705903.32447  19953419.6624   19953422.0804   19953420.0034
        54.000          50.000
 120868157.30547  94182965.88247  23000455.6304   23000458.1034   23000455.8524
        48.000          41.000
 124450223.09747  96974190.10547  23682096.3164   23682101.1924   23682095.5574
        44.000          39.000
 128434114.94247 100078509.27947  24440218.2224   24440222.1224   24440217.6034
        45.000          39.000
 114689938.07247  89368780.37947  21824770.8784   21824773.6454   21824770.4634
        52.000          46.000
 124166466.28547  96753084.70347  23628097.2974   23628098.0624   23628097.3024
        46.000          39.000
 09  1 24  0 17 30.0000000  0 12G 5G 6G30G 9G14G24G21G18G29G12G31G22
 123624528.39947  96330776.54747  23524984.2464   23524989.1054   23524984.9504
        45.000          40.000
 126259407.47347  98383930.52847  24026384.7484   24026389.9444   24026384.9944
        44.000          38.000
 120233763.39847  93688637.99247  22879729.7254   22879734.3644   22879729.2004
        49.000          43.000
 124934454.05547  97351507.06247  23774248.8294   23774253.0974   23774249.2964
        44.000          38.000
 117437383.55447  91509647.41247  22347591.9454   22347594.8404   22347592.4364
        50.000          44.000
 118567103.15547  92389930.29547  22562584.8404   22562590.2484   22562585.0654
        48.000          42.000
 104862618.59547  81711125.32347  19954695.1184   19954697.4434   19954695.6484
        54.000          49.000
 120831624.00047  94154498.33647  22993503.5284   22993505.7094   22993503.7834
        48.000          41.000
 124519910.96147  97028492.33147  23695357.3294   23695362.2234   23695356.5914
        45.000          40.000
 128443029.68247 100085455.88547  24441914.3224   24441919.1834   24441913.9644
        44.000          39.000
 114606490.77047  89303756.55447  21808891.3614   21808894.1164   21808890.8884
        52.000          46.000
 124124641.70447  96720494.12647  23620137.8844   23620139.2424   23620137.7404
        45.000          40.000
 09  1 24  0 18  0.0000000  0 12G 5G 6G30G 9G14G24G21G18G29G12G31G22
 123619858.31147  96327137.54447  23524095.3614   23524100.5904   23524095.5474
        46.000          40.000
 126235160.68647  98365036.94247  24021771.0154   24021775.0364   24021771.2814
        43.000          38.000
 120206873.56047  93667684.90647  22874613.1204   22874617.2474   22874612.9124
        49.000          42.000
 125035175.90247  97429991.67247  23793415.9834   23793419.8994   23793415.9344
        44.000          37.000
 117473459.54547  91537758.59847  22354456.6714   22354459.9604   22354457.0394
        50.000          44.000
 118641231.13847  92447692.35647  22576690.9154   22576696.0924   22576690.8594
        49.000          42.000
 104869937.74447  81716828.55347  19956087.8154   19956090.2154   19956088.2484
        54.000          49.000
 120795017.19447  94125973.52747  22986537.4284   22986539.5264   22986537.6174
        48.000          41.000
 124589453.51247  97082681.33547  23708590.7364   23708595.9574   23708590.0084
        44.000          40.000
 128452121.04847 100092540.14047  24443644.2804   24443648.7694   24443644.0664
        45.000          39.000
 114523388.68347  89239001.72547  21793077.7094   21793080.0254   21793077.3644
        52.000          46.000
 124082618.03847  96687748.41147  23612141.1094   23612142.3674   23612140.9154
        47.000          40.000
 09  1 24  0 18 30.0000000  0 12G 5G 6G30G 9G14G24G21G18G29G12G31G22
 123615387.83647  96323654.11047  23523244.7574   23523249.8144   23523245.3374
        46.000          40.000
 126211173.30747  98346345.49947  24017206.4064   24017210.9604   24017206.3284
        45.000          38.000
 120180033.33747  93646770.46847  22869505.3104   22869509.8264   22869505.0034
        49.000          42.000
 125136140.43947  97508665.39247  23812628.7374   23812632.7764   23812629.1994
        44.000          37.000
 117509701.76347  91565999.30347  22361353.3594   22361356.6804   22361353.7404
        49.000          44.000
 118715713.95647  92505730.88647  22590864.5034   22590869.5884   22590865.0274
        49.000          42.000
 104877874.20147  81723012.80647  19957597.9614   19957600.4894   19957598.3134
        54.000          49.000
 120758338.34647  94097392.58947  22979557.8264   22979560.1904   22979558.2224
        48.000          42.000
 124658848.37547  97136755.25747  23721795.9924   23721801.1854   23721795.9204
        45.000          40.000
 128461390.46047 100099763.12147  24445408.1754   24445412.5274   24445408.0844
        44.000          39.000
 114440634.00047  89174517.60447  21777329.8714   21777332.2874   21777329.5344
        52.000          46.000
 124040395.58947  96654847.81547  23604107.0764   23604107.9244   23604107.1234
        47.000          40.000
 09  1 24  0 19  0.0000000  0 12G 5G 6G30G 9G14G24G21G18G29G12G31G22
 123611119.54847  96320328.20547  23522432.0374   23522437.7784   23522432.1694
        45.000          39.000
 126187444.63647  98327855.63047  24012691.0834   24012695.5004   24012691.1624
        43.000          38.000
 120153245.16247  93625896.58847  22864407.8774   22864412.2194   22864407.3724
        48.000          42.000
 125237345.43047  97587526.49847  23831887.8414   23831891.1564   23831887.5354
        44.000          37.000
 117546108.29947  91594368.05547  22368281.3324   22368284.1134   22368281.7734
        49.000          44.000
 118790549.72047  92564044.45047  22605105.6784   22605110.3944   22605105.3074
        48.000          42.000
 104886428.75947  81729678.69047  19959225.9294   19959228.3624   19959226.4054
        54.000          49.000
 120721590.03747  94068757.53647  22972564.8464   22972567.0534   22972565.2264
        49.000          42.000
 124728095.22847  97190713.83747  23734973.6794   23734978.5374   23734973.2434
        44.000          40.000
 128470840.14347 100107126.56347  24447206.6134   24447210.4974   24447206.0634
        45.000          39.000
 114358229.82047  89110306.60547  21761648.7474   21761651.0034   21761648.3244
        52.000          46.000
 123997975.01747  96621792.81847  23596034.7194   23596035.1244   23596034.6044
        47.000          40.000
 09  1 24  0 19 30.0000000  0 12G 5G 6G30G 9G14G24G21G18G29G12G31G22
 123607055.22847  96317161.24947  23521658.7334   23521664.4784   23521659.5254
        45.000          39.000
 126163973.35247  98309566.33947  24008224.6174   24008229.4954   24008224.6004
        43.000          38.000
 120126511.57147  93605065.23247  22859320.2144   22859324.3144   22859319.8804
        49.000          42.000
 125338788.27947  97666572.91947  23851191.1824   23851194.8594   23851191.3284
        44.000          37.000
 117582676.19847  91622862.54847  22375239.7434   22375242.6614   22375240.0834
        49.000          43.000
 118865736.52347  92622631.54647  22619413.0254   22619418.2604   22619413.1664
        48.000          42.000
 104895601.24447  81736826.07647  19960971.3684   19960973.8314   19960971.7254
        54.000          49.000
 120684774.11247  94040069.79247  22965558.7234   22965561.5244   22965559.3284
        48.000          42.000
 124797192.14447  97244555.58547  23748122.4474   23748127.3234   23748121.9284
        45.000          40.000
 128480471.47747 100114631.56447  24449039.4804   24449043.1304   24449039.1474
        44.000          39.000
 114276179.12647  89046371.03547  21746034.9944   21746037.3034   21746034.2584
        52.000          46.000
 123955358.40847  96588585.06547  23587924.8244   23587925.5194   23587925.0084
        47.000          41.000
 09  1 24  0 20  0.0000000  0 12G 5G 6G30G 9G14G24G21G18G29G12G31G22
 123603198.02247  96314155.65947  23520924.2164   23520929.7754   23520924.7094
        45.000          39.000
 126140759.54747  98291477.65947  24003807.1394   24003811.6324   24003807.2284
        44.000          38.000
 120099835.36547  93584278.59547  22854243.9654   22854248.2364   22854243.8124
        49.000          42.000
 125440467.12547  97745803.25647  23870540.2684   23870544.2074   23870540.3064
        44.000          37.000
 117619403.86047  91651481.53647  22382229.0424   22382231.9024   22382229.0444
        49.000          44.000
 118941273.42347  92681491.45447  22633786.9334   22633792.4004   22633787.1254
        49.000          42.000
 104905392.77247  81744455.83647  19962834.6304   19962837.0154   19962835.1384
        54.000          49.000
 120647893.29747  94011331.49047  22958540.5104   22958543.3454   22958540.9454
        48.000          42.000
 124866138.69147  97298280.17047  23761242.6994   23761247.2914   23761242.2474
        46.000          40.000
 128490287.46847 100122280.44647  24450906.9974   24450910.6684   24450906.6634
        43.000          38.000
 114194485.58347  88982713.78147  21730489.2134   21730491.4354   21730489.0774
        52.000          46.000
 123912546.42747  96555225.07847  23579778.1334   23579778.9724   23579778.1224
        47.000          41.000
 09  1 24  0 20 30.0000000  0 12G 5G 6G30G 9G14G24G21G18G29G12G31G22
 123599548.97847  96311312.29847  23520229.7154   23520235.9834   23520230.4944
        45.000          40.000
 126117801.00547  98273587.91147  23999438.4584   23999442.7904   23999438.3254
        43.000          38.000
 120073217.98747  93563537.81047  22849178.8034   22849183.0674   22849178.6774
        49.000          42.000
