     2.11           OBSERVATION DATA    G (GPS)             RINEX VERSION / TYPE
teqc  2008Oct2      gpsops              20090201 00:06:00UTCPGM / RUN BY / DATE
    30.0000                                                 INTERVAL
     1     1                                                WAVELENGTH FACT L1/2
     7    L1    L2    P1    P2    C1    S1    S2            # / TYPES OF OBSERV
Linux 2.4.20-8|Pentium IV|gcc -static|Linux|486/DX+         COMMENT
     2.10           OBSERVATION DATA    GPS                 COMMENT
soc2rnx ver 1.20    gpsops               1-Feb-2009 00:05:56COMMENT
S1, if present, is the SNR for the C/A data stream on L1.   COMMENT
 SNR is mapped to RINEX snr flag value [1,4-9]              COMMENT
    SNR:   >316  >100  >31.6  >10  >3.2    >0 bad=0         COMMENT
L1 & L2:      9     8     7     6     5     4     1         COMMENT
                                                            COMMENT
This data is provided as a public service by NASA/JPL.      COMMENT
No warranty is expressed or implied regarding suitability   COMMENT
for use.  For further information, contact:                 COMMENT
Dave Stowers, NASA/JPL m/s 238-600                          COMMENT
4800 Oak Grove Drive, Pasadena CA 91109 USA                 COMMENT
                                                            COMMENT
Forced Modulo Decimation to 30 seconds                      COMMENT
  2009     1    31     0     0    0.0000000     GPS         TIME OF FIRST OBS
DSN                 JPL                                     OBSERVER / AGENCY
451-U               AOAD/M_T        NONE                    ANT # / TYPE
  4849202.3940  -360328.9929  4114913.1862                  APPROX POSITION XYZ
        0.0254        0.0000        0.0000                  ANTENNA: DELTA H/E/N
LP03574             ASHTECH Z-XII3      CC00                REC # / TYPE / VERS
MADR                                                        MARKER NAME
13407S012                                                   MARKER NUMBER
                                                            END OF HEADER
 09  1 31  0  0  0.0000000  0 10G26G 5G 9G15G18G27G28G17G22G12
 113603151.19348  88521938.41748  21617957.2754   21617960.0304   21617957.2474
       242.000         209.000
 124248550.31748  96817034.51848  23643726.7454   23643730.3734   23643727.3734
       225.000         177.000
 107597839.64548  83842458.32348  20475200.1324   20475202.8844   20475200.0144
       248.000         222.000
 107999971.76748  84155816.08748  20551715.2964   20551716.7694   20551714.9234
       250.000         233.000
 117505551.69848  91562762.87948  22360566.3374   22360567.6004   22360565.8904
       235.000         194.000
 128366575.12448 100025892.27448  24427352.1014   24427355.4534   24427352.2454
       211.000         160.000
 128450099.95148 100090978.76548  24443248.3524   24443250.7154   24443248.6964
       212.000         155.000
 122281168.31048  95284022.01948  23269336.7394   23269338.5194   23269337.0364
       231.000         190.000
 127015784.84848  98973340.15448  24170298.9364   24170299.4294   24170299.1684
       220.000         170.000
 118515203.51148  92349497.81148  22552702.0754   22552704.3224   22552701.5304
       236.000         197.000
 09  1 31  0  0 30.0000000  0 10G26G 5G 9G15G18G27G28G17G22G12
 113681108.84848  88582684.63248  21632792.2954   21632794.9964   21632792.2674
       242.000         209.000
 124141396.78548  96733538.27248  23623336.2604   23623339.6834   23623336.3474
       226.000         177.000
 107554894.15448  83808994.29648  20467027.9604   20467030.5304   20467028.0674
       248.000         222.000
 108032863.65048  84181446.12648  20557974.2484   20557975.8374   20557973.9904
       250.000         233.000
 117485352.60848  91547023.32948  22356722.5934   22356723.9504   22356723.2114
       238.000         195.000
 128434842.02648 100079087.24648  24440344.6744   24440347.5684   24440344.4654
       214.000         162.000
 128543449.02048 100163718.26748  24461012.6444   24461014.1304   24461013.6374
       214.000         155.000
 122266161.19448  95272328.16248  23266480.8924   23266482.6604   23266480.4214
       230.000         190.000
 126949400.33248  98921611.92948  24157666.6104   24157666.8514   24157667.5814
       224.000         171.000
 118420937.83148  92276044.03048  22534764.0754   22534765.8154   22534764.3124
       235.000         197.000
 09  1 31  0  1  0.0000000  0 10G26G 5G 9G15G18G27G28G17G22G12
 113759398.78748  88643689.79048  21647690.3154   21647692.9324   21647690.2554
       242.000         209.000
 124034435.27948  96650191.64048  23602982.3454   23602985.3134   23602983.2654
       227.000         178.000
 107512264.04848  83775776.02948  20458915.6444   20458918.5384   20458915.6614
       249.000         222.000
 108066213.76048  84207433.22348  20564320.5804   20564322.1114   20564320.4154
       250.000         232.000
 117465725.17748  91531729.22048  22352987.5564   22352988.7714   22352988.3944
       237.000         195.000
 128503144.16748 100132309.65448  24453342.2574   24453345.1334   24453342.9674
       212.000         161.000
 128636913.27048 100236547.55748  24478798.6024   24478799.5994   24478799.3334
       212.000         154.000
 122251681.85248  95261045.56548  23263725.7274   23263727.4804   23263725.4364
       231.000         191.000
 126883432.92748  98870208.76348  24145112.7464   24145112.9704   24145114.6794
       218.000         164.000
 118326971.76548  92202823.72548  22516882.8424   22516884.5624   22516882.1184
       236.000         198.000
 09  1 31  0  1 30.0000000  0 10G26G 5G 9G15G18G27G28G17G22G12
 113838020.80748  88704953.69548  21662651.8574   21662654.4634   21662651.7744
       243.000         209.000
 123927668.46848  96566996.74148  23582664.8304   23582668.4054   23582665.7034
       226.000         177.000
 107469950.32148  83742804.29648  20450863.7264   20450866.2874   20450864.2254
       248.000         222.000
 108100022.65348  84233777.81148  20570754.2044   20570755.7074   20570754.1144
       250.000         232.000
 117446670.54748  91516881.44248  22349361.3984   22349363.3074   22349361.7704
       235.000         195.000
 128571482.24448 100185560.08948  24466346.0184   24466349.4544   24466346.4874
       214.000         161.000
 128730491.33648 100309465.56848  24496605.6034   24496606.6684   24496605.8834
       212.000         154.000
 122237731.84748  95250175.43848  23261071.0364   23261073.3114   23261070.9654
       231.000         192.000
 126817885.16448  98819132.57248  24132639.1574   24132639.1834   24132639.4354
       215.000         162.000
 118233308.06348  92129839.03748  22499059.5964   22499061.2184   22499059.7154
       236.000         199.000
 09  1 31  0  2  0.0000000  0 10G26G 5G 9G15G18G27G28G17G22G12
 113916974.21748  88766475.83648  21677676.0524   21677678.8564   21677676.2304
       242.000         208.000
 123821098.32248  96483955.09248  23562385.3904   23562388.7574   23562385.7794
       224.000         177.000
 107427953.97648  83710079.86648  20442872.2164   20442874.6484   20442872.1064
       249.000         223.000
 108134290.77448  84260480.24148  20577275.1214   20577276.7394   20577274.8714
       251.000         232.000
 117428189.23748  91502480.41448  22345844.4704   22345846.4804   22345845.0004
       237.000         196.000
 128639856.46148 100238838.70548  24479356.6884   24479361.0704   24479357.1894
       210.000         159.000
 128824181.27848 100382470.73948  24514434.1284   24514435.3734   24514434.9184
       213.000         152.000
 122224312.50248  95239718.82248  23258517.6844   23258519.6034   23258517.5044
       232.000         191.000
 126752759.17348  98768385.06548  24120246.0984   24120246.0234   24120247.4474
       221.000         164.000
 118139948.58848  92057091.39648  22481293.8304   22481295.3094   22481293.2634
       236.000         198.000
 09  1 31  0  2 30.0000000  0 10G26G 5G 9G15G18G27G28G17G22G12
 113996257.35748  88828254.89948  21692763.0774   21692765.9044   21692762.9994
       242.000         208.000
 123714726.39048  96401067.89248  23542143.3894   23542147.2244   23542144.0784
       223.000         179.000
 107386274.80548  83677602.58948  20434940.7344   20434943.2004   20434940.9374
       249.000         222.000
 108169017.69348  84287540.17448  20583883.3364   20583884.9974   20583883.2174
       251.000         232.000
 117410281.53448  91488526.36148  22342436.8484   22342438.8294   22342437.8084
       237.000         196.000
 128708266.91148 100292145.51548  24492374.9074   24492379.1684   24492374.6144
       217.000         162.000
 128917980.58548 100455561.14448  24532283.0184   24532284.2054   24532283.7404
       210.000         147.000
 122211424.56348  95229676.27448  23256065.2464   23256066.9684   23256065.2724
       233.000         192.000
 126688056.79348  98717967.61048  24107933.9314   24107934.0974   24107934.3954
       216.000         164.000
 118046894.96448  91984582.09648  22463585.6724   22463587.7054   22463585.9674
       235.000         197.000
 09  1 31  0  3  0.0000000  0 10G26G 5G 9G15G18G27G28G17G22G12
 114075869.54248  88890290.36748  21707912.7454   21707915.2594   21707912.7064
       242.000         207.000
 123608554.79448  96318336.78448  23521939.6444   23521943.2514   23521939.9694
       224.000         179.000
 107344913.70248  83645373.15848  20427070.0044   20427072.5984   20427070.1124
       249.000         222.000
 108204203.50148  84314957.68348  20590579.0454   20590580.6334   20590578.6274
       251.000         232.000
 117392948.59048  91475020.16248  22339138.5434   22339140.3374   22339138.5414
       237.000         195.000
 128776713.85648 100345480.79148  24505401.1244   24505403.5154   24505401.8334
       216.000         162.000
 129011888.03448 100528735.77148  24550153.2454   24550153.7544   24550153.5334
       210.000         149.000
 122199069.47448  95220048.94348  23253714.0714   23253715.7604   23253714.0894
       232.000         191.000
 126623780.19648  98667881.90448  24095701.6604   24095702.5954   24095701.0724
       218.000         164.000
 117954149.13748  91912312.62148  22445936.7904   22445938.3314   22445936.5784
       237.000         197.000
 09  1 31  0  3 30.0000000  0 10G26G 5G 9G15G18G27G28G17G22G12
 114155809.08848  88952580.91548  21723124.9544   21723127.3714   21723125.0334
       242.000         207.000
 123502584.93448  96235762.89148  23501774.3364   23501777.4594   23501774.3524
       224.000         179.000
 107303870.59748  83613391.51348  20419259.6204   20419262.3014   20419259.9144
       248.000         223.000
 108239847.72848  84342732.40448  20597361.9994   20597363.5494   20597361.6794
       252.000         232.000
 117376189.74048  91461961.30848  22335949.3334   22335951.1764   22335949.8024
       237.000         195.000
 128845196.76848 100398844.10748  24518432.4974   24518436.3724   24518433.4074
       214.000         162.000
 129105900.75548 100601992.46548  24568042.6754   24568043.8634   24568042.8934
       208.000         145.000
 122187247.54348  95210837.05548  23251464.0884   23251466.0024   23251463.5024
       232.000         191.000
 126559930.76448  98618129.12248  24083552.4064   24083552.9344   24083553.7284
       220.000         170.000
 117861712.56548  91840284.12148  22428346.4274   22428348.2374   22428346.0874
       237.000         199.000
 09  1 31  0  4  0.0000000  0 10G26G 5G 9G15G18G27G28G17G22G12
 114236075.05148  89015125.82148  21738399.0254   21738401.5314   21738399.0504
       242.000         206.000
 123396818.75148  96153347.68948  23481647.8944   23481651.0084   23481648.5754
       226.000         178.000
 107263146.14648  83581658.17748  20411510.1024   20411512.7434   20411510.1544
       249.000         223.000
 108275950.65948  84370864.55048  20604232.3564   20604233.7314   20604232.3434
       251.000         232.000
 117360005.83648  91449350.47248  22332869.5334   22332871.4324   22332869.9114
       236.000         195.000
 128913715.90948 100452235.60548  24531471.3684   24531475.1054   24531471.6284
       215.000         162.000
 129200016.98648 100675329.76748  24585952.5964   24585953.2554   24585953.3744
       208.000         147.000
 122175959.95748  95202041.53448  23249316.6904   23249317.8674   23249316.2604
       234.000         190.000
 126496510.73648  98568710.94648  24071484.6934   24071484.3454   24071484.9664
       220.000         168.000
 117769587.01848  91768497.97348  22410815.8244   22410817.5144   22410815.7624
       237.000         200.000
 09  1 31  0  4 30.0000000  0 10G26G 5G 9G15G18G27G28G17G22G12
 114316666.70448  89077924.50748  21753735.0384   21753737.4454   21753734.9234
       241.000         206.000
 123291258.28348  96071092.80248  23461560.2974   23461563.7484   23461560.8124
       225.000         179.000
 107222740.77948  83550173.47948  20403821.3064   20403823.8534   20403821.5484
       249.000         223.000
 108312512.05748  84399353.95048  20611189.6374   20611191.2274   20611189.4354
       252.000         232.000
 117344397.53148  91437188.14648  22329899.4684   22329901.3734   22329900.1194
       237.000         195.000
 128982271.20148 100505655.33248  24544515.9614   24544520.5254   24544515.9814
       216.000         163.000
 129294234.79648 100748746.23448  24603881.6774   24603882.0804   24603881.5724
       207.000         147.000
 122165208.08348  95193663.44948  23247270.5784   23247272.2454   23247270.2814
       230.000         191.000
 126433522.37548  98519629.11348  24059497.7364   24059497.4694   24059496.3694
       219.000         168.000
 117677774.58948  91696955.82048  22393344.5274   22393346.2494   22393343.9254
       238.000         200.000
 09  1 31  0  5  0.0000000  0 10G26G 5G 9G15G18G27G28G17G22G12
 114397582.91148  89140976.08948  21769132.8104   21769135.4884   21769132.5664
       241.000         206.000
 123185905.58948  95988999.79148  23441512.6434   23441515.4234   23441513.0944
       226.000         179.000
 107182655.20548  83518937.97048  20396193.2914   20396195.7864   20396193.6754
       248.000         223.000
 108349532.25148  84428200.85248  20618234.3694   20618235.8734   20618234.1624
       252.000         231.000
 117329365.05548  91425474.52148  22327038.8544   22327040.8224   22327039.3384
       238.000         196.000
 129050863.51848 100559103.88448  24557569.7784   24557573.2824   24557569.5264
       212.000         163.000
 129388552.79748 100822240.79148  24621829.4814   24621830.8664   24621829.5004
       205.000         146.000
 122154992.94548  95185703.60448  23245326.6464   23245328.4134   23245325.9854
       231.000         192.000
 126370967.80148  98470885.26248  24047593.7244   24047594.8004   24047593.9644
       221.000         171.000
 117586277.42848  91625659.34648  22375932.8594   22375934.9534   22375932.8914
       237.000         200.000
 09  1 31  0  5 30.0000000  0 10G26G 5G 9G15G18G27G28G17G22G12
 114478821.43948  89204278.83848  21784592.0714   21784594.5004   21784592.0024
       242.000         206.000
 123080761.20348  95907069.12548  23421504.2774   23421507.2474   23421504.7434
       227.000         181.000
 107142888.74448  83487951.12148  20388625.9234   20388628.4804   20388625.9944
       248.000         223.000
 108387009.70448  84457404.06248  20625365.8454   20625367.5804   20625365.6794
       250.000         230.000
 117314907.75548  91414209.08148  22324287.8464   22324289.5264   22324288.2464
       237.000         195.000
 129119491.54948 100612580.27748  24570628.5364   24570632.4004   24570628.1344
       213.000         162.000
 129482967.88648 100895810.97548  24639795.2274   24639797.1864   24639796.6264
       202.000         146.000
 122145314.36948  95178161.86548  23243485.0244   23243486.4434   23243484.9084
       232.000         192.000
 126308847.38648  98422479.73748  24035773.0884   24035773.2024   24035774.0854
       221.000         173.000
 117495096.24148  91554609.07348  22358582.0804   22358583.7824   22358581.9134
       240.000         200.000
 09  1 31  0  6  0.0000000  0 10G26G 5G 9G15G18G27G28G17G22G12
 114560381.46148  89267832.09748  21800112.3424   21800114.9174   21800112.3464
       240.000         205.000
 122975827.38348  95825302.51748  23401536.1714   23401539.4094   23401537.5714
       227.000         181.000
 107103442.23248  83457213.58448  20381119.3304   20381122.0864   20381119.2814
       249.000         223.000
 108424944.74348  84486963.83048  20632584.3974   20632586.3254   20632583.9784
       250.000         230.000
 117301026.19548  91403392.26948  22321646.1184   22321647.8664   22321646.8934
       236.000         195.000
 129188155.76248 100666084.83548  24583694.7254   24583699.0494   24583695.4674
       213.000         160.000
 129577477.91948 100969455.15448  24657781.0924   24657782.7914   24657781.5474
       202.000         148.000
 122136173.57248  95171039.17348  23241745.7994   23241747.1054   23241745.4694
       230.000         191.000
 126247163.42648  98374414.34748  24024034.5644   24024034.6284   24024033.9554
       220.000         168.000
 117404232.81248  91483806.39748  22341291.4854   22341293.0274   22341291.5684
       241.000         202.000
 09  1 31  0  6 30.0000000  0 10G26G 5G 9G15G18G27G28G17G22G12
 114642261.97048  89331635.08048  21815693.6844   21815696.4484   21815693.4664
       242.000         206.000
 122871106.10748  95743701.52848  23381607.9894   23381611.3064   23381608.7444
       225.000         179.000
 107064316.20448  83426725.77748  20373674.1274   20373676.6914   20373674.3374
       249.000         224.000
 108463337.09948  84516879.94848  20639890.3964   20639892.1734   20639890.1044
       250.000         230.000
 117287720.74748  91393024.37248  22319113.9494   22319116.0564   22319115.0864
       236.000         194.000
 129256856.38048 100719617.76448  24596768.2804   24596771.7424   24596767.9724
       215.000         162.000
 129672081.25448 101043172.07448  24675782.9354   24675785.5604   24675782.5644
       204.000         149.000
 122127571.27148  95164336.09748  23240108.5104   23240110.1474   23240108.4024
       231.000         192.000
 126185918.09048  98326690.68148  24012380.4114   24012379.9324   24012381.1264
       220.000         170.000
 117313689.07648  91413252.82348  22324061.8364   22324063.0954   22324061.8754
       242.000         202.000
 09  1 31  0  7  0.0000000  0 10G26G 5G 9G15G18G27G28G17G22G12
 114724462.43548  89395687.39148  21831336.0154   21831338.6124   21831336.3384
       241.000         205.000
 122766599.52248  95662267.84248  23361720.4654   23361724.4854   23361720.3554
       225.000         179.000
 107025511.51948  83396488.36548  20366289.8664   20366292.3794   20366290.3434
       249.000         223.000
 108502187.84448  84547153.25948  20647283.4904   20647285.2954   20647283.2634
       250.000         230.000
 117274992.14948  91383105.97448  22316692.0704   22316693.8594   22316692.3364
       237.000         194.000
 129325594.22548 100773179.69948  24609848.8114   24609852.4904   24609849.2344
       215.000         161.000
 129766776.82948 101116960.77448  24693803.2484   24693805.4344   24693803.2944
       205.000         149.000
 122119509.47148  95158054.19148  23238574.2244   23238576.0734   23238574.0094
       229.000         191.000
 126125113.54848  98279310.52348  24000809.4704   24000810.2784   24000810.1514
       219.000         165.000
 117223467.55148  91342950.32648  22306893.3074   22306894.4884   22306893.3354
       240.000         202.000
 09  1 31  0  7 30.0000000  0 10G26G 5G 9G15G18G27G28G17G22G12
 114806981.21148  89459987.72748  21847038.6394   21847041.5164   21847038.4164
       240.000         206.000
 122662309.31048  95581002.74648  23341875.1394   23341878.4404   23341875.4104
       226.000         180.000
 106987028.26848  83366501.41448  20358966.7434   20358969.2074   20358966.7304
       249.000         224.000
 108541495.97348  84577782.96548  20654763.7804   20654765.3074   20654763.3544
       251.000         231.000
 117262840.48148  91373637.13548  22314379.8284   22314381.2694   22314380.3304
       237.000         194.000
 129394368.79348 100826770.28348  24622936.0634   24622939.6444   24622935.9984
       217.000         160.000
 129861562.14648 101190819.44548  24711840.6974   24711842.6264   24711843.4544
       202.000         149.000
 122111988.11448  95152193.39248  23237142.9494   23237144.8224   23237142.1114
       229.000         192.000
 126064751.67048  98232275.29048  23989322.1164   23989322.9814   23989323.7024
       217.000         164.000
 117133569.52548  91272899.92348  22289785.8364   22289787.5744   22289785.6974
       238.000         201.000
 09  1 31  0  8  0.0000000  0 10G26G 5G 9G15G18G27G28G17G22G12
 114889817.82948  89524535.73048  21862802.1914   21862804.8914   21862802.0604
       241.000         205.000
 122558237.70648  95499907.99848  23322071.0064   23322074.2834   23322072.0234
       227.000         180.000
 106948867.47148  83336765.73948  20351704.9134   20351707.3254   20351705.3504
       250.000         223.000
 108581261.68048  84608769.23148  20662331.0514   20662332.5724   20662330.8004
       251.000         231.000
 117251266.43348  91364618.38348  22312177.2364   22312178.8134   22312177.8154
       237.000         194.000
 129463180.77948 100880390.00948  24636030.5484   24636034.1084   24636031.2334
       214.000         162.000
 129956435.45148 101264746.67648  24729894.6264   24729896.2054   24729893.9044
       206.000         152.000
 122105009.16148  95146755.26148  23235815.2814   23235816.8294   23235814.9444
       233.000         193.000
 126004834.66748  98185586.67848  23977920.1774   23977921.0074   23977918.8654
       221.000         170.000
 117043997.21248  91203103.33648  22272740.5544   22272742.7794   22272740.5204
       240.000         202.000
 09  1 31  0  8 30.0000000  0 10G26G 5G 9G15G18G27G28G17G22G12
 114972970.40448  89589329.93748  21878625.4504   21878628.3104   21878625.0264
       241.000         205.000
 122454385.83748  95418984.47648  23302308.4724   23302312.1844   23302309.0944
       226.000         181.000
 106911028.96548  83307281.18848  20344504.4874   20344506.9714   20344504.6734
       249.000         224.000
 108621484.27048  84640111.51048  20669985.1464   20669986.8094   20669984.9174
       251.000         231.000
 117240269.38348  91356049.23948  22310084.3274   22310086.1154   22310085.3534
       236.000         193.000
 129532029.72448 100934038.50448  24649132.2274   24649136.6344   24649132.4994
       212.000         163.000
 130051394.48148 101338740.74548  24747964.4014   24747966.3624   24747964.2144
       204.000         152.000
 122098572.42448  95141739.61348  23234590.5394   23234592.1494   23234590.3444
       230.000         192.000
 125945363.86848  98139245.80648  23966604.1614   23966604.9874   23966603.9604
       219.000         169.000
 116954751.64548  91133561.33348  22255758.1904   22255759.9524   22255758.1624
       241.000         204.000
 09  1 31  0  9  0.0000000  0 10G26G 5G 9G15G18G27G28G17G22G12
 115056437.67148  89654369.36148  21894508.9204   21894511.4644   21894508.9134
       241.000         204.000
 122350755.54348  95338233.61248  23282587.9384   23282591.8364   23282588.0664
       223.000         179.000
 106873513.19648  83278048.12448  20337365.3934   20337368.1734   20337365.4134
       249.000         224.000
 108662163.35748  84671809.50048  20677726.0354   20677727.7054   20677725.7944
       250.000         230.000
 117229849.69748  91347929.98648  22308101.7394   22308103.3314   22308102.3994
       237.000         194.000
 129600915.99748 100987716.13948  24662240.8604   24662244.2684   24662240.0814
       214.000         162.000
 130146437.26148 101412800.01248  24766050.1014   24766053.3804   24766051.2414
       204.000         150.000
 122092678.55048  95137146.98948  23233468.6084   23233470.3184   23233468.2374
       230.000         192.000
 125886341.29048  98093254.19048  23955372.6104   23955373.0234   23955373.6424
       218.000         167.000
 116865834.61848  91064275.34148  22238838.0344   22238839.4314   22238837.8214
       241.000         204.000
 09  1 31  0  9 30.0000000  0 10G26G 5G 9G15G18G27G28G17G22G12
 115140218.77648  89719653.32648  21910451.8104   21910454.2574   21910451.9824
       241.000         203.000
 122247348.82748  95257656.93948  23262910.6134   23262914.2184   23262910.1774
       226.000         180.000
 106836320.64648  83249066.92448  20330287.8784   20330290.5244   20330288.1744
       249.000         224.000
 108703298.85248  84703863.12948  20685553.6274   20685555.4334   20685553.3594
       251.000         230.000
 117220007.51748  91340260.74548  22306229.1404   22306230.6034   22306229.4184
       238.000         195.000
 129669839.80548 101041422.98148  24675355.8594   24675360.8254   24675355.8604
       216.000         163.000
 130241562.16048 101486923.29648  24784151.1094   24784154.3184   24784151.7684
       203.000         152.000
 122087328.70648  95132978.28448  23232450.5224   23232452.3904   23232450.4154
       231.000         192.000
 125827768.43448  98047613.00748  23944226.9254   23944226.3014   23944227.4694
       222.000         168.000
 116777248.17748  90995246.95248  22221980.4864   22221981.7624   22221980.6024
       241.000         204.000
 09  1 31  0 10  0.0000000  0 10G26G 5G 9G15G18G27G28G17G22G12
 115224311.34348  89785180.00348  21926454.0604   21926456.3344   21926454.1514
       240.000         203.000
 122144166.26248  95177254.96848  23243275.6994   23243279.4064   23243277.8814
       226.000         181.000
 106799450.65048  83220337.06148  20323271.7454   20323274.3084   20323271.9424
       249.000         224.000
 108744889.86148  84736271.70448  20693468.1354   20693470.0114   20693467.9004
       250.000         230.000
 117210741.70748  91333040.63148  22304465.8474   22304467.3324   22304466.7964
       238.000         195.000
 129738800.08148 101095158.24448  24688479.4244   24688483.0734   24688479.8824
       216.000         163.000
 130336765.99448 101561108.09948  24802268.6734   24802271.1564   24802268.9614
       196.000         149.000
 122082522.31748  95129233.05548  23231536.1524   23231537.8894   23231536.3994
       229.000         191.000
 125769646.24648  98002323.02248  23933166.3914   23933166.5874   23933167.2914
       222.000         174.000
 116688992.72748  90926476.48048  22205185.7204   22205187.4544   22205185.3024
       239.000         204.000
 09  1 31  0 10 30.0000000  0 10G26G 5G 9G15G18G27G28G17G22G12
 115308715.69348  89850949.61148  21942515.8094   21942518.2874   21942515.8064
       240.000         203.000
 122041211.25248  95097030.28548  23223684.3024   23223687.5584   23223684.1904
       225.000         181.000
 106762905.45748  83191860.29048  20316317.4414   20316320.0924   20316317.6804
       250.000         224.000
 108786937.49548  84769036.08648  20701469.4844   20701471.5264   20701469.1464
       251.000         230.000
 117202054.06748  91326271.02148  22302812.5714   22302814.2264   22302813.0284
       237.000         194.000
 129807798.66048 101148923.36848  24701609.4924   24701613.2304   24701609.5644
       217.000         164.000
 130432048.63948 101635354.26048  24820399.8654   24820403.2824   24820398.7304
       198.000         150.000
 122078261.71848  95125913.10448  23230724.9234   23230726.6704   23230724.4224
       229.000         189.000
 125711978.03748  97957386.75748  23922192.2614   23922192.8724   23922190.5274
       221.000         172.000
 116601071.51748  90857966.46248  22188454.6014   22188456.5124   22188454.1174
       239.000         203.000
 09  1 31  0 11  0.0000000  0 10G26G 5G 9G15G18G27G28G17G22G12
 115393430.30848  89916961.00148  21958636.4584   21958638.9014   21958636.5014
       240.000         203.000
 121938485.32448  95016984.12348  23204135.7324   23204139.6274   23204136.3174
       225.000         182.000
 106726684.92848  83163636.50948  20309424.9464   20309427.4254   20309425.3124
       249.000         224.000
 108829441.17348  84802155.82948  20709557.8304   20709559.6644   20709557.5324
       251.000         230.000
 117193944.60148  91319951.94248  22301269.1314   22301271.0824   22301269.6254
       237.000         195.000
 129876835.28248 101202718.13848  24714747.2054   24714750.0264   24714747.0864
       219.000         166.000
 130527407.60448 101709659.92748  24838546.6404   24838549.5304   24838546.0394
       206.000         156.000
 122074547.54048  95123018.96348  23230018.3714   23230019.7844   23230018.4614
       230.000         189.000
 125654765.35148  97912805.43448  23911305.2414   23911305.1124   23911305.4734
       224.000         170.000
 116513486.07648  90789718.07448  22171787.6524   22171789.4424   22171787.5664
       240.000         204.000
 09  1 31  0 11 30.0000000  0 10G26G 5G 9G15G18G27G28G17G22G12
 115478453.37748  89983212.74248  21974815.9574   21974818.3654   21974816.0244
       240.000         203.000
 121835989.30948  94937117.11548  23184631.5574   23184635.4494   23184631.9664
       228.000         183.000
 106690788.57448  83135665.32348  20302594.0094   20302596.6724   20302594.0224
       249.000         224.000
 108872399.44148  84835629.80448  20717732.5964   20717734.2774   20717732.3534
       251.000         229.000
 117186412.20948  91314082.53348  22299836.1194   22299838.0374   22299836.5974
       236.000         196.000
 129945909.00848 101256541.82348  24727890.6394   24727894.5314   24727890.9674
       216.000         164.000
 130622840.44548 101784023.16348  24856706.2684   24856709.7824   24856705.4814
       205.000         156.000
 122071379.40548  95120550.28748  23229415.4204   23229416.9734   23229415.4604
       229.000         189.000
 125598008.95548  97868579.68048  23900505.0724   23900504.6764   23900507.2274
       226.000         173.000
 116426236.99848  90721731.78948  22155185.1144   22155186.4334   22155184.7154
       240.000         204.000
 09  1 31  0 12  0.0000000  0 10G26G 5G 9G15G18G27G28G17G22G12
 115563783.01248  90049703.35848  21991053.5204   21991056.2224   21991053.5614
       241.000         203.000
 121733724.82848  94857430.51248  23165171.2934   23165175.0784   23165172.4394
       225.000         183.000
 106655216.87148  83107947.11748  20295825.0214   20295827.6094   20295825.3594
       249.000         225.000
 108915811.87648  84869457.67448  20725993.7804   20725995.2904   20725993.5614
       250.000         229.000
 117179456.68248  91308662.63248  22298512.4444   22298514.1604   22298512.5744
       236.000         195.000
 130015019.92548 101310394.44648  24741042.1014   24741046.0984   24741043.1624
       213.000         163.000
 130718344.89648 101858442.17448  24874880.6104   24874883.7544   24874880.5354
       208.000         157.000
 122068757.72748  95118507.42248  23228916.1934   23228918.0764   23228916.2404
       229.000         189.000
 125541710.65648  97824710.85748  23889791.4214   23889791.7334   23889791.9974
       224.000         172.000
 116339325.73948  90654008.74248  22138646.4864   22138647.9664   22138646.7414
       240.000         206.000
 09  1 31  0 12 30.0000000  0 10G26G 5G 9G15G18G27G28G17G22G12
 115649419.41148  90116433.02048  22007349.5864   22007352.2064   22007349.7064
       240.000         202.000
 121631694.59148  94777926.44248  23145755.5444   23145759.0704   23145756.0544
       226.000         182.000
 106619971.14548  83080482.91948  20289117.9634   20289120.5684   20289118.1524
       250.000         225.000
 108959679.38248  84903640.14548  20734341.4424   20734343.1214   20734341.1464
       250.000         229.000
 117173079.21648  91303693.17748  22297298.8754   22297300.4994   22297299.7374
       236.000         194.000
 130084169.11948 101364276.95548  24754200.9744   24754203.8854   24754201.6074
       215.000         163.000
 130813920.38148 101932916.56148  24893068.3714   24893070.3274   24893068.8114
       207.000         156.000
 122066684.11948  95116891.64248  23228522.0904   23228523.4694   23228521.9174
       230.000         190.000
 125485873.02748  97781201.01248  23879166.2814   23879167.0194   23879165.5114
       226.000         173.000
 116252755.24848  90586551.22948  22122172.7434   22122174.1024   22122172.3874
       240.000         206.000
 09  1 31  0 13  0.0000000  0 10G26G 5G 9G15G18G27G28G17G22G12
 115735360.72348  90183400.27948  22023703.5254   22023706.0754   22023703.2444
       240.000         202.000
 121529899.97748  94698605.98348  23126384.5634   23126388.2734   23126385.0554
       225.000         182.000
 106585051.57148  83053272.86048  20282473.0874   20282475.5124   20282473.1044
       250.000         225.000
 109004000.96048  84938176.43348  20742775.5184   20742777.3044   20742775.2374
       249.000         229.000
 117167279.16248  91299173.63448  22296194.8774   22296196.8534   22296194.8674
       236.000         194.000
 130153356.43848 101418189.15248  24767366.6084   24767370.5054   24767366.3174
       215.000         164.000
 130909564.41148 102007444.35848  24911268.6144   24911270.4494   24911268.6854
       208.000         159.000
 122065158.67948  95115703.00248  23228231.6454   23228233.5704   23228231.2974
       227.000         190.000
 125430497.17648  97738050.97048  23868628.1964   23868628.3964   23868629.2524
       226.000         171.000
 116166526.65848  90519360.13248  22105763.8554   22105765.3184   22105764.0994
       240.000         205.000
 09  1 31  0 13 30.0000000  0 10G26G 5G 9G15G18G27G28G17G22G12
 115821606.16548  90250604.51948  22040115.6434   22040118.1304   22040115.5804
       240.000         203.000
 121428343.08048  94619470.73948  23107059.2674   23107062.7604   23107059.4624
       226.000         184.000
 106550458.75048  83026317.41548  20275890.3834   20275892.7784   20275890.6894
       249.000         225.000
 109048776.77148  84973066.67448  20751295.9754   20751297.7484   20751295.6644
       249.000         229.000
 117162056.84348  91295104.28548  22295201.1274   22295203.1784   22295202.1044
       237.000         194.000
 130222582.29248 101472131.34548  24780540.1804   24780543.9594   24780540.7454
       217.000         164.000
 131005275.39348 102082024.34848  24929482.0684   24929483.4804   24929482.1764
       210.000         158.000
 122064182.56448  95114942.38548  23228045.9854   23228047.9594   23228044.9814
       229.000         190.000
 125375585.30248  97695262.49248  23858179.2324   23858179.0374   23858180.5714
       225.000         172.000
 116080641.90648  90452436.96548  22089420.3134   22089421.8254   22089420.1814
       239.000         204.000
 09  1 31  0 14  0.0000000  0 10G26G 5G 9G15G18G27G28G17G22G12
 115908154.00748  90318044.38548  22056585.2554   22056587.8154   22056585.1154
       239.000         201.000
 121327025.34748  94540521.86848  23087778.9934   23087782.8644   23087779.4124
       226.000         183.000
 106516192.87848  82999616.73448  20269369.6334   20269372.2584   20269369.7394
       251.000         225.000
 109094006.08848  85008310.28948  20759902.8084   20759904.5454   20759902.3684
       250.000         229.000
 117157411.99848  91291484.92048  22294317.5344   22294319.2364   22294318.2214
       237.000         194.000
 130291846.62648 101526103.55648  24793720.3414   24793724.3314   24793720.4174
       213.000         161.000
 131101051.22248 102156654.87348  24947707.2304   24947708.7624   24947708.0874
       213.000         159.000
 122063755.79948  95114609.85448  23227964.7944   23227966.6454   23227964.1614
       227.000         189.000
 125321138.77948  97652836.60748  23847818.1734   23847818.6764   23847817.0904
       225.000         176.000
 115995102.23148  90385782.67348  22073142.6664   22073144.0564   22073142.6504
       240.000         204.000
 09  1 31  0 14 30.0000000  0 10G26G 5G 9G15G18G27G28G17G22G12
 115995003.17148  90385719.05348  22073111.9294   22073114.5944   22073111.6754
       240.000         201.000
 121225948.55848  94461760.74548  23068544.5784   23068548.5114   23068545.7294
       228.000         184.000
 106482254.69348  82973171.38948  20262911.5554   20262914.0794   20262911.8524
       250.000         225.000
 109139688.27348  85043906.79048  20768595.9454   20768597.6444   20768595.6944
       250.000         228.000
 117153344.23148  91288315.21148  22293543.1994   22293544.8424   22293543.4914
       236.000         194.000
 130361149.61448 101580105.89348  24806909.3614   24806912.2504   24806909.4154
       217.000         160.000
 131196889.99948 102231334.45848  24965945.0624   24965945.7984   24965945.3664
       214.000         161.000
 122063879.22248  95114706.03148  23227987.4334   23227989.9904   23227986.9924
       228.000         189.000
 125267159.32348  97610774.71248  23837546.1374   23837546.7034   23837546.5954
       223.000         171.000
 115909909.51348  90319398.73748  22056931.0514   22056932.3574   22056930.6874
       240.000         205.000
 09  1 31  0 15  0.0000000  0 10G26G 5G 9G15G18G27G28G17G22G12
 116082152.23948  90453627.41548  22089695.8394   22089698.4804   22089695.8684
       240.000         201.000
 121125114.27748  94383188.59948  23049356.5564   23049360.5214   23049357.0744
       226.000         184.000
 106448644.03148  82946981.26948  20256515.5104   20256518.1064   20256515.8964
       250.000         225.000
 109185823.14048  85079856.04548  20777374.9304   20777376.8574   20777374.7024
       249.000         228.000
 117149853.42748  91285595.10748  22292878.9644   22292880.6344   22292879.5934
       236.000         194.000
 130430491.27348 101634138.33348  24820103.3514   24820107.0994   24820103.8314
       214.000         160.000
 131292789.96448 102306061.70748  24984194.5004   24984195.0604   24984195.3414
       212.000         159.000
 122064553.00548  95115231.06148  23228115.9644   23228117.8304   23228115.8384
       227.000         189.000
 125213648.40348  97569077.91848  23827363.5314   23827363.0934   23827363.7774
       228.000         173.000
 115825065.13548  90253286.25248  22040785.5564   22040787.3084   22040785.6664
       239.000         206.000
 09  1 31  0 15 30.0000000  0 10G26G 5G 9G15G18G27G28G17G22G12
 116169599.84048  90521768.38348  22106336.6224   22106339.2224   22106336.2514
       239.000         200.000
 121024524.29448  94304806.81148  23030214.8174   23030218.9414   23030214.8474
       226.000         183.000
 106415361.48648  82921046.81948  20250182.0094   20250184.6024   20250182.1364
       250.000         225.000
 109232410.51448  85116157.88548  20786240.3274   20786242.1764   20786239.9734
       250.000         228.000
 117146939.43748  91283324.46348  22292324.6944   22292326.0774   22292325.2484
       238.000         194.000
 130499871.65848 101688200.96548  24833305.8124   24833309.2764   24833306.3694
       212.000         160.000
 131388749.18548 102380835.07748  25002454.1544   25002456.0984   25002454.7284
       210.000         159.000
 122065777.56948  95116185.26848  23228349.2284   23228350.9144   23228349.2164
       227.000         187.000
 125160607.64248  97527747.43848  23817270.8874   23817270.0834   23817271.8314
       223.000         174.000
 115740570.47448  90187446.27848  22024706.7964   22024708.7984   22024706.3784
       240.000         206.000
 09  1 31  0 16  0.0000000  0 10G26G 5G 9G15G18G27G28G17G22G12
 116257344.87948  90590141.15148  22123033.8644   22123036.2404   22123033.8394
       240.000         199.000
 120924180.43748  94226616.82448  23011119.6254   23011123.9494   23011120.8624
       226.000         183.000
 106382407.57348  82895368.44348  20243911.1224   20243913.6224   20243911.2554
       250.000         225.000
 109279449.64548  85152811.74648  20795191.7734   20795193.4484   20795191.6374
       249.000         229.000
 117144602.33648  91281503.32748  22291879.9744   22291881.4614   22291880.3114
       238.000         195.000
 130569291.15848 101742294.08948  24846516.9734   24846520.0994   24846517.0584
       214.000         161.000
 131484765.92448 102455653.29448  25020725.7054   25020727.0964   25020725.4964
       212.000         158.000
 122067553.66648  95117569.23848  23228686.8984   23228688.7414   23228686.8504
       229.000         188.000
 125108038.79148  97486784.72748  23807265.8644   23807267.0844   23807265.9674
       224.000         176.000
 115656427.19748  90121880.09848  22008694.7464   22008696.7284   22008694.5304
       238.000         206.000
 09  1 31  0 16 30.0000000  0 10G26G 5G 9G15G18G27G28G17G22G12
 116345386.15048  90658744.73148  22139787.7504   22139790.1824   22139787.5114
       239.000         199.000
 120824084.30148  94148619.84148  22992072.2924   22992075.9174   22992072.8814
       227.000         183.000
 106349782.53748  82869946.34248  20237702.8834   20237705.2474   20237703.2954
       250.000         225.000
 109326940.09648  85189817.29248  20804228.9264   20804230.4954   20804228.5994
       250.000         229.000
 117142841.77348  91280131.45648  22291544.6794   22291546.5404   22291545.4114
       237.000         194.000
 130638749.92648 101796417.81648  24859734.1314   24859737.1464   24859734.8534
       211.000         159.000
 131580838.56848 102530515.07348  25039008.0944   25039009.9154   25039007.5174
       212.000         160.000
 122069881.64048  95119383.25148  23229130.2184   23229131.8714   23229130.2724
       229.000         189.000
 125055943.26348  97446190.79148  23797353.0774   23797353.4714   23797353.3154
       226.000         176.000
 115572637.02448  90056589.07648  21992749.7564   21992751.8494   21992749.4134
       239.000         206.000
 09  1 31  0 17  0.0000000  0 10G26G 5G 9G15G18G27G28G17G22G12
 116433721.94348  90727577.80048  22156597.2594   22156600.0944   22156597.1724
       238.000         200.000
 120724237.47748  94070817.11948  22973072.4144   22973075.5884   22973072.7484
       229.000         184.000
 106317487.03548  82844781.01348  20231557.0684   20231559.5684   20231557.0514
       251.000         225.000
 109374881.16948  85227173.96648  20813351.7564   20813353.5504   20813351.5884
       250.000         228.000
 117141657.36148  91279208.52548  22291319.4184   22291320.9204   22291319.4294
       236.000         193.000
 130708248.07248 101850572.18748  24872958.3644   24872963.0974   24872958.1994
       215.000         162.000
 131676964.94948 102605418.75848  25057300.0764   25057302.3734   25057301.5274
       213.000         159.000
 122072761.60248  95121627.38148  23229678.1064   23229680.4194   23229677.5964
       227.000         190.000
 125004322.83248  97405967.10548  23787530.2854   23787530.5734   23787529.9774
       222.000         176.000
 115489201.34248  89991574.27748  21976872.5814   21976874.7124   21976872.2284
       239.000         207.000
 09  1 31  0 17 30.0000000  0 10G26G 5G 9G15G18G27G28G17G22G12
 116522351.49648  90796639.78848  22173462.9674   22173465.8394   22173462.7894
       239.000         199.000
 120624642.23148  93993210.44448  22954120.1564   22954123.1664   22954121.0004
       228.000         185.000
 106285521.61348  82819872.89648  20225474.3204   20225476.8974   20225474.5774
       250.000         225.000
 109423273.14448  85264881.99748  20822560.3834   20822562.1904   20822559.9634
       250.000         228.000
 117141049.16948  91278734.61848  22291203.6374   22291205.1994   22291204.4304
       237.000         194.000
 130777785.98948 101904757.56648  24886192.2794   24886194.7514   24886192.7194
       216.000         161.000
 131773143.67448 102680363.19648  25075601.9484   25075604.8184   25075603.5564
       212.000         159.000
 122076194.54048  95124302.39048  23230331.2094   23230333.7284   23230330.6144
       229.000         189.000
 124953179.36248  97366115.04948  23777797.7774   23777798.0694   23777796.5444
       230.000         180.000
 115406122.13848  89926837.24148  21961063.3704   21961065.4944   21961063.2744
       239.000         207.000
 09  1 31  0 18  0.0000000  0 10G26G 5G 9G15G18G27G28G17G22G12
 116611273.36948  90865929.55848  22190384.4934   22190387.0024   22190384.3164
       238.000         198.000
 120525299.94048  93915800.89848  22935215.2194   22935219.0244   22935216.0744
       227.000         184.000
 106253886.62748  82795222.25848  20219454.3474   20219457.0014   20219454.3424
       250.000         226.000
 109472115.11848  85302940.67948  20831854.7264   20831856.3884   20831854.6674
       250.000         228.000
 117141016.63748  91278709.26648  22291197.7014   22291199.2654   22291198.3974
       237.000         194.000
 130847363.74048 101958973.99948  24899431.7494   24899435.7044   24899431.7594
       217.000         163.000
 131869372.86348 102755346.97048  25093913.8564   25093916.9894   25093914.5334
       214.000         159.000
 122080180.40148  95127408.26248  23231089.6004   23231092.0394   23231089.5164
       226.000         187.000
 124902514.32048  97326635.77248  23768157.2204   23768156.9234   23768157.6194
       228.000         180.000
 115323400.93848  89862379.18748  21945321.9854   21945324.0534   21945321.8964
       240.000         208.000
 09  1 31  0 18 30.0000000  0 10G26G 5G 9G15G18G27G28G17G22G12
 116700486.66148  90935446.41248  22207360.7084   22207363.7824   22207360.6274
       238.000         199.000
 120426212.72348  93838590.10248  22916359.4854   22916363.2874   22916359.7574
       228.000         184.000
 106222583.12948  82770829.92748  20213497.4874   20213500.0614   20213497.6494
       250.000         226.000
 109521406.89548  85341349.85248  20841234.5574   20841236.4044   20841234.3584
       249.000         227.000
 117141560.04648  91279132.69248  22291300.7574   22291302.8854   22291301.5404
       236.000         195.000
 130916981.67148 102013221.75448  24912679.6854   24912683.0804   24912679.6054
       214.000         162.000
 131965651.03048 102830368.90148  25112234.8854   25112237.8004   25112236.9254
       211.000         158.000
 122084720.08948  95130945.70548  23231953.2844   23231955.8994   23231952.8134
       228.000         188.000
 124852329.52248  97287530.78048  23758606.7054   23758607.3634   23758605.3084
       224.000         178.000
 115241039.59148  89798201.51548  21929649.5724   21929651.2094   21929649.4584
       240.000         209.000
 09  1 31  0 19  0.0000000  0 10G26G 5G 9G15G18G27G28G17G22G12
 116789989.49248  91005188.87048  22224392.6264   22224395.6634   22224392.7004
       236.000         198.000
 120327381.75748  93761578.97648  22897552.5994   22897556.2154   22897553.4914
       228.000         185.000
 106191610.78848  82746695.63648  20207603.7664   20207606.3834   20207603.9634
       251.000         226.000
 109571147.38948  85380108.67548  20850699.9324   20850701.6334   20850699.7644
       249.000         227.000
 117142678.50348  91280004.20348  22291513.7184   22291515.6104   22291513.9034
       238.000         195.000
 130986639.34448 102067500.48448  24925934.1374   24925938.7064   24925934.2024
       214.000         160.000
 132061975.96948 102905427.33148  25130564.9514   25130567.7994   25130566.5374
       211.000         157.000
 122089813.63348  95134914.68848  23232922.6294   23232924.9244   23232922.2944
       227.000         187.000
 124802625.91748  97248800.68548  23749148.8864   23749148.4384   23749147.6774
       228.000         178.000
 115159038.96748  89734304.93948  21914045.2654   21914046.8664   21914045.5404
       239.000         208.000
 09  1 31  0 19 30.0000000  0 10G26G 5G 9G15G18G27G28G17G22G12
 116879779.24648  91075154.90048  22241479.1714   22241481.7744   22241478.6634
       238.000         197.000
 120228807.52248  93684767.90348  22878794.7344   22878798.3414   22878795.1104
       229.000         187.000
 106160969.01148  82722818.92948  20201772.8874   20201775.4104   20201772.9484
       252.000         226.000
 109621335.34548  85419216.17248  20860250.3684   20860252.0714   20860250.0184
       249.000         227.000
 117144370.41948  91281322.57048  22291836.0974   22291837.5004   22291836.6404
       238.000         196.000
 131056335.80748 102121809.37548  24939198.7864   24939201.1624   24939198.3964
       215.000         160.000
 132158344.68048 102980519.85048  25148903.2354   25148905.9024   25148902.7744
       209.000         156.000
 122095460.02348  95139314.47648  23233997.7254   23233999.3994   23233997.2414
       228.000         188.000
 124753403.86648  97210445.82248  23739781.7504   23739781.6404   23739781.9314
       224.000         174.000
 115077399.25948  89670689.59048  21898509.3974   21898511.2654   21898509.1454
       238.000         208.000
 09  1 31  0 20  0.0000000  0 10G26G 5G 9G15G18G27G28G17G22G12
 116969855.27648  91145344.01548  22258620.2934   22258622.6224   22258620.4594
       239.000         198.000
 120130492.34448  93608158.67948  22860086.1414   22860089.6624   22860087.0494
       230.000         186.000
 106130658.58548  82699200.41648  20196004.9604   20196007.6654   20196005.3474
       251.000         227.000
 109671970.57548  85458672.18748  20869885.8584   20869887.6974   20869885.5114
       249.000         227.000
 117146635.87448  91283087.85148  22292267.0774   22292268.6554   22292268.0334
       236.000         195.000
 131126071.92948 102176149.21948  24952467.8244   24952472.3464   24952469.0364
       211.000         161.000
 132254756.05848 103055645.59548  25167249.7184   25167252.2424   25167248.7564
       210.000         157.000
 122101659.84348  95144145.48948  23235177.5034   23235178.9904   23235177.2034
       229.000         187.000
 124704665.56648  97172467.91948  23730506.8544   23730506.7274   23730506.7464
       227.000         175.000
 114996122.61948  89607357.16348  21883043.0034   21883045.0484   21883043.1404
       239.000         209.000
 09  1 31  0 20 30.0000000  0 10G26G 5G 9G15G18G27G28G17G22G12
 117060215.74348  91215754.76448  22275815.4084   22275817.6824   22275815.3324
       236.000         198.000
 120032437.24548  93531752.11948  22841426.8104   22841430.5764   22841427.0624
       228.000         185.000
 106100679.32048  82675839.94548  20190300.2574   20190302.6784   20190300.3874
       251.000         227.000
 109723051.57848  85498475.56548  20879606.1284   20879608.0004   20879605.9144
       249.000         227.000
 117149474.05948  91285299.41648  22292807.1384   22292808.6384   22292807.7494
       235.000         195.000
 131195847.29048 102230519.65348  24965746.2044   24965749.4944   24965746.0114
       214.000         160.000
 132351207.82248 103130802.81848  25185604.0524   25185606.5044   25185604.2894
       212.000         155.000
 122108412.90948  95149407.61048  23236462.3074   23236463.9814   23236462.3924
       228.000         188.000
 124656411.89948  97134867.64848  23721324.7304   23721325.4374   23721325.5234
       223.000         176.000
 114915210.06448  89544308.42548  21867645.9004   21867647.7134   21867645.6344
       240.000         209.000
 09  1 31  0 21  0.0000000  0 10G26G 5G 9G15G18G27G28G17G22G12
 117150860.31748  91286386.88548  22293064.2664   22293066.6924   22293063.8894
       238.000         196.000
 119934645.06648  93455550.43548  22822817.3544   22822821.1644   22822817.9104
       228.000         186.000
 106071032.95448  82652738.88348  20184658.6594   20184661.1844   20184658.9104
       251.000         227.000
 109774579.23048  85538626.97948  20889411.7304   20889413.6254   20889411.5304
       249.000         227.000
 117152885.34048  91287957.55448  22293456.4004   22293457.7014   22293456.9704
       237.000         195.000
 131265663.30248 102284921.72948  24979032.0074   24979035.2044   24979031.3004
       214.000         160.000
 132447699.27348 103205990.94648  25203966.1684   25203968.2634   25203967.5384
       212.000         157.000
 122115720.46548  95155101.81448  23237852.8694   23237854.8644   23237852.2634
       227.000         188.000
 124608645.22348  97097646.88048  23712234.8784   23712235.2924   23712235.1594
       224.000         175.000
 114834664.23748  89481545.44648  21852318.6024   21852320.1174   21852318.1204
       240.000         209.000
 09  1 31  0 21 30.0000000  0 10G26G 5G 9G15G18G27G28G17G22G12
 117241787.48848  91357239.22348  22310367.2774   22310369.4474   22310367.1464
       239.000         196.000
 119837117.28748  93379554.77848  22804258.3384   22804262.3144   22804258.5354
       229.000         187.000
 106041719.95448  82629897.58248  20179080.4754   20179083.0754   20179080.3544
       252.000         227.000
 109826552.72348  85579125.79848  20899302.0004   20899303.7374   20899301.6324
       249.000         227.000
 117156869.37048  91291061.96648  22294214.2954   22294215.9024   22294214.9444
       235.000         194.000
 131335520.22648 102339355.68048  24992324.4284   24992328.3344   24992323.2024
       214.000         159.000
 132544228.46848 103281208.52648  25222334.7044   25222337.0674   25222335.8254
       211.000         154.000
 122123582.78048  95161228.30448  23239348.9984   23239350.9054   23239349.3414
       229.000         188.000
 124561366.86748  97060806.59648  23703237.8834   23703238.4594   23703238.2434
       224.000         176.000
 114754486.22648  89419069.08748  21837061.2254   21837062.7934   21837061.4514
       240.000         209.000
 09  1 31  0 22  0.0000000  0 10G26G 5G 9G15G18G27G28G17G22G12
 117332995.93148  91428310.74148  22327723.5594   22327726.0894   22327723.8274
       237.000         196.000
 119739855.53848  93303766.41048  22785750.2004   22785754.1504   22785750.6554
       230.000         188.000
 106012740.43948  82607316.15248  20173565.9454   20173568.3154   20173566.2314
       251.000         227.000
 109878971.52348  85619971.61948  20909277.1204   20909278.6644   20909276.8714
       249.000         227.000
 117161425.86748  91294612.47448  22295081.4544   22295082.8954   22295081.8944
       236.000         194.000
 131405417.83648 102393821.34248  25005625.8744   25005630.2124   25005625.5214
       214.000         161.000
 132640793.71948 103356454.21748  25240710.3084   25240711.7184   25240709.2394
       207.000         151.000
 122131999.83448  95167787.05048  23240951.0024   23240952.6394   23240950.6504
       229.000         190.000
 124514578.56648  97024348.18548  23694334.0084   23694335.0944   23694333.7044
       224.000         178.000
 114674677.73648  89356880.67448  21821873.9984   21821875.8174   21821873.8844
       239.000         209.000
 09  1 31  0 22 30.0000000  0 10G26G 5G 9G15G18G27G28G17G22G12
 117424483.78548  91499599.96148  22345133.1174   22345135.7474   22345132.8764
       237.000         195.000
 119642861.08448  93228186.32648  22767292.9024   22767296.3444   22767293.3834
       232.000         187.000
 105984094.46048  82584994.61048  20168114.6584   20168117.2614   20168114.8544
       251.000         227.000
 109931834.30248  85661163.39248  20919336.1894   20919338.3494   20919335.5894
       249.000         226.000
 117166553.49548  91298608.01148  22296057.2804   22296058.8984   22296057.6894
       236.000         194.000
 131475355.72148 102448318.36648  25018935.2774   25018938.1804   25018934.7504
       217.000         162.000
 132737392.77248 103431726.19248  25259092.2104   25259093.8874   25259090.2854
       208.000         150.000
 122140971.50448  95174777.96648  23242658.4424   23242660.2264   23242658.2424
       230.000         190.000
 124468281.07648  96988272.23248  23685524.5914   23685524.7904   23685525.9414
       228.000         181.000
 114595239.46148  89294980.73448  21806757.4274   21806759.1584   21806757.1274
       239.000         210.000
 09  1 31  0 23  0.0000000  0 11G26G 5G 9G15G18G27G28G17G22G12G30
 117516249.07248  91571105.37348  22362595.2234   22362597.9574   22362594.9754
       237.000         195.000
 119546135.01048  93152815.37648  22748886.4774   22748889.9724   22748886.9254
       229.000         188.000
 105955781.78948  82562932.78848  20162726.8694   20162729.5444   20162727.0014
       251.000         227.000
 109985140.24548  85702700.48748  20929480.1194   20929482.0824   20929480.0084
       249.000         226.000
 117172251.05248  91303047.66448  22297140.9484   22297142.9514   22297141.5884
       236.000         194.000
 131545333.43948 102502846.42648  25032250.9224   25032255.1014   25032252.0094
       211.000         156.000
 132834023.53248 103507022.91048  25277481.1524   25277481.9004   25277481.4714
       212.000         152.000
 122150497.17348  95182200.55748  23244471.1414   23244472.6944   23244471.2824
       231.000         190.000
 124422475.22548  96952579.36248  23676808.4454   23676808.9894   23676808.6094
       229.000         183.000
 114516172.66248  89233370.25448  21791711.5114   21791713.3034   21791711.3894
       240.000         209.000
 141436243.83958  92417836.04858  25011498.2335   25011501.6805   25011498.9335
       211.000         152.000
 09  1 31  0 23 30.0000000  0 11G26G 5G 9G15G18G27G28G17G22G12G30
 117608291.94548  91642827.09948  22380110.6594   22380112.9754   22380110.2194
       236.000         194.000
 119449680.20948  93077655.81248  22730531.8744   22730535.4434   22730531.9944
       231.000         189.000
 105927804.24948  82541132.10848  20157402.9784   20157405.4204   20157403.1594
       252.000         227.000
 110038889.91848  85744583.34248  20939708.3604   20939710.1544   20939707.9824
       249.000         226.000
 117178519.56248  91307932.21048  22298334.1964   22298336.2914   22298334.3304
       235.000         195.000
 131615352.66648 102557406.84348  25045575.5664   25045578.1324   25045575.4514
       210.000         154.000
 132930685.44048 103582343.90648  25295875.3884   25295876.3014   25295878.8064
       212.000         147.000
 122160578.21248  95190055.91348  23246389.4354   23246391.0724   23246389.3374
       229.000         189.000
 124377164.08048  96917271.97948  23668185.9184   23668186.2054   23668186.4394
       228.000         182.000
 114437479.97248  89172051.27848  21776736.8064   21776738.5994   21776736.8124
       240.000         209.000
 141323960.81548  92330342.80948  24990131.0544   24990134.1214   24990130.5854
       210.000         151.000
 09  1 31  0 24  0.0000000  0 11G26G 5G 9G15G18G27G28G17G22G12G30
 117700610.19948  91714763.40348  22397678.0274   22397680.7214   22397677.8814
       236.000         194.000
 119353497.51548  93002708.28048  22712229.0134   22712232.5314   22712230.1744
       231.000         189.000
 105900161.44748  82519592.25248  20152142.8504   20152145.1394   20152142.7904
       252.000         227.000
 110093081.51448  85786810.55348  20950020.7264   20950022.5124   20950020.4884
       249.000         226.000
 117185357.82548  91313260.70348  22299635.3104   22299637.6274   22299635.8434
       235.000         194.000
 131685412.97248 102611999.27348  25058907.3764   25058910.9214   25058907.2924
       210.000         157.000
 133027376.13448 103657687.35848  25314274.8134   25314275.3954   25314277.7814
       212.000         151.000
 122171214.16848  95198343.67948  23248413.1884   23248414.7464   23248413.2674
       230.000         190.000
 124332347.59048  96882350.04348  23659657.2974   23659657.5284   23659657.2634
       227.000         177.000
 114359161.86148  89111024.18648  21761833.4404   21761835.1324   21761833.0584
       239.000         209.000
 141211755.84548  92242910.41148  24968778.3904   24968782.4064   24968776.9014
       210.000         152.000
 09  1 31  0 24 30.0000000  0 11G26G 5G 9G15G18G27G28G17G22G12G30
