     2.11           OBSERVATION DATA    G (GPS)             RINEX VERSION / TYPE
teqc  2008Oct2      gpsops              20090103 00:05:43UTCPGM / RUN BY / DATE
    30.0000                                                 INTERVAL
     1     1                                                WAVELENGTH FACT L1/2
     7    L1    L2    P1    P2    C1    S1    S2            # / TYPES OF OBSERV
Linux 2.4.20-8|Pentium IV|gcc -static|Linux|486/DX+         COMMENT
     2.10           OBSERVATION DATA    GPS                 COMMENT
soc2rnx ver 1.20    gpsops               3-Jan-2009 00:05:40COMMENT
S1, if present, is the SNR for the C/A data stream on L1.   COMMENT
 SNR is mapped to RINEX snr flag value [1,4-9]              COMMENT
    SNR:   >316  >100  >31.6  >10  >3.2    >0 bad=0         COMMENT
L1 & L2:      9     8     7     6     5     4     1         COMMENT
                                                            COMMENT
This data is provided as a public service by NASA/JPL.      COMMENT
No warranty is expressed or implied regarding suitability   COMMENT
for use.  For further information, contact:                 COMMENT
Dave Stowers, NASA/JPL m/s 238-600                          COMMENT
4800 Oak Grove Drive, Pasadena CA 91109 USA                 COMMENT
                                                            COMMENT
Forced Modulo Decimation to 30 seconds                      COMMENT
  2009     1     2     0     0    0.0000000     GPS         TIME OF FIRST OBS
DSN                 JPL                                     OBSERVER / AGENCY
451-U               AOAD/M_T        NONE                    ANT # / TYPE
  4849202.3940  -360328.9929  4114913.1862                  APPROX POSITION XYZ
        0.0254        0.0000        0.0000                  ANTENNA: DELTA H/E/N
LP03574             ASHTECH Z-XII3      CC00                REC # / TYPE / VERS
MADR                                                        MARKER NAME
13407S012                                                   MARKER NUMBER
                                                            END OF HEADER
 09  1  2  0  0  0.0000000  0  9G26G 9G28G27G24G15G10G21G 8
 105763323.29048  82412968.37548  20126100.0254   20126102.2344   20126099.9224
       251.000         227.000
 125660943.85148  97917605.57148  23912493.2754   23912496.5704   23912493.7324
       220.000         168.000
 114268707.55548  89040543.60148  21744617.1164   21744619.2794   21744617.6204
       242.000         209.000
 120337920.34148  93769802.38048  22899549.7434   22899553.9254   22899549.6434
       235.000         198.000
 125986783.46148  98171500.36848  23974502.5344   23974507.5534   23974501.7584
       217.000         161.000
 111835272.35448  87144362.65648  21281549.4324   21281550.9164   21281549.5634
       246.000         223.000
 112028075.82548  87294586.97248  21318247.7594   21318251.4794   21318248.2004
       246.000         216.000
 128415097.50648 100063702.92548  24436583.1594   24436587.2334   24436582.3634
       194.000         125.000
 119236776.79348  92911763.76148  22690011.8784   22690016.9434   22690012.1434
       230.000         191.000
 09  1  2  0  0 30.0000000  0  9G26G 9G28G27G24G15G10G21G 8
 105751189.62748  82403513.57648  20123791.0014   20123793.4714   20123790.8874
       251.000         227.000
 125558951.52448  97838131.05248  23893084.3784   23893087.9844   23893084.7534
       223.000         165.000
 114275814.15248  89046081.20748  21745969.6704   21745971.6344   21745970.2024
       243.000         209.000
 120408725.66248  93824975.33648  22913023.6394   22913027.7584   22913023.9584
       235.000         198.000
 126047925.38948  98219143.42148  23986137.6904   23986142.0444   23986137.4614
       221.000         163.000
 111781498.90948  87102461.27748  21271316.5584   21271318.2374   21271316.2424
       246.000         223.000
 112101767.42848  87352008.99948  21332270.7054   21332274.5244   21332271.2514
       246.000         216.000
 128411528.48148 100060921.84748  24435908.6344   24435909.5464   24435907.9534
       191.000         128.000
 119320010.93048  92976621.51448  22705850.9614   22705854.8394   22705852.2594
       230.000         188.000
 09  1  2  0  1  0.0000000  0  9G26G 9G28G27G24G15G10G21G 8
 105739403.67148  82394329.70948  20121548.1134   20121550.6744   20121548.0344
       250.000         227.000
 125457113.53348  97758776.77548  23873705.3794   23873709.1264   23873705.7464
       221.000         166.000
 114283456.37448  89052036.18748  21747423.8574   21747425.8854   21747424.5034
       242.000         209.000
 120479600.27148  93880202.30148  22926510.9724   22926513.4884   22926511.1504
       235.000         197.000
 126109349.71348  98267006.48848  23997826.2074   23997830.3524   23997825.9694
       220.000         162.000
 111727936.34148  87060724.20648  21261123.9284   21261125.6804   21261123.6914
       246.000         223.000
 112175879.27048  87409758.47848  21346373.7474   21346377.4674   21346374.8574
       246.000         215.000
 128408464.34348 100058534.17548  24435324.4754   24435324.5764   24435327.2114
       198.000         126.000
 119403386.87148  93041589.77848  22721716.7874   22721718.9484   22721717.2214
       228.000         187.000
 09  1  2  0  1 30.0000000  0  8G26G 9G28G27G24G15G10G 8
 105727967.62848  82385418.50348  20119371.9684   20119374.6244   20119371.9424
       250.000         227.000
 125355432.35848  97679544.72148  23854356.0774   23854360.0164   23854356.0444
       220.000         166.000
 114291635.59948  89058409.62048  21748980.2944   21748982.4194   21748980.6954
       242.000         209.000
 120550544.74848  93935483.70148  22940010.9914   22940013.8814   22940011.2554
       234.000         197.000
 126171055.35548  98315088.79148  24009567.7564   24009572.1294   24009568.0284
       218.000         160.000
 111674587.41548  87019153.61948  21250972.1454   21250973.8664   21250971.7164
       247.000         224.000
 112250410.69748  87467834.91248  21360556.7174   21360560.2914   21360557.6094
       247.000         215.000
 119486904.21848  93106668.22748  22737609.2414   22737612.8024   22737609.3104
       227.000         187.000
 09  1  2  0  2  0.0000000  0  9G26G 9G28G27G24G15G10G21G 8
 105716882.86348  82376781.01948  20117262.4954   20117265.3164   20117262.3274
       251.000         228.000
 125253909.74048  97600436.18848  23835036.4424   23835039.9304   23835036.8274
       217.000         162.000
 114300352.47648  89065201.99248  21750639.1074   21750640.9874   21750639.8244
       242.000         209.000
 120621558.64948  93990819.19148  22953524.4924   22953528.4954   22953524.9634
       233.000         197.000
 126233040.20448  98363388.65048  24021363.7214   24021367.5814   24021364.0844
       223.000         163.000
 111621453.92248  86977750.89948  21240861.1774   21240862.8974   21240861.1474
       247.000         224.000
 112325360.87048  87526237.62948  21374819.2634   21374822.7854   21374820.0184
       246.000         215.000
 138403783.42158  90054874.95658  24434446.7045   24434449.4115   24434440.2465
       186.000         128.000
 119570562.81148  93171856.71248  22753529.2034   22753533.9504   22753529.7914
       230.000         187.000
 09  1  2  0  2 30.0000000  0  9G26G 9G28G27G24G15G10G21G 8
 105706148.60048  82368416.65448  20115219.9314   20115222.6494   20115219.9114
       250.000         228.000
 125152545.73848  97521451.27148  23815747.8204   23815751.1944   23815747.7714
       221.000         166.000
 114309605.54148  89072412.17448  21752399.9994   21752401.7434   21752400.6104
       241.000         209.000
 120692639.63948  94046206.95548  22967050.6534   22967054.1334   22967050.6094
       234.000         196.000
 126295300.30048  98411903.00348  24033211.7344   24033215.6084   24033212.3334
       222.000         163.000
 111568535.87748  86936516.06048  21230791.2594   21230792.9174   21230790.8764
       247.000         224.000
 112400726.51148  87584964.10148  21389160.9434   21389164.3304   21389161.6844
       247.000         215.000
 138402235.78648  90053669.01948  24434154.3824   24434155.4554   24434149.5644
       192.000         130.000
 119654359.43648  93237152.77048  22769475.3534   22769478.4514   22769476.6814
       229.000         185.000
 09  1  2  0  3  0.0000000  0  9G26G 9G28G27G24G15G10G21G 8
 105695764.93448  82360325.48648  20113243.9184   20113246.6704   20113243.7874
       251.000         228.000
 125051340.72048  97442590.26348  23796489.2564   23796492.7074   23796489.0654
       220.000         167.000
 114319393.38248  89080039.06948  21754262.3964   21754264.3784   21754262.8124
       242.000         209.000
 120763786.05948  94101645.73348  22980589.5484   22980592.0144   22980590.1614
       232.000         195.000
 126357832.48548  98460629.35148  24045110.7844   24045114.5964   24045110.9164
       222.000         161.000
 111515834.00848  86895449.67148  21220762.4194   21220764.0574   21220762.0774
       246.000         224.000
 112476504.87748  87644012.17548  21403581.1224   21403584.4714   21403581.9024
       246.000         215.000
 138401191.02648  90052854.98748  24433953.1704   24433954.6834   24433954.2604
       188.000         125.000
 119738291.94448  93302554.72048  22785447.6364   22785449.2944   22785447.8754
       230.000         186.000
 09  1  2  0  3 30.0000000  0  9G26G 9G28G27G24G15G10G21G 8
 105685732.53148  82352508.02748  20111334.8064   20111337.5834   20111334.7514
       251.000         227.000
 124950295.79248  97363853.99348  23777260.8794   23777264.9074   23777261.2344
       222.000         170.000
 114329715.52948  89088082.30748  21756226.7994   21756228.5524   21756227.3614
       243.000         209.000
 120834996.79648  94157134.60248  22994140.3364   22994143.5964   22994140.8914
       232.000         194.000
 126420633.47648  98509565.19748  24057061.7534   24057065.2344   24057061.9864
       221.000         164.000
 111463349.53148  86854552.68348  21210774.8544   21210776.7874   21210774.5644
       247.000         225.000
 112552693.84948  87703380.19348  21418079.4304   21418082.8534   21418079.9764
       247.000         214.000
 118400615.73758 110052397.39858  24433849.1665   24433855.8215   24433847.0835
       195.000         129.000
 119822358.49048  93368061.10048  22801445.0114   22801448.1254   22801445.8434
       229.000         188.000
 09  1  2  0  4  0.0000000  0  8G26G 9G28G27G24G15G10G 8
 105676052.90048  82344965.45948  20109492.8024   20109495.4634   20109492.6154
       251.000         228.000
 124849412.78748  97285243.89048  23758064.7804   23758067.5144   23758064.7534
       223.000         172.000
 114340572.46348  89096542.25848  21758292.8604   21758294.6574   21758293.2164
       243.000         210.000
 120906271.62048  94212673.41248  23007703.3694   23007706.9014   23007703.4884
       232.000         193.000
 126483701.60148  98558709.17248  24069062.8064   24069067.0404   24069062.8424
       223.000         166.000
 111411084.35848  86813826.57148  21200829.2284   21200830.9914   21200828.8904
       246.000         225.000
 112629292.43648  87763067.40948  21432655.5724   21432658.9404   21432656.4464
       246.000         214.000
 119906558.26848  93433671.29248  22817467.3784   22817471.0644   22817467.6784
       228.000         185.000
 09  1  2  0  4 30.0000000  0  9G26G 9G28G27G24G15G10G21G 8
 105666726.08148  82337697.80148  20107718.1544   20107720.6724   20107718.1524
       251.000         228.000
 124748692.13748  97206760.29048  23738897.8624   23738901.0394   23738898.2524
       223.000         169.000
 114351963.65148  89105418.51848  21760460.4724   21760462.4434   21760461.0864
       242.000         210.000
 120977609.26348  94268261.18448  23021278.3694   23021281.3674   23021278.5624
       232.000         193.000
 126547033.90148  98608059.00848  24081114.5644   24081119.0204   24081115.0724
       222.000         167.000
 111359039.41448  86773272.07448  21190925.1874   21190927.2474   21190925.0224
       246.000         225.000
 112706298.28048  87823071.95848  21447309.1474   21447312.7434   21447309.7884
       245.000         213.000
 138401092.10058  90052782.34558  24433927.4475   24433932.8145   24433933.4675
       192.000         126.000
 119990889.59148  93499384.00148  22833515.0034   22833517.3154   22833515.5834
       229.000         185.000
 09  1  2  0  5  0.0000000  0  9G26G 9G28G27G24G15G10G21G 8
 105657752.71248  82330705.56348  20106010.5224   20106013.0844   20106010.4484
       251.000         228.000
 124648134.94948  97128404.07748  23719761.6054   23719765.1864   23719761.5944
       220.000         167.000
 114363888.22248  89114710.39048  21762729.7264   21762731.6204   21762730.1854
       243.000         210.000
 121049008.29648  94323896.78548  23034865.2504   23034868.1404   23034865.6764
       233.000         193.000
 126610627.16848  98657612.19348  24093216.0944   24093220.5274   24093216.0274
       224.000         168.000
 111307215.52248  86732889.81648  21181063.5814   21181065.3174   21181063.1164
       247.000         225.000
 112783708.78148  87883391.82848  21462039.8194   21462043.5984   21462040.5524
       245.000         213.000
 138402054.55648  90053532.32548  24434113.7534   24434112.8444   24434118.5674
       198.000         133.000
 120075350.64648  93565197.78848  22849587.3274   22849590.0144   22849587.9744
       228.000         186.000
 09  1  2  0  5 30.0000000  0  9G26G 9G28G27G24G15G10G21G 8
 105649133.61448  82323989.37548  20104370.4024   20104372.9734   20104370.2094
       251.000         228.000
 124547742.17748  97050175.92448  23700658.0584   23700660.9634   23700658.3014
       221.000         166.000
 114376346.04148  89124417.79048  21765100.1674   21765102.1154   21765100.8324
       241.000         209.000
 121120468.14548  94379579.76348  23048463.5384   23048466.8764   23048463.7354
       231.000         193.000
 126674479.41048  98707367.18148  24105367.0614   24105371.4254   24105367.5384
       222.000         168.000
 111255614.42748  86692681.17148  21171244.1884   21171245.9954   21171244.1684
       247.000         225.000
 112861522.71948  87944026.06148  21476847.2644   21476851.3544   21476847.8764
       245.000         214.000
 138403517.23948  90054672.06148  24434394.0074   24434395.2774   24434394.6274
       193.000         134.000
 120159940.08048  93631111.62348  22865683.6944   22865687.7864   22865684.3944
       225.000         186.000
 09  1  2  0  6  0.0000000  0  9G26G 9G28G27G24G15G10G21G 8
 105640869.97348  82317550.16848  20102798.0384   20102800.2954   20102797.9074
       252.000         228.000
 124447515.46348  96972077.20348  23681585.1294   23681588.5534   23681585.2234
       221.000         166.000
 114389337.25448  89134540.81548  21767572.2104   21767574.3854   21767572.5074
       242.000         210.000
 121191988.35848  94435309.78848  23062073.1114   23062076.7334   23062073.5034
       230.000         191.000
 126738588.02148  98757321.95448  24117566.7104   24117570.4584   24117567.1024
       218.000         167.000
 111204237.99448  86652647.58048  21161467.7504   21161469.3994   21161467.5654
       247.000         225.000
 112939738.40748  88004973.33948  21491731.4324   21491735.2614   21491732.0884
       245.000         213.000
 138405479.77648  90056201.32848  24434765.4624   24434768.3914   24434766.4094
       200.000         134.000
 120244656.79348  93697124.61448  22881804.8764   22881808.5784   22881804.9144
       226.000         185.000
 09  1  2  0  6 30.0000000  0  9G26G 9G28G27G24G15G10G21G 8
 105632962.33148  82311388.36348  20101293.3254   20101295.4894   20101293.3944
       252.000         228.000
 124347455.84548  96894108.67248  23662543.7734   23662547.9874   23662544.4964
       218.000         165.000
 114402861.54448  89145079.22448  21770145.8794   21770147.9534   21770146.3924
       241.000         209.000
 121263567.71048  94491085.89448  23075694.2934   23075697.7364   23075694.4984
       231.000         190.000
 126802950.34948  98807474.38448  24129814.3244   24129818.5744   24129814.1184
       219.000         168.000
 111153087.36048  86612789.94948  21151733.9444   21151735.6394   21151733.7624
       247.000         225.000
 113018353.81948  88066232.09648  21506691.3974   21506695.1084   21506692.1164
       246.000         213.000
 138407941.43848  90058119.51748  24435235.4254   24435236.8314   24435237.4354
       203.000         134.000
 120329499.11248  93763235.51348  22897949.6194   22897953.1824   22897950.5134
       228.000         185.000
 09  1  2  0  7  0.0000000  0  9G26G 9G28G27G24G15G10G21G 8
 105625410.84548  82305504.08548  20099856.3234   20099858.6254   20099856.3094
       251.000         228.000
 124247563.80648  96816270.71848  23643535.3874   23643539.0704   23643534.5684
       223.000         168.000
 114416917.14648  89156031.64848  21772820.4964   21772822.7674   21772820.6364
       242.000         209.000
 121335204.79548  94546906.99348  23089326.4754   23089329.6424   23089326.6934
       229.000         191.000
 126867562.96148  98857821.83748  24142109.1694   24142113.9344   24142109.7724
       216.000         166.000
 111102162.93348  86573108.58748  21142043.1924   21142045.3084   21142042.8254
       247.000         226.000
 113097366.31048  88127800.26348  21521727.1024   21521730.7174   21521727.9004
       245.000         213.000
 138410900.80948  90060425.51248  24435797.3234   24435800.6574   24435801.6174
       205.000         140.000
 120414464.99148  93829442.67048  22914118.5064   22914121.8264   22914118.7834
       229.000         185.000
 09  1  2  0  7 30.0000000  0  9G26G 9G28G27G24G15G10G21G 8
 105618215.56248  82299897.37048  20098487.0934   20098489.4524   20098486.8984
       251.000         228.000
 124147839.89648  96738563.77548  23624559.1344   23624562.1824   23624560.3654
       223.000         170.000
 114431503.58848  89167397.72148  21775596.2204   21775598.3084   21775596.6814
       242.000         209.000
 121406898.13448  94602771.91948  23102969.3614   23102972.7024   23102969.4944
       230.000         191.000
 126932422.84648  98908361.96248  24154451.6894   24154456.7814   24154451.3164
       217.000         168.000
 111051465.73648  86533604.28548  21132395.9344   21132397.6644   21132395.6864
       248.000         225.000
 113176773.31048  88189675.84748  21536837.7884   21536841.3674   21536838.5214
       245.000         212.000
 138414357.02748  90063118.60048  24436454.6324   24436457.7214   24436457.4204
       203.000         139.000
 120499552.35548  93895744.50648  22930310.2644   22930313.4944   22930311.3364
       227.000         186.000
 09  1  2  0  8  0.0000000  0  9G26G 9G28G27G24G15G10G21G 8
 105611377.95748  82294569.36348  20097185.9074   20097188.4334   20097185.9864
       251.000         228.000
 124048285.67948  96660989.05848  23605614.7524   23605617.9924   23605614.6244
       227.000         174.000
 114446621.16348  89179177.64548  21778473.1954   21778475.0434   21778473.5494
       243.000         209.000
 121478647.67648  94658680.64048  23116622.7334   23116626.4834   23116622.6424
       230.000         191.000
 126997527.86148  98959093.09148  24166840.7314   24166845.5074   24166840.8524
       216.000         165.000
 111000998.11648  86494278.87448  21122792.2694   21122793.9584   21122791.9514
       249.000         225.000
 113256573.74148  88251857.98848  21552023.2174   21552026.8344   21552023.9804
       244.000         212.000
 138418309.93248  90066198.75248  24437209.5554   24437208.3694   24437207.8604
       208.000         141.000
 120584760.76048  93962140.65248  22946524.8224   22946528.4014   22946524.7304
       228.000         186.000
 09  1  2  0  8 30.0000000  0  9G26G 9G28G27G24G15G10G21G 8
 105604898.27248  82289520.24848  20095952.7694   20095955.3424   20095952.7164
       251.000         228.000
 123948901.94848  96583547.20948  23586702.4264   23586705.9794   23586703.0934
       223.000         174.000
 114462268.49148  89191370.37848  21781450.7634   21781452.6114   21781451.1914
       242.000         209.000
 121550451.94948  94714632.01748  23130286.6034   23130289.8914   23130286.6684
       230.000         190.000
 127062874.58848  99010012.60048  24179276.1354   24179280.2924   24179275.7544
       220.000         164.000
 110950760.50948  86455132.69048  21113232.2934   21113234.2024   21113231.9954
       248.000         225.000
 113336764.75348  88314344.48148  21567283.1674   21567286.6994   21567283.9414
       244.000         212.000
 138422757.77748  90069664.57148  24438053.9214   24438055.6494   24438056.7094
       211.000         143.000
 120670088.00848  94028629.39048  22962762.0994   22962765.7964   22962762.9914
       229.000         186.000
 09  1  2  0  9  0.0000000  0  9G26G 9G28G27G24G15G10G21G 8
 105598777.06248  82284750.46848  20094787.9044   20094790.6534   20094787.8164
       251.000         228.000
 123849689.63848  96506238.92948  23567823.2574   23567826.3604   23567823.4804
       224.000         172.000
 114478444.89348  89203975.37748  21784529.0264   21784531.0484   21784529.1794
       243.000         210.000
 121622309.82748  94770625.15248  23143960.9584   23143963.8054   23143960.8514
       229.000         189.000
 127128460.31148  99061118.34948  24191756.6554   24191760.8624   24191757.1954
       219.000         164.000
 110900754.04748  86416166.60948  21103716.3424   21103718.1064   21103716.1734
       248.000         225.000
 113417344.09548  88377133.57448  21582616.8554   21582620.8074   21582618.0174
       244.000         212.000
 138427699.96848  90073515.62548  24438993.9064   24438996.7204   24438996.8324
       212.000         148.000
 120755532.44148  94095209.46148  22979021.9524   22979024.8724   22979022.3804
       227.000         187.000
 09  1  2  0  9 30.0000000  0  9G26G 9G28G27G24G15G10G21G 8
 105593014.74748  82280260.34448  20093691.4204   20093694.0954   20093691.4204
       251.000         228.000
 123750649.76248  96429065.01248  23548976.3254   23548979.2534   23548976.6914
       222.000         169.000
 114495149.86748  89216992.23948  21787707.9734   21787709.8234   21787708.4724
       243.000         209.000
 121694220.35948  94826659.31548  23157644.9114   23157648.3724   23157644.9034
       229.000         189.000
 127194282.27248  99112408.20148  24204282.3474   24204286.1614   24204282.9554
       221.000         162.000
 110850980.15048  86377381.75348  21094244.7344   21094246.5604   21094244.5674
       248.000         226.000
 113498310.06448  88440223.92548  21598024.0314   21598028.0474   21598024.8204
       244.000         211.000
 138433135.59048  90077751.16348  24440028.7704   24440030.4754   24440028.6604
       207.000         149.000
 120841092.70748  94161879.77548  22995303.5034   22995306.7204   22995303.8554
       229.000         187.000
 09  1  2  0 10  0.0000000  0  9G26G 9G28G27G24G15G10G21G 8
 105587612.71648  82276050.96248  20092663.5294   20092666.0554   20092663.5974
       251.000         228.000
 123651783.96548  96352026.74748  23530162.4804   23530166.0674   23530162.8974
       225.000         171.000
 114512383.37748  89230420.95048  21790987.3644   21790989.0784   21790987.7414
       242.000         209.000
 121766183.03048  94882734.12348  23171338.7784   23171342.3794   23171338.8214
       228.000         188.000
 127260338.13748  99163880.28048  24216851.7594   24216856.4064   24216852.3144
       220.000         161.000
 110801440.75848  86338779.63448  21084817.8134   21084819.5524   21084817.4104
       248.000         226.000
 113579660.71048  88503614.03348  21613504.7894   21613508.2784   21613505.6174
       243.000         210.000
 138439064.12948  90082370.73248  24441156.4314   24441159.4094   24441155.8714
       204.000         148.000
 120926767.77248  94228639.55048  23011606.6594   23011610.6064   23011608.2264
       229.000         187.000
 09  1  2  0 10 30.0000000  0  9G26G 9G28G27G24G15G10G21G 8
 105582571.33348  82272122.60548  20091704.1364   20091706.7654   20091703.9184
       251.000         228.000
 123553092.83848  96275124.55948  23511382.4284   23511385.3844   23511383.0754
       225.000         171.000
 114530144.76348  89244260.98848  21794367.0644   21794369.0894   21794367.3964
       241.000         209.000
 121838196.99848  94938848.89148  23185042.5824   23185045.8084   23185042.5984
       227.000         188.000
 127326625.06248  99215532.43748  24229466.1834   24229470.2834   24229466.5464
       220.000         161.000
 110752137.27548  86300361.33348  21075435.6644   21075437.3534   21075435.1734
       249.000         226.000
 113661394.08648  88567302.36448  21629058.0204   21629061.5084   21629058.4064
       243.000         210.000
 138445484.81748  90087373.85448  24442378.2874   24442380.9914   24442377.0004
       206.000         151.000
 121012556.07648  94295487.55048  23027931.9504   23027935.3054   23027931.8364
       228.000         185.000
 09  1  2  0 11  0.0000000  0  9G26G 9G28G27G24G15G10G21G 8
 105577890.95948  82268475.55448  20090813.4624   20090816.0684   20090813.4494
       251.000         228.000
 123454577.14448  96198359.07348  23492635.0804   23492638.3734   23492635.0194
       224.000         169.000
 114548433.00848  89258511.57348  21797847.2584   21797849.1294   21797847.6684
       242.000         209.000
 121910260.82248  94995002.51548  23198755.8824   23198759.2504   23198756.0244
       226.000         188.000
 127393139.82848  99267362.11848  24242123.6084   24242127.6854   24242123.2784
       221.000         161.000
 110703070.44848  86262127.43548  21066098.6504   21066100.2504   21066098.3944
       249.000         226.000
 113743507.32048  88631286.68848  21644683.9194   21644687.3984   21644684.6334
       244.000         211.000
 138452396.50348  90092759.55948  24443694.4124   24443696.1584   24443692.9074
       214.000         154.000
 121098455.96248  94362422.51448  23044278.2314   23044281.1644   23044279.6464
       228.000         183.000
 09  1  2  0 11 30.0000000  0  9G26G 9G28G27G24G15G10G21G 8
 105573571.91048  82265110.05548  20089991.6264   20089994.1724   20089991.6244
       251.000         228.000
 123356237.69048  96121730.93848  23473921.8164   23473924.9384   23473922.5324
       223.000         172.000
 114567246.89748  89273171.75748  21801427.1684   21801429.5514   21801427.8184
       241.000         210.000
 121982373.47648  95051194.16948  23212478.4824   23212482.1984   23212478.6534
       226.000         187.000
 127459879.40448  99319366.97748  24254824.0034   24254827.5594   24254824.7734
       217.000         160.000
 110654240.95948  86224078.48348  21056806.6274   21056808.5924   21056806.3614
       249.000         227.000
 113825998.29448  88695565.36148  21660381.4154   21660384.9754   21660383.0084
       244.000         211.000
 138459797.49548  90098526.50848  24445103.4224   24445104.5314   24445105.3894
       217.000         155.000
 121184465.48248  94429442.89348  23060644.8264   23060648.3104   23060644.9914
       228.000         183.000
 09  1  2  0 12  0.0000000  0  9G26G 9G28G27G24G15G10G21G 8
 105569614.36548  82262026.24848  20089238.6244   20089240.9934   20089238.5844
       251.000         228.000
 123258075.08448  96045240.60548  23455242.0754   23455245.4524   23455241.6934
       224.000         172.000
 114586585.45748  89288240.77248  21805107.3684   21805109.5754   21805107.7724
       242.000         210.000
 122054533.40648  95107422.67048  23226210.0624   23226213.8284   23226210.3114
       228.000         187.000
 127526840.45548  99371544.41848  24267565.7564   24267569.6654   24267566.3224
       212.000         157.000
 110605650.02048  86186215.41448  21047560.1064   21047561.8004   21047559.9654
       249.000         227.000
 113908864.28348  88760136.25948  21676150.1544   21676153.8244   21676151.0754
       243.000         210.000
 138467686.77048  90104673.98548  24446604.2704   24446605.4894   24446606.3124
       215.000         157.000
 121270582.48748  94496547.05148  23077032.4294   23077035.8644   23077033.4504
       227.000         183.000
 09  1  2  0 12 30.0000000  0  9G26G 9G28G27G24G15G10G21G 8
 105566020.43748  82259225.77948  20088554.6724   20088557.0584   20088554.6464
       250.000         228.000
 123160091.55348  95968889.80848  23436596.2614   23436599.5244   23436596.7354
       222.000         170.000
 114606449.32448  89303719.10548  21808887.2264   21808889.2654   21808888.0164
       240.000         209.000
 122126741.43748  95163688.67748  23239950.6654   23239954.5514   23239950.6264
       225.000         187.000
 127594021.65148  99423893.38348  24280349.8754   24280354.1614   24280349.6264
       214.000         160.000
 110557300.43148  86148540.41348  21038359.3814   21038361.1924   21038359.0904
       249.000         227.000
 113992104.55248  88824998.80348  21691990.1834   21691993.8674   21691990.3954
       241.000         209.000
 138476064.36548  90111201.92148  24448198.1634   24448199.9134   24448198.2954
       215.000         158.000
 121356807.25548  94563735.17748  23093440.5304   23093443.8284   23093440.8964
       228.000         180.000
 09  1  2  0 13  0.0000000  0  9G26G 9G28G27G24G15G10G21G 8
 105562789.99648  82256708.55048  20087939.9044   20087942.3074   20087939.7224
       251.000         228.000
 123062287.45948  95892678.82348  23417984.8314   23417988.2664   23417984.9594
       226.000         171.000
 114626837.16748  89319605.74548  21812766.7084   21812769.0074   21812766.9084
       243.000         209.000
 122198996.02248  95219990.92648  23253700.4924   23253704.2084   23253700.6904
       226.000         187.000
 127661419.71448  99476411.34048  24293175.4234   24293179.7924   24293175.3374
       216.000         161.000
 110509192.75548  86111053.91048  21029204.7094   21029206.8834   21029204.1004
       249.000         227.000
 114075716.62148  88890151.05548  21707901.0744   21707904.6844   21707901.8114
       243.000         209.000
 138484928.69648  90118109.18248  24449884.8724   24449886.8044   24449885.2874
       216.000         157.000
 121443137.41448  94631005.42348  23109868.4364   23109872.1944   23109868.8234
       227.000         181.000
 09  1  2  0 13 30.0000000  0  9G26G 9G28G27G24G15G10G21G 8
 105559923.08648  82254474.58848  20087394.3144   20087396.7324   20087394.2924
       251.000         228.000
 122964663.39148  95816608.13648  23399407.5654   23399410.6404   23399407.9584
       225.000         170.000
 114647747.43248  89335899.46948  21816745.9894   21816748.0704   21816746.6144
       243.000         209.000
 122271295.64548  95276328.26548  23267459.0994   23267462.6764   23267459.1754
       229.000         189.000
 127729031.02348  99529095.46348  24306041.3994   24306045.4294   24306041.1264
       216.000         160.000
 110461327.51448  86073756.32148  21020096.3704   21020098.1994   21020095.9744
       250.000         227.000
 114159697.39348  88955590.61048  21723882.1354   21723885.7654   21723883.5644
       242.000         209.000
 138494278.42148  90125394.65548  24451663.7234   24451665.9064   24451665.4674
       210.000         153.000
 121529571.21648  94698356.42248  23126316.9174   23126319.6594   23126317.5874
       226.000         181.000
 09  1  2  0 14  0.0000000  0  9G26G 9G28G27G24G15G10G21G 8
 105557420.66248  82252524.64348  20086918.1014   20086920.5464   20086917.9394
       250.000         227.000
 122867220.35948  95740678.48548  23380865.2064   23380867.4364   23380865.1154
       229.000         171.000
 114669179.93348  89352600.12548  21820824.7174   21820826.6074   21820825.1424
       242.000         209.000
 122343639.60248  95332700.16548  23281225.6764   23281229.5434   23281225.7124
       228.000         188.000
 127796853.14848  99581943.87748  24318947.7304   24318951.5654   24318948.3704
       216.000         160.000
 110413706.71748  86036649.21148  21011034.5754   21011036.2344   21011034.4124
       250.000         228.000
 114244045.14648  89021316.12348  21739932.7614   21739936.6834   21739933.2234
       242.000         209.000
 138504112.92448  90133057.87748  24453535.1284   24453536.8154   24453535.0044
       210.000         151.000
 121616107.46848  94765787.25348  23142783.8404   23142787.1724   23142783.5614
       227.000         180.000
 09  1  2  0 14 30.0000000  0  9G26G 9G28G27G24G15G10G21G 8
 105555283.41448  82250859.24848  20086511.4384   20086513.8444   20086511.3164
       250.000         227.000
 122769959.70048  95664890.95848  23362357.3274   23362358.9514   23362357.9424
       228.000         172.000
 114691134.00248  89369707.19548  21825002.2274   21825004.2174   21825002.9164
       241.000         208.000
 122416027.04548  95389105.95148  23295000.6294   23295004.1944   23295001.3764
       227.000         187.000
 127864883.34748  99634954.40848  24331893.2564   24331897.3574   24331893.6894
       214.000         157.000
 110366331.67848  85999733.59848  21002019.5024   21002021.1884   21002019.2554
       249.000         228.000
 114328757.87648  89087326.04148  21756053.0434   21756056.9454   21756053.8014
       241.000         208.000
 138514430.59948  90141097.61048  24455498.9384   24455500.9074   24455497.4704
       213.000         155.000
 121702744.77048  94833296.82548  23159270.5084   23159273.9974   23159271.5204
       228.000         179.000
 09  1  2  0 15  0.0000000  0  9G26G 9G28G27G24G15G10G21G 8
 105553511.44948  82249478.49348  20086174.2364   20086176.7444   20086174.1084
       250.000         228.000
 122672881.98348  95589245.97648  23343884.3154   23343885.7894   23343883.9924
       229.000         173.000
 114713608.49148  89387219.78648  21829279.2254   21829281.0084   21829279.6284
       242.000         209.000
 122488457.20448  95445545.00948  23308783.4374   23308786.8584   23308783.7664
       226.000         186.000
 127933118.74448  99688124.83348  24344877.6474   24344882.0554   24344877.6854
       216.000         156.000
 110319203.53348  85963010.37248  20993051.1104   20993053.0854   20993050.6604
       250.000         228.000
 114413832.57248  89153618.01148  21772242.3514   21772246.0014   21772242.9724
       242.000         208.000
 138525230.47448  90149513.04748  24457554.4884   24457556.2994   24457554.2834
       209.000         154.000
 121789481.38848  94900883.76648  23175775.8584   23175779.3254   23175776.4824
       226.000         179.000
 09  1  2  0 15 30.0000000  0  9G26G 9G28G27G24G15G10G21G 8
 105552105.81448  82248383.18948  20085906.8644   20085909.3314   20085906.8264
       250.000         228.000
 122575988.38048  95513744.49548  23325445.9004   23325448.3214   23325446.7054
       228.000         177.000
 114736602.14948  89405136.93148  21833654.4204   21833656.4264   21833654.9144
       242.000         209.000
 122560929.23148  95502016.69948  23322574.2414   23322577.8884   23322574.3954
       225.000         184.000
 128001556.60248  99741453.00448  24357900.5294   24357905.6004   24357901.0684
       210.000         152.000
 110272323.59448  85926480.54148  20984130.2194   20984131.9704   20984129.8114
       250.000         228.000
 114499267.45548  89220190.64148  21788499.7794   21788503.6554   21788500.9534
       240.000         207.000
 138536511.51948  90158303.48448  24459700.5464   24459702.6614   24459701.5044
       212.000         156.000
 121876316.17648  94968547.22748  23192299.9424   23192303.0804   23192300.4514
       226.000         177.000
 09  1  2  0 16  0.0000000  0  9G26G 9G28G27G24G15G10G21G 8
 105551067.06348  82247573.76748  20085709.2264   20085711.7384   20085709.2184
       251.000         228.000
 122479279.85748  95438387.24048  23307042.4274   23307045.9684   23307042.3014
       226.000         175.000
 114760114.59148  89423458.32148  21838128.7944   21838130.8594   21838129.2344
       241.000         209.000
 122633442.43748  95558520.49248  23336373.2674   23336376.8884   23336373.4194
       227.000         186.000
 128070193.98948  99794936.69548  24370962.8934   24370966.2414   24370963.1654
       213.000         156.000
 110225692.97848  85890144.99648  20975256.7134   20975258.3524   20975256.5194
       250.000         228.000
 114585060.80848  89287042.59848  21804825.6294   21804829.6724   21804826.4454
       241.000         207.000
 138548272.52748  90167467.85248  24461939.4884   24461941.5664   24461940.4674
       213.000         158.000
 121963247.90248  95036286.20748  23208842.4204   23208845.5744   23208843.0474
       225.000         177.000
 09  1  2  0 16 30.0000000  0  9G26G 9G28G27G24G15G10G21G 8
 105550394.97048  82247050.05848  20085581.2504   20085583.7644   20085581.2584
       251.000         228.000
 122382756.75448  95363174.44148  23288674.6074   23288678.0344   23288675.0654
       226.000         177.000
 114784144.21748  89442182.70648  21842701.6904   21842703.6444   21842701.9534
       242.000         210.000
 122705995.16748  95615055.08248  23350179.5304   23350182.8034   23350180.4414
       225.000         186.000
 128139027.53248  99848573.20648  24384062.0504   24384065.3024   24384062.5994
       213.000         156.000
 110179313.07448  85854004.81448  20966431.0544   20966432.6234   20966430.7774
       250.000         228.000
 114671209.32448  89354171.30648  21821219.7004   21821223.2074   21821220.7484
       241.000         207.000
 138560511.70948  90177004.85148  24464268.6034   24464270.0904   24464270.6484
       219.000         161.000
 122050274.50948  95104099.12648  23225402.7014   23225406.5914   23225403.3714
       225.000         177.000
 09  1  2  0 17  0.0000000  0  9G26G 9G28G27G24G15G10G21G 8
 105550090.46848  82246812.77448  20085523.4134   20085525.7584   20085523.2354
       251.000         228.000
 122286420.03848  95288106.89748  23270342.3734   23270345.9994   23270341.8914
       226.000         175.000
 114808690.49648  89461309.67848  21847372.5874   21847374.7244   21847372.9854
       243.000         210.000
 122778586.61548  95671619.82948  23363993.3504   23363996.4654   23363993.2214
       226.000         186.000
 128208054.45148  99902360.43448  24397197.0084   24397200.7854   24397197.3864
       209.000         153.000
 110133184.82448  85818060.71248  20957653.2794   20957654.6604   20957652.8744
       251.000         229.000
 114757711.01248  89421575.22148  21837680.3814   21837683.7054   21837680.9754
       241.000         206.000
 138573228.25248  90186913.85248  24466688.2324   24466689.8154   24466690.5334
       209.000         158.000
 122137394.60048  95171984.90248  23241981.5124   23241985.6084   23241982.5714
       225.000         178.000
 09  1  2  0 17 30.0000000  0  9G26G 9G28G27G24G15G10G21G 8
 105550155.44248  82246863.40548  20085535.7434   20085538.1364   20085535.7774
       251.000         228.000
 122190272.03248  95213186.39248  23252045.6954   23252049.5854   23252046.0224
       225.000         175.000
 114833753.81948  89480839.54048  21852142.2544   21852143.9464   21852142.7934
       243.000         209.000
 122851217.49248  95728215.29848  23377814.9364   23377817.9694   23377814.9764
       226.000         187.000
 128277273.31648  99956297.19948  24410368.5064   24410371.8904   24410368.4244
       211.000         152.000
 110087311.23848  85782315.05548  20948923.6754   20948925.3664   20948923.5894
       249.000         229.000
 114844564.75348  89489253.45948  21854207.8144   21854211.7244   21854208.8374
       240.000         205.000
 138586421.94948  90197194.65548  24469197.8464   24469200.2864   24469195.5944
       201.000         145.000
 122224608.33648  95239943.62848  23258577.5674   23258581.4404   23258576.6214
       226.000         175.000
 09  1  2  0 18  0.0000000  0  9G26G 9G28G27G24G15G10G21G 8
 105550590.12048  82247202.10648  20085618.2964   20085620.8254   20085618.1864
       250.000         228.000
 122094313.48948  95138413.51948  23233785.7254   23233789.0814   23233786.0204
       228.000         176.000
 114859332.53848  89500771.00648  21857009.4604   21857011.0734   21857009.8584
       242.000         208.000
 122923886.53548  95784840.49948  23391643.1114   23391646.6124   23391643.7864
       225.000         187.000
 128346680.80948 100010380.97348  24423576.6734   24423580.3084   24423576.3414
       209.000         152.000
 110041693.18248  85746768.52148  20940242.7124   20940244.6614   20940242.5984
       250.000         229.000
 114931767.84448  89557203.90748  21870801.8944   21870805.9304   21870802.6824
       239.000         205.000
 138600091.46648  90207846.14148  24471798.9734   24471802.2414   24471799.7874
       210.000         152.000
 122311913.77648  95307973.83348  23275191.2654   23275194.8564   23275192.5114
       224.000         176.000
 09  1  2  0 18 30.0000000  0  9G26G 9G28G27G24G15G10G21G 8
 105551393.85748  82247828.38448  20085771.2594   20085773.8194   20085771.1214
       250.000         228.000
 121998544.04448  95063787.99348  23215561.7374   23215564.9604   23215562.8654
       226.000         174.000
 114885424.70448  89521102.56848  21861974.4124   21861976.4814   21861975.0114
       241.000         208.000
 122996591.74948  95841493.89448  23405477.8474   23405481.9104   23405477.7594
       223.000         185.000
 128416273.09748 100064608.71648  24436819.1794   24436823.3454   24436819.5634
       213.000         152.000
 109996330.96748  85711421.33348  20931610.6984   20931612.5034   20931610.2774
       250.000         230.000
 115019316.81448  89625423.87848  21887461.9274   21887465.6914   21887462.5364
       240.000         205.000
 138614234.19348  90218866.41848  24474491.1654   24474493.5124   24474492.5474
       211.000         156.000
 122399308.43548  95376073.54248  23291822.1414   23291825.4624   23291821.5204
       225.000         175.000
 09  1  2  0 19  0.0000000  0  9G26G 9G28G27G24G15G10G21G 8
 105552567.48748  82248742.90148  20085994.6864   20085997.2154   20085994.6344
       251.000         228.000
 121902965.05548  94989310.82948  23197373.7474   23197376.5224   23197373.9484
       226.000         175.000
 114912029.76448  89541833.79448  21867036.9744   21867039.1914   21867037.3234
       242.000         208.000
 123069332.61448  95898175.05148  23419320.1334   23419323.9894   23419319.8744
       227.000         187.000
 128486047.59648 100118978.42548  24450096.1124   24450101.1624   24450095.8974
       211.000         151.000
 109951225.92548  85676274.54548  20923027.4694   20923029.3014   20923027.2134
       250.000         229.000
 115107210.30148  89693912.30748  21904187.7374   21904191.3854   21904188.4234
       241.000         205.000
 138628849.11148  90230254.66848  24477272.3594   24477274.3954   24477272.8434
       212.000         155.000
 122486790.96948  95444241.75048  23308469.7024   23308473.1294   23308470.4174
       227.000         176.000
 09  1  2  0 19 30.0000000  0  9G26G 9G28G27G24G15G10G21G 8
 105554111.77748  82249946.24548  20086288.5314   20086291.0644   20086288.5504
       251.000         228.000
 121807577.64048  94914983.00248  23179221.5594   23179224.8234   23179221.3764
       223.000         177.000
 114939146.72248  89562963.89548  21872197.5184   21872199.5434   21872198.2164
       243.000         208.000
 123142108.77248  95954883.73748  23433169.9354   23433172.7224   23433169.8964
       229.000         188.000
 128556001.73248 100173488.14648  24463408.4174   24463412.9234   24463409.3944
       205.000         149.000
 109906379.73348  85641329.45148  20914493.5644   20914495.3004   20914493.3534
       250.000         230.000
 115195445.71748  89762667.17348  21920978.4604   21920982.3194   21920979.2854
       240.000         205.000
 138643935.43748  90242010.24448  24480143.4064   24480145.4594   24480141.4694
       215.000         158.000
 122574360.66248  95512477.86648  23325133.9184   23325137.0944   23325134.6004
       229.000         175.000
 09  1  2  0 20  0.0000000  0  9G26G 9G28G27G24G15G10G21G 8
 105556026.85848  82251438.50648  20086652.9044   20086655.5354   20086652.7774
       250.000         228.000
 121712381.97148  94840804.60148  23161105.7514   23161109.7334   23161105.9054
       222.000         176.000
 114966774.15948  89584491.76548  21877454.7994   21877456.5434   21877455.6054
       242.000         208.000
 123214918.89548  96011618.89948  23447025.1554   23447027.9524   23447025.7824
       227.000         186.000
 128626132.25848 100228135.27648  24476753.9024   24476758.8524   24476752.8984
       211.000         152.000
 109861793.74148  85606587.12548  20906009.1324   20906010.8934   20906008.9784
       250.000         230.000
 115284020.32248  89831686.34248  21937833.4984   21937837.2864   21937834.3394
       240.000         204.000
 138659491.30948  90254131.66748  24483103.5554   24483105.2514   24483105.7224
       213.000         155.000
 122662015.75948  95580780.54848  23341813.8234   23341817.1344   23341814.2414
       227.000         173.000
 09  1  2  0 20 30.0000000  0  9G26G 9G28G27G24G15G10G21G 8
 105558313.18448  82253220.04648  20087087.9614   20087090.6154   20087087.7294
       250.000         228.000
 121617379.06448  94766776.38748  23143027.4964   23143030.8754   23143027.3944
       225.000         178.000
 114994910.95148  89606416.54348  21882809.2894   21882810.9234   21882809.7004
       243.000         209.000
 123287762.02048  96068379.76348  23460885.9334   23460889.5234   23460885.6154
       226.000         184.000
 128696435.77348 100282917.24748  24490132.6554   24490137.5104   24490133.1674
       215.000         153.000
 109817468.96748  85572048.34048  20897574.3214   20897576.1004   20897573.9734
       250.000         229.000
 115372931.62548  89900967.86248  21954752.8734   21954756.3034   21954753.7994
       241.000         204.000
 138675515.29048  90266617.85248  24486152.3834   24486154.3984   24486154.1374
       212.000         153.000
 122749754.69548  95649148.53948  23358509.7474   23358513.4334   23358509.9044
       224.000         173.000
 09  1  2  0 21  0.0000000  0  9G26G 9G28G27G24G15G10G21G 8
 105560971.97048  82255291.82648  20087593.9424   20087596.5144   20087593.7964
       251.000         228.000
 121522570.41448  94692899.51848  23124986.8504   23124989.1094   23124986.8444
       228.000         181.000
 115023556.67048  89628737.87448  21888260.6114   21888262.1024   21888261.3014
       244.000         210.000
 123360638.00048  96125166.21848  23474753.3074   23474757.3484   23474753.7124
       226.000         185.000
 128766910.47648 100337832.58848  24503543.8504   24503548.5804   24503543.4924
       214.000         153.000
 109773407.29148  85537714.55948  20889189.7364   20889191.4474   20889189.4264
       250.000         230.000
 115462178.61448  89970510.96848  21971736.0334   21971739.4934   21971736.6514
       240.000         204.000
 138692006.53848  90279468.11848  24489291.4534   24489293.4594   24489290.8574
       211.000         153.000
 122837576.99048  95717581.48048  23375221.5474   23375225.8894   23375221.7724
       227.000         172.000
 09  1  2  0 21 30.0000000  0  9G26G 9G28G27G24G15G10G21G 8
 105564003.46748  82257654.02248  20088170.7394   20088173.3484   20088170.7204
       250.000         228.000
 121427956.86148  94619174.68448  23106982.8814   23106985.3684   23106982.9614
       228.000         181.000
 115052710.05248  89651454.79948  21893808.3254   21893810.0044   21893809.0224
       242.000         209.000
 123433545.65748  96181977.36248  23488628.3944   23488631.4144   23488629.2134
       230.000         189.000
 128837552.99248 100392878.71548  24516986.8524   24516990.8804   24516987.8304
       212.000         152.000
 109729609.77648  85503586.62148  20880855.2854   20880856.9974   20880855.2214
       250.000         229.000
 115551757.93448  90040313.02348  21988782.6214   21988786.1964   21988783.4984
       240.000         205.000
 138708963.28348  90292681.16148  24492517.8054   24492519.8834   24492519.1464
       208.000         150.000
 122925480.66848  95786077.83948  23391949.5544   23391953.3804   23391949.7774
       227.000         172.000
 09  1  2  0 22  0.0000000  0  9G26G 9G28G27G24G15G10G21G 8
 105567407.95048  82260306.85348  20088818.7074   20088821.1734   20088818.6014
       250.000         228.000
 121333539.17148  94545602.46648  23089015.4654   23089018.0674   23089015.3714
       229.000         181.000
 115082369.65148  89674566.17748  21899452.0114   21899453.9384   21899452.7324
       242.000         209.000
 123506484.08548  96238812.49448  23502508.3704   23502511.3954   23502508.5474
       230.000         188.000
 128908360.57248 100448053.46248  24530460.6814   24530464.8364   24530460.3244
       214.000         152.000
 109686077.26948  85469665.18248  20872571.3934   20872573.0224   20872571.1494
       249.000         230.000
 115641667.28948  90110372.25448  22005891.6914   22005895.3174   22005892.6344
       239.000         203.000
 138726384.10048  90306255.80248  24495832.4224   24495835.3364   24495832.4434
       204.000         147.000
 123013464.19148  95854636.42848  23408692.5264   23408695.3164   23408693.0094
       228.000         171.000
 09  1  2  0 22 30.0000000  0  9G26G 9G28G27G24G15G10G21G 8
 105571186.30248  82263251.01248  20089537.6904   20089540.2924   20089537.6144
       250.000         228.000
 121239318.52948  94472183.77848  23071085.8844   23071088.7304   23071086.7564
       227.000         181.000
 115112534.88548  89698071.56348  21905192.0934   21905194.0294   21905192.9084
       241.000         207.000
 123579453.01548  96295671.38448  23516393.5124   23516396.6214   23516393.6704
       228.000         185.000
 128979330.43048 100503354.62848  24543965.9584   24543969.8144   24543966.0034
       215.000         156.000
 109642812.04748  85435952.02748  20864338.1964   20864339.9274   20864337.8434
       250.000         230.000
 115731904.69848  90180687.11148  22023063.1394   22023066.7254   22023063.6794
       239.000         203.000
 138744267.75948  90320191.11148  24499235.4884   24499238.2684   24499235.4574
       210.000         148.000
 123101526.72348  95923256.58948  23425450.0754   23425452.7234   23425450.8534
       226.000         169.000
 09  1  2  0 23  0.0000000  0  9G26G 9G28G27G24G15G10G21G 8
 105575338.99448  82266486.87548  20090327.8184   20090330.5944   20090327.5964
       250.000         228.000
 121145295.62448  94398919.18948  23053193.4384   23053196.9764   23053193.4974
       225.000         179.000
 115143204.32348  89721969.82648  21911028.1074   21911030.3384   21911028.7824
       241.000         207.000
 123652451.39148  96352553.22048  23530284.0524   23530287.7804   23530284.3104
       228.000         185.000
 129050459.39848 100558779.81148  24557501.2074   24557505.5024   24557501.3964
       213.000         156.000
 109599815.15548  85402447.96448  20856156.1024   20856157.8694   20856155.7414
       250.000         230.000
 115822467.55348  90251255.57048  22040296.6784   22040300.3294   22040297.4994
       239.000         202.000
 138762612.84248  90334485.94848  24502726.8824   24502728.7534   24502728.5274
       209.000         150.000
 123189666.71948  95991937.08548  23442222.0254   23442226.0504   23442222.8274
       225.000         172.000
 09  1  2  0 23 30.0000000  0  9G26G 9G28G27G24G15G10G21G 8
 105579867.02448  82270015.20748  20091189.5414   20091192.3244   20091189.4264
       251.000         228.000
 121051471.91448  94325809.80648  23035338.8574   23035342.8554   23035338.7774
       224.000         179.000
 115174377.37748  89746260.51148  21916960.2964   21916962.3974   21916960.9104
       240.000         207.000
 123725479.56848  96409458.27048  23544181.0054   23544184.6554   23544181.2234
       229.000         188.000
 129121745.51248 100614327.41748  24571066.1584   24571071.2064   24571066.6994
       215.000         157.000
 109557088.40148  85369154.38848  20848025.4844   20848027.1984   20848025.1424
       251.000         230.000
 115913354.14148  90322076.27948  22057591.7874   22057595.3354   22057592.5524
       238.000         202.000
 138781418.60648  90349139.76648  24506306.1644   24506307.3804   24506305.3624
       210.000         148.000
 123277883.50948  96060677.40348  23459009.3574   23459013.7574   23459009.3954
       225.000         173.000
 09  1  2  0 24  0.0000000  0  9G26G 9G28G27G24G15G10G21G 8
 105584770.29248  82273835.92848  20092122.5524   20092125.3104   20092122.4204
       250.000         228.000
 120957847.56448  94252855.75848  23017522.7234   23017526.8874   23017522.9354
       225.000         180.000
 115206052.16448  89770942.16748  21922987.7254   21922989.8104   21922988.0954
       240.000         207.000
 123798535.96448  96466385.32148  23558084.1934   23558087.0514   23558084.3224
       231.000         189.000
 129193185.19148 100669994.71648  24584660.9584   24584665.5804   24584660.9674
       215.000         156.000
 109514632.55448  85336071.90648  20839946.5194   20839948.2674   20839946.1174
       250.000         230.000
 116004561.45048  90393146.91048  22074948.1734   22074951.6944   22074948.8744
       239.000         202.000
 138800682.68048  90364150.73648  24509971.5514   24509973.3434   24509974.0234
       212.000         149.000
 123366175.24848  96129476.13248  23475811.4664   23475814.4534   23475811.8724
       229.000         174.000
 09  1  2  0 24 30.0000000  0 10G26G 9G28G27G24G15G10G21G17G 8
 105590048.70248  82277948.96448  20093127.1364   20093129.7194   20093127.0104
       251.000         228.000
 120864422.82548  94180057.26348  22999744.8594   22999748.8714   22999744.8584
       225.000         180.000
 115238227.08848  89796013.54248  21929110.4114   21929112.5974   21929110.7934
       241.000         207.000
 123871618.86348  96523333.02448  23571991.2254   23571994.4204   23571991.4884
       228.000         187.000
 129264774.93048 100725778.88548  24598283.0904   24598288.2534   24598283.4414
       210.000         154.000
 109472448.65848  85303201.32648  20831919.1814   20831920.9674   20831918.8504
       250.000         230.000
 116096086.51548  90464465.14048  22092365.0794   22092368.4084   22092365.7034
       241.000         202.000
 138820403.04348  90379517.19548  24513723.5644   24513725.0614   24513726.1104
       208.000         147.000
 142351175.40158  93130771.94658  25185600.7955   25185603.4495   25185600.7365
       216.000         159.000
 123454539.94348  96198331.75148  23492626.9024   23492629.3464   23492628.2764
       229.000         173.000
 09  1  2  0 25  0.0000000  0 10G26G 9G28G27G24G15G10G21G17G 8
 105595704.04848  82282355.72948  20094203.2504   20094205.8704   20094203.2424
       251.000         228.000
 120771200.21348  94107416.27648  22982005.1994   22982009.0334   22982005.5464
       226.000         180.000
 115270902.29148  89821474.73948  21935328.1874   21935330.7224   21935328.9314
       240.000         207.000
 123944729.06248  96580301.98548  23585902.7304   23585906.9114   23585902.8384
       228.000         185.000
 129336513.09748 100781678.76848  24611934.2054   24611939.2914   24611934.7044
       209.000         153.000
 109430539.08548  85270544.50848  20823944.1844   20823945.7654   20823944.0024
       250.000         230.000
 116187928.24048  90536030.12748  22109841.5924   22109845.3694   22109842.5104
       239.000         201.000
 138840579.35048  90395238.96448  24517562.6774   24517565.3324   24517561.1124
       202.000         145.000
 142274743.91348  93071214.97448  25171056.5014   25171059.0294   25171055.8114
       213.000         162.000
 123542977.87648  96267244.41148  23509455.9624   23509458.7044   23509456.2824
       226.000         170.000
 09  1  2  0 25 30.0000000  0 10G26G 9G28G27G24G15G10G21G17G 8
 105601736.38748  82287056.25048  20095351.1214   20095353.8344   20095351.0344
       251.000         228.000
 120678179.51848  94034932.62048  22964304.3904   22964307.4864   22964304.7284
       228.000         181.000
 115304075.78248  89847324.21948  21941641.2514   21941643.1394   21941641.6354
       241.000         207.000
 124017865.14148  96637291.12148  23599820.6934   23599824.1624   23599821.3614
       228.000         186.000
 129408396.38748 100837691.72948  24625613.7024   24625618.2694   24625613.7054
       213.000         156.000
 109388904.66948  85238102.10248  20816021.3604   20816023.0614   20816020.9954
       251.000         230.000
 116280083.46648  90607839.38348  22127377.8504   22127382.1824   22127378.5744
       237.000         201.000
 138861209.64748  90411314.49648  24521489.1564   24521491.2904   24521490.9964
       212.000         147.000
 142198374.63948  93011706.50248  25156524.4074   25156526.4974   25156523.6074
       217.000         162.000
 123631487.24948  96336212.71448  23526298.1694   23526301.4614   23526298.5294
       224.000         167.000
 09  1  2  0 26  0.0000000  0 10G26G 9G28G27G24G15G10G21G17G 8
 105608146.94348  82292051.47548  20096571.1124   20096573.7014   20096570.9864
       251.000         228.000
 120585362.69848  93962607.83448  22946642.0354   22946645.0194   22946642.4374
       228.000         181.000
 115337747.08648  89873561.59148  21948048.5604   21948050.7964   21948049.0594
       241.000         207.000
 124091027.45348  96694300.69548  23613742.5684   23613746.1554   23613742.8354
       229.000         185.000
 129480422.78548 100893816.20648  24639320.2004   24639324.4614   24639320.0354
       210.000         155.000
 109347547.86048  85205876.01348  20808151.3784   20808153.0984   20808151.0574
       250.000         230.000
 116372550.98648  90679891.98848  22144973.8724   22144978.1204   22144974.8734
       238.000         201.000
 138882293.17548  90427743.24748  24525501.2084   24525502.8124   24525503.5984
       210.000         146.000
 142122071.61048  92952249.56248  25142004.3374   25142006.2994   25142003.9434
       217.000         159.000
 123720067.34448  96405236.17448  23543154.3984   23543157.4944   23543154.7044
       226.000         170.000
 09  1  2  0 26 30.0000000  0 10G26G 9G28G27G24G15G10G21G17G 8
 105614936.38548  82297341.94648  20097863.1014   20097865.7054   20097862.9924
       251.000         228.000
 120492750.72448  93890442.66248  22929018.5014   22929021.5324   22929018.4494
       229.000         184.000
 115371915.22648  89900186.11048  21954550.5674   21954552.6704   21954551.0744
       240.000         207.000
 124164215.41748  96751330.27248  23627670.1604   23627673.2134   23627669.6994
       231.000         186.000
 129552589.70948 100950050.17148  24653053.0724   24653056.9434   24653053.2304
       211.000         155.000
 109306470.04248  85173867.31948  20800334.3714   20800336.1584   20800334.0484
       250.000         230.000
 116465328.46948  90752186.11648  22162629.0714   22162632.9014   22162629.6384
       237.000         200.000
 138903828.49648  90444523.99948  24529599.8854   24529600.8964   24529598.3544
       212.000         150.000
 142045837.74448  92892846.55248  25127497.6164   25127499.1664   25127497.1564
       215.000         159.000
 123808717.21548  96474314.00048  23560024.1964   23560026.8144   23560024.3584
       226.000         170.000
 09  1  2  0 27  0.0000000  0 11G26G 9G28G27G24G15G18G10G21G17G 8
 105622101.87548  82302925.43648  20099226.7274   20099229.2814   20099226.6544
       250.000         228.000
 120400341.55148  93818435.52148  22911433.6514   22911436.9154   22911433.8264
       231.000         183.000
 115406575.68748  89927194.26448  21961145.9844   21961148.2674   21961146.5154
