     2.11           OBSERVATION DATA    G (GPS)             RINEX VERSION / TYPE
teqc  2008Oct2      gpsops              20090123 00:06:08UTCPGM / RUN BY / DATE
    30.0000                                                 INTERVAL
     1     1                                                WAVELENGTH FACT L1/2
     7    L1    L2    P1    P2    C1    S1    S2            # / TYPES OF OBSERV
Linux 2.4.20-8|Pentium IV|gcc -static|Linux|486/DX+         COMMENT
     2.10           OBSERVATION DATA    GPS                 COMMENT
soc2rnx ver 1.20    gpsops              23-Jan-2009 00:05:58COMMENT
S1, if present, is the SNR for the C/A data stream on L1.   COMMENT
 SNR is mapped to RINEX snr flag value [1,4-9]              COMMENT
    SNR:   >316  >100  >31.6  >10  >3.2    >0 bad=0         COMMENT
L1 & L2:      9     8     7     6     5     4     1         COMMENT
                                                            COMMENT
This data is provided as a public service by NASA/JPL.      COMMENT
No warranty is expressed or implied regarding suitability   COMMENT
for use.  For further information, contact:                 COMMENT
Dave Stowers, NASA/JPL m/s 238-600                          COMMENT
4800 Oak Grove Drive, Pasadena CA 91109 USA                 COMMENT
                                                            COMMENT
Forced Modulo Decimation to 30 seconds                      COMMENT
  2009     1    22     0     0    0.0000000     GPS         TIME OF FIRST OBS
DSN                 JPL                                     OBSERVER / AGENCY
451-U               AOAD/M_T        NONE                    ANT # / TYPE
  4849202.3940  -360328.9929  4114913.1862                  APPROX POSITION XYZ
        0.0254        0.0000        0.0000                  ANTENNA: DELTA H/E/N
LP03574             ASHTECH Z-XII3      CC00                REC # / TYPE / VERS
MADR                                                        MARKER NAME
13407S012                                                   MARKER NUMBER
                                                            END OF HEADER
 09  1 22  0  0  0.0000000  0 10G 9G26G 5G15G10G18G17G27G12G28
 111628261.96648  86983043.16848  21242168.4274   21242170.6924   21242168.9324
       242.000         209.000
 108816869.99348  84792371.17448  20707159.1274   20707161.3284   20707159.1924
       251.000         223.000
 132564650.20248 103297109.42548  25226230.6624   25226233.2654   25226228.0984
       200.000         146.000
 106805636.53248  83225165.87648  20324440.4044   20324441.6844   20324440.2264
       254.000         240.000
 127690427.69648  99499013.31848  24298696.9164   24298700.6734   24298697.5354
       217.000         161.000
 120382854.77548  93804820.31048  22908095.9474   22908098.5724   22908097.7024
       231.000         184.000
 124727270.85748  97190072.55348  23734817.4564   23734819.2914   23734816.0524
       225.000         179.000
 126042269.97748  98214745.27948  23985053.6254   23985056.6944   23985053.3784
       222.000         171.000
 126023471.59848  98200093.51748  23981482.3044   23981482.9054   23981482.8834
       225.000         171.000
 121981222.21248  95050297.09948  23212259.5904   23212261.2184   23212260.8034
       229.000         182.000
 09  1 22  0  0 30.0000000  0 10G 9G26G 5G15G10G18G17G27G12G28
 111563194.19048  86932341.02548  21229786.2644   21229788.8084   21229786.1034
       242.000         209.000
 108867814.00248  84832067.79848  20716853.3634   20716855.6764   20716853.4144
       250.000         223.000
 132448580.21848 103206665.31748  25204142.4884   25204146.4384   25204142.5584
       199.000         146.000
 106804812.37948  83224523.67348  20324283.5194   20324284.8334   20324283.3164
       254.000         241.000
 127801424.43248  99585504.27948  24319818.5834   24319822.2604   24319819.6214
       217.000         162.000
 120323953.05748  93758922.85148  22896888.2874   22896889.7674   22896888.5914
       231.000         187.000
 124677621.72548  97151384.93348  23725368.7844   23725370.9224   23725368.2574
       225.000         178.000
 126111031.88848  98268325.96148  23998138.0974   23998141.4264   23998138.0034
       221.000         170.000
 125912769.92448  98113832.50948  23960416.0554   23960417.1924   23960416.8734
       225.000         172.000
 122060046.82348  95111718.86548  23227259.4064   23227261.1394   23227259.8314
       228.000         182.000
 09  1 22  0  1  0.0000000  0 10G 9G26G 5G15G10G18G17G27G12G28
 111498407.97748  86881858.26248  21217457.8304   21217460.3234   21217457.9644
       243.000         210.000
 108919146.12948  84872066.85248  20726621.5064   20726623.9464   20726621.4274
       251.000         223.000
 132332559.11348 103116259.26548  25182064.7854   25182068.3204   25182064.2484
       199.000         146.000
 106804411.15948  83224211.03648  20324207.2354   20324208.3694   20324207.0064
       254.000         240.000
 127912448.11648  99672016.24248  24340945.7144   24340949.2574   24340945.5244
       218.000         162.000
 120265530.34348  93713398.66748  22885771.0334   22885772.7224   22885771.8284
       232.000         188.000
 124628364.80248  97113002.92548  23715995.7084   23715997.0784   23715996.1014
       223.000         177.000
 126179816.79148  98321924.57048  24011227.6854   24011230.6514   24011228.0624
       223.000         169.000
 125802217.96048  98027688.13248  23939378.4384   23939379.5134   23939378.5424
       225.000         174.000
 122139149.08248  95173356.98848  23242312.1824   23242313.3424   23242313.7434
       228.000         180.000
 09  1 22  0  1 30.0000000  0 10G 9G26G 5G15G10G18G17G27G12G28
 111433903.23648  86831594.84148  21205183.1054   21205185.5964   21205183.7084
       242.000         210.000
 108970865.20348  84912367.41848  20736463.3944   20736465.8244   20736463.3064
       252.000         223.000
 132216587.98948 103025892.15448  25159995.5334   25159999.7054   25159994.2534
       201.000         146.000
 106804432.92948  83224227.99548  20324211.4354   20324212.5194   20324211.2484
       254.000         240.000
 128023494.69348  99758546.04948  24362077.3864   24362080.8954   24362077.9154
       217.000         162.000
 120207587.78948  93668248.62748  22874744.7304   22874746.2794   22874744.7884
       232.000         187.000
 124579501.84248  97074927.87748  23706697.8254   23706699.4304   23706697.6134
       223.000         177.000
 126248623.89148  98375540.49248  24024320.9544   24024324.4214   24024320.9614
       222.000         169.000
 125691817.09748  97941661.47748  23918369.4814   23918370.4084   23918368.6174
       224.000         172.000
 122218525.91048  95235209.05948  23257416.8944   23257418.4894   23257417.4564
       228.000         181.000
 09  1 22  0  2  0.0000000  0 10G 9G26G 5G15G10G18G17G27G12G28
 111369681.19648  86781551.70448  21192961.9914   21192964.4724   21192962.1864
       243.000         210.000
 109022971.72748  84952969.89748  20746379.0644   20746381.2554   20746379.2174
       252.000         223.000
 132100669.86448 102935566.35748  25137937.4444   25137942.3314   25137937.5834
       206.000         148.000
 106804879.72748  83224576.14548  20324296.3764   20324297.6404   20324296.1964
       254.000         241.000
 128134563.09348  99845092.86648  24383212.7344   24383216.7884   24383214.4394
       218.000         157.000
 120150128.04348  93623474.79548  22863810.7314   22863811.9524   22863811.1654
       231.000         185.000
 124531036.01848  97037162.31448  23697474.8184   23697476.8314   23697474.6804
       220.000         176.000
 126317453.75848  98429174.12548  24037419.0244   24037422.0744   24037418.8904
       221.000         168.000
 125581570.51248  97855755.05248  23897389.5824   23897391.6554   23897389.0014
       224.000         175.000
 122298176.11348  95297274.14848  23272573.6574   23272575.8474   23272574.0844
       227.000         181.000
 09  1 22  0  2 30.0000000  0 10G 9G26G 5G15G10G18G17G27G12G28
 111305741.44748  86731728.54548  21180794.6754   21180797.1224   21180794.8954
       243.000         210.000
 109075464.43648  84993873.30448  20756368.0704   20756370.2484   20756368.0604
       251.000         224.000
 131984805.79248 102845282.65248  25115890.1234   25115893.4264   25115890.9724
       207.000         146.000
 106805751.46548  83225255.41748  20324462.3434   20324463.5074   20324462.1134
       255.000         241.000
 128245649.66748  99931653.86248  24404351.4594   24404355.7884   24404352.3764
       215.000         155.000
 120093152.31248  93579078.11548  22852968.7714   22852969.8994   22852968.5604
       231.000         186.000
 124482969.04548  96999707.54348  23688328.0604   23688329.4394   23688327.8714
       223.000         178.000
 126386305.46948  98482824.80748  24050520.6564   24050524.4334   24050520.9134
       218.000         167.000
 125471479.79248  97769970.07148  23876440.6394   23876442.6854   23876439.6304
       223.000         176.000
 122378096.56548  95359549.82748  23287782.0824   23287784.1454   23287783.0844
       226.000         180.000
 09  1 22  0  3  0.0000000  0 10G 9G26G 5G15G10G18G17G27G12G28
 111242084.72448  86682125.92248  21168680.9804   21168683.6534   21168681.1524
       242.000         210.000
 109128343.19748  85035077.52048  20766430.5964   20766432.9824   20766430.3824
       251.000         223.000
 131868998.11248 102755042.89348  25093852.1214   25093855.7944   25093851.6484
       204.000         147.000
 106807049.34848  83226266.74548  20324709.4594   20324710.4934   20324709.2214
       255.000         241.000
 128356752.46848 100018227.43248  24425492.9474   24425497.8304   24425493.9834
       215.000         158.000
 120036662.85848  93535060.36748  22842218.4194   22842220.3304   22842219.4614
       231.000         185.000
 124435303.43248  96962565.51948  23679257.3724   23679259.6594   23679257.4414
       222.000         178.000
 126455179.17848  98536492.62548  24063626.9214   24063630.8544   24063627.4604
       219.000         166.000
 125361547.32048  97684308.42948  23855521.5544   23855523.9114   23855521.2964
       225.000         176.000
 122458285.50848  95422034.70348  23303041.4794   23303043.5414   23303041.6764
       225.000         180.000
 09  1 22  0  3 30.0000000  0 10G 9G26G 5G15G10G18G17G27G12G28
 111178711.15448  86632743.92348  21156621.5354   21156623.8974   21156621.6154
       243.000         211.000
 109181606.99048  85076581.76048  20776566.1684   20776568.8584   20776565.9874
       251.000         223.000
 131753248.24348 102664848.19948  25071825.4854   25071828.7864   25071824.0624
       205.000         147.000
 106808773.90248  83227610.55048  20325037.3874   20325038.7004   20325037.1334
       255.000         241.000
 128467868.25848 100104811.17548  24446639.4354   24446642.3594   24446640.2514
       218.000         162.000
 119980660.76948  93491422.37948  22831561.8644   22831563.5914   22831562.3874
       230.000         184.000
 124388041.14648  96925737.76548  23670263.5744   23670265.3254   23670263.0574
       222.000         177.000
 126524074.31348  98590177.12448  24076737.3844   24076740.7954   24076737.8504
       220.000         166.000
 125251774.91948  97598771.52348  23834632.2234   23834634.7494   23834633.0524
       223.000         175.000
 122538739.92148  95484726.44648  23318352.0164   23318353.2114   23318351.9264
       226.000         180.000
 09  1 22  0  4  0.0000000  0 10G 9G26G 5G15G10G18G17G27G12G28
 111115621.74248  86583583.35148  21144616.3084   21144618.4974   21144616.1564
       244.000         211.000
 109235255.71548  85118385.95348  20786775.3154   20786777.6334   20786775.3354
       251.000         223.000
 131637558.40948 102574700.23448  25049810.0134   25049814.2414   25049811.6884
       208.000         150.000
 106810926.16748  83229287.63248  20325446.9284   20325448.2604   20325446.6794
       254.000         241.000
 128578994.53448 100191403.08148  24467785.4884   24467789.6874   24467786.3874
       214.000         160.000
 119925148.49248  93448166.06748  22820997.8214   22820999.4284   22820998.5544
       230.000         185.000
 124341184.65248  96889226.21548  23661347.4194   23661348.2824   23661347.5504
       222.000         177.000
 126592990.75448  98643878.21248  24089852.1644   24089855.5554   24089852.6224
       222.000         166.000
 125142164.78048  97513361.02748  23813773.8144   23813776.0114   23813773.5574
       224.000         175.000
 122619457.82948  95547623.51348  23333712.0774   23333713.2194   23333712.1084
       226.000         179.000
 09  1 22  0  4 30.0000000  0 10G 9G26G 5G15G10G18G17G27G12G28
 111052817.42948  86534644.94148  21132664.8394   21132667.1694   21132665.5094
       245.000         211.000
 109289289.52248  85160490.21648  20797057.6164   20797059.9314   20797057.5334
       251.000         223.000
 131521931.08048 102484600.97148  25027808.1854   25027811.4154   25027808.3864
       210.000         154.000
 106813507.37548  83231298.95648  20325938.2774   20325939.4754   20325938.0254
       255.000         241.000
 128690129.18148 100278001.47548  24488932.2944   24488938.5224   24488932.5954
       209.000         156.000
 119870128.13148  93405293.03848  22810528.3044   22810529.8354   22810528.4094
       229.000         185.000
 124294737.08848  96853033.31148  23652508.1454   23652510.2414   23652508.1884
       223.000         177.000
 126661928.94548  98697596.26348  24102970.4874   24102973.6294   24102970.6714
       219.000         166.000
 125032719.85948  97428079.26348  23792947.2064   23792948.9244   23792947.0204
       225.000         177.000
 122700437.37448  95610724.44648  23349121.9904   23349123.1484   23349122.4724
       226.000         180.000
 09  1 22  0  5  0.0000000  0 10G 9G26G 5G15G10G18G17G27G12G28
 110990298.16948  86485928.63548  21120767.7874   21120770.1894   21120768.1434
       243.000         211.000
 109343707.16848  85202893.56348  20807412.8574   20807415.3014   20807412.5444
       250.000         222.000
 131406367.72148 102394551.57848  25005816.6634   25005820.5544   25005815.3574
       211.000         156.000
 106816517.98748  83233644.88248  20326511.2854   20326512.3374   20326511.2574
       255.000         241.000
 128801269.75448 100364604.51848  24510081.9734   24510086.9274   24510082.6634
       212.000         154.000
 119815601.13548  93362804.47948  22800151.7564   22800153.6964   22800152.1624
       232.000         186.000
 124248700.19848  96817160.42148  23643748.2154   23643749.8724   23643747.8044
       225.000         178.000
 126730888.13348  98751330.66348  24116092.9694   24116096.5064   24116092.3794
       220.000         163.000
 124923441.88348  97342927.59748  23772152.4224   23772153.9564   23772152.5174
       223.000         176.000
 122781676.00848  95674027.27448  23364580.8674   23364582.2614   23364581.4304
       226.000         180.000
 09  1 22  0  5 30.0000000  0 10G 9G26G 5G15G10G18G17G27G12G28
 110928064.53748  86437434.91448  21108924.6934   21108927.8204   21108924.3214
       243.000         212.000
 109398508.80548  85245596.12148  20817841.3754   20817843.5974   20817841.1954
       251.000         222.000
 131290870.85848 102304554.00048  24983838.4044   24983842.4794   24983840.3224
       216.000         158.000
 106819959.24848  83236326.38048  20327165.9924   20327167.1854   20327165.7394
       254.000         241.000
 128912414.04948 100451210.46148  24531233.4194   24531235.9094   24531233.9124
       216.000         157.000
 119761569.71948  93320702.07148  22789870.4294   22789871.6544   22789870.5094
       233.000         188.000
 124203076.63848  96781609.60848  23635066.1034   23635067.8144   23635066.0914
       222.000         178.000
 126799868.88048  98805081.88248  24129219.5784   24129222.7114   24129220.3704
       219.000         163.000
 124814333.36048  97257907.99048  23751389.6034   23751391.5354   23751389.9634
       222.000         177.000
 122863171.67948  95737530.39148  23380089.1074   23380090.3684   23380088.8104
       226.000         180.000
 09  1 22  0  6  0.0000000  0 10G 9G26G 5G15G10G18G17G27G12G28
 110866116.63148  86389163.81548  21097136.6404   21097139.1184   21097136.3364
       243.000         211.000
 109453693.34348  85288597.05548  20828342.6384   20828345.0104   20828342.5704
       251.000         222.000
 131175441.75548 102214609.21648  24961873.7724   24961877.0634   24961875.9764
       215.000         156.000
 106823831.60448  83239343.79348  20327902.8684   20327904.1114   20327902.4784
       254.000         240.000
 129023558.76048 100537816.71948  24552383.9034   24552386.5364   24552385.4874
       213.000         153.000
 119708035.13748  93278986.82748  22779683.1554   22779684.8464   22779684.3094
       232.000         188.000
 124157868.20848  96746382.27048  23626463.2374   23626465.3044   23626462.4214
       225.000         179.000
 126868870.39248  98858849.25348  24142350.0604   24142353.2964   24142350.4674
       219.000         160.000
 124705395.90748  97173021.69948  23730659.3054   23730661.8544   23730659.0994
       223.000         179.000
 122944921.75748  95801231.73348  23395645.3474   23395647.0394   23395645.0724
       224.000         178.000
 09  1 22  0  6 30.0000000  0 10G 9G26G 5G15G10G18G17G27G12G28
 110804454.94248  86341115.75948  21085402.9194   21085405.6434   21085403.2104
       246.000         213.000
 109509260.30748  85331895.98948  20838916.7334   20838919.0814   20838916.7354
       251.000         222.000
 131060082.57248 102124718.95248  24939921.0574   24939924.8654   24939922.0934
       215.000         157.000
 106828135.60348  83242697.55448  20328721.8934   20328723.1164   20328721.6454
       254.000         240.000
 129134701.69248 100624421.61048  24573533.5804   24573536.6064   24573534.8354
       215.000         153.000
 119654999.25548  93237660.15448  22769590.8424   22769592.1234   22769591.1704
       233.000         188.000
 124113077.28348  96711480.25648  23617939.6374   23617941.6044   23617939.8604
       225.000         178.000
 126937892.62548  98912632.79848  24155484.7284   24155488.1194   24155485.1214
       216.000         161.000
 124596631.79348  97088270.45848  23709962.9604   23709964.6604   23709962.3404
       227.000         179.000
 123026924.08448  95865129.65548  23411249.7244   23411251.3414   23411249.9064
       227.000         177.000
 09  1 22  0  7  0.0000000  0 10G 9G26G 5G15G10G18G17G27G12G28
 110743079.76648  86293290.95248  21073723.7324   21073726.0044   21073724.2544
       245.000         212.000
 109565208.90848  85375492.29848  20849563.2924   20849565.7504   20849563.3644
       249.000         222.000
 130944794.95148 102034884.43048  24917983.5874   24917986.5754   24917985.0134
       214.000         157.000
 106832872.06048  83246388.29448  20329623.1764   20329624.4584   20329622.8364
       254.000         240.000
 129245839.68948 100711022.67548  24594682.2524   24594685.6024   24594682.9774
       214.000         158.000
 119602463.21348  93196722.97848  22759593.6044   22759595.2194   22759594.2594
       233.000         189.000
 124068705.80648  96676905.09148  23609496.0084   23609497.2794   23609495.8934
       225.000         180.000
 127006935.07948  98966432.11648  24168622.4684   24168626.6294   24168623.9694
       216.000         161.000
 124488042.99748  97003655.82248  23689299.9274   23689300.8094   23689300.1994
       227.000         181.000
 123109176.40548  95929222.37548  23426901.9554   23426903.6144   23426902.3754
       227.000         179.000
 09  1 22  0  7 30.0000000  0 10G 9G26G 5G15G10G18G17G27G12G28
 110681990.49948  86245688.94048  21062098.5564   21062101.1894   21062098.9634
       246.000         213.000
 109621537.72248  85419384.86448  20860282.2504   20860284.6924   20860282.0534
       249.000         222.000
 130829579.93848 101945106.52048  24896057.9884   24896061.8824   24896059.1054
       215.000         157.000
 106838040.75748  83250415.84648  20330606.8984   20330607.9954   20330606.8224
       254.000         240.000
 129356969.29248 100797617.15148  24615828.7534   24615832.6954   24615830.0514
       209.000         155.000
 119550428.24648  93156176.25648  22749691.7874   22749693.2294   22749692.3084
       231.000         188.000
 124024755.30348  96642657.95848  23601132.5894   23601134.9624   23601133.1434
       225.000         180.000
 127075996.56748  99020246.21548  24181765.3984   24181767.9654   24181765.1354
       215.000         160.000
 124379630.85348  96919178.83448  23668669.6334   23668671.0684   23668669.9534
       230.000         180.000
 123191674.84448  95993506.86248  23442601.1074   23442602.8894   23442601.7004
       227.000         178.000
 09  1 22  0  8  0.0000000  0 10G 9G26G 5G15G10G18G17G27G12G28
 110621188.81448  86198311.00748  21050528.7244   21050531.1574   21050528.9944
       246.000         213.000
 109678246.63248  85463573.61448  20871073.5834   20871076.1494   20871073.3384
       250.000         222.000
 130714440.11948 101855387.17848  24874147.4324   24874150.5974   24874147.7664
       207.000         155.000
 106843642.87148  83254781.11848  20331672.7994   20331674.0274   20331672.5064
       254.000         240.000
 129468088.69648 100884203.63048  24636974.3754   24636978.3354   24636973.6754
       211.000         153.000
 119498896.65848  93116021.77748  22739885.0654   22739886.6624   22739885.4244
       233.000         187.000
 123981228.49148  96608740.97148  23592849.4814   23592851.6394   23592849.7614
       225.000         181.000
 127145077.70248  99074075.67048  24194911.0624   24194913.9344   24194911.0484
       215.000         159.000
 124271398.01348  96834841.56348  23648072.9964   23648075.0934   23648073.3084
       224.000         179.000
 123274417.93748  96057982.00348  23458346.2314   23458348.4824   23458346.5874
       226.000         178.000
 09  1 22  0  8 30.0000000  0 10G 9G26G 5G15G10G18G17G27G12G28
 110560677.39948  86151159.25848  21039013.5874   21039016.2124   21039013.7634
       245.000         213.000
 109735337.73448  85508060.18748  20881937.7324   20881940.1794   20881937.4534
       251.000         221.000
 130599379.83948 101765729.83248  24852251.3244   24852254.8014   24852251.3564
       213.000         152.000
 106849682.06648  83259486.98348  20332822.1194   20332823.3404   20332821.8744
       254.000         240.000
 129579198.06148 100970782.36648  24658118.2884   24658121.1374   24658119.1194
       215.000         153.000
 119447872.45648  93076262.65648  22730175.3704   22730176.9524   22730175.9934
       231.000         186.000
 123938129.87748  96575157.65648  23584648.3994   23584650.0254   23584648.4644
       223.000         180.000
 127214180.77848  99127922.18648  24208060.8224   24208063.7304   24208061.1494
       216.000         157.000
 124163349.13148  96750647.63048  23627511.2304   23627513.9274   23627510.0644
       224.000         179.000
 123357405.99548  96122648.02048  23474138.4024   23474140.4414   23474139.1544
       227.000         178.000
 09  1 22  0  9  0.0000000  0 10G 9G26G 5G15G10G18G17G27G12G28
 110500456.15848  86104233.62748  21027553.7904   21027556.3754   21027553.7754
       246.000         214.000
 109792810.04648  85552843.80548  20892874.3044   20892876.9024   20892874.3814
       250.000         221.000
 130484400.67448 101676135.65948  24830372.3924   24830374.5954   24830373.9864
       212.000         154.000
 106856158.45548  83264533.51348  20334054.4634   20334055.7634   20334054.3004
       254.000         240.000
 129690294.15548 101057350.80348  24679258.9884   24679261.8944   24679259.5804
       218.000         154.000
 119397357.27348  93036900.18748  22720562.0714   22720564.4374   22720563.0474
       229.000         185.000
 123895461.61848  96541909.65748  23576528.6144   23576531.1704   23576529.0104
       224.000         180.000
 127283305.43448  99181785.55048  24221214.3704   24221217.7804   24221215.1864
       213.000         156.000
 124055486.02548  96666598.46348  23606985.3544   23606987.9514   23606984.7914
       223.000         177.000
 123440636.26648  96187502.76548  23489976.4254   23489978.4894   23489977.1704
       225.000         177.000
 09  1 22  0  9 30.0000000  0 10G 9G26G 5G15G10G18G17G27G12G28
 110440524.81948  86057533.88748  21016149.4154   21016151.7884   21016149.4004
       247.000         214.000
 109850662.19148  85597923.39548  20903882.9854   20903885.8414   20903882.8034
       249.000         221.000
 130369503.75648 101586605.61848  24808508.1244   24808510.6804   24808509.2144
       210.000         153.000
 106863071.79648  83269920.52848  20335370.0944   20335371.2254   20335369.8284
       254.000         240.000
 129801373.80748 101143906.40348  24700397.0424   24700400.6104   24700398.1504
       212.000         153.000
 119347352.09048  92997935.09348  22711046.9424   22711048.5434   22711047.0104
       231.000         186.000
 123853224.76448  96508997.83048  23568491.3874   23568493.2074   23568491.5134
       224.000         180.000
 127352450.62348  99235664.88248  24234372.8824   24234375.7994   24234372.7954
       215.000         157.000
 123947810.01148  96582695.08148  23586495.7284   23586497.3854   23586495.9094
       228.000         180.000
 123524105.65648  96252543.84948  23505860.3204   23505862.0284   23505860.9754
       226.000         175.000
 09  1 22  0 10  0.0000000  0 10G 9G26G 5G15G10G18G17G27G12G28
 110380883.06048  86011059.79848  21004799.7314   21004802.1414   21004799.8284
       246.000         214.000
 109908892.72848  85643297.82848  20914964.0434   20914966.5864   20914963.9694
       249.000         221.000
 130254690.18348 101497140.51548  24786660.7534   24786663.4314   24786662.2144
       209.000         155.000
 106870422.55648  83275648.38548  20336768.8004   20336770.0794   20336768.5114
       254.000         240.000
 129912433.50548 101230446.39248  24721530.6704   24721535.2304   24721532.3754
       213.000         156.000
 119297857.00648  92959367.49148  22701628.4554   22701630.1814   22701628.4054
       231.000         187.000
 123811420.66248  96476423.21048  23560536.1024   23560537.8064   23560535.7294
       224.000         180.000
 127421615.35948  99289559.45248  24247534.7444   24247537.1644   24247536.0084
       215.000         158.000
 123840322.15248  96498938.32648  23566041.9124   23566042.9584   23566042.7734
       227.000         180.000
 123607810.94648  96317768.74448  23521789.0504   23521790.6984   23521790.0444
       225.000         176.000
 09  1 22  0 10 30.0000000  0 10G 9G26G 5G15G10G18G17G27G12G28
 110321532.22148  85964812.40148  20993505.8044   20993508.3944   20993505.9154
       246.000         214.000
 109967502.31548  85688967.62748  20926117.1994   20926119.6344   20926117.1144
       249.000         220.000
 130139963.23348 101407742.93848  24764827.9524   24764831.0824   24764829.2444
       210.000         153.000
 106878212.32648  83281718.33648  20338251.1724   20338252.4374   20338250.8464
       254.000         240.000
 130023472.39148 101316970.17748  24742660.6044   24742664.8724   24742661.7594
       213.000         158.000
 119248875.12548  92921199.79048  22692307.3904   22692309.2644   22692307.3994
       233.000         188.000
 123770052.59648  96444188.37548  23552664.3114   23552665.8634   23552663.9114
       225.000         180.000
 127490800.91948  99343470.25848  24260699.7774   24260702.1354   24260700.2294
       207.000         157.000
 123733026.46548  96415331.30348  23545624.0574   23545624.9934   23545623.6674
       227.000         180.000
 123691751.32848  96383176.84648  23537762.1554   23537764.0744   23537761.7104
       226.000         176.000
 09  1 22  0 11  0.0000000  0 10G 9G26G 5G15G10G18G17G27G12G28
 110262473.32648  85918792.49548  20982267.1374   20982269.7014   20982267.7474
       246.000         214.000
 110026490.50248  85734932.44948  20937342.2014   20937344.8324   20937342.0764
       249.000         220.000
 130025325.03248 101318414.48848  24743012.8984   24743016.3684   24743013.8264
       207.000         153.000
 106886441.90748  83288130.99448  20339817.2474   20339818.4784   20339816.9534
       254.000         240.000
 130134488.02448 101403475.87448  24763786.3654   24763790.3434   24763786.7014
       213.000         156.000
 119200408.41948  92883433.52948  22683084.7414   22683086.2374   22683085.3614
       234.000         188.000
 123729123.36348  96412295.45548  23544875.6314   23544877.6324   23544875.0594
       224.000         180.000
 127560007.36848  99397397.34748  24273868.6744   24273872.4714   24273867.7104
       208.000         156.000
 123625925.09848  96331875.70248  23525243.2904   23525244.8214   23525242.9364
       228.000         181.000
 123775924.68848  96448766.46548  23553780.2094   23553781.7444   23553781.0344
       228.000         178.000
 09  1 22  0 11 30.0000000  0 10G 9G26G 5G15G10G18G17G27G12G28
 110203705.56548  85872999.44948  20971083.9784   20971086.5294   20971084.6214
       246.000         214.000
 110085855.44548  85781190.83148  20948638.9654   20948641.5534   20948638.8854
       250.000         220.000
 129910776.23448 101229155.71548  24721214.3774   24721218.2534   24721214.5184
       211.000         154.000
 106895110.85648  83294886.01548  20341466.8474   20341468.1464   20341466.6204
       253.000         240.000
 130245476.21448 101489960.18548  24784906.8884   24784910.4264   24784907.8184
       210.000         152.000
 119152457.16848  92846068.91948  22673960.0004   22673961.4034   22673960.8344
       234.000         188.000
 123688633.53448  96380744.98648  23537170.7024   23537172.4014   23537169.9854
       224.000         181.000
 127629233.08848  99451339.42748  24287042.1504   24287046.4064   24287042.3164
       212.000         158.000
 123519018.54648  96248571.89348  23504899.6534   23504901.3144   23504899.8454
       226.000         182.000
 123860327.48148  96514534.88948  23569841.4374   23569843.1604   23569842.6484
       227.000         177.000
 09  1 22  0 12  0.0000000  0 10G 9G26G 5G15G10G18G17G27G12G28
 110145230.03448  85827434.11248  20959956.6154   20959958.9174   20959956.7204
       247.000         214.000
 110145597.42148  85827743.01148  20960007.5324   20960010.1664   20960007.5044
       249.000         220.000
 129796319.59348 101139968.73848  24699434.7034   24699437.8024   24699435.4124
       212.000         154.000
 106904220.45448  83301984.39948  20343200.4374   20343201.6054   20343200.2194
       254.000         240.000
 130356435.84048 101576422.20748  24806020.3864   24806024.6584   24806021.4424
       207.000         146.000
 119105023.74248  92809107.80348  22664933.6244   22664935.2924   22664933.5954
       232.000         189.000
 123648586.26448  96349539.32748  23529549.9404   23529551.6924   23529549.5004
       225.000         181.000
 127698478.89448  99505297.17448  24300219.8514   24300223.6914   24300220.7154
       212.000         159.000
 123412310.09248  96165422.46048  23484593.2704   23484595.7854   23484592.5514
       226.000         183.000
 123944958.28948  96580480.95848  23585945.8234   23585947.9024   23585946.9674
       226.000         177.000
 09  1 22  0 12 30.0000000  0 10G 9G26G 5G15G10G18G17G27G12G28
 110087047.22548  85782096.86748  20948884.7904   20948887.0974   20948885.1794
       247.000         215.000
 110205715.45048  85874588.22548  20971447.6194   20971450.1894   20971447.4564
       250.000         220.000
 129681956.91048 101050854.97348  24677672.7824   24677674.6754   24677673.0674
       215.000         155.000
 106913771.58848  83309426.83748  20345017.8824   20345019.1604   20345017.7184
       254.000         240.000
 130467364.00548 101662859.76048  24827129.6624   24827132.7964   24827129.6994
       212.000         145.000
 119058109.62448  92772551.33848  22656006.2324   22656007.5184   22656006.9354
       232.000         186.000
 123608983.11448  96318679.74648  23522013.5654   23522015.0664   23522013.1974
       226.000         180.000
 127767744.81748  99559270.58848  24313400.4194   24313404.3014   24313401.3974
       211.000         157.000
 123305801.37948  96082428.65148  23464325.7074   23464328.0004   23464325.2924
       227.000         181.000
 124029814.64948  96646602.77948  23602093.7804   23602095.4554   23602094.1994
       227.000         177.000
 09  1 22  0 13  0.0000000  0 10G 9G26G 5G15G10G18G17G27G12G28
 110029157.61548  85736988.09548  20937868.7154   20937870.9614   20937869.1114
       247.000         215.000
 110266208.94148  85921726.00148  20982959.3324   20982961.6274   20982959.3314
       249.000         220.000
 129567689.99148 100961815.81448  24655928.4944   24655929.8704   24655929.2464
       211.000         152.000
 106923764.67248  83317213.65348  20346919.4394   20346920.8984   20346919.1754
       253.000         240.000
 130578258.03948 101749270.70348  24848232.7234   24848236.3554   24848234.4994
       215.000         154.000
 119011716.45048  92736400.81848  22647177.9024   22647179.2534   22647178.5114
       234.000         188.000
 123569826.25148  96288167.90548  23514562.4484   23514563.9924   23514561.8644
       224.000         181.000
 127837030.45648  99613259.36648  24326585.8314   24326589.0684   24326585.7874
       209.000         157.000
 123199494.53548  95999592.16548  23444095.8274   23444098.2404   23444096.2344
       227.000         183.000
 124114894.21148  96712898.55048  23618284.0784   23618285.4184   23618285.5404
       228.000         175.000
 09  1 22  0 13 30.0000000  0 10G 9G26G 5G15G10G18G17G27G12G28
 109971560.61848  85692107.32848  20926908.4834   20926910.6734   20926908.7434
       247.000         215.000
 110327076.18748  85969155.01548  20994541.8094   20994544.3874   20994541.7124
       249.000         220.000
 129453519.91148 100872852.13748  24634201.7044   24634204.3224   24634203.2474
       209.000         153.000
 106934199.23548  83325344.47448  20348905.1234   20348906.5404   20348904.7534
       254.000         240.000
 130689114.67848 101835652.47248  24869328.6164   24869331.9624   24869329.7224
       215.000         160.000
 118965844.51748  92700656.45348  22638448.5484   22638450.6904   22638449.5794
       233.000         188.000
 123531116.70648  96258004.63048  23507195.5344   23507197.9354   23507195.1464
       224.000         181.000
 127906334.76148  99667262.69348  24339773.0504   24339776.8714   24339773.3284
       212.000         159.000
 123093391.12348  95916914.17448  23423905.5714   23423907.0704   23423906.1134
       226.000         182.000
 124200193.54448  96779365.56548  23634516.1224   23634517.2584   23634516.5524
       228.000         177.000
 09  1 22  0 14  0.0000000  0 10G 9G26G 5G15G10G18G17G27G12G28
 109914258.48448  85647456.33248  20916004.0554   20916006.7734   20916004.5724
       247.000         216.000
 110388318.76248  86016876.49648  21006196.0884   21006198.4424   21006195.9684
       250.000         219.000
 129339450.55648 100783966.95848  24612495.8724   24612498.0614   24612495.9324
       216.000         158.000
 106945078.26148  83333821.63048  20350975.4324   20350976.7474   20350975.2974
       253.000         240.000
 130799933.39748 101922004.69248  24890415.6924   24890419.3764   24890417.4284
       211.000         156.000
 118920497.26948  92665320.94048  22629819.4404   22629821.0884   22629820.2674
       235.000         189.000
 123492858.79648  96228193.28248  23499915.9454   23499917.4714   23499915.2774
       223.000         181.000
 127975659.61748  99721282.02148  24352965.3144   24352968.6704   24352965.5724
       211.000         159.000
 122987495.09348  95834397.79648  23403754.0314   23403755.1804   23403753.0974
       226.000         182.000
 124285712.69348  96846003.86648  23650789.6454   23650790.7684   23650789.9824
       226.000         175.000
 09  1 22  0 14 30.0000000  0 10G 9G26G 5G15G10G18G17G27G12G28
 109857250.78648  85603034.75348  20905156.0494   20905158.3844   20905156.1264
       247.000         216.000
 110449934.86548  86064889.03348  21017921.0634   21017923.4734   21017920.9084
       250.000         219.000
 129225482.98848 100695161.08348  24590808.7424   24590811.3964   24590809.8694
       215.000         161.000
 106956401.36948  83342644.82548  20353129.9464   20353131.5394   20353129.7484
       253.000         240.000
 130910710.62048 102008324.54648  24911495.5004   24911499.2414   24911495.9974
       201.000         138.000
 118875675.16348  92630394.62948  22621290.1854   22621291.6614   22621290.9774
       235.000         190.000
 123455053.50948  96198734.62448  23492721.6154   23492723.5304   23492720.8914
       225.000         181.000
 128045004.17748  99775316.75748  24366160.9944   24366164.5144   24366161.2004
       210.000         157.000
 122881807.63348  95752043.92148  23383642.6874   23383643.2144   23383642.1074
       228.000         182.000
 124371448.37448  96912810.88548  23667104.4514   23667105.7914   23667104.8594
       226.000         177.000
 09  1 22  0 15  0.0000000  0 10G 9G26G 5G15G10G18G17G27G12G28
 109800538.33848  85558843.24748  20894363.8714   20894366.4284   20894364.0574
       247.000         216.000
 110511924.18648  86113192.39348  21029717.2534   21029719.6994   21029717.2504
       249.000         219.000
 129111619.39848 100606436.25048  24569140.6634   24569144.4954   24569141.1904
       211.000         161.000
 106968169.21048  83351814.56748  20355369.3844   20355370.9004   20355369.1294
       254.000         240.000
 131021443.90348 102094610.29448  24932566.5964   24932567.9924   24932566.9774
       207.000         138.000
 118831380.11448  92595879.00748  22612860.8544   22612862.6434   22612861.3624
       234.000         188.000
 123417703.02348  96169630.35348  23485613.8384   23485615.8664   23485613.2724
       226.000         180.000
 128114368.60848  99829366.95348  24379360.5594   24379364.3724   24379360.9744
       207.000         158.000
 122776331.01848  95669854.35748  23363570.6504   23363571.4154   23363571.2484
       228.000         182.000
 124457398.58548  96979785.06348  23683460.5654   23683461.8024   23683460.7374
       227.000         178.000
 09  1 22  0 15 30.0000000  0 10G 9G26G 5G15G10G18G17G27G12G28
 109744122.32548  85514882.71748  20883628.2274   20883630.6524   20883628.7904
       246.000         216.000
 110574286.65948  86161786.52148  21041584.3824   21041587.1784   21041584.2114
       248.000         219.000
 128997862.50648 100517794.52748  24547493.0074   24547496.9484   24547493.1004
       211.000         160.000
 106980383.33748  83361332.06348  20357693.8364   20357695.1434   20357693.5934
       253.000         240.000
 131132132.08648 102180860.88248  24953630.5794   24953634.4264   24953631.9584
       216.000         153.000
 118787614.47948  92561775.91148  22604532.5584   22604533.7864   22604533.0484
       235.000         190.000
 123380810.02648  96140882.59148  23478593.4534   23478595.7834   23478593.8614
       224.000         181.000
 128183753.55648  99883433.11248  24392564.7184   24392567.9684   24392565.2964
       210.000         157.000
 122671068.23248  95587831.42048  23343540.1784   23343541.0874   23343539.7194
       229.000         185.000
 124543561.93748  97046925.32948  23699856.8454   23699858.2674   23699857.4874
       226.000         176.000
 09  1 22  0 16  0.0000000  0 10G 9G26G 5G15G10G18G17G27G12G28
 109688001.79248  85471152.43948  20872948.9414   20872951.3994   20872948.9384
       247.000         216.000
 110637020.40948  86210669.95248  21053522.1894   21053524.9094   21053521.9504
       248.000         218.000
 128884212.86548 100429236.36648  24525865.9654   24525869.7044   24525866.2134
       215.000         160.000
 106993042.79448  83371196.56648  20360102.7984   20360104.0574   20360102.6134
       254.000         239.000
 131242771.54248 102267073.41748  24974684.5674   24974689.3484   24974685.7154
       211.000         156.000
 118744378.40548  92528085.45248  22596305.2314   22596306.4734   22596305.4044
       236.000         190.000
 123344375.22248  96112491.84348  23471659.8094   23471662.3524   23471659.7664
       226.000         181.000
 128253157.66948  99937514.21048  24405771.6694   24405774.6884   24405771.4864
       209.000         156.000
 122566019.94648  95505975.61048  23323550.4044   23323551.7414   23323550.1034
       229.000         185.000
 124629934.77548  97114228.83048  23716292.9244   23716294.5144   23716293.4884
       225.000         175.000
 09  1 22  0 16 30.0000000  0 10G 9G26G 5G15G10G18G17G27G12G28
 109632177.59948  85427653.07148  20862325.9454   20862328.1434   20862326.2784
       247.000         216.000
 110700124.87448  86259842.26048  21065530.6074   21065533.1314   21065530.4234
       248.000         218.000
 128770672.72148 100340763.54748  24504260.4454   24504263.8574   24504261.5664
       214.000         161.000
 107006148.61148  83381408.89048  20362596.7294   20362598.0324   20362596.6144
       253.000         239.000
 131353359.67848 102353245.92648  24995730.5144   24995732.8234   24995730.9954
       206.000         149.000
 118701673.52048  92494808.92648  22588178.9084   22588180.5194   22588179.4994
       236.000         192.000
 123308400.92548  96084459.93848  23464814.2784   23464816.1594   23464814.0374
       225.000         181.000
 128322581.07148  99991610.33148  24418981.6324   24418985.4904   24418981.0074
       213.000         158.000
 122461188.70548  95424288.94348  23303601.4104   23303603.4394   23303601.0844
       228.000         187.000
 124716514.96248  97181693.91548  23732768.5694   23732770.0044   23732768.5564
       225.000         176.000
 09  1 22  0 17  0.0000000  0 10G 9G26G 5G15G10G18G17G27G12G28
 109576650.63748  85384385.30848  20851759.3034   20851761.7664   20851759.3394
       246.000         216.000
 110763599.92648  86309303.33548  21077609.6164   21077611.9164   21077609.4014
       249.000         218.000
 128657244.43348 100252377.90248  24482676.0954   24482679.6454   24482676.8394
       218.000         164.000
 107019701.91848  83391969.90248  20365175.6524   20365177.2204   20365175.3514
       253.000         239.000
 131463894.44548 102439376.86348  25016764.0514   25016765.8994   25016765.5374
       213.000         147.000
 118659501.43548  92461947.54748  22580153.9974   22580155.3634   22580154.2484
       235.000         192.000
 123272889.68248  96056788.83748  23458057.1154   23458059.0344   23458057.0094
       226.000         181.000
 128392024.18148 100045721.84048  24432196.5174   24432200.2584   24432196.6704
       210.000         158.000
 122356576.73148  95342773.12648  23283694.3814   23283696.2754   23283693.9364
       227.000         185.000
 124803300.95148  97249319.35148  23749283.3824   23749285.0954   23749283.4294
       226.000         177.000
 09  1 22  0 17 30.0000000  0 10G 9G26G 5G15G10G18G17G27G12G28
 109521420.34648  85341348.73148  20841249.4134   20841251.8564   20841249.2814
       246.000         217.000
 110827443.89848  86359051.87948  21089758.6564   21089761.1514   21089758.5064
       249.000         218.000
 128543929.16348 100164080.32248  24461113.5394   24461116.6734   24461115.1104
       218.000         164.000
 107033702.30948  83402879.29448  20367839.9694   20367841.3664   20367839.6394
       253.000         239.000
 131574372.84448 102525463.98648  25037787.7214   25037789.1044   25037788.3784
       215.000         148.000
 118617862.68448  92429501.76748  22572229.8744   22572231.6854   22572230.3264
       234.000         191.000
 123237842.25948  96029479.16448  23451387.8384   23451389.7314   23451387.7464
       227.000         180.000
 128461486.06048 100099847.95748  24445415.1034   24445418.8124   24445414.8184
       211.000         160.000
 122252185.45748  95261429.28948  23263829.2424   23263831.0864   23263830.0474
       228.000         186.000
 124890289.36748  97317102.51948  23765836.4954   23765838.6634   23765836.9214
       226.000         178.000
 09  1 22  0 18  0.0000000  0 10G 9G26G 5G15G10G18G17G27G12G28
 109466487.37348  85298543.81548  20830796.0144   20830798.5784   20830796.3074
       247.000         217.000
 110891656.34948  86409087.54348  21101977.9214   21101980.4754   21101977.8734
       249.000         218.000
 128430728.99748 100075872.40148  24439571.1624   24439575.0414   24439572.4584
       216.000         162.000
 107048150.33348  83414137.49048  20370589.4444   20370590.7044   20370589.2994
       252.000         239.000
 131684792.66148 102611505.44148  25058800.2554   25058802.4014   25058802.1764
       211.000         146.000
 118576759.22648  92397473.09448  22564408.5884   22564409.6214   22564409.1834
       236.000         192.000
 123203260.88848  96002532.63848  23444807.3474   23444808.5574   23444807.1254
       227.000         180.000
 128530966.94148 100153988.87748  24458636.7714   24458640.5194   24458636.8944
       207.000         158.000
 122148017.26648  95180259.27848  23244007.1004   23244008.9814   23244006.5854
       228.000         186.000
 124977478.08148  97385041.76848  23782428.3174   23782430.2494   23782429.4294
       227.000         176.000
 09  1 22  0 18 30.0000000  0 10G 9G26G 5G15G10G18G17G27G12G28
 109411853.55348  85255972.01948  20820399.4284   20820402.0504   20820399.5134
       246.000         216.000
 110956237.60648  86459410.59848  21114267.2894   21114269.7474   21114267.1914
       249.000         218.000
 128317647.05248  99987756.59848  24418052.2084   24418055.9294   24418052.5704
       211.000         159.000
 107063047.87548  83425745.96348  20373424.1704   20373425.5424   20373424.0054
       252.000         238.000
 131795152.49548 102697500.02148  25079799.3894   25079804.3284   25079801.2004
       206.000         147.000
 118536193.17248  92365863.19048  22556689.2574   22556690.2204   22556689.8454
       236.000         192.000
 123169148.57348  95975951.62848  23438315.7644   23438317.1504   23438315.4654
       228.000         182.000
 128600467.81748 100208145.38948  24471863.3124   24471865.8774   24471863.9534
       211.000         158.000
 122044075.60448  95099265.80848  23224227.2394   23224229.3104   23224227.4124
       229.000         186.000
 125064866.68948  97453136.80348  23799057.4794   23799059.4234   23799057.7254
       226.000         173.000
 09  1 22  0 19  0.0000000  0 10G 9G26G 5G15G10G18G17G27G12G28
 109357517.90048  85213632.55048  20810059.8944   20810062.1504   20810059.9514
       247.000         217.000
 111021185.53948  86510019.37048  21126626.4894   21126629.1374   21126626.3844
       248.000         218.000
 128204683.84248  99899733.31848  24396555.6384   24396559.4304   24396555.9104
       215.000         159.000
 107078394.26848  83437704.18248  20376344.4034   20376345.8354   20376344.1134
       252.000         238.000
 131905448.42748 102783444.86948  25100788.0244   25100791.6484   25100788.1734
       210.000         151.000
 118496164.78948  92334672.23848  22549071.8824   22549072.9464   22549072.7874
       236.000         192.000
 123135506.12348  95949736.76248  23431913.6064   23431915.3794   23431913.4624
       226.000         182.000
 128669987.42348 100262316.50148  24485091.2144   24485094.7804   24485092.2464
       214.000         158.000
 121940360.68848  95018448.98148  23204491.2294   23204492.4604   23204491.4124
       227.000         184.000
 125152451.29648  97521384.53248  23815724.5754   23815726.0734   23815725.0414
       226.000         172.000
 09  1 22  0 19 30.0000000  0 10G 9G26G 5G15G10G18G17G27G12G28
 109303481.99748  85171526.66748  20799776.9044   20799779.4954   20799777.2484
       247.000         217.000
 111086500.85148  86560914.41348  21139055.7814   21139058.1584   21139055.6554
       248.000         218.000
 128091842.70748  99811805.17848  24375083.4254   24375086.9884   24375085.2834
       215.000         161.000
 107094191.11348  83450013.40648  20379350.4644   20379351.9574   20379350.1224
       252.000         238.000
 132015679.29048 102869339.09848  25121764.6604   25121767.4534   25121765.6984
       209.000         148.000
 118456676.52748  92303902.17048  22541556.9384   22541559.1624   22541557.6204
       234.000         192.000
 123102336.23748  95923890.10548  23425601.8214   23425603.8934   23425601.4794
       226.000         183.000
 128739527.09248 100316503.25948  24498325.2684   24498328.1924   24498325.8994
       210.000         161.000
 121836876.08348  94937811.64148  23184798.0794   23184799.8694   23184798.0934
       228.000         185.000
 125240230.87848  97589784.21748  23832428.4974   23832429.9274   23832428.8464
       227.000         171.000
 09  1 22  0 20  0.0000000  0 10G 9G26G 5G15G10G18G17G27G12G28
 109249745.75248  85129654.27048  20789551.3964   20789553.9564   20789551.2374
       247.000         217.000
 111152182.02448  86612094.54448  21151554.3064   21151556.6894   21151554.2944
       249.000         217.000
 127979124.76948  99723973.05248  24353634.4824   24353637.4934   24353634.3254
       217.000         162.000
 107110438.20148  83462673.46848  20382442.2004   20382443.7314   20382441.9604
       252.000         238.000
 132125842.36448 102955180.45748  25142728.7804   25142731.2754   25142729.5604
       209.000         146.000
 118417729.17048  92273553.56748  22534145.4584   22534147.7494   22534145.9234
       235.000         193.000
 123069640.52448  95898412.92048  23419380.1884   23419382.0924   23419379.9404
       228.000         184.000
 128809086.08248 100370705.04748  24511561.0284   24511564.6554   24511560.7954
       213.000         161.000
 121733623.30448  94857354.93648  23165149.7454   23165151.9264   23165149.2824
       229.000         187.000
 125328202.69248  97658333.67148  23849169.1174   23849170.4154   23849169.4574
       225.000         174.000
 09  1 22  0 20 30.0000000  0 10G 9G26G 5G15G10G18G17G27G12G28
 109196309.90048  85088015.95148  20779383.0544   20779385.2604   20779383.2284
       248.000         218.000
 111218228.57348  86663559.37648  21164122.4124   21164125.1044   21164122.2724
       248.000         217.000
 127866532.42848  99636238.77748  24332208.8474   24332211.4064   24332208.9674
       219.000         164.000
 107127136.30848  83475684.97748  20385619.8154   20385621.2164   20385619.6444
       252.000         238.000
 132235935.56748 103040967.32448  25163677.9064   25163680.9334   25163679.9214
       209.000         147.000
 118379324.04848  92243627.50548  22526837.5394   22526839.2654   22526838.4854
       236.000         193.000
 123037420.98248  95873306.79248  23413248.9704   23413250.8444   23413248.4964
       229.000         185.000
 128878664.60448 100424922.05148  24524801.7694   24524805.1514   24524802.6634
       211.000         161.000
 121630604.67648  94777080.70448  23145546.0634   23145548.3674   23145545.9324
       227.000         187.000
 125416364.55948  97727031.23848  23865945.8644   23865947.1284   23865946.2804
       226.000         177.000
 09  1 22  0 21  0.0000000  0 10G 9G26G 5G15G10G18G17G27G12G28
 109143174.55048  85046611.78448  20769271.9284   20769274.2364   20769271.9484
       247.000         218.000
 111284639.72848  86715308.32848  21176760.0664   21176762.6114   21176759.9334
       248.000         216.000
 127754067.39248  99548603.66948  24310806.9824   24310810.2224   24310807.2204
       217.000         165.000
 107144285.99648  83489048.36848  20388883.2844   20388884.6604   20388883.1594
       252.000         238.000
 132345956.37748 103126697.77248  25184614.1304   25184618.1094   25184615.2274
       207.000         147.000
 118341462.29448  92214124.83848  22519632.6664   22519634.2374   22519633.5374
       236.000         193.000
 123005678.99348  95848572.78348  23407208.7124   23407210.6864   23407208.4344
       230.000         186.000
 128948262.80848 100479154.39448  24538045.9974   24538048.5564   24538047.2684
       214.000         161.000
 121527822.14448  94696990.42948  23125986.9484   23125989.1794   23125986.4424
       230.000         188.000
 125504714.37548  97795875.23348  23882758.3054   23882759.8794   23882758.8284
       227.000         176.000
 09  1 22  0 21 30.0000000  0 10G 9G26G 5G15G10G18G17G27G12G28
 109090340.58848  85005442.47148  20759217.6684   20759220.2364   20759217.9134
       247.000         218.000
 111351414.40548  86767340.53648  21189467.0224   21189469.4604   21189466.9464
       248.000         216.000
 127641731.70548  99461069.34648  24289429.9744   24289433.3264   24289429.8634
       216.000         165.000
 107161887.58048  83502763.87948  20392232.7434   20392234.1354   20392232.4114
       252.000         238.000
 132455902.50348 103212370.09048  25205536.7174   25205540.1814   25205538.3654
       210.000         148.000
 118304145.09648  92185046.50748  22512531.5334   22512533.2394   22512532.1324
       236.000         192.000
 122974416.67848  95824212.54248  23401259.6484   23401260.9664   23401259.5924
       228.000         185.000
 129017880.39248 100533401.82248  24551293.7154   24551296.0274   24551293.8054
       214.000         160.000
 121425277.92648  94617085.84448  23106473.8564   23106475.2664   23106473.9094
       227.000         185.000
 125593249.74448  97864863.81348  23899605.8444   23899607.2384   23899606.4644
       224.000         172.000
 09  1 22  0 22  0.0000000  0 10G 9G26G 5G15G10G18G17G27G12G28
 109037808.44448  84964508.34248  20749221.1534   20749223.6954   20749221.4024
       247.000         218.000
 111418552.49848  86819655.92448  21202242.9104   21202245.5684   21202242.7834
       247.000         216.000
 127529527.41948  99373637.44448  24268077.8564   24268081.6204   24268079.0994
       221.000         165.000
 107179941.83048  83516832.12348  20395668.4304   20395669.7554   20395668.1104
       253.000         238.000
 132565771.19748 103297982.05248  25226444.0564   25226447.6234   25226446.2384
       209.000         145.000
 118267373.99848  92156393.70548  22505533.9094   22505535.5364   22505534.1724
       236.000         192.000
 122943636.13648  95800227.71148  23395402.2814   23395404.3274   23395402.5624
       229.000         185.000
 129087517.71448 100587664.68648  24564544.7504   24564547.8044   24564544.8684
       210.000         160.000
 121322974.17948  94537368.67048  23087006.0124   23087007.7334   23087006.2774
       231.000         187.000
 125681968.87448  97933995.59148  23916488.3284   23916489.6844   23916488.2344
       225.000         168.000
 09  1 22  0 22 30.0000000  0 10G 9G26G 5G15G10G18G17G27G12G28
 108985577.78448  84923809.13248  20739281.8174   20739284.4554   20739281.9934
       248.000         218.000
 111486052.17848  86872253.07148  21215087.5444   21215090.1084   21215087.4444
       248.000         216.000
 127417455.76548  99286308.87448  24246751.8904   24246754.9304   24246753.9164
       220.000         164.000
 107198448.50148  83531252.90048  20399190.1954   20399191.4954   20399190.1714
       252.000         237.000
 132675559.84048 103383531.63948  25247335.8144   25247338.9964   25247337.4044
       205.000         142.000
 118231149.54148  92128166.85048  22498640.7274   22498642.7294   22498641.5774
       236.000         194.000
 122913338.09648  95776618.85648  23389636.8194   23389638.3304   23389636.5764
       228.000         184.000
 129157173.85548 100641942.18148  24577799.7824   24577803.6814   24577800.3884
       215.000         161.000
 121220911.97748  94457839.70248  23067584.6954   23067585.6444   23067584.9254
       229.000         188.000
 125770868.87748  98003268.32748  23933405.4374   23933406.4824   23933406.2944
       224.000         167.000
 09  1 22  0 23  0.0000000  0 10G 9G26G 5G15G10G18G17G27G12G28
 108933649.09848  84883345.22748  20729400.3694   20729402.6034   20729400.4694
       248.000         219.000
 111553912.30448  86925131.08248  21228001.2184   21228003.4064   21228001.1054
       248.000         216.000
 127305518.46948  99199085.00348  24225451.3074   24225454.1154   24225452.2364
       219.000         165.000
 107217407.50048  83546026.14848  20402797.8234   20402799.2194   20402797.5134
       252.000         237.000
 132785265.78948 103469016.78848  25268212.3234   25268215.9254   25268212.7334
       203.000         142.000
 118195472.62748  92100366.66648  22491851.7244   22491853.6974   22491852.3424
       235.000         194.000
 122883524.29948  95753387.34748  23383963.1684   23383964.7134   23383963.1864
       228.000         183.000
 129226848.75448 100696234.25448  24591059.0454   24591062.6344   24591061.2714
       214.000         162.000
 121119093.25648  94378500.46748  23048208.8124   23048210.2984   23048208.8344
       230.000         189.000
 125859947.23048  98072680.04448  23950356.5434   23950357.3154   23950357.4104
       223.000         166.000
 09  1 22  0 23 30.0000000  0 10G 9G26G 5G15G10G18G17G27G12G28
 108882024.11848  84843117.97948  20719576.3604   20719578.8134   20719576.2574
       247.000         219.000
 111622133.71848  86978290.62648  21240983.2814   21240985.7624   21240983.1994
       248.000         216.000
 127193718.87048  99111968.41648  24204175.9094   24204179.6264   24204175.7554
       218.000         163.000
 107236821.09548  83561153.62248  20406492.0914   20406493.4554   20406491.9484
       251.000         237.000
 132894887.74548 103554436.47548  25289072.8504   25289076.3024   25289073.8564
       207.000         146.000
 118160345.63048  92072994.98048  22485167.5314   22485169.1854   22485167.9064
       236.000         194.000
 122854197.86748  95730535.57048  23378382.5694   23378384.4474   23378381.9584
       228.000         184.000
 129296543.86348 100750542.12148  24604320.9644   24604325.2254   24604321.7674
       214.000         164.000
 121017521.72248  94299353.84248  23028880.2234   23028882.1164   23028879.8424
       229.000         189.000
 125949203.11448  98142230.08848  23967341.2644   23967342.2044   23967341.0514
       221.000         166.000
 09  1 22  0 24  0.0000000  0 10G 9G26G 5G15G10G18G17G27G12G28
 108830703.19348  84803127.65248  20709810.2904   20709812.8194   20709810.3784
       248.000         219.000
 111690715.60848  87031731.05248  21254033.8884   21254036.3524   21254033.7534
       249.000         215.000
 127082058.98648  99024960.69748  24182927.6844   24182931.3464   24182928.7844
       219.000         164.000
 107256689.52748  83576635.51048  20410272.9834   20410274.4064   20410272.7274
       251.000         237.000
 133004424.14448 103639789.47448  25309917.5014   25309920.6524   25309919.8074
       212.000         146.000
 118125769.89148  92046052.84148  22478587.9794   22478589.4284   22478589.1654
       237.000         194.000
 122825360.52248  95708064.92748  23372894.8474   23372896.2774   23372894.4264
       228.000         184.000
 129366259.28248 100804865.83348  24617587.9054   24617591.1174   24617587.7144
       213.000         164.000
 120916199.52248  94220401.49048  23009599.9774   23009601.2064   23009599.8704
       231.000         190.000
 126038634.51348  98211916.89448  23984359.5934   23984360.5684   23984358.5464
       224.000         168.000
 09  1 22  0 24 30.0000000  0 10G 9G26G 5G15G10G18G17G27G12G28
 108779685.83648  84763373.87448  20700102.1274   20700104.4974   20700102.4974
       248.000         219.000
 111759656.10448  87085450.91448  21267152.8724   21267155.1094   21267152.8934
       247.000         215.000
 126970539.73948  98938062.56348  24161705.8524   24161709.6034   24161706.6334
       220.000         166.000
