     2.11           OBSERVATION DATA    G (GPS)             RINEX VERSION / TYPE
teqc  2008Oct2      gpsops              20090119 00:05:51UTCPGM / RUN BY / DATE
    30.0000                                                 INTERVAL
     1     1                                                WAVELENGTH FACT L1/2
     7    L1    L2    P1    P2    C1    S1    S2            # / TYPES OF OBSERV
Linux 2.4.20-8|Pentium IV|gcc -static|Linux|486/DX+         COMMENT
     2.10           OBSERVATION DATA    GPS                 COMMENT
soc2rnx ver 1.20    gpsops              19-Jan-2009 00:05:48COMMENT
S1, if present, is the SNR for the C/A data stream on L1.   COMMENT
 SNR is mapped to RINEX snr flag value [1,4-9]              COMMENT
    SNR:   >316  >100  >31.6  >10  >3.2    >0 bad=0         COMMENT
L1 & L2:      9     8     7     6     5     4     1         COMMENT
                                                            COMMENT
This data is provided as a public service by NASA/JPL.      COMMENT
No warranty is expressed or implied regarding suitability   COMMENT
for use.  For further information, contact:                 COMMENT
Dave Stowers, NASA/JPL m/s 238-600                          COMMENT
4800 Oak Grove Drive, Pasadena CA 91109 USA                 COMMENT
                                                            COMMENT
Forced Modulo Decimation to 30 seconds                      COMMENT
  2009     1    18     0     0    0.0000000     GPS         TIME OF FIRST OBS
DSN                 JPL                                     OBSERVER / AGENCY
451-U               AOAD/M_T        NONE                    ANT # / TYPE
  4849202.3940  -360328.9929  4114913.1862                  APPROX POSITION XYZ
        0.0254        0.0000        0.0000                  ANTENNA: DELTA H/E/N
LP03574             ASHTECH Z-XII3      CC00                REC # / TYPE / VERS
MADR                                                        MARKER NAME
13407S012                                                   MARKER NUMBER
                                                            END OF HEADER
 09  1 18  0  0  0.0000000  0 10G26G15G 8G27G 9G18G17G28G12G10
 107360445.11848  83657478.65848  20430022.6354   20430025.1234   20430022.5704
       251.000         225.000
 107067711.03048  83429376.23348  20374315.4164   20374316.7624   20374314.9864
       253.000         239.000
 130754773.94948 101886841.38448  24881802.7764   24881805.6434   24881802.7904
       217.000         163.000
 124971449.51748  97380342.05248  23781281.3604   23781285.0754   23781280.6414
       224.000         180.000
 113921671.09048  88770123.02848  21678580.0154   21678582.8684   21678579.8014
       239.000         203.000
 122503735.42248  95457452.90748  23311686.9834   23311689.1824   23311687.3924
       229.000         178.000
 126552465.37748  98612302.25348  24082140.8714   24082140.9694   24082139.9264
       216.000         170.000
 119538121.51848  93146578.52848  22747355.1364   22747357.8694   22747356.3004
       236.000         194.000
 129662545.05148 101035726.84348  24673981.0524   24673982.4414   24673982.0324
       215.000         157.000
 124162444.16548  96749944.11848  23627336.6804   23627340.2774   23627336.6674
       222.000         174.000
 09  1 18  0  0 30.0000000  0 10G26G15G 8G27G 9G18G17G28G12G10
 107398445.64748  83687089.45848  20437253.7964   20437256.4194   20437253.7594
       251.000         225.000
 107053245.11848  83418104.09148  20371562.6164   20371564.0114   20371562.3084
       253.000         239.000
 130845429.77748 101957482.26048  24899053.3204   24899056.6284   24899054.2244
       218.000         165.000
 125040775.17848  97434362.03448  23794473.0104   23794476.6414   23794473.5924
       226.000         181.000
 113847702.38348  88712485.09248  21664504.3494   21664507.0854   21664504.4774
       239.000         204.000
 122430534.04248  95400412.86648  23297757.7734   23297759.6884   23297758.1764
       227.000         180.000
 126491319.69748  98564656.27348  24070504.8124   24070507.0144   24070504.0384
       217.000         170.000
 119606556.98148  93199904.87248  22760378.2634   22760380.8954   22760379.2434
       235.000         195.000
 129548242.21348 100946659.71348  24652230.1054   24652231.3624   24652229.5984
       213.000         158.000
 124271247.19548  96834725.68648  23648041.0394   23648045.1784   23648041.2284
       225.000         174.000
 09  1 18  0  1  0.0000000  0 10G26G15G 8G27G 9G18G17G28G12G10
 107436842.02848  83717008.70648  20444560.4574   20444562.8824   20444560.4114
       251.000         225.000
 107039166.08748  83407133.41748  20368883.3514   20368884.8804   20368883.0534
       253.000         240.000
 130936079.78048 102028118.65148  24916303.3304   24916306.9844   24916304.2764
       220.000         163.000
 125110123.50148  97488399.67848  23807669.8064   23807673.1244   23807670.7024
       224.000         179.000
 113773996.58348  88655052.01848  21650478.5444   21650481.2434   21650478.5264
       240.000         203.000
 122357742.04748  95343691.81448  23283906.1344   23283907.9524   23283906.6694
       227.000         181.000
 126430479.64148  98517248.48448  24058926.3824   24058929.0254   24058927.2014
       215.000         166.000
 119675343.24048  93253504.56148  22773467.7534   22773470.6194   22773468.4994
       236.000         195.000
 129434015.51148 100857651.94348  24630493.0724   24630494.7394   24630491.6974
       214.000         159.000
 124380159.93248  96919592.75148  23668766.8694   23668770.5334   23668768.2094
       223.000         174.000
 09  1 18  0  1 30.0000000  0 10G26G15G 8G27G 9G18G17G28G12G10
 107475633.59948  83747235.89748  20451942.0774   20451944.6754   20451941.9164
       250.000         225.000
 107025474.45148  83396464.60448  20366278.0844   20366279.4644   20366277.8904
       253.000         240.000
 131026722.67648 102098749.47148  24933552.4484   24933555.5204   24933553.5324
       219.000         167.000
 125179493.93448  97542454.54548  23820870.6704   23820873.7184   23820870.4934
       223.000         176.000
 113700553.51048  88597823.67448  21636502.4674   21636505.4114   21636502.4074
       239.000         203.000
 122285361.14848  95287291.12548  23270132.4974   23270134.2494   23270132.0234
       230.000         182.000
 126369947.64548  98470080.70448  24047408.3524   24047410.4514   24047407.3954
       216.000         170.000
 119744477.89448  93307375.72648  22786623.9944   22786626.4954   22786624.7974
       236.000         195.000
 129319866.96148 100768705.04848  24608771.2594   24608772.7574   24608769.6634
       212.000         157.000
 124489179.30848  97004542.89848  23689512.0954   23689516.0054   23689513.6204
       221.000         171.000
 09  1 18  0  2  0.0000000  0 10G26G15G 8G27G 9G18G17G28G12G10
 107514820.04648  83777770.79248  20459399.1044   20459401.8154   20459398.9984
       251.000         225.000
 107012170.91348  83386098.21448  20363746.2994   20363747.8294   20363746.0854
       253.000         240.000
 131117357.47548 102169373.96448  24950799.4384   24950802.5714   24950800.2554
       221.000         171.000
 125248885.61248  97596525.96348  23834075.1144   23834078.3134   23834075.3494
       223.000         175.000
 113627373.36148  88540800.19848  21622576.9934   21622579.6524   21622576.9914
       240.000         204.000
 122213393.32948  95231212.29948  23256437.8654   23256439.0134   23256439.0604
       228.000         180.000
 126309725.75348  98423154.56248  24035949.2444   24035950.3874   24035948.9174
       219.000         170.000
 119813958.01348  93361516.08148  22799845.6074   22799847.9114   22799846.3254
       234.000         194.000
 129205798.20048 100679820.30348  24587064.6274   24587066.0984   24587063.4084
       216.000         160.000
 124598302.56948  97089573.98448  23710277.7654   23710280.9984   23710278.1284
       223.000         169.000
 09  1 18  0  2 30.0000000  0 10G26G15G 8G27G 9G18G17G28G12G10
 107554400.93948  83808613.03948  20466931.1464   20466933.7804   20466931.1454
       251.000         225.000
 106999256.66748  83376035.16048  20361288.9194   20361290.2944   20361288.6474
       254.000         240.000
 131207983.42148 102239991.59148  24968044.7914   24968048.4834   24968045.0634
       221.000         168.000
 125318298.17848  97650613.65348  23847284.0574   23847287.2334   23847284.6394
       226.000         176.000
 113554456.70148  88483982.02948  21608701.6704   21608703.9984   21608701.8084
       241.000         204.000
 122141840.39348  95175456.77648  23242821.2774   23242822.9574   23242822.6814
       228.000         178.000
 126249816.50548  98376472.04248  24024548.2004   24024550.5304   24024548.1614
       219.000         172.000
 119883781.41448  93415923.91948  22813132.5314   22813134.5614   22813132.8944
       234.000         193.000
 129091811.73348 100590999.71748  24565374.2354   24565375.7814   24565373.4254
       218.000         163.000
 124707526.53948  97174683.57648  23731062.5224   23731065.7384   23731063.8544
       223.000         170.000
 09  1 18  0  3  0.0000000  0  9G26G15G 8G27G 9G18G17G28G10
 107594378.25548  83839764.18748  20474538.3244   20474541.0534   20474538.1544
       250.000         225.000
 106986735.09448  83366278.08548  20358906.1234   20358907.6774   20358906.0534
       253.000         240.000
 131298601.87948 102310603.37048  24985289.0604   24985292.5124   24985289.7754
       216.000         158.000
 125387733.40248  97704718.99548  23860497.1204   23860500.2464   23860497.3024
       224.000         176.000
 113481806.39648  88427371.43248  21594876.3754   21594879.2334   21594876.1394
       239.000         204.000
 122070707.16448  95120028.28948  23229284.9904   23229286.4214   23229285.6374
       230.000         178.000
 126190224.88448  98330037.03848  24013208.8584   24013211.1934   24013208.9874
       216.000         172.000
 119953947.78448  93470599.01048  22826484.2284   22826486.3114   22826484.5714
       233.000         193.000
 124816850.77848  97259871.28348  23751865.8704   23751870.2404   23751866.3464
       221.000         169.000
 09  1 18  0  3 30.0000000  0  9G26G15G 8G27G 9G18G17G28G10
 107634750.54748  83871223.11548  20482221.1954   20482223.6404   20482221.0624
       251.000         225.000
 106974605.67148  83356826.58348  20356598.1254   20356599.5844   20356597.7544
       254.000         240.000
 131389210.59348 102381207.53648  25002531.4614   25002534.7894   25002531.9364
       205.000         143.000
 125457189.56048  97758840.67548  23873714.2584   23873717.2234   23873714.4724
       225.000         176.000
 113409421.54548  88370967.67848  21581102.0094   21581104.9644   21581102.3214
       240.000         205.000
 121999994.13048  95064927.22948  23215828.5634   23215830.2194   23215830.2114
       229.000         177.000
 126130952.25648  98283850.57848  24001928.9354   24001931.3214   24001927.8974
       218.000         171.000
 120024453.62148  93525538.63548  22839901.2744   22839902.9434   22839901.4754
       235.000         193.000
 124926271.34048  97345134.05648  23772688.2394   23772691.6004   23772688.7924
       223.000         169.000
 09  1 18  0  4  0.0000000  0  9G26G15G 8G27G 9G18G17G28G10
 107675517.22048  83902989.34748  20489978.7204   20489981.3904   20489978.7074
       251.000         225.000
 106962869.59748  83347681.59048  20354364.8154   20354366.2054   20354364.5734
       254.000         240.000
 141479725.34558  92451718.96958  25019771.4295   25019773.8175   25019772.2245
       199.000         131.000
 125526665.89148  97812978.05248  23886935.1434   23886938.0974   23886936.0424
       223.000         174.000
 113337302.55248  88314771.06548  21567378.5464   21567380.9184   21567378.5184
       242.000         205.000
 121929703.54548  95010155.33548  23202452.6304   23202454.2734   23202453.6414
       229.000         177.000
 126072000.83648  98237914.41348  23990711.8074   23990713.1624   23990711.1804
       222.000         174.000
 120095296.70748  93580741.04448  22853382.4534   22853383.9744   22853383.1774
       233.000         191.000
 125035784.97548  97430469.33948  23793527.4694   23793531.5684   23793528.1624
       222.000         170.000
 09  1 18  0  4 30.0000000  0  8G26G15G27G 9G18G17G28G10
 107716677.69748  83935062.43548  20497811.2834   20497813.9634   20497811.1884
       250.000         225.000
 106951527.19848  83338843.35448  20352206.3934   20352207.7484   20352206.0894
       254.000         240.000
 125596161.64848  97867130.56548  23900159.1944   23900162.6994   23900159.5354
       222.000         173.000
 113265449.11948  88258781.38348  21553705.3254   21553707.5724   21553705.1634
       241.000         205.000
 121859837.17848  94955714.00948  23189157.2414   23189159.1404   23189157.8244
       228.000         179.000
 126013373.14648  98192230.50248  23979554.7764   23979556.9994   23979555.2804
       216.000         170.000
 120166473.96448  93636203.82248  22866926.9854   22866928.3744   22866927.0414
       233.000         192.000
 125145388.93348  97515875.01848  23814384.8004   23814388.9124   23814385.5614
       224.000         170.000
 09  1 18  0  5  0.0000000  0  8G26G15G27G 9G18G17G28G10
 107758232.33348  83967442.66748  20505719.1464   20505721.4624   20505719.1204
       251.000         225.000
 106940580.36648  83330313.35448  20350123.2794   20350124.5624   20350123.0254
       254.000         240.000
 125665677.18348  97921298.50748  23913387.6384   23913390.7254   23913388.1824
       223.000         173.000
 113193862.57048  88202999.69148  21540082.3814   21540085.3074   21540082.6164
       239.000         205.000
 121790397.57548  94901605.19548  23175943.9674   23175945.3634   23175944.2254
       228.000         179.000
 125955072.42048  98146801.38648  23968460.3974   23968461.7934   23968460.2594
       218.000         170.000
 120237983.91048  93691925.85948  22880535.1394   22880536.7214   22880535.6204
       233.000         191.000
 125255080.95248  97601349.31148  23835258.8024   23835262.0484   23835260.1484
       220.000         168.000
 09  1 18  0  5 30.0000000  0  8G26G15G27G 9G18G17G28G10
 107800180.96148  84000129.90048  20513701.3354   20513703.9944   20513701.1064
       251.000         225.000
 106930030.13948  83322092.39248  20348115.6234   20348116.9564   20348115.4204
       253.000         240.000
 125735212.31248  97975481.71648  23926620.3424   23926622.7354   23926620.7794
       224.000         173.000
 113122543.43848  88147426.36048  21526510.7804   21526513.7864   21526510.3724
       241.000         206.000
 121721387.02148  94847830.74748  23162811.4414   23162813.5184   23162811.6994
       230.000         181.000
 125897101.16948  98101628.98948  23957428.7294   23957430.8174   23957428.8074
       217.000         171.000
 120309824.29748  93747905.37348  22894205.3774   22894207.2624   22894205.4674
       230.000         189.000
 125364858.43848  97686890.21648  23856148.5194   23856151.4744   23856148.9544
       223.000         168.000
 09  1 18  0  6  0.0000000  0  8G26G15G27G 9G18G17G28G10
 107842523.42348  84033124.03248  20521759.4144   20521761.3834   20521759.4194
       251.000         224.000
 106919877.87048  83314181.53248  20346183.5344   20346185.0264   20346183.2584
       253.000         240.000
 125804766.68148  98029679.90948  23939856.3234   23939858.7244   23939856.8094
       225.000         174.000
 113051492.46048  88092061.96748  21512990.5714   21512993.2634   21512990.7784
       240.000         206.000
 121652807.87948  94794392.44248  23149761.4984   23149763.4114   23149762.3374
       229.000         182.000
 125839462.11948  98056715.46248  23946460.1144   23946461.8254   23946460.1344
       220.000         170.000
 120381992.98448  93804140.71148  22907938.2864   22907940.5344   22907937.7874
       230.000         189.000
 125474719.33548  97772496.09348  23877054.3154   23877058.0894   23877054.9514
       220.000         168.000
 09  1 18  0  6 30.0000000  0  8G26G15G27G 9G18G17G28G10
 107885259.49948  84066424.85448  20529891.1924   20529893.7764   20529890.9474
       251.000         225.000
 106910124.48948  83306581.48948  20344327.5624   20344328.9964   20344327.1154
       253.000         240.000
 125874339.81748  98083892.73048  23953095.7454   23953098.3224   23953096.0874
       224.000         174.000
 112980709.73148  88036906.63048  21499520.5754   21499523.9074   21499520.5474
       239.000         206.000
 121584662.16848  94741291.89348  23136793.5244   23136795.3734   23136794.8024
       229.000         179.000
 125782158.01348  98012062.90148  23935555.7494   23935557.1334   23935555.8334
       217.000         171.000
 120454487.75848  93860630.14548  22921733.7234   22921735.7374   22921734.1184
       232.000         188.000
 125584660.33948  97858164.38148  23897975.6944   23897980.0624   23897976.9664
       223.000         170.000
 09  1 18  0  7  0.0000000  0  8G26G15G27G 9G18G17G28G10
 107928388.93448  84100032.21248  20538098.9464   20538101.1424   20538099.0164
       250.000         224.000
 106900770.85348  83299292.94448  20342547.8204   20342549.0774   20342547.6504
       254.000         240.000
 125943931.71248  98138120.17148  23966338.2164   23966341.2464   23966338.5674
       223.000         173.000
 112910196.16348  87981961.00748  21486102.6884   21486105.4574   21486102.8624
       241.000         207.000
 121516952.01248  94688530.72648  23123909.0904   23123910.7354   23123910.2064
       229.000         181.000
 125725191.39148  97967673.36248  23924715.3934   23924717.2534   23924715.8634
       217.000         171.000
 120527306.24348  93917371.81648  22935590.7204   22935592.4254   22935591.1724
       232.000         187.000
 125694679.05648  97943893.24048  23918911.2544   23918915.2764   23918911.8654
       221.000         167.000
 09  1 18  0  7 30.0000000  0  8G26G15G27G 9G18G17G28G10
 107971911.97448  84133946.25248  20546380.7964   20546383.4714   20546380.4454
       252.000         225.000
 106891818.62748  83292317.17948  20340844.2574   20340845.6194   20340843.9444
       254.000         240.000
 126013542.34748  98192362.20148  23979584.7404   23979587.5524   23979585.2424
       223.000         173.000
 112839952.46748  87927225.66948  21472735.6204   21472738.5434   21472735.3834
       241.000         206.000
 121449680.10348  94636111.08548  23111107.0914   23111109.1434   23111108.7044
       230.000         179.000
 125668565.34348  97923549.18148  23913939.4184   23913941.2114   23913939.7214
       218.000         171.000
 120600446.39648  93974364.14148  22949509.0574   22949510.3494   22949509.9674
       231.000         187.000
 125804772.95748  98029680.68248  23939861.2624   23939864.3574   23939862.3904
       221.000         164.000
 09  1 18  0  8  0.0000000  0  8G26G15G27G 9G18G17G28G10
 108015827.74148  84168166.33548  20554737.9074   20554740.2924   20554738.1104
       251.000         224.000
 106883268.66348  83285654.87248  20339217.1384   20339218.5384   20339217.0854
       254.000         240.000
 126083171.07648  98246618.34548  23992834.5264   23992837.7064   23992834.7754
       223.000         172.000
 112769979.08448  87872700.97048  21459420.4514   21459422.8934   21459420.8524
       241.000         207.000
 121382848.15448  94584034.24648  23098389.7634   23098391.4604   23098390.4964
       230.000         180.000
 125612282.02948  97879692.07348  23903229.0774   23903231.2314   23903229.3104
       222.000         173.000
 120673905.96748  94031605.34848  22963487.6904   22963489.3754   22963488.4534
       231.000         186.000
 125914938.98548  98115524.33848  23960826.4684   23960828.5544   23960827.0204
       222.000         167.000
 09  1 18  0  8 30.0000000  0  8G26G15G27G 9G18G17G28G10
 108060135.96648  84202692.21248  20563169.3904   20563171.9324   20563169.1044
       251.000         225.000
 106875121.66548  83279306.56048  20337666.8214   20337668.1114   20337666.2624
       254.000         240.000
 126152817.40748  98300888.21248  24006087.9014   24006090.5184   24006088.7284
       223.000         170.000
 112700275.96648  87818386.86448  21446156.2074   21446159.0874   21446155.9464
       242.000         207.000
 121316458.35448  94532301.92048  23085756.3744   23085757.9884   23085757.5284
       227.000         179.000
 125556344.09048  97836104.07248  23892584.9004   23892586.6114   23892585.6874
       218.000         171.000
 120747682.49948  94089093.55448  22977527.0304   22977528.5854   22977527.4824
       231.000         186.000
 126025174.38648  98201422.05648  23981803.9984   23981806.1504   23981805.2824
       224.000         167.000
 09  1 18  0  9  0.0000000  0  9G26G12G15G27G 9G18G17G28G10
 108104836.25648  84237523.60448  20571675.6124   20571678.2284   20571675.6914
       251.000         225.000
 137618626.31658  89443083.44258  24285019.1415   24285020.3155   24285020.3335
       220.000         166.000
 106867378.99448  83273273.30648  20336193.3414   20336194.8084   20336193.2674
       255.000         240.000
 126222480.80948  98355171.37848  24019344.0954   24019347.2754   24019344.2724
       222.000         170.000
 112630843.59548  87764283.73648  21432943.4994   21432946.5564   21432943.5594
       239.000         207.000
 121250512.69948  94480915.70748  23073206.4924   23073209.2674   23073206.6644
       228.000         181.000
 125500753.88448  97792787.05948  23882006.0584   23882008.2664   23882005.7484
       218.000         171.000
 120821773.42448  94146826.74948  22991626.2244   22991627.5964   22991626.6934
       231.000         186.000
 126135476.48648  98287371.74048  24002793.0524   24002795.3314   24002794.7324
       221.000         165.000
 09  1 18  0  9 30.0000000  0  9G26G12G15G27G 9G18G17G28G10
 108149929.42648  84272661.13248  20580256.8104   20580259.0074   20580256.6014
       252.000         225.000
 137506032.80948  89355348.26248  24263592.2284   24263595.0854   24263593.1184
       217.000         166.000
 116860058.34958  73267572.43358  20334797.3185   20334798.7315   20334797.0625
       255.000         240.000
 126292162.24248  98409468.58548  24032604.3214   24032607.5624   24032604.1794
       222.000         171.000
 112561684.14348  87710393.27548  21419782.9784   21419785.8294   21419783.2694
       242.000         208.000
 121185014.19548  94429877.89048  23060743.2544   23060744.6724   23060743.3834
       228.000         179.000
 125445515.11948  97749743.84048  23871494.4834   23871496.5144   23871494.6484
       219.000         174.000
 120896177.69948  94204804.11148  23005784.6654   23005786.7094   23005784.5394
       229.000         186.000
 126245844.17448  98373372.52448  24023794.7294   24023798.3444   24023794.9474
       219.000         166.000
 09  1 18  0 10  0.0000000  0  8G26G12G27G 9G18G17G28G10
 108195415.67748  84308104.95948  20588912.4944   20588914.7984   20588912.5384
       252.000         225.000
 137393556.86548  89267704.70448  24242188.6034   24242191.4104   24242188.0864
       217.000         166.000
 126361861.95048  98463780.04548  24045867.8124   24045871.4074   24045867.7324
       224.000         170.000
 112492798.38948  87656716.07448  21406674.6994   21406677.1314   21406674.8654
       242.000         208.000
 121119965.77748  94379190.82448  23048365.0474   23048366.3704   23048364.8624
       226.000         180.000
 125390630.86448  97706976.90048  23861050.1034   23861052.8554   23861050.6054
       219.000         173.000
 120970893.58748  94263024.27548  23020002.6384   23020004.5824   23020002.5804
       230.000         186.000
 126356275.03748  98459422.51848  24044809.0044   24044813.5814   24044809.1924
       219.000         164.000
 09  1 18  0 10 30.0000000  0  9G26G12G15G27G 9G18G17G28G10
 108241294.99348  84343855.07348  20597642.9594   20597645.3914   20597643.0274
       251.000         225.000
 137281200.91548  89180154.65048  24220808.9614   24220810.9724   24220808.4344
       220.000         170.000
  96846610.35858  93257092.69458  20332238.1205   20332239.4945   20332237.9125
       255.000         240.000
 126431579.65048  98518105.49548  24059134.6824   24059138.2454   24059134.5604
       222.000         170.000
 112424186.61548  87603252.36548  21393617.8544   21393620.8864   21393618.4514
       241.000         207.000
 121055369.38348  94328855.97148  23036072.6134   23036073.9804   23036073.2624
       227.000         181.000
 125336103.57548  97664488.10848  23850674.6544   23850677.0104   23850674.7964
       222.000         176.000
 121045918.67348  94321485.38348  23034279.7464   23034281.1954   23034279.9594
       231.000         186.000
 126466766.67648  98545519.89748  24065835.0334   24065838.6984   24065835.9334
       218.000         163.000
 09  1 18  0 11  0.0000000  0  8G26G12G27G 9G18G17G28G10
 108287565.28648  84379909.84048  20606447.8124   20606450.1774   20606447.6744
       251.000         225.000
 137168965.58248  89092698.55148  24199451.8384   24199453.5094   24199451.0634
       221.000         171.000
 126501313.65148  98572443.68048  24072404.4584   24072408.2764   24072404.9034
       221.000         167.000
 112355847.86748  87550001.39848  21380613.5934   21380616.3534   21380613.5664
       241.000         208.000
 120991225.34248  94278873.60548  23023866.2854   23023868.1224   23023867.1944
       229.000         181.000
 125281934.50948  97622278.43548  23840366.4484   23840367.9314   23840366.5514
       217.000         171.000
 121121249.53448  94380184.75848  23048614.4374   23048615.9784   23048615.1024
       230.000         185.000
 126577314.70048  98631661.19748  24086871.5714   24086874.6544   24086872.0814
       220.000         164.000
 09  1 18  0 11 30.0000000  0  9G26G12G15G27G 9G18G17G28G10
 108334227.58148  84416270.05548  20615327.6174   20615329.8404   20615327.5454
       252.000         225.000
 137056853.91148  89005338.79148  24178116.9594   24178118.8354   24178117.5504
       219.000         167.000
 116834800.42158  73247890.79558  20329990.2435   20329991.4275   20329989.9005
       255.000         240.000
 126571065.11848  98626795.45548  24085677.9114   24085681.2694   24085677.9914
       219.000         167.000
 112287784.01848  87496964.64948  21367661.4264   21367664.3524   21367661.7634
       241.000         208.000
 120927537.19048  94229246.46148  23011747.1064   23011748.6664   23011748.0404
       229.000         182.000
 125228127.73648  97580351.07348  23830126.7354   23830129.1354   23830125.1744
       220.000         171.000
 121196884.74548  94439121.28848  23063007.3914   23063009.1314   23063007.6184
       229.000         187.000
 126687917.76048  98717845.41948  24107918.9024   24107921.6554   24107919.3394
       219.000         162.000
 09  1 18  0 12  0.0000000  0  8G26G12G27G 9G18G17G28G10
 108381281.26848  84452935.26948  20624281.4864   20624283.9804   20624281.5174
       252.000         225.000
 136944868.20148  88918077.19948  24156806.5374   24156808.1314   24156806.9754
       220.000         169.000
 126640833.37148  98681160.32248  24098954.1454   24098957.5824   24098954.1774
       218.000         166.000
 112219995.21748  87444142.22148  21354761.5664   21354764.4624   21354761.9514
       241.000         208.000
 120864306.73348  94179976.00548  22999714.4454   22999716.4384   22999714.7724
       229.000         181.000
 125174685.07648  97538707.45248  23819957.8804   23819959.0254   23819958.0124
       220.000         173.000
 121272821.58948  94498292.84448  23077457.5254   23077459.2174   23077457.3944
       231.000         186.000
 126798573.02448  98804070.30748  24128975.4764   24128978.5414   24128976.6394
       217.000         161.000
 09  1 18  0 12 30.0000000  0  8G26G12G27G 9G18G17G28G10
 108428725.65448  84489904.91548  20633309.9504   20633312.2784   20633310.0354
       252.000         225.000
 136833010.51548  88830915.37048  24135521.0654   24135522.8984   24135520.7334
       221.000         170.000
 126710618.15648  98735538.07548  24112233.6334   24112237.5064   24112233.9784
       219.000         165.000
 112152481.63048  87391534.24948  21341914.3864   21341916.9824   21341914.5154
       242.000         208.000
 120801535.57048  94131063.39648  22987770.0984   22987771.3874   22987770.4764
       229.000         182.000
 125121609.18948  97497349.62948  23809857.4774   23809859.1044   23809858.2664
       217.000         170.000
 121349058.20848  94557697.99348  23091964.8984   23091966.8174   23091965.7514
       230.000         186.000
 126909277.99448  98890333.89148  24150041.2774   24150045.4604   24150042.0094
       217.000         162.000
 09  1 18  0 13  0.0000000  0  8G26G12G27G 9G18G17G28G10
 108476560.68848  84527178.95648  20642412.6104   20642414.8974   20642412.4174
       252.000         225.000
 136721282.78848  88743854.80348  24114260.2724   24114261.6994   24114260.3644
       218.000         170.000
 126780419.22048  98789928.53048  24125516.6074   24125519.7064   24125517.0114
       218.000         163.000
 112085243.79648  87339141.15948  21329119.0514   21329122.1204   21329119.3974
       241.000         209.000
 120739226.06248  94082510.53448  22975912.8934   22975914.6674   22975914.1924
       230.000         183.000
 125068902.24448  97456279.28048  23799827.6224   23799829.6514   23799826.4614
       218.000         172.000
 121425592.06148  94617334.75748  23106528.9134   23106530.8504   23106529.3134
       231.000         186.000
 127020029.18248  98976633.49248  24171117.5874   24171121.1674   24171117.9784
       217.000         164.000
 09  1 18  0 13 30.0000000  0  8G26G12G27G 9G18G17G28G10
 108524785.40948  84564756.65748  20651589.2144   20651591.6604   20651589.0904
       251.000         225.000
 136609687.19648  88656897.22548  24093023.9854   24093025.7094   24093023.0494
       219.000         170.000
 126850235.58848  98844330.88148  24138802.0994   24138805.1644   24138801.4724
       219.000         163.000
 112018282.28848  87286963.37848  21316376.8804   21316379.9184   21316376.6604
       242.000         209.000
 120677379.71648  94034318.59248  22964143.9324   22964145.9994   22964145.0084
       231.000         185.000
 125016566.34248  97415498.11648  23789867.5334   23789870.6154   23789867.8434
       216.000         173.000
 121502420.33748  94677200.93948  23121148.8594   23121150.5304   23121149.4504
       231.000         185.000
 127130823.98448  99062967.07648  24192200.6874   24192204.8774   24192201.3674
       217.000         163.000
 09  1 18  0 14  0.0000000  0  8G26G12G27G 9G18G17G28G10
 108573400.62648  84602638.64048  20660840.4794   20660843.0334   20660840.1694
       251.000         225.000
 136498226.80748  88570045.02948  24071812.9784   24071815.1614   24071812.6234
       220.000         169.000
 126920068.28548  98898745.97848  24152090.7084   24152093.4714   24152091.7784
       217.000         163.000
 111951598.19148  87235001.76948  21303687.2964   21303689.8944   21303687.3074
       241.000         208.000
 120615999.47548  93986489.83748  22952463.2854   22952464.9394   22952465.0684
       229.000         181.000
 124964605.26548  97375008.93248  23779980.4164   23779982.4944   23779979.9104
       218.000         174.000
 121579541.79048  94737295.57648  23135824.8594   23135826.1394   23135825.7644
       232.000         185.000
 127241661.19648  99149333.70848  24213292.5244   24213296.3244   24213292.5174
       221.000         164.000
 09  1 18  0 14 30.0000000  0  8G26G12G27G 9G18G17G28G10
 108622405.00948  84640823.87448  20670165.8784   20670168.2564   20670165.8114
       251.000         225.000
 136386903.23748  88483299.39348  24050629.2154   24050631.1064   24050628.9424
       219.000         170.000
 126989916.36648  98953173.04548  24165382.7844   24165385.3824   24165382.7484
       221.000         164.000
 111885191.31748  87183256.16148  21291050.4634   21291053.1054   21291049.8654
       241.000         209.000
 120555086.99248  93939025.56248  22940872.0534   22940873.8894   22940873.3434
       230.000         184.000
 124913020.51048  97334813.05548  23770164.0714   23770166.0274   23770164.4804
       220.000         177.000
 121656953.63648  94797616.49348  23150555.7854   23150557.2384   23150556.3524
       230.000         184.000
 127352536.96248  99235730.44948  24234392.0424   24234394.7364   24234393.2484
       223.000         162.000
 09  1 18  0 15  0.0000000  0  8G26G12G27G 9G18G17G28G10
 108671799.11548  84679312.78248  20679565.1014   20679567.5814   20679565.0614
       251.000         224.000
 136275719.21248  88396662.47848  24029471.3154   24029473.4964   24029470.6204
       223.000         172.000
 127059780.50648  99007612.59648  24178677.5724   24178681.1544   24178678.1494
       221.000         165.000
 111819062.97348  87131727.59848  21278466.8304   21278469.3394   21278466.7824
       243.000         209.000
 120494644.69048  93891927.65348  22929370.0734   22929371.9234   22929370.7334
       230.000         185.000
 124861815.66148  97294913.17248  23760420.0604   23760421.7664   23760419.1674
       221.000         176.000
 121734654.54548  94858162.65748  23165341.7734   23165343.1104   23165341.9094
       231.000         183.000
 127463449.55348  99322155.86948  24255496.9994   24255500.2994   24255498.3084
       216.000         158.000
 09  1 18  0 15 30.0000000  0  8G26G12G27G 9G18G17G28G10
 108721582.49048  84718105.01248  20689038.6144   20689041.1324   20689038.4424
       251.000         224.000
 136164677.06248  88310136.12948  24008340.7874   24008343.1884   24008340.9124
       220.000         170.000
 127129660.36148  99062064.42448  24191975.4254   24191978.5004   24191975.8234
       220.000         163.000
 111753213.61248  87080416.42348  21265936.1604   21265938.3644   21265937.2044
       242.000         208.000
 120434674.49048  93845197.64148  22917958.3644   22917959.9564   22917958.6354
       230.000         185.000
 124810992.82848  97255310.98248  23750748.8604   23750751.2964   23750748.6334
       221.000         177.000
 121812641.52448  94918931.74248  23180182.2114   23180183.6704   23180182.2604
       230.000         182.000
 127574396.70848  99408608.17248  24276609.8444   24276613.1664   24276611.2624
       218.000         161.000
 09  1 18  0 16  0.0000000  0  9G26G12G15G27G 9G18G17G28G10
 108771754.01848  84757199.70748  20698585.9234   20698588.4624   20698585.7634
       251.000         224.000
 136053778.20648  88223721.43748  23987237.9574   23987239.6584   23987237.6384
       221.000         170.000
  96802108.54358  93222416.25558  20323770.2145   20323771.7615   20323769.8195
       255.000         241.000
 127199554.95248  99116527.72748  24205275.6304   24205279.0314   24205275.3354
       215.000         160.000
 111687643.10148  87029322.54448  21253458.1944   21253460.7444   21253458.4134
       243.000         209.000
 120375177.57648  93798836.41048  22906636.5984   22906638.2584   22906637.1634
       231.000         185.000
 124760553.98948  97216008.00848  23741150.8994   23741152.6744   23741150.8924
       223.000         177.000
 121890911.87148  94979921.61748  23195076.3374   23195077.5364   23195077.2844
       231.000         181.000
 127685374.70348  99495084.53548  24297728.6934   24297731.8734   24297730.0934
       219.000         162.000
 09  1 18  0 16 30.0000000  0  8G26G12G27G 9G18G17G28G10
 108822314.05848  84796597.13348  20708207.2164   20708209.7194   20708207.1494
       252.000         224.000
 135943025.60048  88137420.72348  23966162.3194   23966163.9874   23966161.6644
       223.000         171.000
 127269464.76348  99171002.88748  24218578.9044   24218581.4204   24218578.5964
       218.000         157.000
 111622352.80348  86978447.00048  21241033.9844   21241036.5634   21241034.7624
       242.000         209.000
 120316156.80748  93752846.18948  22895405.4054   22895406.9224   22895405.6754
       230.000         186.000
 124710502.16748  97177006.58348  23731625.8964   23731628.5184   23731625.4354
       223.000         178.000
 121969463.70748  95041130.83948  23210024.5424   23210025.5444   23210025.5484
       230.000         182.000
 127796381.82848  99581583.59448  24318851.7794   24318855.9984   24318853.6314
       216.000         161.000
 09  1 18  0 17  0.0000000  0  8G26G12G27G 9G18G17G28G10
 108873262.11348  84836296.90448  20717902.3784   20717904.6524   20717902.4004
       250.000         224.000
 135832421.46348  88051235.67748  23945115.3914   23945116.4544   23945116.1744
       223.000         173.000
 127339389.58448  99225489.76648  24231885.2324   24231888.1074   24231886.1964
       217.000         159.000
 111557342.85848  86927789.92448  21228662.7084   21228665.5214   21228662.7134
       242.000         209.000
 120257613.79748  93707228.26048  22884264.7474   22884266.5804   22884265.6974
       231.000         186.000
 124660839.80848  97138308.67848  23722176.3234   23722178.1454   23722176.1424
       221.000         177.000
 122048295.16548  95102557.95048  23225025.3724   23225026.9944   23225025.7514
       229.000         180.000
 127907415.29648  99668103.16348  24339980.2174   24339985.0284   24339979.8654
       214.000         161.000
 09  1 18  0 17 30.0000000  0  8G26G12G27G 9G18G17G28G10
 108924597.88848  84876298.80748  20727671.1954   20727673.6074   20727671.1104
       251.000         224.000
 135721968.08448  87965168.10748  23924096.2864   23924097.6204   23924096.1294
       221.000         172.000
 127409329.51348  99279988.40348  24245194.3844   24245197.5554   24245194.6674
       213.000         160.000
 111492613.88748  86877351.77748  21216345.3744   21216347.8474   21216345.7874
       243.000         210.000
 120199550.91848  93661984.46948  22873216.0594   22873217.4134   22873216.1694
       232.000         187.000
 124611569.10648  97099915.91448  23712799.7964   23712801.4274   23712799.8914
       223.000         175.000
 122127404.05748  95164201.23948  23240079.4114   23240080.7474   23240080.3234
       230.000         181.000
 128018472.77848  99754641.47348  24361114.7324   24361118.8824   24361115.1274
       217.000         161.000
 09  1 18  0 18  0.0000000  0  8G26G12G27G 9G18G17G28G10
 108976320.72848  84916602.30848  20737513.7394   20737516.1784   20737513.5364
       251.000         223.000
 135611667.53548  87879219.65748  23903105.7634   23903108.1564   23903106.0154
       221.000         172.000
 127479283.96448  99334498.37348  24258506.3704   24258509.2754   24258506.2634
       210.000         158.000
 111428166.28448  86827132.87648  21204081.4584   21204084.0794   21204081.9144
       243.000         210.000
 120141969.73048  93617116.01248  22862258.5164   22862259.9284   22862259.0674
       231.000         185.000
 124562692.84048  97061830.50848  23703499.3144   23703500.5214   23703499.2964
       222.000         175.000
 122206787.85048  95226058.74148  23255185.3344   23255187.2184   23255186.2884
       230.000         182.000
 128129551.39948  99841196.23948  24382251.8984   24382256.7774   24382253.4154
       216.000         156.000
 09  1 18  0 18 30.0000000  0  8G26G12G27G 9G18G17G28G10
 109028430.48748  84957207.30948  20747429.9914   20747432.1754   20747429.9884
       251.000         223.000
 135501522.05948  87793392.01148  23882146.1414   23882148.9404   23882146.0824
       222.000         176.000
 127549252.97548  99389019.66548  24271820.7434   24271823.8534   24271820.9924
       210.000         157.000
 111364000.55448  86777133.62248  21191871.1534   21191873.6504   21191871.2724
       243.000         210.000
 120084872.20548  93572624.43648  22851393.3884   22851394.9634   22851393.7314
       231.000         185.000
 124514213.36048  97024054.29648  23694274.1024   23694275.8724   23694273.7464
       218.000         174.000
 122286444.62848  95288128.95848  23270343.6094   23270345.7224   23270344.3144
       231.000         182.000
 128240648.89748  99927765.74748  24403393.1744   24403397.3614   24403394.0494
       213.000         153.000
 09  1 18  0 19  0.0000000  0  8G26G12G27G 9G18G17G28G10
 109080926.87948  84998113.58248  20757419.6564   20757421.9144   20757419.6694
       250.000         223.000
 135391534.23348  87707687.23748  23861216.6114   23861219.5754   23861216.0364
       223.000         176.000
 127619236.57048  99443552.30448  24285138.6124   24285141.4844   24285138.4744
       208.000         157.000
 111300117.39348  86727354.55048  21179714.5534   21179717.1204   21179714.8744
       243.000         210.000
 120028260.31048  93528511.26848  22840620.1954   22840621.7594   22840620.7484
       231.000         186.000
 124466132.90148  96986589.00448  23685124.3424   23685125.8914   23685123.9814
       223.000         176.000
 122366371.73148  95350409.81948  23285553.4724   23285555.4354   23285554.7884
       230.000         182.000
 128351762.89448 100014348.06348  24424537.6734   24424541.4334   24424538.2194
       212.000         157.000
 09  1 18  0 19 30.0000000  0  8G26G12G27G 9G18G17G28G10
 109133808.95448  85039320.38848  20767482.6994   20767485.2774   20767482.4594
       250.000         223.000
 135281705.73648  87622106.60248  23840317.5914   23840320.2204   23840319.2444
       225.000         175.000
 127689234.34548  99498096.03748  24298458.5254   24298461.7654   24298457.8374
       209.000         156.000
 111236516.85048  86677795.70848  21167611.5014   21167614.3544   21167611.7754
       243.000         210.000
 119972135.84948  93484777.92348  22829940.0214   22829941.8424   22829940.6544
       231.000         185.000
 124418453.84448  96949436.50148  23676051.5244   23676053.5384   23676051.9124
       222.000         175.000
 122446566.86348  95412899.52348  23300814.0194   23300815.8694   23300814.4174
       228.000         183.000
 128462890.57248 100100941.04748  24445685.2174   24445689.1414   24445684.9814
       219.000         163.000
 09  1 18  0 20  0.0000000  0  8G26G12G27G 9G18G17G28G10
 109187076.28348  85080827.38748  20777619.0944   20777621.7904   20777618.9194
       251.000         223.000
 135172038.51548  87536651.63948  23819447.8934   23819450.8484   23819448.2094
       222.000         176.000
 127759246.18048  99552650.68148  24311781.3954   24311784.9044   24311781.8524
       205.000         154.000
 111173199.68948  86628457.67348  21155562.7954   21155565.4714   21155562.8984
       243.000         211.000
 119916500.46148  93441425.68148  22819352.9994   22819354.5774   22819353.6144
       230.000         184.000
 124371178.35448  96912598.44848  23667055.2044   23667056.7824   23667054.7564
       223.000         175.000
 122527027.64248  95475596.23248  23316125.4994   23316126.8454   23316125.3204
       230.000         183.000
 128574029.18448 100187542.55748  24466833.7774   24466838.2574   24466834.2144
       212.000         159.000
 09  1 18  0 20 30.0000000  0  8G26G12G27G 9G18G17G28G10
 109240729.14148  85122634.80448  20787829.0594   20787831.4294   20787829.1554
       250.000         223.000
 135062535.91848  87451324.93348  23798610.5394   23798612.8844   23798609.6644
       223.000         176.000
 127829272.57548  99607216.69048  24325106.6064   24325110.9674   24325106.5944
       208.000         153.000
 111110166.77048  86579341.12948  21143568.3884   21143570.6994   21143568.3624
       244.000         212.000
 119861356.75548  93398456.53748  22808859.4554   22808861.2804   22808859.6784
       230.000         186.000
 124324309.75648  96876077.48248  23658136.5494   23658137.6874   23658136.8534
       223.000         174.000
 122607752.08648  95538498.39648  23331486.8824   23331488.0244   23331486.9924
       230.000         182.000
 128685176.64748 100274150.95048  24487984.2674   24487987.8444   24487985.0954
       212.000         153.000
 09  1 18  0 21  0.0000000  0  8G26G12G27G 9G18G17G28G10
 109294766.03548  85164741.47448  20798111.8724   20798114.4144   20798111.7164
       250.000         223.000
 134953199.34148  87366127.61148  23777804.2614   23777806.4834   23777804.3254
       223.000         176.000
 127899312.59848  99661793.32648  24338434.6834   24338438.8914   24338434.4504
       206.000         153.000
 111047417.95248  86530445.95448  21131627.4144   21131630.0274   21131627.7714
       245.000         212.000
 119806705.84548  93355871.42348  22798459.6314   22798461.7624   22798460.4384
       230.000         186.000
 124277849.31548  96839874.53848  23649294.8914   23649297.0414   23649294.9984
       223.000         175.000
 122688737.94648  95601604.26348  23346898.2084   23346899.0084   23346898.5654
       230.000         183.000
 128796330.28448 100360764.16248  24509135.6724   24509139.5134   24509136.6514
       211.000         155.000
 09  1 18  0 21 30.0000000  0  8G26G12G27G 9G18G17G28G10
 109349187.33148  85207147.66548  20808467.8404   20808470.4474   20808467.5494
       249.000         223.000
 134844031.04948  87281061.40248  23757030.1004   23757032.5784   23757030.3414
       220.000         176.000
 127969366.44448  99716380.73348  24351765.8364   24351769.2004   24351766.1194
       208.000         153.000
 110984954.55348  86481773.18948  21119740.9934   21119743.7014   21119741.3114
       243.000         212.000
 119752549.78748  93313671.88048  22788154.4954   22788155.8404   22788154.2644
       233.000         188.000
 124231799.75748  96803991.77748  23640532.6244   23640534.1964   23640532.3114
       224.000         175.000
 122769983.20748  95664912.24548  23362358.2284   23362359.5854   23362358.8514
       231.000         183.000
 128907487.46148 100447380.16148  24530289.2074   24530292.7784   24530289.8474
       212.000         157.000
 09  1 18  0 22  0.0000000  0  8G26G12G27G 9G18G17G28G10
 109403991.71448  85249852.37048  20818896.9264   20818899.2294   20818896.8204
       250.000         222.000
 134735032.70248  87196127.67248  23736287.9814   23736291.2594   23736287.8654
       222.000         178.000
 128039433.35548  99770978.31748  24365098.8584   24365102.2184   24365100.1874
       204.000         152.000
 110922776.31848  86433322.64148  21107908.5644   21107911.6974   21107908.2824
       243.000         212.000
 119698889.68848  93271858.82348  22777943.5964   22777945.1004   22777944.2864
       232.000         187.000
 124186162.98248  96768430.65048  23631848.0264   23631849.6444   23631848.2594
       222.000         176.000
 122851484.55648  95728419.79248  23377867.5094   23377868.6764   23377867.4724
       230.000         183.000
 129018644.95148 100533996.37548  24551441.2314   24551445.4154   24551441.7074
       209.000         151.000
 09  1 18  0 22 30.0000000  0  8G26G12G27G 9G18G17G28G10
 109459180.27648  85292856.43748  20829398.8794   20829401.3784   20829398.8084
       250.000         222.000
 134626208.29948  87111329.45248  23715580.0144   23715582.3124   23715579.8794
       224.000         178.000
 128109515.06548  99825587.44648  24378434.4574   24378438.0794   24378435.3494
       201.000         151.000
 110860885.07848  86385095.70748  21096131.2474   21096133.7364   21096131.0994
       243.000         212.000
 119645729.19148  93230435.04848  22767827.2324   22767828.7084   22767827.6014
       232.000         188.000
 124140942.83548  96733194.18248  23623242.9824   23623244.5144   23623242.2734
       222.000         178.000
 122933241.72748  95792126.67548  23393425.2974   23393426.8854   23393425.0514
       229.000         181.000
 129129802.15948 100620612.38748  24572592.7994   24572597.8104   24572593.3364
       211.000         151.000
 09  1 18  0 23  0.0000000  0  8G26G12G27G 9G18G17G28G10
 109514751.19148  85336158.45148  20839973.6854   20839976.2124   20839973.6914
       250.000         222.000
 134517558.80648  87026667.52548  23694905.0414   23694906.9444   23694904.6944
       226.000         180.000
 128179610.04448  99880206.92948  24391773.6314   24391777.4714   24391772.9854
       201.000         153.000
 110799279.92748  86337091.71148  21084408.2884   21084411.0584   21084408.5894
       244.000         213.000
 119593068.90748  93189401.05648  22757806.4224   22757808.2614   22757807.0564
       231.000         188.000
 124096140.18248  96698283.03848  23614717.0154   23614718.6844   23614716.9444
       223.000         176.000
 123015251.00548  95856030.01548  23409030.9054   23409032.4234   23409031.0694
       230.000         180.000
 129240955.04248 100707225.05148  24593745.1144   24593748.6304   24593745.4504
       211.000         156.000
 09  1 18  0 23 30.0000000  0  8G26G12G27G 9G18G17G28G10
 109570704.57248  85379758.48148  20850621.1144   20850623.7274   20850621.0644
       248.000         221.000
 134409086.90948  86942143.98448  23674264.0654   23674265.7364   23674263.9004
       228.000         181.000
 128249719.02148  99934837.24748  24405114.0424   24405118.4524   24405113.8244
       207.000         152.000
 110737961.99148  86289311.51248  21072739.8054   21072742.2944   21072740.1894
       244.000         213.000
 119540910.84448  93148758.41348  22747880.9004   22747882.8124   22747881.2444
       232.000         188.000
 124051758.05148  96663699.55148  23606271.0464   23606272.5464   23606270.4824
       222.000         176.000
 123097510.49048  95920128.32548  23424684.3944   23424686.0904   23424685.1724
       230.000         180.000
 129352101.84148 100793832.94348  24614895.9054   24614900.3104   24614895.9244
       209.000         156.000
 09  1 18  0 24  0.0000000  0  9G26G12G27G 9G18G17G28G 5G10
 109627038.24748  85423654.83548  20861341.1204   20861343.5404   20861340.8994
       248.000         221.000
 134300793.14948  86857759.22948  23653656.3824   23653658.2344   23653656.9924
       226.000         178.000
 128319839.82948  99989476.83748  24418457.9894   24418461.6474   24418458.9254
       207.000         152.000
 110676930.23148  86241754.31348  21061125.8174   21061128.5974   21061126.2374
       246.000         214.000
 119489255.00348  93108507.11448  22738051.1634   22738052.5194   22738051.6084
       233.000         188.000
 124007796.94848  96629444.17848  23597905.9554   23597908.1164   23597906.0524
       223.000         177.000
 123180016.44048  95984418.66348  23440384.8974   23440386.6494   23440385.4984
       230.000         182.000
 140812725.55458  91931977.83358  24892846.1695   24892850.0735   24892846.9695
       212.000         156.000
 129463238.34448 100880432.76048  24636044.6074   24636049.4334   24636044.3094
       208.000         152.000
 09  1 18  0 24 30.0000000  0 10G26G12G15G27G 9G18G17G28G 5G10
 109683750.77448  85467846.40648  20872133.1514   20872135.7134   20872132.8614
       249.000         221.000
 134192678.68348  86773514.20148  23633081.9614   23633084.8154   23633080.9844
       223.000         179.000
 116833791.64458  73247104.74958  20329798.9765   20329800.3675   20329798.6205
       255.000         240.000
 128389971.62148 100044124.98448  24431803.0174   24431807.2114   24431804.6374
       206.000         152.000
 110616184.30448  86194419.83748  21049566.3084   21049569.1434   21049566.5334
       245.000         214.000
 119438102.56948  93068648.06848  22728317.3504   22728318.6624   22728317.7864
       234.000         188.000
 123964258.23648  96595517.90648  23589620.6184   23589622.6624   23589621.0124
       223.000         177.000
 123262765.74948  96048898.65348  23456131.4284   23456133.6924   23456131.8454
       229.000         181.000
 140697593.43748  91842264.49748  24870937.1724   24870940.4224   24870937.9154
       213.000         155.000
 129574361.00148 100967021.81848  24657189.8274   24657195.0114   24657191.8184
       216.000         152.000
 09  1 18  0 25  0.0000000  0  9G26G12G27G 9G18G17G28G 5G10
 109740845.78648  85512336.01948  20882997.9914   20883000.4364   20882997.7104
       250.000         221.000
 134084749.50048  86689413.54548  23612543.2914   23612546.3714   23612542.3744
       221.000         176.000
 128460118.21448 100098784.69448  24445152.7304   24445155.1714   24445153.8644
       208.000         154.000
 110555728.52548  86147311.44248  21038061.9084   21038064.8114   21038061.9774
       244.000         214.000
 119387459.05648  93029185.59848  22718679.5114   22718681.6004   22718680.9164
       230.000         186.000
 123921148.22348  96561925.70748  23581417.0064   23581418.7924   23581417.2294
       222.000         177.000
 123345760.14648  96113569.61448  23471924.5304   23471926.7754   23471925.4114
       229.000         180.000
 140582540.87448  91752613.16948  24849042.8464   24849046.6334   24849043.9954
       214.000         153.000
 129685471.11848 101053601.21948  24678334.7424   24678336.7934   24678336.3714
       217.000         151.000
 09  1 18  0 25 30.0000000  0  9G26G12G27G 9G18G17G28G 5G10
 109798321.61748  85557122.38148  20893935.3064   20893937.8334   20893935.4084
       250.000         221.000
 133977007.19948  86605458.53048  23592040.1484   23592043.1054   23592040.1504
       225.000         179.000
 128530278.67948 100153455.16248  24458503.6544   24458507.3814   24458504.3704
       207.000         154.000
 110495562.45848  86100428.80748  21026612.6604   21026615.4524   21026612.8554
       245.000         214.000
 119337325.29448  92990120.30548  22709139.5294   22709141.1514   22709139.4964
       232.000         187.000
 123878468.10248  96528668.47148  23573294.9964   23573297.7544   23573295.4734
       222.000         177.000
 123428996.51748  96178429.10648  23487763.9234   23487766.0464   23487765.0114
       228.000         179.000
 140467568.97548  91663024.68248  24827165.6184   24827167.4244   24827166.2144
       214.000         153.000
 129796565.68548 101140168.45248  24699475.0824   24699477.7114   24699475.2534
       212.000         152.000
 09  1 18  0 26  0.0000000  0 10G26G12G15G27G 9G18G17G28G 5G10
 109856177.45948  85602204.84748  20904944.7104   20904947.4884   20904944.5254
       248.000         221.000
 133869453.82148  86521650.71648  23571574.4034   23571576.1274   23571574.7244
       225.000         179.000
  96852328.05358  93261549.56958  20333325.7415   20333326.9825   20333325.4045
       255.000         240.000
 128600452.71748 100208136.19548  24471857.4434   24471860.8774   24471859.3524
       208.000         153.000
 110435686.34748  86053772.10948  21015218.7054   21015221.3074   21015218.9314
       245.000         214.000
 119287702.55148  92951453.24048  22699696.8734   22699698.4674   22699697.4494
       230.000         187.000
 123836219.75448  96495747.67748  23565255.9714   23565257.3354   23565255.8164
       223.000         177.000
 123512472.20348  96243475.11348  23503648.9314   23503650.7214   23503649.6034
       229.000         179.000
 140352679.33248  91573500.29848  24805302.8784   24805305.0074   24805304.8124
       213.000         155.000
 129907641.98248 101226721.34948  24720611.5334   24720615.8414   24720612.9714
       212.000         155.000
 09  1 18  0 26 30.0000000  0 10G26G12G15G27G 9G18G17G28G 5G10
 109914412.12948  85647582.49848  20916026.5424   20916029.0474   20916026.4234
       248.000         221.000
 133762090.70748  86437991.16248  23551143.6894   23551145.0904   23551143.5804
       227.000         180.000
 116859379.38558  73267043.88658  20334667.6655   20334668.9675   20334667.4325
       255.000         240.000
 128670639.69148 100262827.35448  24485212.9284   24485217.0444   24485213.9004
       209.000         153.000
 110376100.22548  86007341.37448  21003879.6514   21003882.2694   21003879.5904
       246.000         214.000
 119238592.05048  92913185.30548  22690351.3814   22690352.7844   22690351.4094
       233.000         187.000
 123794405.04948  96463164.78548  23557298.4784   23557300.2454   23557297.9004
       222.000         178.000
 123596184.41348  96308705.39148  23519578.8544   23519580.6844   23519579.9884
       228.000         179.000
 140237873.38248  91484041.14548  24783456.4384   24783459.6914   24783458.2764
       210.000         154.000
 130018697.17748 101313257.84348  24741745.1824   24741749.1244   24741746.7954
       215.000         157.000
 09  1 18  0 27  0.0000000  0  9G26G12G27G 9G18G17G28G 5G10
 109973026.01248  85693255.64448  20927180.6234   20927182.9644   20927180.6234
       248.000         220.000
 133654920.96248  86354482.29648  23530750.4164   23530751.6724   23530750.5834
       227.000         180.000
 128740840.30148 100317529.12348  24498572.0634   24498575.3484   24498573.2564
       207.000         153.000
 110316805.22848  85961137.48648  20992596.3394   20992599.0664   20992596.8004
       246.000         214.000
 119189996.08948  92875318.32248  22681103.7654   22681105.2914   22681104.4324
       231.000         186.000
 123753027.02648  96430922.17248  23549425.0554   23549426.6754   23549424.3484
       225.000         178.000
 123680131.65948  96374118.84948  23535553.5014   23535555.5564   23535553.2494
       228.000         180.000
 140123153.93548  91394649.40048  24761625.1174   24761629.0744   24761624.9694
       208.000         153.000
 130129728.88648 101399776.08048  24762873.6124   24762877.7034   24762874.5074
       214.000         156.000
 09  1 18  0 27 30.0000000  0  9G26G12G27G 9G18G17G28G 5G10
 110032018.25848  85739223.63148  20938406.2704   20938408.8934   20938406.1154
       249.000         220.000
 133547946.37248  86271125.48448  23510393.9284   23510395.0164   23510393.6754
       226.000         182.000
 128811054.33348 100372241.35548  24511933.2044   24511936.7474   24511933.4154
       211.000         155.000
 110257801.96348  85915160.93248  20981368.3414   20981370.8184   20981369.0234
       246.000         214.000
 119141916.11648  92837853.40848  22671954.4204   22671956.0024   22671954.6734
       233.000         187.000
 123712087.21148  96399021.02648  23541633.8644   23541636.0724   23541633.5654
       224.000         178.000
 123764311.58248  96439713.57148  23551572.4694   23551574.6544   23551573.2694
       230.000         180.000
 140008522.71848  91305326.39948  24739810.9234   24739815.3124   24739810.7194
       208.000         153.000
 130240734.70148 101486274.10248  24783996.8474   24784001.8254   24783996.4534
       210.000         153.000
 09  1 18  0 28  0.0000000  0  9G26G12G27G 9G18G17G28G 5G10
 110091388.38248  85785486.05848  20949703.9544   20949706.5754   20949703.7054
       249.000         220.000
 133441169.15748  86187922.47648  23490074.4104   23490076.7514   23490073.3884
       226.000         182.000
 128881281.90448 100426964.10648  24525298.2374   24525301.9004   24525298.6614
       210.000         156.000
 110199090.54348  85869411.79048  20970195.9664   20970198.4704   20970196.4244
       246.000         215.000
 119094354.04048  92800792.04048  22662903.5954   22662905.4654   22662903.1204
       232.000         187.000
 123671588.04848  96367463.24548  23533927.4104   23533929.1574   23533926.7864
       223.000         178.000
 123848721.81748  96505487.79348  23567635.4084   23567637.0284   23567636.5134
       228.000         179.000
 139893981.74348  91216073.72148  24718014.5554   24718018.4974   24718014.4164
       210.000         153.000
 130351712.21248 101572750.07048  24805115.0134   24805118.9754   24805114.5634
       211.000         149.000
 09  1 18  0 28 30.0000000  0  9G26G12G27G 9G18G17G28G 5G10
 110151134.97848  85832041.84148  20961073.4754   20961076.1274   20961073.3514
       249.000         220.000
 133334591.18348  86104874.71448  23469793.5024   23469795.8864   23469793.6504
       226.000         182.000
 128951522.21248 100481696.82448  24538663.3864   24538667.2864   24538663.4224
