     2.11           OBSERVATION DATA    G (GPS)             RINEX VERSION / TYPE
teqc  2008Oct2      gpsops              20090127 00:05:52UTCPGM / RUN BY / DATE
    30.0000                                                 INTERVAL
     1     1                                                WAVELENGTH FACT L1/2
     7    L1    L2    P1    P2    C1    S1    S2            # / TYPES OF OBSERV
Linux 2.4.20-8|Pentium IV|gcc -static|Linux|486/DX+         COMMENT
     2.10           OBSERVATION DATA    GPS                 COMMENT
soc2rnx ver 1.20    gpsops              27-Jan-2009 00:05:47COMMENT
S1, if present, is the SNR for the C/A data stream on L1.   COMMENT
 SNR is mapped to RINEX snr flag value [1,4-9]              COMMENT
    SNR:   >316  >100  >31.6  >10  >3.2    >0 bad=0         COMMENT
L1 & L2:      9     8     7     6     5     4     1         COMMENT
                                                            COMMENT
This data is provided as a public service by NASA/JPL.      COMMENT
No warranty is expressed or implied regarding suitability   COMMENT
for use.  For further information, contact:                 COMMENT
Dave Stowers, NASA/JPL m/s 238-600                          COMMENT
4800 Oak Grove Drive, Pasadena CA 91109 USA                 COMMENT
                                                            COMMENT
Forced Modulo Decimation to 30 seconds                      COMMENT
  2009     1    26     0     0    0.0000000     GPS         TIME OF FIRST OBS
DSN                 JPL                                     OBSERVER / AGENCY
451-U               AOAD/M_T        NONE                    ANT # / TYPE
  4849202.3940  -360328.9929  4114913.1862                  APPROX POSITION XYZ
        0.0254        0.0000        0.0000                  ANTENNA: DELTA H/E/N
LP03574             ASHTECH Z-XII3      CC00                REC # / TYPE / VERS
MADR                                                        MARKER NAME
13407S012                                                   MARKER NUMBER
                                                            END OF HEADER
 09  1 26  0  0  0.0000000  0 10G 5G 9G26G18G15G10G17G12G27G28
 128796022.68148 100360521.30148  24509080.0814   24509084.5784   24509080.8184
       211.000         159.000
 109636749.29848  85431225.70748  20863184.2834   20863186.5704   20863184.8864
       246.000         215.000
 110695565.04648  86256273.67048  21064673.7694   21064676.1464   21064673.5864
       247.000         218.000
 118759665.05048  92539999.15848  22599212.0584   22599213.8794   22599213.2064
       235.000         190.000
 107021180.10248  83393119.10748  20365461.0064   20365462.5034   20365460.6754
       253.000         239.000
 131240284.62648 102265142.08348  24974205.5864   24974210.3814   24974206.7644
       210.000         157.000
 123325022.34848  96097413.74948  23467974.7834   23467977.3494   23467974.6724
       226.000         183.000
 122546145.14348  95490497.86948  23319759.0334   23319761.3704   23319759.0754
       229.000         186.000
 127086055.37748  99028085.25848  24183678.4624   24183682.5884   24183677.8534
       213.000         161.000
 124718878.99348  97183534.46948  23733219.3884   23733219.9084   23733218.5444
       224.000         173.000
 09  1 26  0  0 30.0000000  0 10G 5G 9G26G18G15G10G17G12G27G28
 128682576.12848 100272121.42748  24487492.6254   24487496.3654   24487492.1084
       217.000         163.000
 109581167.84148  85387915.48348  20852607.4714   20852609.8544   20852607.7514
       246.000         215.000
 110759014.25948  86305714.61248  21076747.8474   21076750.0164   21076747.7184
       248.000         217.000
 118717071.96948  92506809.74648  22591107.5314   22591109.0684   22591107.9824
       236.000         192.000
 107035005.17548  83403891.88148  20368091.9414   20368093.3314   20368091.6954
       253.000         239.000
 131350845.75148 102351293.53648  24995245.2414   24995249.1014   24995246.4334
       201.000         149.000
 123289516.35448  96069746.73048  23461218.2414   23461220.4414   23461218.2114
       226.000         182.000
 122441368.69648  95408853.89748  23299820.7704   23299823.3714   23299820.6024
       226.000         185.000
 127154427.48348  99081362.18848  24196688.9024   24196692.5724   24196688.9864
       215.000         158.000
 124805647.25648  97251146.09848  23749730.6654   23749731.9864   23749730.6164
       225.000         174.000
 09  1 26  0  1  0.0000000  0 10G 5G 9G26G18G15G10G17G12G27G28
 128569243.09748 100183809.99248  24465926.0764   24465929.9974   24465926.8564
       217.000         162.000
 109525883.62548  85344836.87348  20842087.4244   20842089.7994   20842087.2694
       246.000         216.000
 110822833.03548  86355443.51748  21088892.0894   21088894.4684   21088892.0354
       248.000         217.000
 118675011.56448  92474035.40148  22583103.8084   22583105.1934   22583104.1634
       235.000         192.000
 107049277.61448  83415013.26048  20370807.9114   20370809.2214   20370807.7154
       253.000         239.000
 131461353.25448 102437403.23548  25016274.3194   25016277.5684   25016274.4124
       210.000         149.000
 123254474.72748  96042441.57748  23454550.2734   23454552.3424   23454549.7614
       228.000         183.000
 122336811.91048  95327381.07448  23279924.3894   23279926.5144   23279924.6124
       228.000         184.000
 127222826.00148  99134659.73548  24209704.5084   24209707.5924   24209704.2174
       211.000         158.000
 124892618.93048  97318916.21948  23766280.4034   23766282.2494   23766280.7964
       226.000         175.000
 09  1 26  0  1 30.0000000  0 10G 5G 9G26G18G15G10G17G12G27G28
 128456025.09748 100095588.18948  24444380.6204   24444384.9624   24444381.7044
       215.000         160.000
 109470896.77348  85301989.97748  20831623.6734   20831626.1984   20831623.6284
       247.000         216.000
 110887020.02448  86405459.35148  21101106.4964   21101108.7944   21101106.3034
       248.000         217.000
 118633485.07748  92441677.09448  22575201.1804   22575202.7044   22575202.0084
       233.000         190.000
 107063997.69948  83426483.45048  20373608.9784   20373610.3264   20373608.8534
       253.000         239.000
 131571804.33048 102523469.05948  25037292.2024   25037295.0704   25037292.8654
       214.000         147.000
 123219899.04548  96015499.47048  23447970.8834   23447972.4474   23447970.9224
       229.000         183.000
 122232476.41548  95246080.70748  23260069.7924   23260071.9884   23260069.3514
       226.000         185.000
 127291250.24748  99187977.28848  24222725.3564   24222728.6544   24222725.9754
       210.000         158.000
 124979791.17148  97386842.63348  23782869.1234   23782870.7254   23782869.7934
       225.000         173.000
 09  1 26  0  2  0.0000000  0 10G 5G 9G26G18G15G10G17G12G27G28
 128342924.73448 100007457.99148  24422858.5654   24422861.9064   24422859.2364
       216.000         160.000
 109416208.36348  85259375.63648  20821216.7894   20821219.4344   20821216.9544
       246.000         216.000
 110951575.52648  86455762.33348  21113390.8444   21113393.2154   21113390.7684
       248.000         216.000
 118592494.34048  92409736.26048  22567400.8834   22567402.3634   22567401.3784
       236.000         192.000
 107079166.62348  83438303.38448  20376495.5344   20376496.8864   20376495.3134
       252.000         239.000
 131682196.97748 102609489.32648  25058299.5054   25058303.1384   25058300.6834
       207.000         147.000
 123185791.79648  95988922.38548  23441480.4604   23441482.0594   23441480.0624
       229.000         184.000
 122128365.35348  95164955.19548  23240258.7694   23240260.7334   23240259.2064
       229.000         185.000
 127359701.10348  99241315.58948  24235751.6474   24235755.0784   24235752.3814
       214.000         159.000
 125067162.69248  97454924.34748  23799494.9724   23799496.5604   23799494.5814
       224.000         172.000
 09  1 26  0  2 30.0000000  0 10G 5G 9G26G18G15G10G17G12G27G28
 128229943.12048  99919420.40348  24401358.7424   24401362.2234   24401358.8504
       217.000         159.000
 109361818.23648  85216993.72648  20810866.7504   20810869.1634   20810866.9124
       247.000         216.000
 111016497.63348  86506350.98248  21125745.1004   21125747.6794   21125744.8894
       247.000         217.000
 118552039.67448  92378213.14248  22559702.7264   22559704.1444   22559703.2234
       235.000         191.000
 107094784.03148  83450472.78448  20379467.3764   20379468.7604   20379467.0354
       253.000         238.000
 131792528.15848 102695461.61848  25079295.1594   25079299.0964   25079296.4184
       208.000         148.000
 123152154.06348  95962711.17048  23435079.4264   23435081.0404   23435079.1164
       229.000         186.000
 122024479.68548  95084005.32848  23220489.8594   23220491.5354   23220490.1714
       226.000         185.000
 127428177.70848  99294673.95948  24248782.5794   24248785.1944   24248782.2654
       214.000         158.000
 125154730.40448  97523158.93248  23816158.6604   23816160.2704   23816159.2444
       224.000         170.000
 09  1 26  0  3  0.0000000  0 10G 5G 9G26G18G15G10G17G12G27G28
 128117083.52548  99831477.89548  24379882.6794   24379886.0574   24379883.9864
       214.000         161.000
 109307727.99348  85174845.48948  20800573.6644   20800575.9494   20800573.9044
       247.000         216.000
 111081787.12048  86557225.89948  21138169.3824   21138171.8424   21138169.1634
       248.000         216.000
 118512124.01548  92347110.01248  22552107.0634   22552108.0154   22552107.6564
       235.000         191.000
 107110851.77248  83462993.10148  20382524.9474   20382526.3954   20382524.6984
       252.000         238.000
 131902796.67748 102781385.11948  25100279.2434   25100282.2594   25100279.9054
       214.000         150.000
 123118989.21248  95936868.43448  23428768.4044   23428770.2534   23428768.5414
       227.000         185.000
 121920822.65648  95003233.63548  23200763.6244   23200765.8004   23200762.8334
       227.000         184.000
 127496681.31848  99348053.36348  24261817.1994   24261821.5104   24261817.5334
       212.000         157.000
 125242493.29748  97591545.62048  23832859.2814   23832860.7494   23832859.5704
       224.000         170.000
 09  1 26  0  3 30.0000000  0 10G 5G 9G26G18G15G10G17G12G27G28
 128004346.90948  99743631.22148  24358430.1164   24358433.0004   24358430.4534
       219.000         161.000
 109253937.19748  85132930.59448  20790337.6624   20790340.2914   20790337.6954
       247.000         217.000
 111147442.27648  86608385.75548  21150663.0714   21150665.5124   21150663.0224
       248.000         216.000
 118472747.85048  92316427.27748  22544613.7324   22544615.3214   22544614.1944
       234.000         191.000
 107127369.46848  83475864.02048  20385668.2784   20385669.6404   20385667.9234
       253.000         238.000
 132012999.15248 102867257.20248  25121249.3434   25121252.7714   25121251.1334
       212.000         149.000
 123086297.99348  95911394.77148  23422547.6374   23422549.3474   23422547.3804
       230.000         186.000
 121817395.44548  94922640.99948  23181082.2234   23181084.4054   23181082.0754
       229.000         186.000
 127565210.81948  99401452.97548  24274858.3454   24274862.0544   24274858.4564
       208.000         155.000
 125330448.24648  97660081.91248  23849597.1924   23849598.4654   23849597.5384
       225.000         173.000
 09  1 26  0  4  0.0000000  0 10G 5G 9G26G18G15G10G17G12G27G28
 127891735.86548  99655882.38048  24337001.2404   24337003.6594   24337001.9484
       221.000         164.000
 109200446.62048  85091249.62348  20780158.8364   20780161.2314   20780159.0574
       247.000         217.000
 111213462.98748  86659830.45648  21163226.2914   21163228.9984   21163226.1704
       248.000         216.000
 118433912.81248  92286166.19148  22537223.7934   22537225.4384   22537223.8184
       235.000         191.000
 107144338.09048  83489086.32248  20388897.3374   20388898.6034   20388897.2724
       253.000         238.000
 132123133.71048 102953076.32448  25142206.4634   25142210.6934   25142206.9204
       206.000         145.000
 123054082.76348  95886291.98648  23416417.2394   23416418.9084   23416417.2804
       229.000         186.000
 121714201.24048  94842229.94248  23161445.4374   23161447.5624   23161445.2404
       228.000         187.000
 127633766.93848  99454873.31348  24287904.3434   24287907.9924   24287904.0594
       209.000         156.000
 125418593.64948  97728766.64848  23866370.9324   23866371.9894   23866371.3274
       226.000         173.000
 09  1 26  0  4 30.0000000  0 10G 5G 9G26G18G15G10G17G12G27G28
 127779252.13348  99568232.73548  24315595.3034   24315598.6474   24315595.2574
       220.000         165.000
 109147256.66748  85049802.91648  20770037.2274   20770039.7144   20770037.4174
       247.000         218.000
 111279848.29048  86711559.26248  21175859.1684   21175861.6764   21175859.1474
       247.000         216.000
 118395620.10948  92256327.72848  22529937.1644   22529938.6124   22529938.2564
       234.000         191.000
 107161757.84348  83502660.15748  20392212.0894   20392213.4484   20392211.9204
       252.000         238.000
 132233198.00548 103038840.67848  25163151.4074   25163155.1404   25163153.4904
       210.000         146.000
 123022345.35948  95861561.54948  23410377.6524   23410379.1614   23410377.6354
       228.000         185.000
 121611241.44248  94762001.54948  23141853.1224   23141855.0294   23141853.0004
       230.000         188.000
 127702349.15148  99508313.97048  24300955.6364   24300958.1494   24300955.6944
       207.000         156.000
 125506927.17148  97797597.94748  23883179.9484   23883181.1214   23883180.3114
       225.000         173.000
 09  1 26  0  5  0.0000000  0 10G 5G 9G26G18G15G10G17G12G27G28
 127666897.38148  99480683.58348  24294214.8294   24294218.2274   24294214.0724
       217.000         165.000
 109094367.79248  85008590.82348  20759972.5554   20759975.2434   20759972.6274
       247.000         217.000
 111346596.98948  86763571.22848  21188561.1344   21188563.4734   21188561.0964
       248.000         216.000
 118357870.68648  92226912.59848  22522753.3144   22522755.0904   22522753.9944
       234.000         191.000
 107179628.92948  83516585.67348  20395612.8924   20395614.2454   20395612.6204
       252.000         238.000
 132343189.60248 103124548.41548  25184081.6034   25184085.8734   25184084.2054
       207.000         147.000
 122991086.91048  95837204.32648  23404429.2044   23404430.7104   23404429.1704
       229.000         185.000
 121508518.02548  94681957.33048  23122305.9884   23122307.1944   23122306.8454
       229.000         189.000
 127770957.30948  99561774.84748  24314010.8514   24314014.0424   24314010.5754
       210.000         155.000
 125595446.23148  97866573.82248  23900024.4954   23900025.4364   23900025.0424
       224.000         170.000
 09  1 26  0  5 30.0000000  0 10G 5G 9G26G18G15G10G17G12G27G28
 127554674.02148  99393236.87248  24272858.8254   24272862.4854   24272858.1874
       218.000         164.000
 109041780.61348  84967613.81148  20749965.6404   20749968.0574   20749966.0004
       247.000         218.000
 111413708.83048  86815866.15748  21201332.0514   21201334.5434   21201331.9164
       247.000         216.000
 118320666.06948  92197921.97848  22515673.4444   22515675.4424   22515674.0934
       234.000         191.000
 107197952.18248  83530863.52948  20399099.7574   20399101.0324   20399099.5054
       252.000         238.000
 132453106.17948 103210197.66748  25204997.7714   25205001.0044   25204998.9594
       210.000         146.000
 122960310.33148  95813222.57448  23398572.3704   23398574.4844   23398572.6084
       229.000         184.000
 121406033.30548  94602099.11048  23102803.1604   23102804.5414   23102802.1634
       227.000         186.000
 127839591.97348  99615256.39448  24327071.2134   24327074.9294   24327071.7234
       209.000         158.000
 125684149.26248  97935693.06748  23916903.8524   23916904.6044   23916903.9944
       222.000         167.000
 09  1 26  0  6  0.0000000  0 10G 5G 9G26G18G15G10G17G12G27G28
 127442584.13248  99305894.12448  24251529.0874   24251532.6184   24251530.2014
       220.000         163.000
 108989495.81048  84926872.42448  20740016.0594   20740018.6614   20740016.3194
       247.000         217.000
 111481183.12648  86868443.52148  21214171.9104   21214174.4224   21214171.7804
       247.000         215.000
 118284007.86348  92169357.13748  22508697.4754   22508699.1654   22508697.7424
       235.000         191.000
 107216728.33248  83545494.29648  20402672.6594   20402674.0854   20402672.4564
       252.000         238.000
 132562945.50848 103295786.74248  25225900.1794   25225903.0404   25225901.3374
       209.000         143.000
 122930017.07748  95789617.45448  23392808.0484   23392809.7474   23392807.9694
       230.000         185.000
 121303789.69848  94522428.79448  23083346.9644   23083348.3264   23083346.9284
       229.000         187.000
 127908253.24048  99668758.67448  24340136.8994   24340140.8504   24340137.2004
       209.000         156.000
 125773034.10048  98004953.99248  23933817.9524   23933818.9254   23933818.1314
       222.000         165.000
 09  1 26  0  6 30.0000000  0 10G 5G 9G26G18G15G10G17G12G27G28
 127330628.54448  99218656.03748  24230225.3684   24230228.2544   24230227.6004
       220.000         163.000
 108937512.87448  84886366.24048  20730124.1754   20730126.2714   20730124.1314
       247.000         217.000
 111549017.99548  86921301.85148  21227080.6034   21227082.7564   21227080.4404
       247.000         216.000
 118247895.68448  92141217.77548  22501825.5984   22501827.7474   22501826.7824
       234.000         192.000
 107235956.93548  83560477.61948  20406331.7724   20406333.1194   20406331.4144
       252.000         238.000
 132672704.15448 103381312.96048  25246788.1294   25246788.9064   25246788.5984
       211.000         142.000
 122900207.80348  95766389.44448  23387135.6184   23387137.0354   23387135.3844
       228.000         185.000
 121201787.86648  94442946.84948  23063936.4464   23063938.0604   23063936.4114
       228.000         188.000
 127976940.11448  99722280.87748  24353208.0214   24353211.0124   24353207.8884
       212.000         158.000
 125862097.29048  98074353.88548  23950765.9274   23950766.8314   23950766.9124
       220.000         165.000
 09  1 26  0  7  0.0000000  0 10G 5G 9G26G18G15G10G17G12G27G28
 127218810.18048  99131524.86648  24208946.4624   24208950.1034   24208946.9304
       219.000         164.000
 108885833.35848  84846096.49648  20720289.9714   20720292.2234   20720290.0754
       248.000         217.000
 111617213.75548  86974441.39848  21240057.7404   21240060.2994   21240057.7074
       248.000         215.000
 118212332.19248  92113505.95148  22495058.4344   22495060.4904   22495058.5034
       235.000         193.000
 107255639.28648  83575814.51048  20410077.1934   20410078.5324   20410076.8794
       252.000         237.000
 132782381.26448 103466775.63048  25267658.4314   25267661.0114   25267658.9384
       205.000         141.000
 122870885.09548  95743540.57348  23381555.6344   23381557.1614   23381555.1084
       230.000         186.000
 121100031.16648  94363655.92848  23044572.6264   23044574.3934   23044572.7114
       230.000         188.000
 128045653.56948  99775823.80948  24366283.9494   24366286.9214   24366283.8184
       210.000         158.000
 125951337.86348  98143891.98348  23967748.0184   23967749.0634   23967747.7424
       221.000         166.000
 09  1 26  0  7 30.0000000  0 10G 5G 9G26G18G15G10G17G12G27G28
 127107130.83248  99044501.98648  24187694.7794   24187698.0244   24187695.1724
       219.000         164.000
 108834457.49048  84806063.36348  20710513.2864   20710515.6404   20710513.6574
       247.000         218.000
 111685769.39048  87027861.36648  21253103.4044   21253105.8434   21253103.4594
       247.000         215.000
 118177318.47048  92086222.54248  22488395.3674   22488397.4684   22488396.1264
       235.000         193.000
 107275775.68448  83591505.20448  20413909.0614   20413910.4784   20413908.8764
       252.000         237.000
 132891973.85248 103552172.43748  25288512.5304   25288514.9134   25288512.7934
       206.000         143.000
 122842050.87348  95721072.36848  23376068.7174   23376070.2794   23376068.6044
       230.000         187.000
 120998521.56548  94284557.55148  23025256.2234   23025258.1634   23025256.6454
       230.000         190.000
 128114393.29448  99829387.22748  24379365.3194   24379367.8874   24379366.1274
       208.000         160.000
 126040753.59248  98213566.58148  23984763.3444   23984764.4064   23984763.1374
       221.000         166.000
 09  1 26  0  8  0.0000000  0 10G 5G 9G26G18G15G10G17G12G27G28
 126995592.20548  98957588.81748  24166469.5274   24166472.6824   24166470.3334
       219.000         165.000
 108783385.39848  84766266.94048  20700794.6964   20700797.1934   20700795.0044
       247.000         219.000
 111754683.82048  87081560.91648  21266217.3534   21266219.6534   21266217.2604
       246.000         214.000
 118142855.12348  92059367.96448  22481837.3254   22481838.9594   22481838.3524
       236.000         193.000
 107296366.10148  83607549.67948  20417827.1924   20417828.7104   20417826.9094
       252.000         237.000
 133001479.28948 103637501.32448  25309350.3894   25309354.1374   25309350.4114
       203.000         144.000
 122813706.68148  95698985.97448  23370674.9704   23370676.6464   23370674.5184
       231.000         188.000
 120897260.74548  94205653.01848  23005987.4544   23005988.8534   23005987.2434
       229.000         188.000
 128183159.42748  99882971.21348  24392450.1504   24392453.3814   24392449.8744
       216.000         160.000
 126130342.07248  98283375.77348  24001811.7554   24001812.7424   24001813.3044
       223.000         167.000
 09  1 26  0  8 30.0000000  0 10G 5G 9G26G18G15G10G17G12G27G28
 126884195.34848  98870786.11148  24145271.5454   24145274.6674   24145272.2434
       219.000         166.000
 108732616.59848  84726706.84548  20691133.6294   20691135.9304   20691134.1164
       247.000         218.000
 111823955.35748  87135538.73048  21279399.4554   21279401.8184   21279399.3434
       247.000         215.000
 118108942.63048  92032942.64048  22475384.3384   22475385.9354   22475384.6484
       236.000         193.000
 107317410.14148  83623947.62848  20421831.7864   20421833.2834   20421831.4964
       252.000         237.000
 133110894.66548 103722760.05748  25330171.5724   25330175.2454   25330172.1324
       208.000         143.000
 122785853.20148  95677281.96248  23365374.7324   23365376.5654   23365374.6104
       231.000         188.000
 120796250.11148  94126943.44248  22986765.0534   22986766.9134   22986764.9234
       228.000         187.000
 128251950.75948  99936574.82848  24405540.9234   24405544.5774   24405542.3104
       212.000         159.000
 126220100.13148  98353317.11448  24018891.9214   24018893.4054   24018893.2744
       220.000         164.000
 09  1 26  0  9  0.0000000  0 10G 5G 9G26G18G15G10G17G12G27G28
 126772943.87248  98784096.66148  24124101.6584   24124104.2434   24124101.9194
       221.000         169.000
 108682153.07448  84687384.63848  20681530.7134   20681533.2714   20681530.7814
       247.000         219.000
 111893584.66948  87189795.33548  21292649.3634   21292651.7874   21292649.6224
       247.000         215.000
 118075583.43648  92006948.45248  22469036.4804   22469037.5304   22469037.3944
       237.000         193.000
 107338909.78148  83640700.58348  20425923.0604   20425924.4464   20425922.8794
       252.000         237.000
 133220219.17448 103807947.95648  25350974.7154   25350979.2314   25350976.6644
       204.000         138.000
 122758493.39348  95655962.63148  23360168.1684   23360169.8594   23360168.1744
       233.000         188.000
 120695492.82248  94048431.27548  22967591.4704   22967593.3074   22967591.1534
       230.000         188.000
 128320768.87748  99990199.31448  24418637.3374   24418640.2764   24418637.4744
       211.000         160.000
 126310027.31248  98423390.22248  24036004.4144   24036006.3244   24036005.0044
       221.000         166.000
 09  1 26  0  9 30.0000000  0 10G 5G 9G26G18G15G10G17G12G27G28
 126661839.46548  98697521.83048  24102958.6354   24102961.9704   24102958.8004
       221.000         169.000
 108631995.20548  84648300.59948  20671985.9214   20671988.2104   20671986.0594
       248.000         218.000
 111963570.81748  87244329.98348  21305967.3964   21305969.8824   21305967.3354
       246.000         214.000
 118042778.65048  91981386.26448  22462794.0054   22462794.9864   22462794.4614
       237.000         193.000
 107360864.92648  83657808.48248  20430100.9834   20430102.3444   20430100.7424
       251.000         237.000
 133329450.48948 103893063.25848  25371760.5964   25371763.3174   25371760.8974
       205.000         138.000
 122731629.12348  95635029.43648  23355055.9714   23355057.6974   23355056.1634
       231.000         187.000
 120594990.79748  93970118.01948  22948466.5894   22948468.1484   22948466.5094
       232.000         190.000
 128389613.80048 100043844.69448  24431737.2154   24431740.6704   24431737.4634
       214.000         160.000
 126400121.19848  98493593.26148  24053148.9484   24053150.3994   24053150.0044
       220.000         164.000
 09  1 26  0 10  0.0000000  0 10G 5G 9G26G18G15G10G17G12G27G28
 126550883.05548  98611062.30048  24081844.1224   24081847.6904   24081844.6254
       222.000         168.000
 108582142.35848  84609454.24448  20662499.1244   20662501.8834   20662499.3914
       247.000         219.000
 112033911.84248  87299141.17048  21319352.9614   21319355.3804   21319352.7884
       247.000         215.000
 118010528.25948  91956256.08848  22456656.8844   22456658.0984   22456657.6084
       235.000         193.000
 107383275.26848  83675271.07848  20434365.4414   20434366.9804   20434365.1534
       251.000         237.000
 133438584.71348 103978102.91648  25392529.1594   25392532.0334   25392530.9564
       206.000         138.000
 122705260.75048  95614482.65448  23350038.0074   23350039.7994   23350038.3444
       230.000         187.000
 120494745.19648  93892004.57148  22929390.4304   22929392.2764   22929390.4674
       231.000         189.000
 128458484.29048 100097509.98648  24444843.1264   24444846.8234   24444843.5484
       213.000         161.000
 126490378.54748  98563923.65348  24070323.8894   24070326.2494   24070323.6064
       217.000         164.000
 09  1 26  0 10 30.0000000  0 10G 5G 9G26G18G15G10G17G12G27G28
 126440077.96348  98524720.65548  24060758.8354   24060762.1514   24060759.7734
       221.000         168.000
 108532596.74948  84570847.28748  20653071.0614   20653073.3004   20653071.6374
       248.000         219.000
 112104608.40248  87354229.38448  21332806.2174   21332808.4094   21332806.3474
       247.000         214.000
 117978834.49648  91931559.64348  22450625.5854   22450626.9024   22450626.3384
       237.000         193.000
 107406142.23948  83693089.48748  20438717.0174   20438718.5114   20438716.8554
       252.000         237.000
 133547621.33148 104063066.53248  25413278.9764   25413281.0604   25413280.0804
       204.000         139.000
 122679391.29148  95594324.64648  23345115.6144   23345116.9084   23345115.8264
       229.000         187.000
 120394759.58648  93814093.69648  22910364.3054   22910365.4414   22910364.0714
       230.000         189.000
 128527381.78848 100151196.33048  24457954.1574   24457956.6024   24457954.8044
       214.000         160.000
 126580798.53448  98634380.77148  24087530.3214   24087532.8294   24087530.8744
       219.000         162.000
 09  1 26  0 11  0.0000000  0 10G 5G 9G26G18G15G10G17G12G27G28
 126329424.79648  98438497.43548  24039702.4244   24039705.3404   24039702.7564
       220.000         170.000
 108483357.59448  84532479.12948  20643701.1294   20643703.6244   20643701.2954
       248.000         220.000
 112175658.14648  87409592.82548  21346326.2384   21346328.5974   21346326.1694
       247.000         214.000
 117947697.11348  91907296.74348  22444700.1634   22444701.6304   22444701.0504
       235.000         192.000
 107429465.16948  83711263.19648  20443155.2614   20443156.6694   20443155.2074
       251.000         236.000
 133656556.75348 104147951.24348  25434008.1414   25434010.8714   25434009.8134
       206.000         141.000
 122654020.79948  95574555.43648  23340287.6294   23340289.3414   23340287.8394
       229.000         188.000
 120295034.59248  93736385.92248  22891386.6404   22891388.8024   22891386.2654
       230.000         190.000
 128596305.45548 100204903.05548  24471069.6564   24471072.2574   24471070.1974
       216.000         158.000
 126671378.02048  98704962.18648  24104767.1464   24104769.3554   24104768.7204
       216.000         161.000
 09  1 26  0 11 30.0000000  0 10G 5G 9G26G18G15G10G17G12G27G28
 126218926.32448  98352394.75248  24018674.7264   24018678.3244   24018675.2514
       220.000         170.000
 108434425.65248  84494350.35448  20634389.6104   20634392.0814   20634389.6944
       248.000         220.000
 112247061.33048  87465231.65948  21359914.1694   21359916.3874   21359914.3484
       248.000         214.000
 117917118.00548  91883468.85748  22438881.1304   22438882.5554   22438881.4544
       235.000         193.000
 107453245.13148  83729793.03048  20447680.2904   20447681.7664   20447680.0064
       251.000         236.000
 133765389.34448 104232755.81348  25454718.9424   25454719.8474   25454720.5504
       207.000         140.000
 122629152.15248  95555177.28148  23335555.2354   23335556.8834   23335554.7994
       232.000         188.000
 120195572.95648  93658883.35848  22872459.7344   22872461.8924   22872459.4044
       232.000         190.000
 128665255.88548 100258630.65948  24484191.1944   24484193.0114   24484190.9844
       210.000         159.000
 126762115.45748  98775666.67948  24122033.6144   24122035.9554   24122033.6264
       211.000         160.000
 09  1 26  0 12  0.0000000  0 10G 5G 9G26G18G15G10G17G12G27G28
 126108583.58348  98266413.40748  23997677.5894   23997680.9814   23997678.4294
       220.000         171.000
 108385800.68148  84456460.78148  20625136.6504   20625139.1334   20625136.5214
       248.000         220.000
 112318815.90048  87521144.31048  21373568.3204   21373570.8074   21373568.3644
       246.000         214.000
 117887097.24048  91860076.04348  22433168.6334   22433170.1834   22433169.4334
       235.000         194.000
 107477481.30248  83748678.35248  20452292.2734   20452293.7324   20452292.0134
       251.000         236.000
 133874116.00348 104317477.89748  25475408.6954   25475410.7054   25475409.6804
       203.000         141.000
 122604785.89648  95536190.58348  23330918.3174   23330919.8814   23330918.0324
       231.000         188.000
 120096375.74048  93581586.83048  22853583.5234   22853585.2874   22853583.2464
       232.000         191.000
 128734232.09748 100312378.32348  24497316.5934   24497318.9664   24497316.9794
       215.000         159.000
 126853007.91148  98846491.95148  24139329.6304   24139332.3124   24139328.7454
       218.000         160.000
 09  1 26  0 12 30.0000000  0 11G 5G 9G26G18G15G10G17G12G22G27G28
 125998397.89548  98180554.43348  23976709.6334   23976713.4234   23976710.8054
       222.000         171.000
 108337482.68448  84418810.40048  20615942.1084   20615944.6514   20615942.6114
       248.000         220.000
 112390920.38148  87577329.61048  21387289.3644   21387291.8294   21387289.3164
       246.000         213.000
 117857635.22548  91837118.60948  22427561.8964   22427563.4594   22427561.7394
       235.000         193.000
 107502173.59948  83767919.09648  20456991.1464   20456992.4804   20456990.9664
       251.000         235.000
 133982733.74948 104402115.05348  25496077.8904   25496081.4154   25496078.9064
       204.000         139.000
 122580922.71348  95517595.89248  23326377.7854   23326379.2554   23326377.6234
       232.000         190.000
 119997444.31048  93504497.39448  22834757.5104   22834759.0774   22834757.5574
       233.000         192.000
 138135721.75358  89846021.01858  24383413.9095   24383413.4515   24383414.7215
       221.000         166.000
 128803233.65248 100366145.74748  24510447.1904   24510449.6174   24510447.7734
       216.000         160.000
 126944052.92748  98917436.12548  24156655.4704   24156657.2874   24156656.9714
       217.000         159.000
 09  1 26  0 13  0.0000000  0 11G 5G 9G26G18G15G10G17G12G22G27G28
 125888372.10948  98094820.07448  23955772.7834   23955776.1114   23955773.2084
       221.000         171.000
 108289472.87648  84381400.16448  20606805.9754   20606808.6074   20606805.9004
       248.000         220.000
 112463374.86348  87633787.65248  21401076.9454   21401079.3764   21401076.6604
       245.000         213.000
 117828734.02148  91814598.17648  22422061.9324   22422063.6764   22422062.4574
       233.000         193.000
 107527323.31748  83787516.27248  20461776.8914   20461778.4144   20461776.5144
       252.000         236.000
 134091241.79248 104486666.76248  25516725.4504   25516730.1064   25516726.5104
       200.000         136.000
 122557565.15048  95499395.20648  23321932.9324   23321934.4244   23321932.7924
       232.000         189.000
 119898781.74548  93427617.50048  22815982.7174   22815984.3594   22815983.0594
       233.000         194.000
 138062935.51648  89789304.50648  24369562.7354   24369563.0024   24369561.4714
       211.000         164.000
 128872261.45948 100419933.62248  24523582.3704   24523585.2484   24523582.8244
       213.000         161.000
 127035249.19548  98988498.15248  24174009.8144   24174011.6514   24174010.1504
       216.000         160.000
 09  1 26  0 13 30.0000000  0 11G 5G 9G26G18G15G10G17G12G22G27G28
 125778509.08048  98009212.53948  23934866.6804   23934869.6834   23934867.7904
       222.000         170.000
 108241772.47148  84344231.02248  20597729.1384   20597731.5134   20597729.4754
       248.000         221.000
 112536179.40948  87690518.45248  21414931.1194   21414933.7554   21414930.8344
       246.000         213.000
 117800395.04248  91792515.84848  22416669.3944   22416671.2034   22416669.5624
       235.000         192.000
 107552931.20648  83807470.46248  20466650.0294   20466651.4924   20466649.8284
       251.000         235.000
 134199638.27748 104571131.52048  25537352.8904   25537357.1554   25537353.8594
       201.000         137.000
 122534715.45248  95481590.25948  23317584.5024   23317586.2864   23317584.4754
       231.000         190.000
 119800391.39248  93350949.69048  22797259.5934   22797261.5354   22797259.4904
       233.000         193.000
 137990533.97748  89732887.72648  24355785.2064   24355786.5724   24355784.6184
       224.000         165.000
 128941316.57748 100473742.80948  24536723.2734   24536726.2874   24536722.8574
       211.000         162.000
 127126595.31348  99059676.92848  24191392.4394   24191394.3014   24191392.5914
       216.000         158.000
 09  1 26  0 14  0.0000000  0 11G 5G 9G26G18G15G10G17G12G22G27G28
 125668810.52148  97923733.17948  23913991.6894   23913994.7614   23913992.1114
       223.000         172.000
 108194381.98848  84307303.37448  20588710.8814   20588713.4534   20588711.1574
       247.000         220.000
 112609332.71448  87747521.03148  21428851.9244   21428854.3624   21428851.9244
       245.000         213.000
 117772619.09348  91770872.23648  22411383.9264   22411385.5074   22411384.7254
       235.000         192.000
 107578997.71648  83827782.02548  20471610.2174   20471611.6724   20471609.9464
       251.000         235.000
 134307920.80748 104655507.49448  25557957.5464   25557961.3424   25557959.8864
       200.000         135.000
 122512375.19248  95464182.25848  23313333.2524   23313335.5034   23313332.8754
       230.000         190.000
 119702274.23848  93274494.77748  22778588.6834   22778590.4524   22778588.2654
       233.000         193.000
 137918519.26048  89676772.27648  24342081.7664   24342081.3704   24342082.3064
       217.000         163.000
 129010399.11648 100527573.33148  24549869.1214   24549872.4744   24549868.8074
       213.000         163.000
 127218089.09448  99130970.76748  24208803.6494   24208804.6904   24208803.4244
       215.000         159.000
 09  1 26  0 14 30.0000000  0 11G 5G 9G26G18G15G10G17G12G22G27G28
 125559278.06748  97838383.20748  23893148.7164   23893151.3964   23893149.2304
       226.000         173.000
 108147301.73948  84270617.46848  20579751.7014   20579754.1344   20579751.9224
       248.000         220.000
 112682833.83548  87804794.62948  21442838.6764   21442841.0814   21442838.5314
       245.000         212.000
 117745406.69648  91749667.75848  22406205.6434   22406206.8314   22406205.9404
       235.000         192.000
 107605522.51348  83848450.69148  20476657.7934   20476659.1854   20476657.6554
       251.000         235.000
 134416087.26948 104739793.02748  25578542.3914   25578546.3514   25578541.7214
       203.000         139.000
 122490545.59848  95447172.17848  23309179.2684   23309181.0414   23309179.2014
       232.000         190.000
 119604432.29848  93198254.30648  22759969.8394   22759971.7604   22759969.8244
       234.000         194.000
 137846893.19448  89620959.80848  24328451.5554   24328451.5234   24328451.7274
       217.000         165.000
 129079508.54548 100581424.79548  24563020.6044   24563022.9454   24563020.9794
       216.000         163.000
 127309728.15648  99202377.81548  24226241.0864   24226243.1864   24226240.9534
       214.000         157.000
 09  1 26  0 15  0.0000000  0 10G 5G 9G26G18G15G17G12G22G27G28
 125449913.12748  97753163.78448  23872337.1244   23872340.2544   23872338.0534
       222.000         174.000
 108100531.56048  84234173.18248  20570851.4904   20570854.3214   20570851.8054
       247.000         220.000
 112756681.12348  87862337.96248  21456891.2304   21456893.6764   21456891.2384
       245.000         212.000
 117718758.46448  91728902.89848  22401134.3334   22401136.0174   22401134.8294
       235.000         192.000
 107632505.25248  83869476.19948  20481792.3694   20481793.8804   20481792.1604
       251.000         235.000
 122469227.36548  95430560.58148  23305122.6364   23305124.2634   23305123.0624
       231.000         190.000
 119506867.14048  93122229.51648  22741403.6244   22741405.7954   22741403.5404
       232.000         195.000
 137775657.38248  89565451.43448  24314895.1854   24314896.3374   24314895.0544
       218.000         167.000
 129148644.39148 100635296.87648  24576176.6254   24576179.2914   24576178.0814
       214.000         163.000
 127401509.95248  99273896.08848  24243706.4464   24243708.6994   24243707.6144
       217.000         159.000
 09  1 26  0 15 30.0000000  0 10G 5G 9G26G18G15G17G12G22G27G28
 125340717.72748  97668076.49148  23851557.2934   23851561.1794   23851557.1614
       222.000         174.000
 108054072.07248  84197970.98248  20562010.6004   20562013.2174   20562010.7934
       248.000         221.000
 112830873.76848  87920150.41048  21471009.5584   21471012.1604   21471009.4804
       245.000         212.000
 117692675.02548  91708578.12448  22396170.9444   22396172.4044   22396171.3534
       234.000         193.000
 107659946.64248  83890859.09248  20487014.3884   20487015.8704   20487014.1834
       251.000         235.000
 122448422.18648  95414348.75348  23301163.1654   23301165.3694   23301163.4904
       231.000         191.000
 119409580.69448  93046421.89648  22722891.0564   22722892.6384   22722890.5924
       235.000         196.000
 137704814.22848  89510248.99248  24301415.2434   24301415.7354   24301413.6124
       218.000         167.000
 129217806.93348 100689189.75048  24589338.2364   24589340.6234   24589338.5034
       214.000         164.000
 127493432.54948  99345524.08048  24261199.1164   24261200.6194   24261201.0084
       218.000         158.000
 09  1 26  0 16  0.0000000  0 10G 5G 9G26G18G15G17G12G22G27G28
 125231694.05648  97583123.00348  23830811.1064   23830814.4674   23830811.9984
       223.000         175.000
 108007923.87248  84162011.34148  20553229.0524   20553231.5164   20553229.0844
       248.000         221.000
 112905411.20948  87978231.52848  21485193.7544   21485196.1284   21485193.8264
       244.000         212.000
 117667157.70448  91688694.48948  22391315.0284   22391316.8554   22391315.5674
       235.000         194.000
 107687846.95548  83912599.58948  20492323.7634   20492325.0514   20492323.4584
       251.000         235.000
 122428131.52548  95398537.85848  23297302.1854   23297304.0374   23297302.0324
       232.000         191.000
 119312575.09248  92970833.12048  22704431.3914   22704432.8734   22704431.8034
       233.000         195.000
 137634365.97348  89455354.23048  24288009.8794   24288009.1224   24288011.0004
       225.000         169.000
 129286996.88548 100743103.97348  24602504.0764   24602506.7164   24602503.3734
       215.000         162.000
 127585494.12548  99417260.35748  24278717.6454   24278719.9584   24278719.1064
       216.000         159.000
 09  1 26  0 16 30.0000000  0 10G 5G 9G26G18G15G17G12G22G27G28
 125122843.92148  97498304.74548  23810097.4384   23810100.9154   23810097.5514
       223.000         175.000
 107962087.36348  84126294.58848  20544506.6744   20544509.1384   20544506.9154
       248.000         222.000
 112980292.45348  88036580.54148  21499443.1134   21499445.6674   21499443.1304
       244.000         211.000
 117642207.04448  91669252.41348  22386567.5914   22386568.8564   22386568.3474
       237.000         194.000
 107716206.10348  83934697.62348  20497720.2404   20497721.5694   20497719.9894
       251.000         234.000
 122408356.73248  95383128.92748  23293539.1144   23293541.2154   23293539.0624
       233.000         191.000
 119215852.63448  92895464.98248  22686025.3084   22686027.0854   22686024.9784
       232.000         194.000
 137564314.78148  89400768.89248  24274678.5154   24274678.5204   24274678.1274
       221.000         165.000
 129356213.98848 100797039.35848  24615675.1774   24615679.2964   24615674.8414
       214.000         164.000
 127677692.49848  99489103.22048  24296262.3054   24296264.2904   24296262.9634
       213.000         156.000
 09  1 26  0 17  0.0000000  0 10G 5G 9G26G18G15G17G12G22G27G28
 125014169.06048  97413623.02948  23789417.2484   23789420.7914   23789417.8244
       227.000         175.000
 107916562.84248  84090820.94148  20535843.7804   20535846.0994   20535843.8874
       249.000         221.000
 113055516.19548  88095196.44748  21513757.6854   21513760.1294   21513757.7424
       245.000         211.000
 117617823.62548  91650252.33748  22381927.2444   22381929.0214   22381928.0034
       236.000         194.000
 107745023.94848  83957153.08548  20503204.0174   20503205.4344   20503203.7674
       251.000         234.000
 122389099.01448  95368122.91548  23289874.7814   23289876.1924   23289874.7644
       232.000         191.000
 119119414.66848  92820318.53048  22667673.6004   22667675.6554   22667673.5514
       233.000         196.000
 137494662.33148  89346494.23548  24261424.2504   24261424.1114   24261422.9144
       219.000         166.000
 129425458.00748 100850995.74948  24628852.3304   24628855.1414   24628852.7654
       217.000         165.000
 127770025.29848  99561050.85848  24313832.4964   24313834.4574   24313832.0954
       218.000         157.000
 09  1 26  0 17 30.0000000  0 10G 5G 9G26G18G15G17G12G22G27G28
 124905671.07548  97329079.16948  23768771.0434   23768774.0554   23768772.3884
       226.000         177.000
 107871350.44348  84055590.50948  20527239.9524   20527242.3054   20527240.2314
       249.000         222.000
 113131081.36948  88154078.39448  21528137.0914   21528139.6444   21528136.7724
       245.000         211.000
 117594008.08148  91631694.76448  22377395.4244   22377396.8904   22377396.2294
       236.000         193.000
 107774301.02748  83979966.38548  20508775.1824   20508776.6654   20508775.0134
       250.000         234.000
 122370359.33348  95353520.58048  23286308.3544   23286310.1904   23286308.3524
       232.000         190.000
 119023262.98848  92745395.15248  22649376.8104   22649378.5724   22649376.8724
       234.000         196.000
 137425410.91848  89292532.07148  24248246.3844   24248246.3154   24248249.2164
       222.000         170.000
 129494728.89248 100904973.03048  24642034.4714   24642037.3444   24642034.8814
       217.000         165.000
 127862490.35548  99633101.53548  24331428.7714   24331430.1584   24331430.6354
       215.000         154.000
 09  1 26  0 18  0.0000000  0 10G 5G 9G26G18G15G17G12G22G27G28
 124797351.42048  97244674.26748  23748158.8064   23748161.6094   23748158.9784
       224.000         179.000
 107826450.15048  84020603.27848  20518695.8594   20518698.1144   20518696.0314
       248.000         222.000
 113206986.32448  88213225.11348  21542581.3894   21542583.9114   21542581.3104
       244.000         210.000
 117570760.41948  91613579.68948  22372971.4894   22372972.8904   22372972.1844
       236.000         194.000
 107804036.50448  84003136.87848  20514433.6794   20514435.2104   20514433.3574
       250.000         234.000
 122352138.66248  95339322.66448  23282841.2864   23282842.9974   23282841.0774
       232.000         191.000
 118927398.96548  92670695.90648  22631134.7864   22631136.3274   22631134.5364
       235.000         197.000
 137356562.08748  89238883.61648  24235145.0244   24235144.8414   24235143.6694
       214.000         166.000
 129564026.27148 100958970.97748  24655220.8554   24655224.3154   24655221.5654
       214.000         161.000
 127955085.04448  99705253.22148  24349048.4394   24349049.8334   24349049.3664
       211.000         154.000
 09  1 26  0 18 30.0000000  0 10G 5G 9G26G18G15G17G12G22G27G28
 124689213.07248  97160410.64548  23727580.4294   23727583.3624   23727580.6064
       226.000         175.000
 107781863.64648  83985860.55248  20510211.1934   20510213.6654   20510211.4134
       250.000         222.000
 113283231.36148  88272636.81948  21557090.3044   21557092.9944   21557090.1114
       244.000         211.000
 117548082.40348  91595908.48948  22368656.2364   22368657.6614   22368656.8764
       237.000         195.000
 107834231.63348  84026665.54148  20520179.6774   20520181.2104   20520179.4374
       250.000         234.000
 122334439.37048  95325531.00248  23279473.1804   23279474.8784   23279472.9664
       233.000         191.000
 118831825.76448  92596223.29048  22612947.7634   22612949.5884   22612947.6024
       235.000         197.000
 137288118.74648  89185551.18148  24222119.9964   24222120.8014   24222120.9444
       218.000         166.000
 129633351.27248 101012990.47148  24668413.5034   24668415.8914   24668414.3344
       211.000         162.000
 128047808.66548  99777505.38648  24366692.8944   24366694.7494   24366691.7584
       213.000         154.000
 09  1 26  0 19  0.0000000  0 10G 5G 9G26G18G15G17G12G22G27G28
 124581257.67248  97076289.55748  23707036.8884   23707039.9144   23707037.7494
       226.000         174.000
 107737591.03348  83951362.41348  20501786.4564   20501788.9724   20501786.7174
       248.000         222.000
 113359814.96148  88332312.35448  21571663.7414   21571666.4374   21571663.4324
       244.000         210.000
 117525974.30948  91578681.38648  22364449.3224   22364450.4874   22364449.8034
       236.000         195.000
 107864886.20748  84050552.21648  20526013.1054   20526014.4744   20526012.8684
       250.000         233.000
 122317262.21048  95312146.19848  23276204.5424   23276206.3184   23276204.4434
       232.000         192.000
 118736544.63148  92521978.24348  22594816.2064   22594818.0514   22594816.1464
       235.000         197.000
 137220082.74948  89132536.13148  24209172.8824   24209174.5034   24209175.1694
       220.000         171.000
 129702703.60548 101067031.23348  24681610.8034   24681613.2624   24681610.5684
       219.000         164.000
 128140658.68548  99849856.03048  24384362.6374   24384363.7414   24384363.1594
       215.000         153.000
 09  1 26  0 19 30.0000000  0 10G 5G 9G26G18G15G17G12G22G27G28
 124473486.60748  96992312.13748  23686528.5284   23686531.7604   23686529.3694
       223.000         175.000
 107693632.39248  83917108.92748  20493421.4104   20493423.8324   20493421.7594
       249.000         223.000
 113436735.75948  88392250.63348  21586301.3724   21586304.0114   21586301.2294
       244.000         210.000
 117504436.56948  91561898.72448  22360350.6774   22360352.1024   22360351.2144
       236.000         195.000
 107896000.18748  84074796.87448  20531933.7774   20531935.2844   20531933.3864
       250.000         233.000
 122300608.21748  95299169.06448  23273035.3834   23273037.1804   23273035.1774
       232.000         192.000
 118641557.41348  92447962.22948  22576740.7124   22576742.5064   22576740.6324
       235.000         197.000
 137152456.01048  89079839.97148  24196304.7834   24196304.9114   24196304.8114
       219.000         169.000
 129772083.08248 101121093.13048  24694813.7394   24694815.3994   24694814.7394
       216.000         164.000
 128233632.52148  99922303.17548  24402054.9314   24402055.8764   24402056.4194
       216.000         153.000
 09  1 26  0 20  0.0000000  0 10G 5G 9G26G18G15G17G12G22G27G28
 124365901.79748  96908479.84148  23666056.0744   23666058.9814   23666056.6214
       224.000         176.000
 107649988.20848  83883100.47548  20485116.0914   20485118.6794   20485116.2664
       249.000         223.000
 113513992.82148  88452450.93348  21601002.7894   21601005.3964   21601002.6724
       245.000         210.000
 117483469.80548  91545560.96548  22356360.9024   22356362.5094   22356361.0994
       236.000         195.000
 107927573.24848  84099399.25048  20537941.9894   20537943.4094   20537941.8344
       250.000         233.000
 122284478.77148  95286600.67048  23269965.9064   23269967.9024   23269965.7824
       230.000         192.000
 118546865.83248  92374176.56748  22558721.3414   22558723.0944   22558720.8934
       235.000         197.000
 137085240.38248  89027464.20048  24183513.7084   24183514.0164   24183514.5564
       221.000         169.000
 129841489.80148 101175176.27248  24708020.6694   24708023.7964   24708021.3834
       219.000         165.000
 128326728.15648  99994845.20748  24419770.6784   24419771.8234   24419772.6094
       215.000         155.000
 09  1 26  0 20 30.0000000  0 10G 5G 9G26G18G15G17G12G22G27G28
 124258505.87448  96824794.73848  23645619.4464   23645622.0394   23645620.2114
       224.000         177.000
 107606659.57348  83849337.90448  20476870.9104   20476873.4734   20476871.0584
       249.000         223.000
 113591585.91348  88512913.07748  21615768.3684   21615770.9184   21615768.3584
       244.000         210.000
 117463075.20148  91529669.04048  22352480.0814   22352481.4084   22352480.8564
       236.000         195.000
 107959606.61848  84124360.31048  20544037.6914   20544039.1834   20544037.4544
       250.000         233.000
 122268875.20648  95274442.05148  23266996.6694   23266998.7434   23266996.5474
       232.000         193.000
 118452472.72048  92300623.50848  22540759.0174   22540760.9474   22540758.7094
       236.000         197.000
 137018438.84248  88975411.02548  24170802.0244   24170802.2754   24170802.2424
       222.000         171.000
 129910924.43148 101229281.17148  24721233.2554   24721236.2824   24721233.4554
       218.000         167.000
 128419944.47948 100067481.30648  24437508.5974   24437510.5244   24437508.3164
       213.000         155.000
 09  1 26  0 21  0.0000000  0 10G 5G 9G26G18G15G17G12G22G27G28
 124151300.26948  96741257.91448  23625218.6544   23625221.5004   23625219.0214
       224.000         176.000
 107563646.31648  83815821.07748  20468685.7224   20468688.3034   20468685.8304
       248.000         223.000
 113669513.51948  88573635.87548  21630597.5184   21630599.9914   21630597.4384
       244.000         210.000
 117443253.13948  91514223.27048  22348708.1534   22348709.7824   22348708.8564
       236.000         195.000
 107992099.63548  84149679.53648  20550220.9644   20550222.5214   20550220.5894
       250.000         233.000
 122253798.75748  95262694.18048  23264127.5894   23264129.4974   23264127.2984
       233.000         193.000
 118358379.42248  92227304.04148  22522853.6574   22522855.1884   22522853.6454
       237.000         197.000
 136952053.05548  88923681.79948  24158169.8824   24158169.9454   24158170.0514
       225.000         172.000
 129980386.72848 101283407.61548  24734452.1184   24734455.4864   24734452.3844
       218.000         166.000
 128513278.97348 100140209.43148  24455270.0214   24455271.8284   24455269.9874
       215.000         157.000
 09  1 26  0 21 30.0000000  0 10G 5G 9G26G18G15G17G12G22G27G28
 124044286.64748  96657870.68648  23604855.1464   23604857.4944   23604856.1604
       226.000         179.000
 107520948.77448  83782550.26948  20460560.6834   20460563.3734   20460560.7014
       249.000         223.000
 113747774.18848  88634618.21748  21645490.1184   21645492.4694   21645489.9084
       243.000         209.000
 117424003.79248  91499223.76948  22345044.7814   22345046.9594   22345045.2144
       235.000         196.000
 108025051.81748  84175356.56048  20556491.6804   20556493.0214   20556491.4494
       250.000         233.000
 122239250.68148  95251358.02448  23261359.2684   23261361.1264   23261359.2394
       231.000         193.000
 118264587.50048  92154219.42148  22505005.9444   22505007.4904   22505005.8154
       237.000         199.000
 136886084.64448  88872277.86648  24145615.8904   24145615.6484   24145617.6674
       219.000         165.000
 130049876.95148 101337555.81448  24747675.4974   24747678.9924   24747675.7844
       217.000         167.000
 128606729.43648 100213027.95048  24473053.6744   24473054.6564   24473054.1254
       216.000         156.000
 09  1 26  0 22  0.0000000  0 10G 5G 9G26G18G15G17G12G22G27G28
 123937466.35548  96574634.11548  23584527.5874   23584530.4114   23584528.2254
       225.000         178.000
 107478567.18048  83749525.64948  20452495.9164   20452498.3454   20452496.3244
       248.000         223.000
 113826366.45648  88695858.93848  21660445.8904   21660448.1914   21660445.9114
       244.000         210.000
 117405327.03248  91484670.43348  22341491.0824   22341492.8684   22341491.5494
       236.000         196.000
 108058463.08648  84201391.31048  20562849.6174   20562850.8784   20562849.3414
       250.000         232.000
 122225231.10448  95240433.68048  23258691.4984   23258693.4344   23258691.1974
       232.000         194.000
 118171098.41348  92081370.77548  22487215.5554   22487217.0604   22487215.6084
       237.000         199.000
 136820535.01148  88821200.21048  24133141.5754   24133141.9434   24133141.6734
       217.000         165.000
 130119394.24948 101391725.17148  24760904.7674   24760907.6164   24760905.4914
       216.000         166.000
 128700293.20448 100285934.77048  24490857.7054   24490859.1544   24490857.7804
       215.000         156.000
 09  1 26  0 22 30.0000000  0 10G 5G 9G26G18G15G17G12G22G27G28
 123830842.03448  96491550.24748  23564237.6284   23564240.4444   23564238.0954
       224.000         177.000
 107436502.69548  83716748.12748  20444491.2364   20444493.6094   20444491.2044
       249.000         223.000
 113905290.27848  88757358.01948  21675464.4414   21675466.8964   21675464.5914
       242.000         209.000
 117387224.25748  91470564.37148  22338045.9534   22338047.8494   22338046.8404
       236.000         196.000
 108092334.23048  84227784.40548  20569295.0004   20569296.3644   20569294.7204
       250.000         232.000
 122211741.75948  95229922.52048  23256124.4164   23256126.5054   23256124.2744
       232.000         194.000
 118077914.82748  92008760.22248  22469482.8794   22469485.0074   22469482.8484
       235.000         199.000
 136755407.08148  88770451.20648  24120748.7484   24120748.5404   24120749.5604
       223.000         168.000
 130188939.91448 101445916.56748  24774138.2984   24774141.3354   24774138.3334
       217.000         164.000
 128793969.29148 100358929.10748  24508684.1584   24508685.0994   24508684.4714
       214.000         155.000
 09  1 26  0 23  0.0000000  0 10G 5G 9G26G18G15G17G12G22G27G28
 123724415.96748  96408620.84648  23543985.2814   23543988.3724   23543985.8334
       225.000         179.000
 107394756.07348  83684218.29148  20436547.1704   20436549.4864   20436547.3464
       250.000         223.000
 113984545.03848  88819114.96448  21690545.9724   21690548.5884   21690545.6474
       242.000         209.000
 117369696.29348  91456906.19848  22334710.5554   22334712.4464   22334710.5804
       237.000         196.000
 108126665.39148  84254535.95548  20575828.0084   20575829.4754   20575827.9304
       250.000         232.000
 122198784.38148  95219825.87148  23253658.9074   23253660.7714   23253658.4184
       234.000         194.000
 117985039.03848  91936389.48848  22451809.0094   22451811.2304   22451808.6044
       237.000         199.000
 136690703.25548  88720032.61748  24108435.7264   24108436.3444   24108436.0654
       219.000         167.000
 130258514.24548 101500130.30348  24787377.6744   24787381.3454   24787377.7514
       219.000         168.000
 128887756.09448 100432009.70048  24526530.9584   24526531.7104   24526532.0114
       213.000         152.000
 09  1 26  0 23 30.0000000  0 10G 5G 9G26G18G15G17G12G22G27G28
 123618188.70948  96325846.39848  23523770.8144   23523774.2874   23523771.9094
       223.000         180.000
 107353326.62348  83651935.60148  20428663.2764   20428665.6804   20428663.4234
       249.000         223.000
 114064128.06748  88881127.71048  21705690.2104   21705692.5544   21705689.9534
       243.000         208.000
 117352742.39448  91443695.35348  22331484.4714   22331486.2454   22331485.0124
       238.000         196.000
 108161455.47848  84281645.11248  20582448.2594   20582449.8024   20582448.0824
       249.000         232.000
 122186358.79048  95210143.59348  23251294.5354   23251296.1584   23251294.4904
       231.000         193.000
 117892471.42348  91864258.88748  22434194.0624   22434196.0434   22434194.1484
       238.000         200.000
 136626424.50548  88669945.23548  24096203.5444   24096204.8574   24096203.0204
       219.000         168.000
 130328116.12148 101554365.51948  24800622.7694   24800626.0844   24800624.1414
       218.000         165.000
 128981650.19948 100505173.91748  24544398.3364   24544399.2554   24544398.5374
       211.000         150.000
 09  1 26  0 24  0.0000000  0 10G 5G 9G26G18G15G17G12G22G27G28
 123512162.95148  96243228.93848  23503594.7894   23503598.1844   23503594.9084
       225.000         179.000
 107312215.64448  83619901.07148  20420840.1004   20420842.6364   20420840.3804
       249.000         223.000
 114144039.02448  88943395.98348  21720896.8474   21720899.2964   21720896.9734
       243.000         208.000
 117336363.81048  91430932.80548  22328367.5724   22328369.4274   22328368.2084
       238.000         196.000
 108196704.98048  84309112.25048  20589155.9194   20589157.5384   20589155.5624
       250.000         232.000
 122174466.89748  95200877.19448  23249031.3304   23249033.0204   23249030.7384
       230.000         193.000
 117800214.57448  91792370.44748  22416638.4124   22416640.2154   22416638.4034
       237.000         201.000
 136562573.27748  88620191.05248  24084054.0144   24084054.0954   24084054.9524
       222.000         173.000
