     2.11           OBSERVATION DATA    G (GPS)             RINEX VERSION / TYPE
teqc  2008Oct2      gpsops              20090116 00:05:38UTCPGM / RUN BY / DATE
    30.0000                                                 INTERVAL
     1     1                                                WAVELENGTH FACT L1/2
     7    L1    L2    P1    P2    C1    S1    S2            # / TYPES OF OBSERV
Linux 2.4.20-8|Pentium IV|gcc -static|Linux|486/DX+         COMMENT
     2.10           OBSERVATION DATA    GPS                 COMMENT
soc2rnx ver 1.20    gpsops              16-Jan-2009 00:05:36COMMENT
S1, if present, is the SNR for the C/A data stream on L1.   COMMENT
 SNR is mapped to RINEX snr flag value [1,4-9]              COMMENT
    SNR:   >316  >100  >31.6  >10  >3.2    >0 bad=0         COMMENT
L1 & L2:      9     8     7     6     5     4     1         COMMENT
                                                            COMMENT
This data is provided as a public service by NASA/JPL.      COMMENT
No warranty is expressed or implied regarding suitability   COMMENT
for use.  For further information, contact:                 COMMENT
Dave Stowers, NASA/JPL m/s 238-600                          COMMENT
4800 Oak Grove Drive, Pasadena CA 91109 USA                 COMMENT
                                                            COMMENT
Forced Modulo Decimation to 30 seconds                      COMMENT
  2009     1    15     0     0    0.0000000     GPS         TIME OF FIRST OBS
DSN                 JPL                                     OBSERVER / AGENCY
451-U               AOAD/M_T        NONE                    ANT # / TYPE
  4849202.3940  -360328.9929  4114913.1862                  APPROX POSITION XYZ
        0.0254        0.0000        0.0000                  ANTENNA: DELTA H/E/N
LP03574             ASHTECH Z-XII3      CC00                REC # / TYPE / VERS
MADR                                                        MARKER NAME
13407S012                                                   MARKER NUMBER
                                                            END OF HEADER
 09  1 15  0  0  0.0000000  0  9G26G 9G28G 8G18G17G27G10G15
 106550348.76748  83026208.94448  20275889.3024   20275891.7994   20275889.1944
       251.000         226.000
 115829638.54948  90256855.93848  22041652.6584   22041655.0874   22041653.1414
       238.000         197.000
 117953754.38848  91912010.49648  22445856.5464   22445858.3904   22445856.7164
       240.000         199.000
 128540439.31048 100161369.88948  24460441.5824   24460444.6584   24460441.3544
       215.000         165.000
 124379158.17448  96918820.27748  23668569.8664   23668571.9874   23668570.1584
       221.000         173.000
 128142265.62648  99851108.22748  24384668.4484   24384670.6934   24384668.3214
       219.000         173.000
 124143110.26848  96734876.24848  23623660.4704   23623663.4634   23623660.5874
       227.000         182.000
 121580589.43948  94738099.91548  23136034.1044   23136037.6704   23136034.6584
       228.000         182.000
 107554771.85948  83808905.26948  20466997.1094   20466998.6704   20466996.7174
       252.000         237.000
 09  1 15  0  0 30.0000000  0  9G26G 9G28G 8G18G17G27G10G15
 106578556.41748  83048188.92048  20281257.1474   20281259.4424   20281257.0064
       251.000         226.000
 115749390.89448  90194325.30248  22026381.8134   22026384.6154   22026382.4604
       237.000         199.000
 118012861.27548  91958067.81448  22457104.6574   22457106.0854   22457104.8064
       240.000         199.000
 128631058.12048 100231981.97748  24477685.1304   24477688.6414   24477685.1784
       215.000         164.000
 124296773.85848  96854624.72948  23652893.0204   23652894.7994   23652893.3204
       222.000         172.000
 128074463.08648  99798275.05448  24371766.0784   24371768.0844   24371766.0584
       222.000         172.000
 124212904.52648  96789261.36348  23636941.6684   23636944.9374   23636941.8644
       228.000         182.000
 121685981.42548  94820223.54248  23156089.3324   23156093.3494   23156090.3054
       228.000         182.000
 107530932.55648  83790329.18348  20462460.6144   20462462.0924   20462460.3764
       252.000         237.000
 09  1 15  0  1  0.0000000  0  9G26G 9G28G 8G18G17G27G10G15
 106607158.81548  83070476.49048  20286699.9724   20286702.2884   20286700.0084
       250.000         226.000
 115669389.72648  90131986.73348  22011158.2044   22011160.7334   22011158.3694
       237.000         199.000
 118072369.71648  92004438.02448  22468428.6364   22468430.6744   22468429.4954
       239.000         198.000
 128721688.57748 100302603.09248  24494931.3254   24494935.1214   24494931.7824
       215.000         164.000
 124214739.81648  96790702.09448  23637282.7014   23637284.6364   23637284.1584
       222.000         174.000
 128006895.05948  99745624.64348  24358908.4914   24358909.8594   24358908.7394
       218.000         173.000
 124282723.83648  96843665.99048  23650228.2574   23650230.9374   23650228.7594
       232.000         182.000
 121791545.73748  94902481.44148  23176177.3554   23176181.4384   23176178.1604
       227.000         180.000
 107507447.64548  83772029.24548  20457991.5784   20457993.0504   20457991.3224
       252.000         237.000
 09  1 15  0  1 30.0000000  0  9G26G 9G28G 8G18G17G27G10G15
 106636156.29948  83093071.93248  20292218.0724   20292220.3794   20292217.8654
       251.000         226.000
 115589635.25948  90069840.41148  21995981.1574   21995984.0994   21995981.2844
       237.000         199.000
 118132277.49348  92051119.40948  22479828.8054   22479830.9394   22479829.7984
       240.000         198.000
 128812329.72348 100373232.53848  24512181.0994   24512183.5814   24512182.0954
       217.000         164.000
 124133057.72348  96727053.73348  23621738.4014   23621740.2294   23621738.9224
       224.000         171.000
 127939564.11648  99693159.01348  24346095.0594   24346097.7114   24346094.8784
       217.000         172.000
 124352567.63048  96898089.69848  23663519.1764   23663521.8964   23663519.9674
       227.000         182.000
 121897280.12548  94984871.86848  23196298.1434   23196302.5914   23196298.8724
       228.000         180.000
 107484318.00348  83754006.14548  20453590.2964   20453591.7474   20453590.0624
       252.000         237.000
 09  1 15  0  2  0.0000000  0  9G26G 9G28G 8G18G17G27G10G15
 106665548.68948  83115975.08848  20297811.2604   20297813.6554   20297811.2534
       251.000         226.000
 115510128.17348  90007886.85448  21980851.5644   21980854.0994   21980851.8224
       236.000         199.000
 118192582.90848  92098110.64148  22491304.3264   22491306.2714   22491304.4674
       239.000         197.000
 128902980.47448 100443869.45848  24529430.1894   24529434.2884   24529430.7624
       217.000         164.000
 124051730.57748  96663681.91248  23606263.1394   23606263.9454   23606264.0174
       225.000         172.000
 127872473.15748  99640880.32448  24333328.5024   24333330.3354   24333328.0604
       218.000         171.000
 124422435.35748  96952532.08148  23676814.2314   23676817.5474   23676814.2654
       227.000         182.000
 122003181.46648  95067392.39448  23216450.6794   23216454.8314   23216451.9144
       229.000         180.000
 107461544.78248  83736260.77548  20449256.6504   20449258.1054   20449256.2924
       252.000         237.000
 09  1 15  0  2 30.0000000  0  9G26G 9G28G 8G18G17G27G10G15
 106695335.55248  83139185.62348  20303479.6184   20303481.8384   20303479.6244
       252.000         226.000
 115430869.08248  89946126.53948  21965768.9934   21965771.9664   21965769.0244
       237.000         201.000
 118253283.59848  92145409.88548  22502855.4164   22502856.1624   22502855.5254
       238.000         196.000
 128993639.66848 100514512.96548  24546682.0444   24546686.1504   24546682.3964
       214.000         165.000
 123970760.49648  96600588.33148  23590855.0694   23590855.8224   23590855.9474
       222.000         173.000
 127805624.90348  99588790.80848  24320606.9294   24320609.6964   24320607.1294
       218.000         169.000
 124492326.19548  97006992.44748  23690114.0564   23690117.1594   23690114.6464
       226.000         181.000
 122109247.15748  95150040.98048  23236634.4954   23236638.2984   23236635.8644
       227.000         180.000
 107439129.53848  83718794.34648  20444991.1574   20444992.6524   20444990.7804
       252.000         237.000
 09  1 15  0  3  0.0000000  0  9G26G 9G28G 8G18G17G27G10G15
 106725518.52848  83162704.81548  20309223.3174   20309225.4444   20309223.3704
       251.000         226.000
 115351859.85548  89884560.92448  21950733.8494   21950737.2644   21950734.0894
       238.000         201.000
 118314378.71148  92193016.45248  22514481.4454   22514481.7154   22514481.2764
       239.000         196.000
 129084307.96748 100585163.58548  24563935.4574   24563939.6264   24563935.8464
       214.000         165.000
 123890150.80748  96537775.59148  23575515.1834   23575516.9714   23575515.3144
       223.000         174.000
 127739023.56648  99536893.64248  24307933.8654   24307934.9544   24307933.8704
       220.000         170.000
 124562241.15548  97061471.62348  23703418.6204   23703421.6044   23703419.0534
       227.000         182.000
 122215475.69248  95232816.46948  23256848.6154   23256852.4794   23256849.1984
       225.000         178.000
 107417074.51148  83701608.60548  20440794.1984   20440795.6604   20440793.7984
       252.000         237.000
 09  1 15  0  3 30.0000000  0  9G26G 9G28G 8G18G17G27G10G15
 106756097.58448  83186532.64148  20315042.2314   20315044.4364   20315042.3174
       252.000         226.000
 115273100.94948  89823190.36548  21935746.7534   21935749.8364   21935747.0764
       237.000         201.000
 118375866.15748  92240928.73748  22526182.2864   22526182.9284   22526183.2144
       239.000         198.000
 129174984.84948 100655820.84148  24581190.9374   24581194.9454   24581191.2714
       217.000         164.000
 123809904.08848  96475245.69448  23560245.2474   23560246.8304   23560245.3124
       224.000         175.000
 127672672.00048  99485191.12248  24295306.4984   24295309.6584   24295306.1744
       215.000         171.000
 124632179.79548  97115969.24948  23716727.4074   23716730.6104   23716727.4674
       227.000         181.000
 122321864.10448  95315716.51448  23277093.1854   23277097.7104   23277093.4554
       225.000         179.000
 107395381.10548  83684704.65548  20436666.0134   20436667.5634   20436665.7564
       252.000         237.000
 09  1 15  0  4  0.0000000  0  9G26G 9G28G 8G18G17G27G10G15
 106787072.08948  83210668.61348  20320936.4424   20320938.6634   20320936.3204
       251.000         226.000
 115194592.33448  89762014.83648  21920807.2924   21920809.9754   21920807.5674
       238.000         200.000
 118437743.27248  92289144.66948  22537956.9944   22537958.8684   22537958.0574
       239.000         199.000
 129265668.31748 100726483.24548  24598446.9294   24598451.0174   24598447.2844
       214.000         162.000
 123730022.45348  96413000.27548  23545044.1194   23545045.3424   23545045.0014
       223.000         171.000
 127606572.26348  99433684.84848  24282729.1094   24282731.4114   24282728.6074
       213.000         169.000
 124702140.82448  97170484.30348  23730040.8444   23730043.8114   23730040.6794
       229.000         182.000
 122428409.36948  95398738.78748  23297368.8794   23297372.8854   23297370.2894
       228.000         180.000
 107374049.78848  83668082.84248  20432606.8384   20432608.4004   20432606.6174
       252.000         238.000
 09  1 15  0  4 30.0000000  0  9G26G 9G28G 8G18G17G27G10G15
 106818441.82448  83235112.55548  20326905.9594   20326908.2494   20326905.8214
       252.000         226.000
 115116334.67148  89701034.85748  21905915.1254   21905917.6904   21905915.1824
       238.000         201.000
 118500007.42548  92337662.19848  22549805.3224   22549808.4134   22549805.3164
       239.000         200.000
 129356357.23048 100797149.91748  24615704.6064   24615707.8484   24615705.0014
       211.000         158.000
 123650507.95948  96351040.94048  23529912.4964   23529914.4274   23529912.7844
       223.000         175.000
 127540726.79048  99382376.70048  24270198.1614   24270200.9604   24270197.3774
       214.000         169.000
 124772123.57048  97225016.27848  23743357.9934   23743361.4364   23743358.6174
       226.000         181.000
 122535108.62948  95481881.06048  23317673.3724   23317676.8014   23317674.7584
       228.000         180.000
 107353081.49348  83651743.90948  20428616.8484   20428618.2214   20428616.7024
       252.000         238.000
 09  1 15  0  5  0.0000000  0 10G26G 9G28G 8G18G17G27G10G15G12
 106850207.69648  83259865.17748  20332950.6994   20332953.1014   20332950.7924
       251.000         226.000
 115038329.28848  89640251.46248  21891071.3504   21891073.9324   21891071.7104
       238.000         201.000
 118562657.96048  92386480.81148  22561727.4584   22561730.6944   22561728.0674
       239.000         200.000
 129447052.19548 100867821.26048  24632963.6404   24632966.9324   24632963.9774
       213.000         162.000
 123571363.81848  96289370.17848  23514852.3864   23514854.1834   23514851.5454
       223.000         176.000
 127475139.81248  99331269.94748  24257717.8174   24257719.6214   24257717.1984
       217.000         165.000
 124842128.49848  97279565.54448  23756679.3744   23756682.6784   23756679.4694
       224.000         179.000
 122641960.00348  95565141.86548  23338006.9124   23338009.9474   23338007.6044
       228.000         181.000
 107332478.47348  83635689.60748  20424696.0844   20424697.5804   20424695.8134
       252.000         238.000
 141292445.83358  92305786.09058  24984134.4905   24984137.8715   24984136.2345
       213.000         156.000
 09  1 15  0  5 30.0000000  0 10G26G 9G28G 8G18G17G27G10G15G12
 106882368.95548  83284925.89048  20339070.7064   20339073.2024   20339070.7254
       251.000         225.000
 114960575.94848  89579664.46748  21876275.2514   21876277.8984   21876275.2054
       238.000         201.000
 118625691.83148  92435598.11648  22573722.5274   22573725.8134   22573722.9524
       239.000         200.000
 129537751.20648 100938495.77948  24650223.4804   24650225.9984   24650223.9954
       215.000         163.000
 123492591.54548  96227989.18548  23499862.5124   23499864.0094   23499861.8304
       222.000         176.000
 127409813.13848  99280366.03448  24245286.4244   24245288.2694   24245286.6514
       219.000         167.000
 124912154.63348  97334131.32548  23770004.4624   23770008.5214   23770004.5964
       223.000         180.000
 122748959.94848  95648518.43148  23358367.9184   23358371.7364   23358368.5964
       227.000         179.000
 107312241.40848  83619920.46148  20420845.1614   20420846.5504   20420844.9334
       251.000         238.000
 141177306.20548  92216066.93248  24962225.1284   24962226.9804   24962224.2964
       212.000         157.000
 09  1 15  0  6  0.0000000  0 10G26G 9G28G 8G18G17G27G10G15G12
 106914926.26948  83310295.21648  20345266.1324   20345268.5624   20345266.0764
       251.000         225.000
 114883075.80848  89519274.75648  21861527.3494   21861529.6364   21861527.3754
       237.000         199.000
 118689107.21348  92485012.70448  22585790.1104   22585792.9994   22585790.1284
       239.000         199.000
 129628453.92748 101009173.18948  24667483.4454   24667486.8544   24667483.9594
       216.000         164.000
 123414194.38048  96166900.49348  23484944.0594   23484945.6474   23484942.9114
       226.000         177.000
 127344750.26248  99229667.66848  24232905.0944   24232907.5774   24232905.4304
       217.000         167.000
 124982201.86548  97388713.55448  23783334.3494   23783338.3154   23783334.2664
       226.000         180.000
 122856106.18748  95732009.01148  23378757.0554   23378760.4764   23378757.7384
       226.000         178.000
 107292371.95848  83604437.76548  20417064.1034   20417065.4414   20417063.7994
       253.000         238.000
 141062209.87448  92126381.54048  24940323.0984   24940324.3044   24940321.9654
       210.000         155.000
 09  1 15  0  6 30.0000000  0 10G26G 9G28G 8G18G17G27G10G15G12
 106947879.03848  83335972.69348  20351536.7644   20351539.2074   20351536.8194
       251.000         225.000
 114805829.05648  89459082.50948  21846827.6304   21846830.6904   21846827.7224
       238.000         202.000
 118752901.63448  92534722.63948  22597929.9544   22597932.5174   22597930.5794
       238.000         198.000
 129719159.49348 101079852.78648  24684744.5124   24684747.6934   24684743.9914
       215.000         163.000
 123336174.01748  96106105.39848  23470097.5294   23470099.1004   23470098.1794
       225.000         177.000
 127279953.12148  99179176.42948  24220575.0294   24220577.1724   24220574.6264
       218.000         168.000
 125052269.51248  97443311.70248  23796667.7884   23796672.0024   23796667.9304
       226.000         181.000
 122963396.09748  95815611.52348  23399173.5384   23399177.7574   23399174.6104
       224.000         177.000
 107272871.18448  83589242.35648  20413353.3154   20413354.6004   20413353.1754
       252.000         238.000
 140947158.49048  92036731.16048  24918429.1444   24918430.5034   24918429.3384
       212.000         152.000
 09  1 15  0  7  0.0000000  0 10G26G 9G28G 8G18G17G27G10G15G12
 106981227.34648  83361958.37848  20357882.9464   20357885.1954   20357882.8074
       251.000         225.000
 114728836.38448  89399088.24348  21832176.6884   21832179.6354   21832177.0474
       239.000         203.000
 118817073.24548  92584726.48448  22610141.1424   22610143.3144   22610141.6994
       238.000         195.000
 129809867.03048 101150533.91048  24702005.4834   24702008.6434   24702005.6154
       215.000         161.000
 123258532.84148  96045605.79648  23455322.6334   23455323.9094   23455322.9834
       226.000         174.000
 127215425.05848  99128894.81248  24208295.8974   24208297.6824   24208295.7974
       218.000         166.000
 125122357.29348  97497925.53748  23810005.0954   23810009.2704   23810005.3354
       224.000         180.000
 123070827.15148  95899324.00748  23419616.4914   23419621.1824   23419616.8744
       224.000         176.000
 107253740.17748  83574335.07448  20409712.8034   20409714.1334   20409712.5864
       252.000         238.000
 140832154.76348  91947117.87148  24896545.4574   24896545.5514   24896545.4244
       211.000         150.000
 09  1 15  0  7 30.0000000  0 10G26G 9G28G 8G18G17G27G10G15G12
 107014970.97448  83388252.10448  20364304.1854   20364306.5764   20364304.1834
       250.000         226.000
 114652098.31148  89339292.35148  21817573.8154   21817576.8714   21817573.6734
       238.000         203.000
 118881619.57548  92635022.32748  22622424.1184   22622425.4434   22622424.9804
       237.000         194.000
 129900575.91848 101221216.13648  24719266.8404   24719269.7734   24719268.0234
       214.000         157.000
 123181273.34348  95985403.58248  23440620.5294   23440621.4334   23440622.7864
       224.000         174.000
 127151168.80148  99078825.00148  24196068.8824   24196070.4944   24196068.2874
       221.000         170.000
 125192464.55548  97552554.54848  23823345.8654   23823350.1484   23823346.3784
       222.000         180.000
 123178395.85548  95983143.76648  23440087.0484   23440090.0634   23440088.0414
       227.000         177.000
 107234979.89948  83559716.67048  20406142.7754   20406144.1494   20406142.4544
       252.000         238.000
 140717200.28848  91857542.98548  24874669.6144   24874670.1854   24874670.0644
       208.000         150.000
 09  1 15  0  8  0.0000000  0 10G26G 9G28G 8G18G17G27G10G15G12
 107049109.64248  83414853.66048  20370800.4014   20370803.1014   20370800.2154
       251.000         226.000
 114575615.09148  89279695.06348  21803019.5964   21803022.5664   21803019.6354
       239.000         203.000
 118946537.87848  92685608.00148  22634777.4664   22634777.7884   22634778.2614
       237.000         191.000
 129991284.51148 101291898.12448  24736528.0654   24736531.2644   24736528.0014
       218.000         158.000
 123104397.33848  95925500.19948  23425991.5624   23425992.8934   23425991.9924
       223.000         174.000
 127087186.28148  99028968.51748  24183892.9824   24183895.0334   24183893.4894
       219.000         169.000
 125262590.23348  97607197.90048  23836690.7274   23836694.4794   23836690.5864
       226.000         179.000
 123286099.49648  96067068.66648  23460582.2184   23460585.6544   23460583.4254
       225.000         176.000
 107216591.03548  83545387.68348  20402643.4894   20402644.9324   20402643.3004
       253.000         238.000
 140602297.13148  91768008.11148  24852803.6394   24852805.1274   24852803.5684
       209.000         151.000
 09  1 15  0  8 30.0000000  0 10G26G 9G28G 8G18G17G27G10G15G12
 107083644.31248  83441763.78748  20377372.3524   20377374.8524   20377372.3914
       251.000         226.000
 114499388.07848  89220297.41548  21788513.9784   21788516.7984   21788514.4284
       238.000         203.000
 119011827.48348  92736483.00948  22647201.5894   22647201.0424   22647201.9824
       236.000         190.000
 130081993.10848 101362580.11748  24753789.8644   24753793.2394   24753791.0524
       219.000         162.000
 123027908.36748  95865898.41448  23411435.9314   23411437.9094   23411437.7174
       226.000         175.000
 127023481.92648  98979328.74748  24171770.7594   24171772.9004   24171770.4994
       221.000         171.000
 125332735.16548  97661856.25348  23850039.0524   23850042.3464   23850039.2064
       225.000         178.000
 123393936.69548  96151097.65648  23481102.3964   23481106.1374   23481103.1014
       223.000         174.000
 107198576.28948  83531350.21848  20399215.3794   20399216.8244   20399215.3044
       253.000         238.000
 140487448.74548  91678515.88348  24830949.2424   24830950.8084   24830948.3204
       207.000         150.000
 09  1 15  0  9  0.0000000  0 10G26G 9G28G 8G18G17G27G10G15G12
 107118575.18848  83468982.64748  20384019.4964   20384021.8574   20384019.5434
       251.000         225.000
 114423418.43748  89161100.31948  21774057.2344   21774060.3584   21774057.2974
       238.000         203.000
 119077486.72648  92787646.03948  22659696.1134   22659695.7294   22659696.3964
       237.000         190.000
 130172701.46648 101433261.91148  24771050.6354   24771053.6904   24771050.8414
       219.000         163.000
 122951809.27248  95806600.41748  23396954.6094   23396956.6134   23396955.8864
       226.000         177.000
 126960058.63748  98929908.01248  24159701.9294   24159703.3604   24159702.9344
       220.000         171.000
 125402899.31748  97716529.58648  23863390.9324   23863393.8054   23863390.9394
       224.000         177.000
 123501904.65348  96235228.49948  23501647.6764   23501651.8494   23501648.8004
       222.000         172.000
 107180937.47448  83517605.68348  20395858.9094   20395860.2554   20395858.7824
       252.000         238.000
 140372657.33648  91589068.05348  24809104.3604   24809107.1184   24809102.9674
       205.000         151.000
 09  1 15  0  9 30.0000000  0 10G26G 9G28G 8G18G17G27G10G15G12
 107153902.21348  83496510.19348  20390741.8644   20390744.2244   20390741.7084
       250.000         225.000
 114347706.68348  89102104.16948  21759649.9154   21759652.5194   21759650.0374
       239.000         203.000
 119143513.35048  92839095.34448  22672260.3754   22672260.6984   22672260.5964
       236.000         190.000
 130263408.96848 101503943.02748  24788311.5484   24788315.2204   24788312.4014
       218.000         162.000
 122876102.05048  95747607.75848  23382548.6644   23382550.1814   23382549.1524
       228.000         176.000
 126896919.35748  98880708.55048  24147686.4714   24147688.4404   24147686.3174
       222.000         174.000
 125473082.34648  97771217.62948  23876746.4124   23876749.1564   23876746.7034
       224.000         175.000
 123610000.84748  96319459.28148  23522218.0384   23522221.9764   23522218.5974
       222.000         172.000
 107163675.50348  83504154.79248  20392574.0054   20392575.4414   20392573.8794
       252.000         238.000
 140257925.42348  91499666.60548  24787271.0674   24787274.9214   24787272.2364
       208.000         153.000
 09  1 15  0 10  0.0000000  0 10G26G 9G28G 8G18G17G27G10G15G12
 107189624.83548  83524346.00148  20397539.5924   20397542.0134   20397539.4824
       250.000         225.000
 114272252.59548  89043308.79348  21745291.3354   21745294.4034   21745291.3934
       238.000         203.000
 119209904.24548  92890828.50748  22684894.2124   22684895.4494   22684894.4894
       235.000         192.000
 130354113.96348 101574622.20148  24805572.7404   24805575.4534   24805572.8054
       216.000         157.000
 122800788.59548  95688921.95148  23368216.6784   23368218.1654   23368217.6464
       226.000         177.000
 126834066.05148  98831731.96748  24135726.1264   24135727.7154   24135726.3884
       221.000         173.000
 125543283.20248  97825919.56048  23890104.6494   23890107.7914   23890104.9994
       222.000         174.000
 123718222.20248  96403787.61248  23542812.3514   23542815.4114   23542812.9574
       224.000         172.000
 107146790.61848  83490997.74048  20389360.8894   20389362.3134   20389360.5584
       253.000         239.000
 140143254.73748  91410312.83748  24765451.3894   24765454.5394   24765451.3974
       211.000         158.000
 09  1 15  0 10 30.0000000  0 10G26G 9G28G 8G18G17G27G10G15G12
 107225743.65848  83552490.53248  20404412.8404   20404415.2844   20404412.8484
       251.000         225.000
 114197057.62548  88984715.33448  21730982.2654   21730985.1824   21730982.2854
       238.000         202.000
 119276658.28248  92942844.64648  22697597.0854   22697599.0324   22697596.8494
       236.000         193.000
 130444816.59248 101645299.52048  24822832.1484   24822835.5434   24822832.5934
       219.000         161.000
 122725872.05748  95630545.42148  23353960.7184   23353961.6244   23353961.1564
       228.000         176.000
 126771502.30648  98782980.96148  24123820.4744   24123822.6214   24123820.3014
       219.000         174.000
 125613502.26248  97880635.68848  23903467.0284   23903470.2174   23903467.3104
       223.000         176.000
 123826566.84948  96488211.99048  23563429.4734   23563432.7884   23563430.2294
       224.000         174.000
 107130284.88048  83478136.12148  20386220.0214   20386221.3754   20386219.9254
       252.000         239.000
 140028648.39248  91321009.18448  24743643.3554   24743645.5824   24743641.9974
       210.000         156.000
 09  1 15  0 11  0.0000000  0 10G26G 9G28G 8G18G17G27G10G15G12
 107262257.90248  83580943.17948  20411361.3034   20411363.7794   20411361.1464
       251.000         225.000
 114122121.94048  88926323.91648  21716722.3484   21716725.3174   21716722.5844
       238.000         203.000
 119343772.58748  92995141.50948  22710368.4744   22710371.0524   22710368.6674
       236.000         194.000
 130535515.80948 101715974.19848  24840092.5094   24840095.4004   24840093.0804
       222.000         163.000
 122651354.11548  95572479.49248  23339780.6544   23339781.0874   23339780.3194
       227.000         177.000
 126709230.37248  98734457.37948  24111970.4304   24111972.1514   24111970.3724
       219.000         170.000
 125683738.57648  97935365.24848  23916832.5984   23916836.0424   23916832.3914
       225.000         176.000
 123935031.46948  96572729.87348  23584069.9064   23584073.4154   23584070.4254
       224.000         174.000
 107114159.34348  83465570.76448  20383151.3874   20383152.7924   20383151.0854
       252.000         239.000
 139914107.55848  91231756.61948  24721846.1714   24721848.2634   24721845.6824
       212.000         155.000
 09  1 15  0 11 30.0000000  0 10G26G 9G28G 8G18G17G27G10G15G12
 107299165.03848  83609701.97548  20418384.5474   20418386.9944   20418384.4624
       251.000         225.000
 114047443.44248  88868132.90748  21702511.6954   21702514.5044   21702511.6464
       239.000         203.000
 119411242.33548  93047715.34548  22723207.6984   22723210.1774   22723208.3044
       236.000         195.000
 130626208.07848 101786643.42948  24857350.3134   24857353.4544   24857350.9204
       219.000         164.000
 122577234.26748  95514723.78348  23325675.7714   23325677.3534   23325676.7364
       226.000         178.000
 126647250.12348  98686161.09348  24100175.8544   24100177.8574   24100175.8354
       217.000         173.000
 125753989.10648  97990105.88948  23930200.6764   23930204.0864   23930200.9444
       224.000         175.000
 124043610.76648  96657337.11448  23604731.6744   23604734.9894   23604732.8614
       224.000         172.000
 107098412.33648  83453300.36548  20380154.8114   20380156.3244   20380154.6044
       253.000         239.000
 139799631.99848  91142554.90948  24700061.9944   24700064.1634   24700064.3494
       213.000         155.000
 09  1 15  0 12  0.0000000  0 10G26G 9G28G 8G18G17G27G10G15G12
 107336468.76448  83638769.80548  20425483.1434   20425485.6184   20425483.1994
       251.000         225.000
 113973026.60048  88810145.77648  21688350.5334   21688353.4244   21688350.5804
       239.000         203.000
 119479068.93548  93100567.24048  22736114.6934   22736117.4114   22736115.2294
       237.000         194.000
 130716896.50348 101857309.70748  24874607.8054   24874611.0704   24874608.0324
       217.000         163.000
 122503518.81848  95457283.16648  23311648.2474   23311649.4334   23311647.4524
       227.000         177.000
 126585568.49248  98638097.48348  24088438.1434   24088440.3694   24088437.7554
       217.000         171.000
 125824257.60848  98044860.53348  23943572.6364   23943575.9384   23943573.1444
       223.000         173.000
 124152306.15348  96742034.79848  23625415.4864   23625419.2044   23625415.7124
       223.000         173.000
 107083048.95048  83441328.89448  20377231.3124   20377232.8514   20377231.1124
       253.000         239.000
 139685227.99848  91053408.96648  24678291.1344   24678292.9394   24678292.8684
       212.000         155.000
 09  1 15  0 12 30.0000000  0 10G26G 9G28G 8G18G17G27G10G15G12
 107374169.12448  83668146.71148  20432657.2894   20432659.8684   20432657.2424
       251.000         225.000
 113898872.09448  88752363.05948  21674239.3474   21674242.1074   21674239.3404
       240.000         204.000
 119547250.76048  93153695.93848  22749089.3384   22749091.9794   22749090.1834
       238.000         195.000
 130807580.38948 101927972.44348  24891864.2684   24891867.8444   24891864.9674
       216.000         165.000
 122430210.38148  95400159.70848  23297697.9014   23297699.7194   23297698.2534
       229.000         179.000
 126524188.44848  98590268.89448  24076757.3854   24076759.6934   24076757.6184
       213.000         169.000
 125894543.46648  98099628.71548  23956947.5754   23956950.8634   23956947.6534
       223.000         173.000
 124261114.44448  96826820.45448  23646120.9244   23646124.9924   23646121.2004
       224.000         173.000
 107068070.54048  83429657.40448  20374381.0464   20374382.4764   20374380.8814
       253.000         239.000
 139570897.78448  90964320.50848  24656535.7714   24656536.0204   24656535.9344
       213.000         159.000
 09  1 15  0 13  0.0000000  0 10G26G 9G28G 8G18G17G27G10G15G12
 107412265.10248  83697831.87448  20439906.7294   20439909.3134   20439906.6604
       251.000         225.000
 113824979.45948  88694784.40148  21660178.2704   21660180.8344   21660178.3334
       239.000         204.000
 119615784.56248  93207098.91448  22762130.8484   22762133.6814   22762131.6804
       237.000         195.000
 130898257.76048 101998630.08848  24909119.6404   24909123.4344   24909120.4094
       220.000         166.000
 122357310.13648  95343354.31048  23283825.5834   23283827.3604   23283826.5174
       229.000         179.000
 126463111.67548  98542676.60648  24065135.4034   24065137.7954   24065134.5974
       216.000         170.000
 125964845.63648  98154409.59048  23970325.9614   23970328.6444   23970325.7364
       224.000         173.000
 124370032.69248  96911691.78948  23666847.6564   23666851.6674   23666848.3904
       224.000         174.000
 107053477.30848  83418286.04348  20371604.0444   20371605.4744   20371603.6824
       253.000         239.000
 139456643.01148  90875290.83548  24634793.1114   24634794.3084   24634791.5414
       212.000         158.000
 09  1 15  0 13 30.0000000  0 10G26G 9G28G 8G18G17G27G10G15G12
 107450756.69548  83727825.31648  20447231.4974   20447233.8644   20447231.4474
       251.000         225.000
 113751349.66148  88637410.55448  21646166.8504   21646169.2824   21646167.1264
       238.000         203.000
 119684668.46248  93260774.67148  22775239.0434   22775241.7804   22775239.7454
       237.000         194.000
 130988928.37948 102069282.50048  24926373.9734   24926377.5324   24926374.8134
       219.000         164.000
 122284820.70148  95286869.03748  23270031.0644   23270033.1484   23270030.9144
       230.000         180.000
 126402341.21448  98495323.01748  24053570.4824   24053573.3784   24053570.7784
       213.000         170.000
 126035164.07948  98209203.14748  23983706.6784   23983709.9794   23983707.0024
       223.000         173.000
 124479058.19348  96996646.70648  23687594.6584   23687598.2314   23687595.8684
       222.000         172.000
 107039270.70648  83407215.96048  20368900.6104   20368902.0864   20368900.4674
       253.000         240.000
 139342465.72548  90786321.52748  24613065.2064   24613067.0004   24613063.0914
       210.000         158.000
 09  1 15  0 14  0.0000000  0 10G26G 9G28G 8G18G17G27G10G15G12
 107489644.02248  83758127.12248  20454631.3784   20454634.0104   20454631.1674
       251.000         225.000
 113677982.91948  88580241.70048  21632205.2694   21632208.1024   21632205.1884
       239.000         203.000
 119753900.28448  93314721.54648  22788413.6714   22788416.1314   22788414.3384
       238.000         194.000
 131079591.87748 102139929.31648  24943626.7514   24943629.9214   24943627.5824
       222.000         170.000
 122212744.63348  95230705.86948  23256316.0034   23256317.1754   23256317.0714
       227.000         179.000
 126341879.80648  98448210.25748  24042065.3894   24042067.7844   24042064.7694
       219.000         171.000
 126105498.52448  98264009.17448  23997091.4224   23997094.6604   23997092.0674
       222.000         173.000
 124588188.39648  97081683.20648  23708361.0684   23708364.7314   23708362.0184
       221.000         169.000
 107025452.14748  83396448.24448  20366271.1334   20366272.5344   20366270.7904
       254.000         240.000
 139228368.36848  90697414.47648  24591353.2724   24591354.3394   24591351.5584
       213.000         159.000
 09  1 15  0 14 30.0000000  0 10G26G 9G28G 8G18G17G27G10G15G12
 107528925.90548  83788736.37548  20462106.6354   20462109.2644   20462106.5334
       251.000         225.000
 113604879.28848  88523277.84348  21618294.5104   21618296.7884   21618294.6514
       240.000         204.000
 119823476.98848  93368937.16348  22801653.6364   22801655.8304   22801654.3894
       235.000         193.000
 131170246.62248 102210569.34448  24960877.3344   24960881.2214   24960877.8994
       222.000         172.000
 122141083.18548  95174865.79448  23242678.7884   23242680.2884   23242680.0504
       226.000         178.000
 126281729.30548  98401339.72648  24030620.3304   24030621.5444   24030620.1474
       220.000         174.000
 126175847.62848  98318826.63548  24010478.2294   24010481.5264   24010478.8624
       223.000         173.000
 124697419.46448  97166798.29748  23729146.9454   23729151.0144   23729147.1664
       220.000         170.000
 107012021.62748  83385982.90248  20363715.3444   20363716.7554   20363715.1884
       254.000         240.000
 139114352.31248  90608570.79848  24569657.2474   24569658.3734   24569656.1504
       214.000         162.000
 09  1 15  0 15  0.0000000  0 10G26G 9G28G 8G18G17G27G10G15G12
 107568602.81448  83819653.44448  20469656.8324   20469659.3834   20469656.7954
       250.000         224.000
 113532039.83148  88466519.83548  21604433.5944   21604435.9994   21604433.6234
       238.000         203.000
 119893396.81848  93423420.14548  22814958.8274   22814960.7994   22814959.5854
       234.000         192.000
 131260892.56348 102281202.53748  24978126.5144   24978130.6524   24978127.3004
       216.000         162.000
 122069838.91048  95119350.76248  23229121.3614   23229122.7454   23229121.8854
       228.000         178.000
 126221892.84148  98354713.90348  24019233.4234   24019236.1304   24019233.8104
       217.000         173.000
 126246211.57748  98373655.65648  24023868.1764   24023871.2884   24023867.8434
       222.000         171.000
 124806749.80248  97251990.75148  23749952.1624   23749956.0114   23749952.2924
       222.000         168.000
 106998981.21348  83375821.53748  20361233.8264   20361235.1954   20361233.5274
       254.000         240.000
 139000420.44048  90519792.72448  24547977.2104   24547979.0244   24547976.3384
       218.000         165.000
 09  1 15  0 15 30.0000000  0 10G26G 9G28G 8G18G17G27G10G15G12
 107608674.51048  83850878.13648  20477282.1624   20477284.6504   20477281.9314
       251.000         225.000
 113459464.70248  88409967.81048  21590622.6974   21590625.5284   21590622.4604
       240.000         205.000
 119963657.42848  93478168.67148  22828328.6034   22828330.6364   22828328.5774
       234.000         191.000
 131351528.89948 102351828.22148  24995374.3974   24995377.7374   24995374.9744
       211.000         150.000
 121999014.21048  95064162.69148  23215643.6914   23215645.3404   23215645.6644
       227.000         178.000
 126162373.17648  98308334.97048  24007907.2124   24007909.5984   24007907.0634
       218.000         172.000
 126316589.93948  98428495.90248  24037260.3324   24037263.8454   24037260.2664
       220.000         169.000
 124916176.79948  97337258.52748  23770775.2744   23770779.1634   23770777.1984
       220.000         169.000
 106986331.43548  83365964.57048  20358826.6974   20358828.2044   20358826.6414
       254.000         240.000
 138886575.02248  90431082.02048  24526313.2984   24526315.2124   24526312.9524
       219.000         169.000
 09  1 15  0 16  0.0000000  0 10G26G 9G28G 8G18G17G27G10G15G12
 107649141.23048  83882410.64648  20484982.9054   20484985.2314   20484982.8544
       251.000         225.000
 113387155.04248  88353622.63848  21576862.7234   21576865.5034   21576863.0474
       239.000         205.000
 120034256.91348  93533181.25948  22841763.4414   22841765.0174   22841764.0284
       236.000         191.000
 131442155.63248 102422446.40848  25012620.1574   25012624.0184   25012619.7324
       202.000         136.000
 121928611.67348  95009303.57548  23202246.2074   23202247.9584   23202247.5524
       229.000         178.000
 126103173.68448  98262205.45948  23996642.0854   23996643.6594   23996641.7214
       216.000         171.000
 126386983.17348  98483347.77448  24050655.9114   24050658.6794   24050655.4844
       224.000         169.000
 125025697.89848  97422599.61148  23791616.4724   23791620.7814   23791616.6944
       225.000         171.000
 106974074.09548  83356413.38448  20356494.2184   20356495.8394   20356493.8734
       253.000         241.000
 138772818.57248  90342440.64448  24504665.6264   24504668.0594   24504665.6354
       218.000         168.000
 09  1 15  0 16 30.0000000  0 10G26G 9G28G 8G18G17G27G10G15G12
 107690002.72548  83914250.75848  20492758.5314   20492760.9864   20492758.4454
       251.000         225.000
 113315111.48148  88297484.80648  21563153.5934   21563155.8334   21563153.4694
       240.000         206.000
 120105193.41548  93588456.45548  22855262.2344   22855263.7864   22855262.8054
       234.000         190.000
 141532793.66858  92493076.29258  25029863.2585   25029867.9015   25029865.1825
       191.000         127.000
 121858633.55948  94954775.18648  23188929.6844   23188931.5724   23188930.3974
       228.000         178.000
 126044296.84748  98216327.42148  23985438.4544   23985440.0164   23985437.8504
       220.000         173.000
 126457390.91448  98538210.92348  24064054.2704   24064057.1014   24064053.7604
       223.000         169.000
 125135310.15548  97508011.74548  23812475.6514   23812479.2904   23812477.4044
       223.000         170.000
 106962210.45748  83347168.98548  20354236.7054   20354238.1474   20354236.5034
       254.000         241.000
 138659153.19848  90253870.23248  24483036.0034   24483038.6914   24483034.7554
       217.000         168.000
 09  1 15  0 17  0.0000000  0  9G26G 9G28G18G17G27G10G15G12
 107731258.64448  83946398.21748  20500609.2864   20500611.7554   20500609.2534
       252.000         225.000
 113243334.46048  88241554.67748  21549494.7444   21549497.1334   21549494.7554
       239.000         205.000
 120176464.21248  93643992.12748  22868824.9474   22868826.1964   22868825.2204
       234.000         191.000
 121789081.88348  94900579.04248  23175695.2394   23175696.2994   23175695.4014
       226.000         179.000
 125985744.91448  98170702.52548  23974295.8564   23974297.8164   23974296.2764
       220.000         171.000
 126527812.75248  98593085.07748  24077454.8734   24077458.0044   24077455.6434
       223.000         171.000
 125245011.12648  97593493.00848  23833350.8134   23833354.2874   23833351.6224
       221.000         167.000
 106950741.32948  83338231.99748  20352054.2264   20352055.5324   20352053.9004
       254.000         241.000
 138545581.20348  90165372.60048  24461423.7434   24461426.6374   24461422.3474
       218.000         169.000
 09  1 15  0 17 30.0000000  0  9G26G 9G28G18G17G27G10G15G12
 107772909.11248  83978853.12348  20508535.1494   20508537.6034   20508535.2994
       251.000         225.000
 113171824.77248  88185832.86448  21535886.4264   21535889.5024   21535886.5224
       239.000         206.000
 120248067.21248  93699786.66448  22882450.4924   22882452.2024   22882450.6954
       232.000         190.000
 121719958.85848  94846716.95648  23162541.1344   23162543.4164   23162541.3274
       228.000         180.000
 125927520.97448  98125333.21848  23963216.0374   23963217.2784   23963216.9244
       217.000         172.000
 126598248.19748  98647969.81848  24090858.3524   24090861.7404   24090858.4634
       222.000         168.000
 125354798.18548  97679041.34948  23854242.6124   23854246.3304   23854242.7184
       224.000         170.000
 106939667.99148  83329603.41448  20349947.0604   20349948.2844   20349946.8834
       254.000         241.000
 138432104.82248  90076949.44448  24439829.6454   24439832.4924   24439829.1724
       215.000         166.000
 09  1 15  0 18  0.0000000  0  9G26G 9G28G18G17G27G10G15G12
 107814953.68448  84011615.11148  20516535.9194   20516538.3504   20516535.4174
       253.000         225.000
 113100582.78048  88130319.62848  21522329.8204   21522332.5454   21522329.4364
       240.000         206.000
 120320000.41648  93755838.50548  22896138.5324   22896140.5714   22896138.5204
       233.000         188.000
 121651266.94248  94793190.76848  23149469.9344   23149471.8484   23149471.0844
       228.000         181.000
 125869627.70448  98080221.59948  23952198.8544   23952201.4634   23952199.0474
       218.000         171.000
 126668697.04648  98702865.00648  24104263.9484   24104267.6794   24104264.1164
       222.000         168.000
 125464668.80148  97764654.79148  23875150.0244   23875154.6794   23875152.3854
       222.000         168.000
 106928991.77348  83321284.27848  20347915.3684   20347916.6684   20347915.1474
       254.000         240.000
 138318726.13248  89988602.44048  24418253.7484   24418256.5264   24418253.5164
       217.000         164.000
 09  1 15  0 18 30.0000000  0  9G26G 9G28G18G17G27G10G15G12
 107857392.51248  84044684.32648  20524611.9004   20524614.1234   20524612.2354
       250.000         224.000
 113029609.43348  88075015.74248  21508824.3024   21508826.8674   21508824.4474
       238.000         206.000
 120392261.54948  93812145.86948  22909889.0604   22909891.3894   22909888.4634
       232.000         189.000
 121583008.49148  94740002.36548  23136480.4234   23136482.2384   23136481.6444
       227.000         178.000
 125812067.70248  98035369.66748  23941245.7574   23941247.6004   23941245.6294
       218.000         171.000
 126739159.03048  98757770.43648  24117672.5964   24117676.2784   24117673.0584
       221.000         169.000
 125574620.52648  97850331.43648  23896073.3564   23896077.9214   23896074.5864
       222.000         171.000
 106918713.87948  83313275.52448  20345959.4454   20345960.8564   20345959.1404
       254.000         240.000
 138205447.89348  89900333.69148  24396698.0744   24396699.2674   24396697.6584
       220.000         166.000
 09  1 15  0 19  0.0000000  0  9G26G 9G28G18G17G27G10G15G12
 107900224.86848  84078060.17648  20532762.4184   20532764.9604   20532761.9594
       252.000         225.000
 112958904.51448  88019921.02048  21495369.1064   21495372.1824   21495368.9294
       241.000         207.000
 120464848.20148  93868706.89048  22923702.1044   22923703.8994   22923702.5374
       233.000         188.000
 121515185.17748  94687153.02448  23123574.3824   23123576.0774   23123575.4284
       228.000         180.000
 125754843.57948  97990779.44448  23930356.3304   23930358.3974   23930356.0874
       219.000         173.000
 126809633.74948  98812685.77048  24131083.9094   24131087.2774   24131083.9694
       220.000         167.000
 125684649.86748  97936068.55348  23917011.4354   23917015.3484   23917011.9144
       223.000         168.000
 106908834.84548  83305577.56648  20344079.4764   20344080.9124   20344079.2394
       253.000         240.000
 138092271.76548  89812144.51648  24375161.2754   24375162.0704   24375161.3784
       218.000         163.000
 09  1 15  0 19 30.0000000  0  9G26G 9G28G18G17G27G10G15G12
 107943450.57948  84111742.54448  20540988.0054   20540990.6364   20540988.1884
       251.000         224.000
 112888468.47348  87965035.79948  21481966.0164   21481968.5144   21481966.3374
       241.000         207.000
 120537757.72448  93925519.50348  22937576.3934   22937578.1904   22937576.7794
       232.000         189.000
 121447799.15548  94634644.45348  23110750.8184   23110752.9024   23110752.2894
       227.000         179.000
 125697957.55848  97946452.70148  23919531.1164   23919533.2344   23919532.1234
       213.000         172.000
 126880121.04848  98867610.91148  24144497.0714   24144500.3824   24144496.8604
       218.000         166.000
 125794754.56548  98021864.40248  23937963.6464   23937967.2834   23937964.3274
       219.000         165.000
 106899356.05348  83298191.48648  20342275.9254   20342277.1784   20342275.4984
       255.000         241.000
 137979200.20948  89724036.83448  24353645.0954   24353645.6414   24353645.9034
       218.000         161.000
 09  1 15  0 20  0.0000000  0  9G26G 9G28G18G17G27G10G15G12
 107987069.52748  84145731.33148  20549288.6674   20549291.0904   20549288.3044
       252.000         225.000
 112818302.17448  87910360.76948  21468613.6224   21468616.2774   21468613.5384
       241.000         206.000
 120610988.27148  93982582.26048  22951511.9674   22951513.3584   22951513.0314
       231.000         187.000
 121380852.70348  94582478.40348  23098011.5014   23098013.1774   23098012.3004
       230.000         181.000
 125641412.91848  97902391.93048  23908771.2274   23908773.1884   23908771.0934
       217.000         173.000
 126950620.76148  98922545.74848  24157912.5414   24157916.3694   24157912.8264
       218.000         166.000
 125904932.51448  98107717.34848  23958930.2834   23958933.0914   23958930.6374
       223.000         167.000
 106890278.71148  83291118.23448  20340548.6054   20340549.9254   20340548.5854
       254.000         241.000
 137866235.62848  89636012.50148  24332149.1784   24332149.4324   24332149.0584
       220.000         164.000
 09  1 15  0 20 30.0000000  0  9G26G 9G28G18G17G27G10G15G12
 108031082.11848  84180026.84748  20557663.7364   20557666.3664   20557663.8674
       250.000         225.000
 112748406.71748  87855896.78248  21455313.1344   21455315.6064   21455313.2344
       240.000         208.000
 120684538.45248  94039894.06748  22965507.8744   22965509.5414   22965508.7284
       231.000         187.000
 121314348.78748  94530657.15248  23085356.6714   23085358.0664   23085357.6584
       227.000         181.000
 125585212.48148  97858599.38148  23898076.9074   23898078.8674   23898076.8354
       219.000         174.000
 127021133.08348  98977490.42048  24171330.6414   24171334.0194   24171330.7974
       219.000         165.000
 126015181.22948  98193625.42048  23979909.6524   23979912.6354   23979911.1034
       220.000         168.000
 106881604.26548  83284358.92048  20338897.8294   20338899.2044   20338897.5774
       254.000         241.000
 137753380.18348  89548073.19548  24310673.3334   24310674.3174   24310672.6694
       218.000         164.000
 09  1 15  0 21  0.0000000  0  9G26G 9G28G18G17G27G10G15G12
 108075487.44248  84214628.40048  20566114.0014   20566116.4614   20566113.7514
       251.000         225.000
 112678782.19548  87801643.92048  21442063.9084   21442066.8674   21442063.8844
       241.000         207.000
 120758405.13148  94097452.52148  22979564.2664   22979565.8474   22979564.4354
       232.000         187.000
 121248288.68148  94479181.75248  23072785.2604   23072787.6224   23072785.5584
       229.000         182.000
 125529358.46548  97815076.78648  23887447.7484   23887449.7054   23887448.0244
       218.000         174.000
 127091657.12848  99032444.20648  24184751.0104   24184754.7704   24184751.0834
       217.000         163.000
 126125497.44648  98279586.09348  24000902.2564   24000905.6144   24000903.3204
       221.000         167.000
 106873332.93548  83277913.72448  20337323.7014   20337325.1334   20337323.3654
       254.000         241.000
 137640636.07748  89460220.65848  24289218.5794   24289219.7934   24289218.8114
       221.000         165.000
 09  1 15  0 21 30.0000000  0  9G26G 9G28G18G17G27G10G15G12
 108120285.68048  84249536.10448  20574638.7194   20574641.3684   20574638.6174
       252.000         225.000
 112609429.65548  87747602.99848  21428866.4624   21428869.3954   21428866.4644
       242.000         208.000
 120832586.75148  94155256.37948  22993680.7244   22993682.3544   22993681.5164
       230.000         186.000
 121182675.37348  94428054.48448  23060299.7494   23060301.2044   23060299.6574
       228.000         180.000
 125473854.20948  97771826.73248  23876885.7464   23876888.2754   23876885.3784
       218.000         171.000
 127162193.53548  99087407.62348  24198173.4604   24198177.1884   24198172.9494
       216.000         163.000
 126235879.05048  98365597.69748  24021907.1184   24021912.0244   24021907.9894
       220.000         169.000
 106865467.14948  83271784.53848  20335826.9604   20335828.4284   20335826.7944
       254.000         241.000
 137528006.46248  89372457.32948  24267785.6444   24267787.5294   24267787.6414
       221.000         167.000
 09  1 15  0 22  0.0000000  0  9G26G 9G28G18G17G27G10G15G12
 108165476.73248  84284749.90348  20583238.6334   20583240.7304   20583238.5964
       251.000         225.000
 112540349.47148  87693774.27948  21415721.1024   21415723.6814   21415721.5324
       243.000         208.000
 120907080.71048  94213303.61648  23007856.2634   23007858.3514   23007856.0724
       230.000         186.000
 121117510.71348  94377276.82048  23047899.6314   23047900.9964   23047899.5544
       227.000         181.000
 125418702.02448  97728850.99248  23866390.8814   23866393.3184   23866390.2314
       219.000         175.000
 127232741.58948  99142380.11448  24211598.2824   24211602.1494   24211598.4724
       217.000         162.000
 126346323.40748  98451658.21748  24042924.1444   24042928.3254   24042924.1874
       219.000         164.000
 106858007.38148  83265971.72548  20334407.4244   20334408.9504   20334407.1054
       253.000         241.000
 137415493.03248  89284784.56348  24246374.5564   24246377.2294   24246375.8904
       219.000         168.000
 09  1 15  0 22 30.0000000  0  9G26G 9G28G18G17G27G10G15G12
 108211060.61548  84320269.80648  20591912.7164   20591915.2274   20591912.7234
       252.000         225.000
 112471542.37048  87640158.35948  21402627.5754   21402630.0084   21402627.8784
       243.000         207.000
 120981885.40548  94271592.98648  23022091.2564   23022093.0154   23022091.2454
       231.000         187.000
 121052797.19948  94326850.70048  23035584.7934   23035586.2024   23035585.4954
       228.000         181.000
 125363904.80948  97686151.85548  23855963.0984   23855965.6344   23855963.2174
       219.000         175.000
 127303301.48448  99197361.83048  24225025.7314   24225029.2504   24225025.5464
       216.000         163.000
 126456828.60948  98537766.15748  24063951.9904   24063955.5804   24063952.5264
       218.000         164.000
 106850955.14248  83260476.47048  20333065.4264   20333066.8654   20333065.0664
       254.000         241.000
 137303098.31348  89197204.31248  24224986.7204   24224988.9884   24224986.2544
       219.000         170.000
 09  1 15  0 23  0.0000000  0  9G26G 9G28G18G17G27G10G15G12
 108257036.33348  84356095.03548  20600661.5154   20600663.9634   20600661.4944
       251.000         224.000
 112403008.45448  87586755.31048  21389585.6804   21389588.7084   21389585.9984
       242.000         208.000
 121056997.58148  94330121.96148  23036384.8314   23036386.2894   23036384.9094
       231.000         185.000
 120988536.29848  94276777.28048  23023356.1404   23023358.1144   23023356.9054
       230.000         181.000
 125309464.49648  97643730.83448  23845604.1234   23845606.4624   23845603.8694
       220.000         177.000
 127373872.54148  99252352.27148  24238454.6394   24238458.3234   24238454.3974
       217.000         162.000
 126567390.92548  98623918.59248  24084991.9794   24084995.2404   24084992.2964
       222.000         165.000
 106844310.86748  83255299.11148  20331801.0874   20331802.4884   20331800.8844
       255.000         241.000
 137190824.10048  89109717.93648  24203622.4664   24203623.7804   24203621.3554
       220.000         169.000
 09  1 15  0 23 30.0000000  0  9G26G 9G28G18G17G27G10G15G12
 108303403.61648  84392225.36948  20609485.0294   20609487.2374   20609484.8864
       251.000         224.000
 112334748.12048  87533565.44648  21376596.3034   21376599.0484   21376596.3644
       242.000         209.000
 121132415.25148  94388888.97648  23050736.0084   23050737.4664   23050736.7904
       231.000         183.000
 120924730.09548  94227058.14848  23011214.4334   23011216.1734   23011215.3354
       230.000         182.000
 125255383.70748  97601589.97948  23835312.0134   23835314.2684   23835312.0214
       216.000         172.000
 127444454.71048  99307351.34748  24251886.5054   24251889.8574   24251886.7814
       218.000         161.000
 126678007.90848  98710113.66548  24106041.9794   24106044.5064   24106043.4024
       220.000         160.000
 106838075.51748  83250440.39648  20330614.5714   20330615.9424   20330614.4104
       254.000         241.000
 137078672.32948  89022326.96548  24182280.0634   24182281.3564   24182279.9834
       220.000         165.000
 09  1 15  0 24  0.0000000  0  9G26G 9G28G18G17G27G10G15G12
 108350162.27248  84428660.68048  20618382.9594   20618385.3924   20618382.9444
       251.000         224.000
 112266762.29548  87480589.48248  21363658.8824   21363661.8504   21363659.3944
       242.000         208.000
 121208136.13948  94447892.26148  23065145.0914   23065146.7864   23065145.5044
       229.000         185.000
 120861380.64048  94177694.95648  22999159.1964   22999161.2644   22999159.7114
       230.000         182.000
 125201665.20748  97559731.41348  23825089.8124   23825091.8864   23825088.2694
       218.000         172.000
 127515047.67148  99362358.86048  24265319.7804   24265322.6894   24265320.8754
       215.000         160.000
 126788677.18148  98796349.43648  24127100.5584   24127103.9854   24127102.1794
       218.000         164.000
 106832250.47448  83245901.39848  20329506.0654   20329507.4034   20329505.8084
       254.000         241.000
 136966645.74448  88935033.52148  24160962.2804   24160963.0724   24160962.7464
       222.000         169.000
 09  1 15  0 24 30.0000000  0  9G26G 9G28G18G17G27G10G15G12
 108397312.23448  84465400.90148  20627355.2084   20627357.7064   20627355.1504
       251.000         224.000
 112199051.58948  87427827.89848  21350774.1124   21350776.7624   21350774.4254
       242.000         208.000
 121284158.22448  94507130.24448  23079611.5364   23079613.1704   23079611.6614
       231.000         184.000
 120798490.37248  94128689.54548  22987191.9884   22987193.5204   22987192.6274
       230.000         183.000
 125148311.55748  97518157.13948  23814937.4504   23814939.5064   23814937.5524
       221.000         173.000
 127585651.11848  99417374.53348  24278754.8924   24278758.6154   24278754.8804
       213.000         159.000
 126899396.32748  98882624.07048  24148170.8764   24148174.2264   24148171.9154
       220.000         165.000
 106826836.77548  83241682.92548  20328475.9504   20328477.2234   20328475.8064
       254.000         241.000
 136854746.74648  88847839.50948  24139668.9504   24139670.3234   24139669.4964
       221.000         171.000
 09  1 15  0 25  0.0000000  0  9G26G 9G28G18G17G27G10G15G12
 108444852.88748  84502445.55348  20636401.9594   20636404.3484   20636401.8784
       251.000         224.000
 112131616.00948  87375280.70548  21337941.6134   21337944.2364   21337941.8634
       242.000         209.000
 121360479.04048  94566601.00048  23094135.1604   23094136.6824   23094136.0264
       230.000         184.000
 120736061.09448  94080043.34648  22975312.3074   22975313.9554   22975313.5074
       233.000         184.000
 125095325.19248  97476869.05048  23804854.2254   23804856.0694   23804854.8794
       214.000         172.000
 127656265.00348  99472398.34248  24292192.5464   24292195.4634   24292192.6814
       215.000         158.000
 127010162.43948  98968935.30648  24169248.4234   24169252.5544   24169249.4984
       215.000         163.000
 106821835.35048  83237785.70448  20327524.3644   20327525.5134   20327524.0604
       254.000         241.000
 136742977.64148  88760746.72048  24118399.9054   24118401.6714   24118399.7724
       219.000         169.000
 09  1 15  0 25 30.0000000  0  9G26G 9G28G18G17G27G10G15G12
 108492784.54248  84539794.88948  20645522.8854   20645525.3694   20645522.8204
       250.000         224.000
 112064457.09848  87322949.10648  21325161.3224   21325164.5214   21325161.4424
       242.000         209.000
 121437097.12548  94626303.39748  23108714.9354   23108716.8184   23108715.1154
       230.000         186.000
 120674095.52548  94031758.51048  22963520.5904   22963522.6554   22963521.9034
       233.000         186.000
 125042709.32048  97435869.70748  23794841.6864   23794843.8864   23794841.3524
       219.000         174.000
 127726889.72648  99527430.61148  24305632.0284   24305635.5444   24305632.1394
       213.000         159.000
 127120973.65448  99055281.66948  24190334.0304   24190338.8514   24190334.1024
       216.000         163.000
 106817247.83048  83234211.01648  20326651.2954   20326652.6344   20326651.2024
       255.000         241.000
 136631340.48648  88673756.75548  24097155.9014   24097157.5554   24097155.4254
       220.000         170.000
 09  1 15  0 26  0.0000000  0  9G26G 9G28G18G17G27G10G15G12
