     2.11           OBSERVATION DATA    G (GPS)             RINEX VERSION / TYPE
teqc  2008Oct2      gpsops              20090109 00:05:36UTCPGM / RUN BY / DATE
    30.0000                                                 INTERVAL
     1     1                                                WAVELENGTH FACT L1/2
     7    L1    L2    P1    P2    C1    S1    S2            # / TYPES OF OBSERV
Linux 2.4.20-8|Pentium IV|gcc -static|Linux|486/DX+         COMMENT
     2.10           OBSERVATION DATA    GPS                 COMMENT
soc2rnx ver 1.20    gpsops               9-Jan-2009 00:05:33COMMENT
S1, if present, is the SNR for the C/A data stream on L1.   COMMENT
 SNR is mapped to RINEX snr flag value [1,4-9]              COMMENT
    SNR:   >316  >100  >31.6  >10  >3.2    >0 bad=0         COMMENT
L1 & L2:      9     8     7     6     5     4     1         COMMENT
                                                            COMMENT
This data is provided as a public service by NASA/JPL.      COMMENT
No warranty is expressed or implied regarding suitability   COMMENT
for use.  For further information, contact:                 COMMENT
Dave Stowers, NASA/JPL m/s 238-600                          COMMENT
4800 Oak Grove Drive, Pasadena CA 91109 USA                 COMMENT
                                                            COMMENT
Forced Modulo Decimation to 30 seconds                      COMMENT
  2009     1     8     0     0    0.0000000     GPS         TIME OF FIRST OBS
DSN                 JPL                                     OBSERVER / AGENCY
451-U               AOAD/M_T        NONE                    ANT # / TYPE
  4849202.3940  -360328.9929  4114913.1862                  APPROX POSITION XYZ
        0.0254        0.0000        0.0000                  ANTENNA: DELTA H/E/N
LP03574             ASHTECH Z-XII3      CC00                REC # / TYPE / VERS
MADR                                                        MARKER NAME
13407S012                                                   MARKER NUMBER
                                                            END OF HEADER
 09  1  8  0  0  0.0000000  0 10G28G 9G27G 8G26G17G15G21G10G24
 115270400.18748  89821084.45148  21935232.8774   21935234.9834   21935233.4304
       241.000         208.000
 120834596.65748  94156822.32248  22994062.6324   22994066.4644   22994063.1434
       228.000         182.000
 122135211.06348  95170286.12248  23241564.5114   23241567.2064   23241564.7024
       230.000         190.000
 123435140.31548  96183205.66848  23488942.8694   23488945.4634   23488944.7334
       227.000         172.000
 105586452.86948  82275136.31448  20092449.6304   20092452.0724   20092449.8654
       254.000         230.000
 132331941.50748 103115785.79348  25181942.0244   25181943.7524   25181941.3194
       216.000         161.000
 109519772.03148  85340076.23548  20840924.1074   20840925.8174   20840923.9714
       251.000         232.000
 128820289.18748 100379434.05948  24513695.6764   24513698.4424   24513694.0034
       206.000         148.000
 116021997.30048  90406738.90148  22078260.6494   22078263.5074   22078261.0654
       240.000         203.000
 129270027.86548 100729877.99048  24599276.2344   24599280.9904   24599277.4004
       210.000         152.000
 09  1  8  0  0 30.0000000  0 10G28G 9G27G 8G26G17G15G21G10G24
 115303346.37048  89846756.80648  21941502.3874   21941504.2574   21941502.8654
       242.000         209.000
 120741414.60148  94084212.95748  22976331.1624   22976334.2974   22976331.1454
       228.000         182.000
 122205908.34548  95225374.90248  23255017.6204   23255020.6034   23255017.9244
       229.000         189.000
 123523528.50948  96252079.58348  23505763.0234   23505765.4974   23505763.1194
       227.000         172.000
 105592308.13848  82279698.85048  20093563.8834   20093566.3374   20093563.8684
       253.000         230.000
 132255605.24848 103056303.06148  25167415.6204   25167417.4634   25167415.4864
       214.000         162.000
 109477535.13048  85307164.36448  20832886.6924   20832888.4154   20832886.5194
       251.000         232.000
 128840577.00148 100395242.75148  24517556.5314   24517558.9494   24517555.9474
       212.000         151.000
 116113594.11648  90478113.03448  22095690.9854   22095693.7864   22095691.8274
       241.000         203.000
 129341815.79148 100785816.62248  24612937.0984   24612941.8954   24612937.7214
       210.000         153.000
 09  1  8  0  1  0.0000000  0 10G28G 9G27G 8G26G17G15G21G10G24
 115336789.71048  89872816.55348  21947866.6614   21947868.5424   21947867.0234
       242.000         210.000
 120648434.50948  94011760.94948  22958637.9564   22958640.4924   22958638.3504
       231.000         182.000
 122276647.26548  95280496.12048  23268478.7544   23268481.8324   23268479.3534
       230.000         190.000
 123611987.67748  96321008.77648  23522595.4764   23522598.7174   23522596.8004
       223.000         169.000
 105598539.85348  82284554.72948  20094749.7954   20094752.1894   20094749.7224
       254.000         230.000
 132179332.19548 102996869.53548  25152901.6344   25152903.7014   25152900.6284
       217.000         162.000
 109435571.94148  85274465.77248  20824901.4194   20824903.0044   20824901.2664
       251.000         232.000
 128861317.88848 100411404.47348  24521503.9884   24521506.1004   24521506.8394
       212.000         147.000
 116205506.44348  90549733.02348  22113181.3154   22113184.3014   22113182.1744
       240.000         203.000
 129413747.73848 100841867.48348  24626625.5464   24626630.7794   24626626.3604
       213.000         156.000
 09  1  8  0  1 30.0000000  0 10G28G 9G27G 8G26G17G15G21G10G24
 115370730.41448  89899263.85848  21954325.3634   21954327.0754   21954325.8564
       242.000         210.000
 120555658.95448  93939468.32548  22940983.5624   22940986.0584   22940984.0644
       230.000         182.000
 122347428.84848  95335650.58448  23281948.2034   23281950.9974   23281948.6404
       230.000         189.000
 123700517.78148  96389993.25948  23539442.2644   23539445.4294   23539442.7094
       224.000         170.000
 105605149.89948  82289705.41348  20096007.6684   20096010.0254   20096007.7604
       253.000         230.000
 132103126.72748 102937488.65748  25138399.8674   25138401.0234   25138399.5844
       214.000         161.000
 109393885.57448  85241982.88148  20816968.8584   20816970.2884   20816968.5634
       251.000         232.000
 128882511.48448 100427918.96948  24525536.5444   24525538.5484   24525536.2284
       212.000         150.000
 116297732.93548  90621597.81848  22130731.1544   22130734.5164   22130731.7294
       238.000         202.000
 129485822.41448 100898029.54448  24640341.3974   24640345.9104   24640341.0034
       212.000         155.000
 09  1  8  0  2  0.0000000  0 10G28G 9G27G 8G26G17G15G21G10G24
 115405167.64748  89926098.06848  21960878.2824   21960880.2514   21960878.7014
       241.000         209.000
 120463089.05148  93867335.96048  22923367.7124   22923370.5734   22923368.2844
       231.000         185.000
 122418252.77148  95390838.04148  23295425.1264   23295428.3864   23295425.1514
       228.000         188.000
 123789117.89248  96459032.30948  23556302.6024   23556305.4494   23556302.5824
       226.000         172.000
 105612139.48248  82295151.83448  20097337.8284   20097340.1314   20097337.7644
       254.000         230.000
 132026992.00148 102878162.90648  25123911.4244   25123913.2814   25123910.9694
       210.000         157.000
 109352477.44348  85209716.80948  20809089.0734   20809090.6514   20809089.0004
       252.000         233.000
 128904156.80148 100444785.41548  24529657.4174   24529658.7004   24529656.6674
       210.000         152.000
 116390271.25948  90693705.58348  22148340.3304   22148344.1414   22148341.1554
       239.000         201.000
 129558037.37948 100954300.93848  24654083.9264   24654087.9664   24654084.4344
       215.000         153.000
 09  1  8  0  2 30.0000000  0 11G28G 9G27G 8G26G17G18G15G21G10G24
 115440096.43148  89953315.29548  21967525.0314   21967527.0674   21967525.5384
       242.000         209.000
 120370721.79348  93795361.47448  22905791.1444   22905793.6024   22905791.2954
       232.000         185.000
 122489114.38748  95446054.85648  23308909.4134   23308913.1124   23308910.2214
       226.000         188.000
 123877783.22848  96528122.15348  23573175.4404   23573177.8524   23573176.3514
       224.000         170.000
 105619505.01648  82300891.20948  20098739.4214   20098741.7094   20098739.3964
       254.000         229.000
 131950927.48548 102818891.87148  25109436.5924   25109438.8684   25109436.9354
       215.000         160.000
 138988411.88058  90510445.09558  24545682.7035   24545683.2045   24545684.7505
       220.000         154.000
 109311345.53848  85177665.97348  20801261.9144   20801263.4744   20801261.7944
       251.000         233.000
 128926248.29748 100461999.55348  24533860.1554   24533862.4054   24533861.2314
       205.000         149.000
 116483115.50848  90766051.73948  22166008.1084   22166011.6654   22166009.0894
       238.000         201.000
 129630385.86048 101010676.36648  24667851.9394   24667855.6184   24667852.1174
       215.000         155.000
 09  1  8  0  3  0.0000000  0 11G28G 9G27G 8G26G17G18G15G21G10G24
 115475516.77948  89980915.57248  21974265.4884   21974267.2774   21974265.8984
       242.000         209.000
 120278559.66148  93723546.83648  22888252.4404   22888255.7064   22888252.4364
       230.000         182.000
 122560014.70248  95501301.82448  23322401.9514   23322405.0374   23322401.5424
       231.000         190.000
 123966513.81148  96597262.85648  23590060.4954   23590063.0444   23590060.9564
       225.000         170.000
 105627248.82248  82306925.34748  20100212.9704   20100215.3154   20100213.0594
       253.000         229.000
 131874937.70348 102759679.04148  25094976.9814   25094979.0994   25094977.3534
       216.000         164.000
 138891423.57048  90434869.68748  24527227.0224   24527227.0564   24527227.3394
       219.000         159.000
 109270492.87548  85145832.72748  20793487.8484   20793489.5364   20793487.4474
       251.000         233.000
 128948786.18048 100479561.47048  24538147.2014   24538150.7554   24538147.9954
       199.000         142.000
 116576265.17648  90838635.89948  22183734.1004   22183737.3194   22183734.6554
       239.000         201.000
 129702866.52648 101067154.76248  24681644.3034   24681648.3504   24681644.4714
       215.000         157.000
 09  1  8  0  3 30.0000000  0 11G28G 9G27G 8G26G17G18G15G21G10G24
 115511427.59648  90008898.02648  21981099.2384   21981100.9644   21981100.0384
       242.000         209.000
 120186603.84348  93651892.94448  22870754.2534   22870757.1834   22870754.5974
       230.000         184.000
 122630952.85148  95556578.29248  23335901.5934   23335903.8894   23335901.3134
       232.000         190.000
 124055308.73648  96666453.66848  23606956.7624   23606960.4594   23606957.2394
       219.000         167.000
 105635371.15348  82313254.42248  20101758.4084   20101760.8374   20101758.3544
       252.000         229.000
 131799025.56048 102700526.69648  25080530.7744   25080533.3044   25080531.1404
       214.000         163.000
 138794653.14748  90359464.24548  24508811.2754   24508812.4824   24508813.8924
       214.000         160.000
 109229920.78948  85114218.11148  20785767.2044   20785768.9584   20785766.8424
       251.000         233.000
 128971768.53448 100497469.78048  24542522.7374   24542523.3514   24542520.7614
       208.000         151.000
 116669717.80648  90911456.12748  22201517.5684   22201520.9404   22201518.2334
       240.000         201.000
 129775476.39648 101123733.90748  24695462.4944   24695465.2774   24695462.7394
       216.000         157.000
 09  1  8  0  4  0.0000000  0 11G28G 9G27G 8G26G17G18G15G21G10G24
 115547828.92048  90037262.70048  21988025.9634   21988027.7704   21988026.2954
       242.000         208.000
 120094856.37848  93580401.44148  22853295.4744   22853298.6354   22853295.9334
       230.000         184.000
 122701929.34748  95611884.66248  23349407.5724   23349410.1474   23349407.9354
       228.000         189.000
 124144168.13148  96735694.71048  23623865.8154   23623869.5164   23623866.0824
       222.000         168.000
 105643873.94148  82319879.97448  20103376.3624   20103378.8154   20103376.2364
       253.000         229.000
 131723195.41948 102641438.28848  25066101.1524   25066103.1484   25066101.5774
       215.000         162.000
 138698105.05048  90284231.97448  24490438.1364   24490441.0324   24490438.4424
       217.000         159.000
 109189631.76048  85082824.06148  20778100.5344   20778102.0904   20778100.2084
       251.000         233.000
 128995195.28148 100515724.37348  24546980.0904   24546981.9424   24546981.4054
       208.000         150.000
 116763471.58548  90984511.01448  22219358.6254   22219361.9524   22219359.2244
       239.000         202.000
 129848214.15948 101180412.71248  24709303.1324   24709306.9714   24709303.5454
       212.000         154.000
 09  1  8  0  4 30.0000000  0 11G28G 9G27G 8G26G17G18G15G21G10G24
 115584719.11148  90066008.29948  21995046.1164   21995047.7464   21995046.9474
       242.000         209.000
 120003317.60348  93509072.53048  22835876.1074   22835878.7034   22835876.6324
       229.000         183.000
 122772943.36048  95667220.22848  23362920.4824   23362923.9774   23362920.6124
       227.000         187.000
 124233090.57748  96804984.94248  23640789.3444   23640790.8144   23640789.7324
       225.000         172.000
 105652757.41948  82326802.16248  20105066.7834   20105069.2914   20105066.7344
       253.000         229.000
 131647449.89148 102582415.79248  25051687.7604   25051689.6284   25051688.2024
       214.000         165.000
 138601781.49148  90209174.63748  24472108.7704   24472111.4734   24472109.1514
       211.000         160.000
 109149627.31648  85051651.76248  20770487.9674   20770489.5094   20770487.6624
       251.000         233.000
 129019064.67248 100534323.91548  24551522.3574   24551523.9274   24551524.3454
       209.000         154.000
 116857524.52648  91057799.01748  22237256.0404   22237259.6334   22237257.1574
       239.000         201.000
 129921077.04248 101237188.99448  24723168.1074   24723172.7374   24723168.3614
       210.000         151.000
 09  1  8  0  5  0.0000000  0 11G28G 9G27G 8G26G17G18G15G21G10G24
 115622096.53948  90095133.57248  22002158.6134   22002160.5804   22002158.8284
       243.000         209.000
 119911988.43848  93437906.96848  22818496.4124   22818499.0704   22818496.4654
       227.000         183.000
 122843993.93948  95722584.29848  23376440.8334   23376444.6524   23376440.5854
       231.000         190.000
 124322074.27148  96874322.90348  23657721.9514   23657723.7624   23657723.0944
       221.000         167.000
 105662021.88548  82334021.21948  20106829.9264   20106832.3264   20106829.7834
       253.000         229.000
 131571791.93048 102523461.49848  25037290.5604   25037291.7754   25037290.0884
       208.000         161.000
 138505684.87748  90134294.21248  24453822.4204   24453824.9134   24453822.4594
       215.000         164.000
 109109908.34548  85020701.91348  20762929.7864   20762931.2224   20762929.5424
       252.000         233.000
 129043374.46948 100553266.51548  24556149.2054   24556150.6014   24556147.7034
       212.000         154.000
 116951873.59548  91131317.75848  22255209.8774   22255213.6454   22255210.7034
       239.000         201.000
 129994061.69248 101294060.14148  24737056.7004   24737061.3974   24737056.7914
       209.000         150.000
 09  1  8  0  5 30.0000000  0 11G28G 9G27G 8G26G17G18G15G21G10G24
 115659959.86748  90124637.46748  22009364.0154   22009365.5434   22009364.9244
       243.000         209.000
 119820869.96148  93366905.58048  22801157.1384   22801160.1314   22801157.0314
       229.000         183.000
 122915080.12248  95777976.12548  23389969.0634   23389971.7134   23389969.3994
       235.000         191.000
 124411118.32548  96943707.80848  23674664.5014   23674668.5874   23674664.5014
       216.000         162.000
 105671667.61548  82341537.36948  20108665.5674   20108667.9114   20108665.5094
       253.000         229.000
 131496224.18848 102464577.58648  25022908.6944   25022911.3654   25022907.9474
       206.000         158.000
 138409817.35148  90059592.25848  24435579.5114   24435581.3534   24435579.7584
       215.000         157.000
 109070476.23348  84989975.59248  20755426.0804   20755427.4524   20755425.8364
       251.000         233.000
 129068122.98448 100572551.08948  24560858.8774   24560859.9124   24560861.5294
       215.000         158.000
 117046516.72948  91205065.64348  22273220.2134   22273223.7934   22273220.8014
       238.000         201.000
 130067165.10248 101351023.79748  24750966.5124   24750972.4564   24750967.0024
       207.000         150.000
 09  1  8  0  6  0.0000000  0 11G28G 9G27G 8G26G17G18G15G21G10G24
 115698307.59248  90154518.81948  22016661.3854   22016662.9974   22016661.9984
       243.000         208.000
 119729962.64648  93296068.73048  22783857.8434   22783860.8444   22783858.4074
       228.000         183.000
 122986201.36048  95833395.26748  23403502.8754   23403505.4854   23403503.5124
       231.000         189.000
 124500221.79248  97013139.06448  23691621.7124   23691624.1924   23691621.0674
       221.000         167.000
 105681695.03848  82349350.94648  20110573.7274   20110575.9914   20110573.7494
       254.000         229.000
 131420749.76448 102405766.32348  25008548.2584   25008549.3104   25008547.5144
       216.000         164.000
 138314181.58248  89985070.83748  24417380.3384   24417381.3444   24417379.9034
       214.000         155.000
 109031332.64448  84959474.09748  20747977.1884   20747978.6814   20747976.9064
       251.000         233.000
 129093308.52248 100592176.15948  24565650.8474   24565653.0294   24565651.4434
       211.000         154.000
 117141450.80248  91279040.23848  22291285.6774   22291288.9464   22291286.3794
       239.000         200.000
 130140384.17648 101408077.63048  24764900.7314   24764905.3074   24764900.4634
       213.000         149.000
 09  1  8  0  6 30.0000000  0 11G28G 9G27G 8G26G17G18G15G21G10G24
 115737138.36448  90184776.56148  22024050.3924   22024052.0244   22024051.2304
       241.000         208.000
 119639267.06048  93225396.86348  22766599.3594   22766602.1974   22766599.3194
       229.000         184.000
 123057356.66748  95888840.95348  23417042.7884   23417045.5804   23417042.7894
       229.000         186.000
 124589382.86348  97082615.23248  23708588.5344   23708590.9164   23708589.5764
       218.000         165.000
 105692104.29248  82357462.04848  20112554.4154   20112556.7034   20112554.3774
       252.000         228.000
 131345371.42448 102347029.95048  24994203.9914   24994205.7134   24994204.3024
       209.000         165.000
 138218780.20548  89910732.09348  24399226.0124   24399226.7914   24399225.3214
       214.000         158.000
 108992478.34848  84929198.02248  20740583.5164   20740584.9564   20740583.2544
       251.000         233.000
 129118929.10648 100612140.23248  24570525.9494   24570527.5424   24570525.7564
       216.000         156.000
 117236673.49948  91353239.74248  22309405.9464   22309409.2554   22309406.9444
       239.000         200.000
 130213716.13248 101465219.38848  24778855.6544   24778859.0624   24778856.0954
       216.000         149.000
 09  1  8  0  7  0.0000000  0 11G28G 9G27G 8G26G17G18G15G21G10G24
 115776450.07548  90215409.06848  22031530.6624   22031533.0414   22031530.9894
       241.000         207.000
 119548783.88448  93154890.51048  22749381.2064   22749384.0244   22749381.2334
       230.000         186.000
 123128545.40848  95944312.65848  23430589.0834   23430592.3434   23430589.3434
       230.000         187.000
 124678600.29448  97152135.25548  23725564.9044   23725568.6324   23725565.3494
       218.000         164.000
 105702895.64948  82365870.89248  20114607.8384   20114610.1994   20114607.6534
       254.000         228.000
 131270091.62348 102288370.37948  24979878.4674   24979881.0514   24979878.1464
       204.000         159.000
 138123615.25048  89836577.61648  24381116.9884   24381117.9084   24381116.8614
       209.000         152.000
 108953914.50448  84899148.27248  20733245.0694   20733246.5374   20733244.8724
       251.000         233.000
 129144982.78648 100632441.80048  24575484.3464   24575486.1054   24575484.9964
       215.000         156.000
 117332182.12248  91427662.03548  22327580.5214   22327583.8914   22327581.7594
       238.000         199.000
 130287157.72348 101522446.59348  24792830.1094   24792834.7824   24792830.6654
       212.000         150.000
 09  1  8  0  7 30.0000000  0 11G28G 9G27G 8G26G17G18G15G21G10G24
 115816242.68148  90246416.29048  22039103.1824   22039105.2694   22039104.0514
       241.000         207.000
 119458514.97148  93084551.11248  22732203.9674   22732206.3024   22732204.3934
       231.000         186.000
 123199768.20548  95999810.92548  23444143.0984   23444145.5554   23444143.5394
       232.000         189.000
 124767874.33648  97221699.42648  23742554.2224   23742557.1424   23742554.6814
       222.000         166.000
 105714071.05048  82374578.99348  20116734.5924   20116736.8164   20116734.6854
       253.000         228.000
 131194914.98448 102229791.24348  24965571.6064   24965574.5214   24965571.1504
       213.000         162.000
 138028690.76148  89762610.47748  24363053.5334   24363054.7354   24363053.8784
       212.000         159.000
 108915644.12948  84869327.20048  20725962.5174   20725964.0234   20725962.3404
       251.000         233.000
 129171468.96448 100653080.36848  24580524.6634   24580525.9954   24580526.0744
       216.000         155.000
 117427975.80148  91502306.45248  22345809.2714   22345812.7544   22345809.9054
       239.000         198.000
 130360707.72748 101579758.26148  24806826.2554   24806831.5824   24806827.3654
       205.000         146.000
 09  1  8  0  8  0.0000000  0 11G28G 9G27G 8G26G17G18G15G21G10G24
 115856516.74748  90277798.68148  22046767.1224   22046769.2174   22046767.4244
       243.000         208.000
 119368463.09648  93014380.85748  22715067.1634   22715070.0504   22715068.0164
       230.000         187.000
 123271025.81648  96055336.34348  23457703.2664   23457705.6954   23457703.7464
       233.000         189.000
 124857205.36248  97291308.02348  23759553.2994   23759555.7174   23759554.4804
       216.000         162.000
 105725632.53248  82383587.93448  20118934.7194   20118936.9434   20118934.6414
       254.000         228.000
 131119846.17148 102171296.11048  24951287.5394   24951290.0954   24951288.4794
       212.000         165.000
 137934011.05348  89688834.10248  24345036.1254   24345038.7044   24345036.4084
       210.000         160.000
 108877670.36248  84839737.24948  20718736.3614   20718737.9104   20718736.1284
       251.000         233.000
 129198388.02048 100674056.25548  24585646.9684   24585648.4474   24585646.3054
       212.000         155.000
 117524053.47248  91577172.16548  22364092.1284   22364095.6834   22364093.1164
       237.000         198.000
 130434364.99648 101637153.50048  24820843.9054   24820847.2144   24820844.7174
       209.000         143.000
 09  1  8  0  8 30.0000000  0 11G28G 9G27G 8G26G17G18G15G21G10G24
 115897266.33548  90309551.60948  22054521.6804   22054523.4894   22054522.4044
       241.000         207.000
 119278624.96448  92944377.14448  22697971.8884   22697974.3994   22697971.9434
       229.000         187.000
 123342313.32448  96110885.03448  23471267.8594   23471271.2654   23471267.9124
       227.000         187.000
 124946587.96148  97360956.76048  23776561.2544   23776564.8384   23776561.4274
       213.000         161.000
 105737576.25048  82392894.72848  20121207.4524   20121209.7404   20121207.3624
       253.000         228.000
 131044883.90848 102112883.99648  24937023.2954   24937025.0034   24937023.4094
       212.000         164.000
 137839574.43748  89615247.15548  24327065.5064   24327067.4284   24327063.8364
       214.000         158.000
 108839990.20648  84810376.08548  20711566.0594   20711567.6354   20711565.8334
       251.000         233.000
 129225733.37248 100695364.26148  24590851.2974   24590852.5824   24590851.1934
       209.000         154.000
 117620408.09648  91652253.68248  22382427.9794   22382431.4764   22382428.7234
       238.000         199.000
 130508122.11948 101694626.57948  24834880.9034   24834882.2964   24834880.1654
       212.000         143.000
 09  1  8  0  9  0.0000000  0 11G28G 9G27G 8G26G17G18G15G21G10G24
 115938490.42048  90341674.27848  22062366.4334   22062368.0214   22062367.0244
       242.000         207.000
 119189001.93148  92874541.06948  22680916.1864   22680919.5794   22680916.8004
       230.000         187.000
 123413630.55048  96166456.89648  23484839.4244   23484842.4094   23484839.3954
       230.000         185.000
 125036021.73548  97430645.38348  23793580.2884   23793584.1074   23793579.5594
       215.000         161.000
 105749903.02748  82402500.00148  20123553.2424   20123555.5484   20123553.0584
       253.000         228.000
 130970031.39548 102054557.41848  24922779.2474   24922781.0224   24922779.1794
       217.000         166.000
 137745384.26248  89541852.22548  24309141.9134   24309143.5114   24309142.7424
       216.000         161.000
 108802605.65648  84781245.26248  20704451.9104   20704453.5804   20704451.5834
       251.000         233.000
 129253503.85748 100717003.55648  24596134.5524   24596137.3294   24596135.7594
       214.000         156.000
 117717038.26948  91727549.91248  22400816.2294   22400819.7494   22400817.0334
       238.000         199.000
 130581976.67948 101752175.54348  24848933.9114   24848937.3104   24848934.1454
       212.000         144.000
 09  1  8  0  9 30.0000000  0 11G28G 9G27G 8G26G17G18G15G21G10G24
 115980187.77448  90374165.72848  22070301.1764   22070302.8964   22070301.7374
       242.000         207.000
 119099594.66648  92804873.09848  22663902.7104   22663905.7834   22663903.1724
       231.000         187.000
 123484977.17348  96222051.61648  23498415.7124   23498419.3524   23498415.5074
       230.000         187.000
 125125505.46648  97500372.96448  23810608.1794   23810612.4134   23810609.0244
       218.000         162.000
 105762613.29648  82412404.11448  20125971.8734   20125974.2744   20125971.7774
       253.000         228.000
 130895291.89948 101996318.84648  24908555.9134   24908558.5114   24908556.1904
       215.000         164.000
 137651442.88448  89468651.13348  24291265.3424   24291266.7864   24291266.0364
       215.000         161.000
 108765518.07148  84752345.84448  20697394.3844   20697395.9514   20697394.1264
       251.000         233.000
 129281697.75348 100738972.80248  24601501.2104   24601502.3744   24601501.0744
       211.000         158.000
 117813940.94148  91803058.48848  22419256.0754   22419259.7354   22419256.8654
       237.000         198.000
 130655926.12948 101809798.47348  24863006.4364   24863009.8084   24863007.0974
       215.000         150.000
 09  1  8  0 10  0.0000000  0 11G28G 9G27G 8G26G17G18G15G21G10G24
 116022356.81548  90407024.72548  22078325.6334   22078327.4224   22078326.2864
       241.000         207.000
 119010403.91048  92735373.82648  22646930.4254   22646933.1444   22646930.9824
       230.000         188.000
 123556352.30348  96277668.60248  23511998.6204   23512001.5584   23511998.7934
       231.000         188.000
 125215037.78648  97570138.38748  23827646.3424   23827649.4414   23827647.5994
       217.000         162.000
 105775707.59548  82422607.45648  20128463.6564   20128465.9364   20128463.6024
       253.000         228.000
 130820668.35248 101938170.68848  24894355.0944   24894357.6314   24894355.0904
       212.000         162.000
 137557752.67148  89395645.77448  24273437.1074   24273438.6034   24273436.3494
       212.000         159.000
 108728728.80348  84723678.87748  20690393.5754   20690395.1764   20690393.3164
       251.000         233.000
 129310312.96148 100761270.39848  24606945.4334   24606947.7034   24606945.6394
       213.000         159.000
 117911114.26748  91878777.95848  22437747.7084   22437751.0884   22437748.1754
       237.000         198.000
 130729967.38348 101867492.95648  24877095.3514   24877099.4014   24877095.6644
       207.000         149.000
 09  1  8  0 10 30.0000000  0 11G28G 9G27G 8G26G17G18G15G21G10G24
 116064995.79748  90440249.91348  22086439.7194   22086441.4384   22086439.9344
       242.000         207.000
 118921430.96248  92666044.27448  22629999.6334   22630002.3664   22629999.7544
       233.000         190.000
 123627755.36848  96333307.35748  23525586.1904   23525588.8214   23525586.9624
       227.000         184.000
 125304617.95748  97639941.09948  23844693.4834   23844696.1024   23844693.2434
       217.000         162.000
 105789186.26848  82433110.31848  20131028.5814   20131030.7894   20131028.4674
       253.000         228.000
 130746163.83048 101880115.26148  24880177.7284   24880180.1214   24880177.2084
       217.000         165.000
 137464316.12648  89322838.10848  24255655.6954   24255658.0904   24255657.4634
       215.000         156.000
 108692239.16248  84695245.38848  20683449.9104   20683451.3644   20683449.6644
       251.000         233.000
 129339347.83648 100783894.93948  24612470.4764   24612472.6534   24612472.0864
       216.000         156.000
 118008555.58648  91954706.23548  22456290.1204   22456293.5284   22456290.7654
       237.000         197.000
 130804097.94348 101925257.00548  24891201.7234   24891206.4004   24891201.2364
       211.000         152.000
 09  1  8  0 11  0.0000000  0 11G28G 9G27G 8G26G17G18G15G21G10G24
 116108104.33948  90473840.98448  22094642.8414   22094644.5494   22094643.4644
       242.000         206.000
 118832677.22448  92596885.54348  22613110.7404   22613113.1344   22613110.7004
       233.000         190.000
 123699186.68748  96388968.09048  23539178.2064   23539181.9214   23539177.6154
       229.000         187.000
 125394245.76448  97709780.94948  23861747.9434   23861752.3714   23861748.4004
       213.000         162.000
 105803050.63948  82443913.72348  20133666.8524   20133669.1014   20133666.8304
       253.000         228.000
 130671782.12548 101822155.53848  24866024.0594   24866025.1194   24866024.4654
       215.000         163.000
 137371136.94148  89250230.92748  24237925.1824   24237926.4934   24237925.3524
       214.000         159.000
 108656051.72148  84667047.38348  20676563.5934   20676565.0654   20676563.3594
       251.000         233.000
 129368801.30048 100806845.66848  24618075.4584   24618077.0784   24618076.2514
       210.000         154.000
 118106262.81348  92030841.73748  22474883.1824   22474886.7664   22474884.0104
       237.000         197.000
 130878315.58048 101983088.91648  24905324.7144   24905329.6174   24905325.1064
       211.000         152.000
 09  1  8  0 11 30.0000000  0 11G28G 9G27G 8G26G17G18G15G21G10G24
 116151680.90948  90507796.75948  22102935.2084   22102936.9834   22102935.6204
       241.000         207.000
 118744143.67548  92527898.37348  22596263.3244   22596265.6204   22596263.9104
       233.000         189.000
 123770645.82848  96444650.52948  23552777.8964   23552780.5474   23552778.2794
       230.000         189.000
 125483920.08548  97779657.00648  23878813.8174   23878816.6334   23878814.0464
       216.000         164.000
 105817301.21548  82455018.06248  20136378.7404   20136380.9584   20136378.5714
       253.000         228.000
 130597526.56648 101764294.10648  24851893.2814   24851894.8034   24851893.3354
       217.000         161.000
 137278218.03348  89177826.58448  24220243.7314   24220244.8864   24220243.0084
       219.000         163.000
 108620168.20648  84639086.19348  20669735.1924   20669736.5384   20669734.9244
       250.000         233.000
 129398671.58448 100830121.18348  24623760.6934   24623760.9684   24623759.7414
       215.000         155.000
 118204233.74848  92107182.72248  22493526.4314   22493530.1884   22493527.0304
       237.000         198.000
 130952617.62948 102040986.60448  24919463.4454   24919468.3584   24919463.2494
       209.000         151.000
 09  1  8  0 12  0.0000000  0 11G28G 9G27G 8G26G17G18G15G21G10G24
 116195722.43848  90542114.83448  22111315.9394   22111317.9004   22111316.3004
       242.000         207.000
 118655829.40548  92459082.07848  22579457.6644   22579460.2454   22579457.9454
       232.000         189.000
 123842130.53748  96500352.87748  23566379.6814   23566383.7034   23566380.5244
       225.000         185.000
 125573638.16948  97849567.16948  23895885.7404   23895889.2474   23895885.0594
       215.000         161.000
 105831937.00848  82466422.57448  20139163.7494   20139166.0884   20139163.6474
       253.000         229.000
 130523398.26848 101706531.77948  24837787.6814   24837788.0674   24837787.9184
       220.000         165.000
 137185560.35348  89105625.81648  24202611.5944   24202612.9184   24202613.2054
       219.000         166.000
 108584587.99648  84611361.34948  20662964.5684   20662965.9144   20662964.4224
       250.000         233.000
 129428955.06248 100853718.69848  24629522.8134   24629524.8214   24629524.9374
       211.000         157.000
 118302464.56048  92183726.20848  22512219.4584   22512222.7364   22512220.0104
       237.000         197.000
 131026999.48648 102098946.48248  24933617.7644   24933623.0574   24933618.5834
       210.000         149.000
 09  1  8  0 12 30.0000000  0 11G28G 9G27G 8G26G17G18G15G21G10G24
 116240228.51848  90576794.88948  22119785.4744   22119786.9414   22119786.1854
       242.000         207.000
 118567736.63448  92390438.38448  22562694.0494   22562696.8814   22562694.2754
       232.000         190.000
 123913641.45048  96556075.64148  23579988.5054   23579991.4844   23579987.7894
       232.000         188.000
 125663400.37948  97919511.70848  23912966.8604   23912970.8044   23912968.2884
       215.000         159.000
 105846959.39548  82478128.33248  20142022.3934   20142024.7964   20142022.3944
       253.000         229.000
 130449401.56648 101648872.04348  24823706.1424   24823707.2094   24823707.0274
       218.000         164.000
 137093167.94848  89033631.72248  24185029.6674   24185031.3534   24185029.7434
       213.000         161.000
 108549313.81948  84583874.97348  20656252.1774   20656253.6434   20656252.0054
       251.000         234.000
 129459651.11048 100877637.62948  24635363.7754   24635365.4844   24635362.0524
       215.000         156.000
 118400953.68548  92260470.96948  22530961.0194   22530964.5844   22530962.0084
       236.000         196.000
 131101459.55548 102156967.31748  24947787.1214   24947791.5974   24947787.9074
       209.000         142.000
 09  1  8  0 13  0.0000000  0 11G28G 9G27G 8G26G17G18G15G21G10G24
 116285197.75248  90611835.85548  22128342.7164   22128344.2884   22128342.8564
       242.000         207.000
 118479866.23448  92321967.96748  22545972.5104   22545975.5204   22545972.1854
       230.000         189.000
 123985178.28448  96611818.63848  23593602.0474   23593604.6674   23593602.5734
       231.000         187.000
 125753205.76148  97989489.91648  23930057.2394   23930059.8164   23930058.7754
       216.000         161.000
 105862368.97148  82490135.79148  20144954.8014   20144957.2174   20144954.7084
       253.000         229.000
 130375539.65148 101591317.32348  24809650.6964   24809651.8894   24809649.4864
       219.000         163.000
 137001043.12148  88961846.17648  24167498.0374   24167500.3754   24167498.7184
       215.000         161.000
 108514347.44448  84556628.44348  20649598.2384   20649599.7714   20649598.0364
       251.000         234.000
 129490758.14548 100901876.89148  24641282.7824   24641285.1004   24641284.1204
       209.000         150.000
 118499699.32848  92337415.62348  22549751.5364   22549755.2164   22549752.4934
       235.000         195.000
 131175995.55148 102215047.35048  24961970.9514   24961974.6584   24961971.2084
       203.000         134.000
 09  1  8  0 13 30.0000000  0 11G28G 9G27G 8G26G17G18G15G21G10G24
 116330628.63148  90647236.54248  22136987.8184   22136989.5404   22136988.2754
       242.000         207.000
 118392219.50748  92253671.85548  22529293.4674   22529297.1844   22529293.2254
       231.000         190.000
 124056740.73848  96667581.57048  23607219.1534   23607222.4294   23607219.4234
       231.000         187.000
 125843053.65048  98059501.23048  23947154.4834   23947157.2704   23947153.3014
       214.000         160.000
 105878166.60648  82502445.63748  20147961.0284   20147963.3794   20147960.9194
       253.000         229.000
 130301815.79948 101533870.17048  24795622.2884   24795623.0214   24795621.8764
       222.000         167.000
 136909188.94148  88890271.46748  24150019.2284   24150020.8124   24150019.1674
       217.000         161.000
 108479690.70348  84529623.19148  20643003.1754   20643004.8224   20643002.8434
       250.000         234.000
 129522274.55348 100926435.11648  24647280.1554   24647282.3314   24647280.5064
       214.000         154.000
 118598698.69248  92414557.96848  22568590.4084   22568594.2944   22568591.4554
       235.000         194.000
 131250604.93148 102273184.50348  24976169.4404   24976172.7134   24976168.5084
       204.000         134.000
 09  1  8  0 14  0.0000000  0 11G28G 9G27G 8G26G17G18G15G21G10G24
 116376519.37148  90682995.56748  22145720.5024   22145722.5884   22145720.7524
       242.000         207.000
 118304796.78648  92185550.28148  22512657.6874   22512660.8884   22512658.2764
       231.000         189.000
 124128327.56548  96723363.49248  23620842.6154   23620845.1704   23620842.7874
       231.000         187.000
 125932942.25548  98129544.33248  23964258.9374   23964262.3884   23964260.4654
       210.000         160.000
 105894351.86348  82515057.52848  20151040.9494   20151043.3184   20151040.9514
       253.000         229.000
 130228232.64648 101476532.65548  24781619.0244   24781621.3454   24781618.5224
       215.000         163.000
 136817607.22948  88818909.09248  24132592.1004   24132593.1784   24132593.4434
       215.000         161.000
 108445344.28348  84502859.74148  20636467.3244   20636468.9814   20636466.9674
       251.000         234.000
 129554197.57348 100951310.21248  24653355.0414   24653357.1604   24653355.8834
       211.000         147.000
 118697948.62448  92491895.57148  22587477.3114   22587480.6754   22587478.1814
       235.000         195.000
 131325284.03848 102331376.02848  24990378.3564   24990382.3764   24990381.6784
       210.000         141.000
 09  1  8  0 14 30.0000000  0 11G28G 9G27G 8G26G17G18G15G21G10G24
 116422868.05748  90719111.42048  22154540.4434   22154542.4654   22154540.7454
       242.000         208.000
 118217598.38848  92117603.50448  22496064.3844   22496067.1804   22496064.5634
       232.000         188.000
 124199937.97648  96779163.80148  23634469.5544   23634472.2524   23634470.3074
       230.000         187.000
 126022870.15348  98199617.98348  23981372.2434   23981375.0574   23981371.3654
       216.000         161.000
 105910925.09548  82527971.73348  20154194.6854   20154197.0754   20154194.5204
       252.000         228.000
 130154792.55748 101419306.64248  24767643.1564   24767646.2614   24767642.3264
       215.000         165.000
 136726300.75148  88747761.19948  24115217.4054   24115218.1924   24115217.9514
       219.000         163.000
 108411309.51448  84476339.13548  20629990.8614   20629992.3784   20629990.4924
       251.000         234.000
 129586525.05648 100976500.44048  24659506.9894   24659508.9984   24659507.5034
       208.000         144.000
 118797446.94548  92569426.72348  22606411.2714   22606414.6024   22606411.8544
       236.000         195.000
 131400029.81648 102389619.50148  25004604.3744   25004607.6944   25004604.9994
       213.000         148.000
 09  1  8  0 15  0.0000000  0 11G28G 9G27G 8G26G17G18G15G21G10G24
 116469673.01848  90755582.82048  22163447.1694   22163448.9314   22163447.5934
       241.000         207.000
 118130625.14548  92049832.16548  22479514.1514   22479516.9434   22479514.5134
       232.000         189.000
 124271571.38348  96834982.03348  23648100.4544   23648103.5464   23648100.4294
       230.000         186.000
 126112836.44948  98269721.59048  23998491.5364   23998495.0354   23998493.7304
       211.000         158.000
 105927886.40748  82541188.33948  20157422.2634   20157424.6734   20157422.2064
       252.000         228.000
 130081498.82248 101362194.56748  24753696.6044   24753697.3984   24753696.2744
       217.000         164.000
 136635272.12948  88676829.81448  24097894.6814   24097895.7764   24097895.5804
       212.000         159.000
 108377587.44648  84450062.19848  20623573.7034   20623575.1764   20623573.5314
       251.000         234.000
 129619254.95248 101002004.18548  24665735.2364   24665737.4354   24665735.0954
       207.000         145.000
 118897191.20848  92647149.51948  22625391.9084   22625395.3134   22625393.1984
       236.000         195.000
 131474839.54648 102447912.76648  25018840.3684   25018843.3114   25018840.5164
       211.000         149.000
 09  1  8  0 15 30.0000000  0 11G28G 9G27G 8G26G17G18G15G21G10G24
 116516933.00148  90792408.77948  22172440.3974   22172442.1334   22172440.3934
       242.000         206.000
 118043878.60848  91982237.47148  22463006.9804   22463009.1974   22463006.9504
       234.000         189.000
 124343228.22048  96890818.50548  23661736.5704   23661739.5504   23661736.9164
       230.000         186.000
 126202841.31148  98339855.18948  24015619.3244   24015622.4584   24015618.3434
       211.000         159.000
 105945237.06548  82554708.32848  20160723.9874   20160726.4294   20160723.8594
       252.000         228.000
 130008354.94648 101305199.36248  24739777.9354   24739779.4534   24739777.8444
       215.000         164.000
 136544524.37448  88606117.27448  24080625.6524   24080627.1434   24080626.1734
       216.000         162.000
 108344180.49748  84424030.80848  20617216.5874   20617218.0704   20617216.3194
       250.000         234.000
 129652385.89148 101027820.47548  24672040.3014   24672041.4274   24672041.6534
       211.000         149.000
 118997178.51948  92725061.70148  22644418.7404   22644422.3744   22644419.5604
       235.000         194.000
 131549711.07348 102506254.21748  25033087.5694   25033090.6274   25033088.3594
       211.000         152.000
 09  1  8  0 16  0.0000000  0 11G28G 9G27G 8G26G17G18G15G21G10G24
 116564645.82948  90829587.60248  22181520.0394   22181521.4994   22181520.8474
       242.000         206.000
 117957358.55448  91914819.27048  22446542.4304   22446545.1264   22446543.1604
       233.000         190.000
 124414906.96348  96946672.07048  23675376.8354   23675379.5514   23675376.9914
       230.000         186.000
 126292882.54448  98410017.13948  24032753.0184   24032757.0714   24032754.4474
       210.000         161.000
 105962976.31948  82568531.12148  20164099.6234   20164102.1404   20164099.5814
       253.000         228.000
 129935363.21748 101248322.70048  24725888.5254   24725890.1354   24725888.2554
       218.000         166.000
 136454059.13248  88535624.89348  24063410.4684   24063412.3664   24063410.8994
       215.000         163.000
 108311089.28548  84398245.44448  20610919.5604   20610920.9584   20610919.2764
       251.000         234.000
 129685914.87548 101053946.92548  24678420.8454   24678422.2744   24678422.3424
       209.000         147.000
 119097406.51148  92803161.42648  22663491.2374   22663494.9234   22663491.6784
       233.000         192.000
 131624640.81648 102564641.00148  25047346.2254   25047349.7674   25047345.8514
       211.000         154.000
 09  1  8  0 16 30.0000000  0 11G28G 9G27G 8G26G17G18G15G21G10G24
 116612810.34248  90867118.38948  22190685.4754   22190686.9294   22190686.0254
       241.000         205.000
 117871066.67648  91847578.88448  22430121.7784   22430124.6784   22430122.0714
       233.000         193.000
 124486607.57848  97002542.66748  23689020.4364   23689023.7804   23689021.1174
       228.000         184.000
 126382959.73648  98480207.16148  24049893.9354   24049898.3094   24049893.0214
       210.000         160.000
 105981105.47448  82582657.73448  20167549.5764   20167551.9964   20167549.5664
       253.000         228.000
 129862527.47548 101191567.55548  24712027.3304   24712028.8994   24712027.0814
       211.000         163.000
 136363879.92748  88465355.38348  24046250.1764   24046252.3284   24046249.9304
       217.000         163.000
 108278315.57248  84372707.48948  20604683.0614   20604684.3914   20604682.8564
       251.000         235.000
 129719840.66348 101080382.58548  24684875.5514   24684877.8454   24684875.8504
       206.000         145.000
 119197873.07448  92881447.05748  22682609.5824   22682612.9854   22682610.1584
       235.000         192.000
 131699626.52448 102623071.38948  25061615.2944   25061619.2244   25061615.6834
       207.000         149.000
 09  1  8  0 17  0.0000000  0 11G28G 9G27G 8G26G17G18G15G21G10G24
 116661424.58648  90904999.61848  22199936.0914   22199937.6694   22199936.4424
       240.000         204.000
 117785003.39648  91780516.62048  22413744.2404   22413747.3614   22413743.9554
       233.000         193.000
 124558329.28048  97058429.68248  23702668.7884   23702671.6984   23702669.2564
       228.000         183.000
 126473071.82048  98550424.34848  24067042.3854   24067045.1474   24067041.9934
       212.000         158.000
 105999624.33648  82597088.01248  20171073.6374   20171075.9534   20171073.5614
       253.000         228.000
 129789850.32548 101134936.02248  24698197.3894   24698199.5554   24698197.0154
       219.000         170.000
 136273989.04748  88395310.56348  24029144.3004   24029146.3184   24029147.3914
       218.000         161.000
 108245860.77048  84347418.02448  20598507.1154   20598508.5524   20598506.8604
       251.000         235.000
 129754160.81448 101107125.52348  24691407.3764   24691408.1364   24691407.0224
       209.000         141.000
 119298575.25248  92959916.28348  22701772.9984   22701775.9014   22701774.1504
       236.000         193.000
 131774665.29248 102681543.14748  25075894.5814   25075898.7644   25075894.2954
       203.000         145.000
 09  1  8  0 17 30.0000000  0 11G28G 9G27G 8G26G17G18G15G21G10G24
 116710485.59848  90943228.97948  22209272.2614   22209273.9784   22209273.0734
       241.000         204.000
 117699168.26348  91713632.13648  22397410.5334   22397413.4404   22397410.5314
       234.000         194.000
 124630070.40048  97114331.84448  23716320.6764   23716323.6424   23716320.6024
       229.000         183.000
 126563216.27348  98620666.78148  24084196.6184   24084199.3424   24084197.8454
       212.000         157.000
 106018532.32748  82611821.50248  20174671.7384   20174674.0254   20174671.6974
       252.000         228.000
 129717333.45648 101078429.34848  24684398.1624   24684399.9574   24684398.6104
       216.000         163.000
 136184388.12248  88325491.68348  24012094.0964   24012095.7824   24012095.8774
       220.000         160.000
 108213725.10948  84322377.25048  20592391.8124   20592393.2544   20592391.6364
       251.000         235.000
 129788872.12648 101134173.33148  24698012.8454   24698013.4004   24698013.5864
       208.000         138.000
 119399509.44448  93038566.30248  22720979.9904   22720983.1064   22720981.1684
       234.000         192.000
 131849753.27148 102740053.18048  25090182.1964   25090187.0224   25090183.1334
       200.000         138.000
 09  1  8  0 18  0.0000000  0 11G28G 9G27G 8G26G17G18G15G21G10G24
 116759992.27348  90981805.60148  22218692.8814   22218694.7524   22218693.4954
       239.000         203.000
 117613562.33048  91646926.23148  22381120.5744   22381122.9954   22381121.0434
       234.000         192.000
 124701831.00148  97170249.17148  23729976.1394   23729979.5264   23729976.7414
       228.000         182.000
 126653392.79448  98690934.18448  24101356.2154   24101359.7784   24101357.1614
       215.000         158.000
 106037830.07348  82626858.70348  20178344.0144   20178346.2854   20178343.9744
       253.000         228.000
 129644980.42848 101022050.36748  24670628.9004   24670632.0334   24670628.7104
       219.000         167.000
 136095080.02248  88255900.89948  23995099.6724   23995100.7094   23995101.6744
       218.000         162.000
 108181910.52848  84297586.66448  20586337.6724   20586339.2014   20586337.4964
       251.000         235.000
 129823972.99748 101161524.67548  24704691.9004   24704692.8064   24704691.8874
       217.000         149.000
 119500673.68248  93117395.57248  22740230.7564   22740234.1984   22740231.4704
       233.000         191.000
 131924887.68948 102798599.48748  25104480.7294   25104484.0254   25104480.9364
       201.000         137.000
 09  1  8  0 18 30.0000000  0 11G28G 9G27G 8G26G17G18G15G21G10G24
 116809943.71748  91020728.80448  22228198.4784   22228200.1974   22228198.7104
       240.000         203.000
 117528187.36648  91580400.31648  22364873.7134   22364876.5204   22364874.3934
       234.000         192.000
 124773611.40048  97226181.92548  23743635.6734   23743638.6384   23743636.1534
       225.000         182.000
 126743601.36848  98761226.54348  24118522.0814   24118525.7854   24118524.4254
       213.000         160.000
 106057518.70948  82642200.48948  20182090.5854   20182092.8754   20182090.6894
       253.000         228.000
 129572794.90448 100965801.85848  24656893.9754   24656895.4514   24656894.3504
       220.000         172.000
 136006067.73248  88186540.68248  23978160.7604   23978162.3754   23978161.8374
       218.000         162.000
 108150419.12548  84273047.90948  20580344.9574   20580346.5604   20580344.6464
       251.000         235.000
 129859462.30448 101189178.64048  24711446.0074   24711447.9124   24711446.5404
       210.000         155.000
 119602066.03648  93196402.58748  22759524.9564   22759528.6274   22759526.1264
       233.000         191.000
 132000066.74848 102857180.63048  25118785.7774   25118790.0684   25118784.9064
       211.000         135.000
 09  1  8  0 19  0.0000000  0 11G28G 9G27G 8G26G17G18G15G21G10G24
 116860337.78748  91059996.91148  22237788.0404   22237789.4514   22237788.5354
       240.000         202.000
 117443044.07548  91514054.90548  22348671.9304   22348674.3354   22348672.2384
       236.000         194.000
 124845410.40748  97282129.20848  23757298.1914   23757301.4714   23757298.4934
       224.000         180.000
 126833840.24148  98831542.52148  24135694.5564   24135697.7994   24135695.9694
       214.000         159.000
 106077598.07948  82657846.75448  20185911.4144   20185913.8684   20185911.3054
       253.000         228.000
 129500779.75548 100909686.17948  24643189.3284   24643191.9024   24643190.5384
       216.000         166.000
 135917353.79748  88117412.96548  23961279.0164   23961281.4554   23961278.7794
       216.000         164.000
 108119251.88448  84248761.74448  20574414.0894   20574415.6104   20574413.9424
       250.000         235.000
 129895337.35948 101217133.16348  24718273.0614   24718274.5464   24718272.5374
       220.000         161.000
 119703683.62848  93275585.11748  22778862.1944   22778865.8334   22778862.5174
       232.000         190.000
 132075287.10048 102915793.90848  25133100.7144   25133104.9054   25133101.6214
       211.000         141.000
 09  1  8  0 19 30.0000000  0 11G28G 9G27G 8G26G17G18G15G21G10G24
 116911173.08648  91099608.83548  22247461.9194   22247463.2274   22247462.7704
       240.000         203.000
 117358133.20048  91447890.60148  22332513.8634   22332516.6194   22332514.4104
       233.000         194.000
 124917228.23148  97338091.13548  23770964.6674   23770968.0034   23770964.7284
       226.000         178.000
 126924109.19348  98901881.97148  24152871.5984   24152875.4544   24152872.3874
       210.000         159.000
 106098069.04448  82673798.15048  20189806.8754   20189809.3904   20189806.7774
       253.000         228.000
 129428938.31148 100853705.79548  24629517.9304   24629519.9064   24629518.6754
       219.000         165.000
 135828941.09548  88048519.97048  23944455.0004   23944457.1304   23944454.5034
       218.000         166.000
 108088411.01348  84224729.89748  20568545.1964   20568546.6864   20568544.8554
       252.000         236.000
 129931596.32248 101245386.90548  24725172.1064   24725174.0404   24725173.7094
       217.000         160.000
 119805524.14248  93354941.36148  22798241.9364   22798245.4844   22798242.3564
       233.000         192.000
 132150546.40248 102974437.54248  25147422.1334   25147426.7834   25147423.0344
       208.000         143.000
 09  1  8  0 20  0.0000000  0 11G28G 9G27G 8G26G17G18G15G21G10G24
 116962447.63348  91139563.02548  22257218.8094   22257220.9024   22257218.8484
       241.000         203.000
 117273455.14048  91381907.72448  22316399.8934   22316403.0504   22316399.6624
       234.000         194.000
 124989063.83448  97394066.91948  23784634.3054   23784637.8914   23784634.5154
       227.000         178.000
 127014406.83748  98972243.76748  24170055.5804   24170058.0084   24170056.2134
       216.000         158.000
 106118931.48948  82690054.59148  20193777.0194   20193779.4504   20193776.9764
       251.000         228.000
 129357273.30648 100797862.95848  24615881.1614   24615882.7114   24615882.1694
       218.000         169.000
 135740832.14348  87979863.64848  23927688.2914   23927689.9304   23927688.9974
       221.000         166.000
 108057896.98048  84200952.72848  20562738.7854   20562740.0434   20562738.6014
       251.000         235.000
 129968236.95848 101273938.02848  24732144.1434   24732146.7764   24732144.4054
       216.000         156.000
 119907584.47448  93434468.88348  22817663.4164   22817667.1074   22817664.4684
       234.000         190.000
 132225841.81548 103033109.32648  25161750.6754   25161755.7114   25161750.8024
       206.000         147.000
 09  1  8  0 20 30.0000000  0  9G28G 9G27G 8G18G15G21G10G24
 117014159.28848  91179857.82648  22267059.5944   22267061.3004   22267060.3034
       240.000         203.000
 117189010.60248  91316106.81048  22300330.7784   22300333.7404   22300330.7034
       233.000         194.000
 125060916.48948  97450055.98848  23798307.9464   23798311.2334   23798308.5274
       227.000         181.000
 127104732.00248  99042626.98248  24187243.5154   24187246.6594   24187244.5154
       212.000         158.000
 135653029.05748  87911445.67548  23910980.2734   23910980.8214   23910979.8424
       219.000         163.000
 108027711.17848  84177431.32348  20556994.5054   20556995.8994   20556994.3304
       252.000         236.000
 130005256.42248 101302784.34248  24739189.0834   24739190.9754   24739188.3134
       212.000         152.000
 120009862.36748  93514165.93548  22837126.2624   22837129.6784   22837126.8994
       231.000         188.000
 132301170.01648 103091806.60248  25176085.2034   25176090.5204   25176086.3154
       205.000         148.000
 09  1  8  0 21  0.0000000  0 11G28G 9G27G 8G26G17G18G15G21G10G24
 117066306.54648  91220492.04548  22276982.5824   22276984.2364   22276982.9264
       240.000         202.000
 117104800.78048  91250488.80248  22284306.0104   22284308.8854   22284306.1194
       233.000         192.000
 125132786.22248  97506058.37348  23811984.4814   23811987.4124   23811984.8004
       226.000         181.000
 127195084.41248  99113031.45148  24204436.9554   24204440.1294   24204437.6654
       211.000         156.000
 106161830.90748  82723482.69548  20201940.5054   20201942.8494   20201940.4824
       251.000         228.000
 129214483.13448 100686597.84148  24588709.4574   24588710.5644   24588709.6524
       212.000         167.000
 135565534.75948  87843268.27448  23894330.4634   23894331.3074   23894329.6734
       221.000         165.000
 107997855.42348  84154167.09848  20551313.2044   20551314.5964   20551313.0884
       252.000         236.000
 130042653.01248 101331924.53048  24746305.3644   24746307.8164   24746306.3644
       209.000         149.000
 120112355.18948  93594030.48148  22856629.9944   22856633.2114   22856630.7274
       232.000         188.000
 132376528.61348 103150527.52648  25190425.7354   25190430.6054   25190425.4294
       209.000         150.000
 09  1  8  0 21 30.0000000  0 11G28G 9G27G 8G26G17G18G15G21G10G24
 117118887.29348  91261464.06848  22286988.5194   22286989.5504   22286989.0154
       241.000         202.000
 117020825.79748  91185053.76948  22268325.8664   22268328.5504   22268326.6264
       233.000         192.000
 125204672.31848  97562073.49548  23825663.9884   23825666.8014   23825664.0924
       226.000         181.000
 127285462.23648  99183455.71848  24221635.0104   24221638.3574   24221634.8594
       213.000         159.000
 106183868.89848  82740655.15648  20206134.1424   20206136.5684   20206134.0324
       252.000         228.000
 129143364.41148 100631180.66148  24575176.0754   24575177.3904   24575175.3904
       219.000         170.000
 135478351.54948  87775333.33548  23877739.3904   23877741.5184   23877741.0274
       220.000         166.000
 107968330.92648  84131160.99248  20545694.8524   20545696.2514   20545694.7664
       252.000         236.000
 130080424.56148 101361356.84948  24753493.5164   24753495.0054   24753494.8384
       208.000         147.000
 120215060.13348  93674060.30148  22876173.8114   22876177.4964   22876174.6044
       231.000         188.000
 132451914.68948 103209269.89748  25204771.5304   25204775.6854   25204772.1394
       210.000         151.000
 09  1  8  0 22  0.0000000  0 11G28G 9G27G 8G26G17G18G15G21G10G24
 117171899.85448  91302772.54948  22297076.3984   22297077.9794   22297076.8684
       239.000         202.000
 116937086.62148  91119802.48048  22252390.9204   22252393.8324   22252391.0974
       234.000         194.000
 125276574.17048  97618100.88948  23839346.5344   23839349.8054   23839346.7634
       226.000         180.000
 127375865.07948  99253899.48348  24238837.9644   24238841.7484   24238837.8234
       213.000         161.000
 106206299.40748  82758133.46348  20210402.6184   20210404.9284   20210402.5274
       251.000         228.000
 129072433.49648 100575909.79748  24561676.8584   24561679.1614   24561677.2144
       213.000         165.000
 135391482.03348  87707642.75748  23861209.7554   23861210.9054   23861209.7484
       220.000         165.000
 107939138.99548  84108414.02848  20540139.7474   20540141.1474   20540139.5484
       252.000         236.000
 130118568.64848 101391079.46248  24760752.5754   24760753.5504   24760752.6824
       208.000         151.000
 120317975.03548  93754253.71548  22895757.8134   22895761.5284   22895758.6104
       231.000         187.000
 132527325.56348 103268031.61248  25219122.1864   25219125.2684   25219122.4054
       208.000         148.000
 09  1  8  0 22 30.0000000  0 11G28G 9G27G 8G26G17G18G15G21G10G24
 117225342.02248  91344415.79648  22307246.1474   22307248.2274   22307246.4284
       240.000         202.000
 116853583.65348  91054735.23748  22236501.0344   22236503.7074   22236500.8384
       235.000         195.000
 125348491.00148  97674139.95948  23853032.1054   23853034.9204   23853032.7174
       227.000         180.000
 127466291.07348  99324361.28448  24256045.9854   24256049.7594   24256047.7014
       215.000         163.000
 106229121.97948  82775917.28248  20214745.5364   20214748.0044   20214745.4484
       251.000         228.000
 129001693.53048 100520787.73848  24548216.1814   24548218.5894   24548215.2124
       216.000         168.000
