     2.11           OBSERVATION DATA    G (GPS)             RINEX VERSION / TYPE
teqc  2008Oct2      gpsops              20090122 00:05:46UTCPGM / RUN BY / DATE
    30.0000                                                 INTERVAL
     1     1                                                WAVELENGTH FACT L1/2
     7    L1    L2    P1    P2    C1    S1    S2            # / TYPES OF OBSERV
Linux 2.4.20-8|Pentium IV|gcc -static|Linux|486/DX+         COMMENT
     2.10           OBSERVATION DATA    GPS                 COMMENT
soc2rnx ver 1.20    gpsops              22-Jan-2009 00:05:42COMMENT
S1, if present, is the SNR for the C/A data stream on L1.   COMMENT
 SNR is mapped to RINEX snr flag value [1,4-9]              COMMENT
    SNR:   >316  >100  >31.6  >10  >3.2    >0 bad=0         COMMENT
L1 & L2:      9     8     7     6     5     4     1         COMMENT
                                                            COMMENT
This data is provided as a public service by NASA/JPL.      COMMENT
No warranty is expressed or implied regarding suitability   COMMENT
for use.  For further information, contact:                 COMMENT
Dave Stowers, NASA/JPL m/s 238-600                          COMMENT
4800 Oak Grove Drive, Pasadena CA 91109 USA                 COMMENT
                                                            COMMENT
Forced Modulo Decimation to 30 seconds                      COMMENT
  2009     1    21     0     0    0.0000000     GPS         TIME OF FIRST OBS
DSN                 JPL                                     OBSERVER / AGENCY
451-U               AOAD/M_T        NONE                    ANT # / TYPE
  4849202.3940  -360328.9929  4114913.1862                  APPROX POSITION XYZ
        0.0254        0.0000        0.0000                  ANTENNA: DELTA H/E/N
LP03574             ASHTECH Z-XII3      CC00                REC # / TYPE / VERS
MADR                                                        MARKER NAME
13407S012                                                   MARKER NUMBER
                                                            END OF HEADER
 09  1 21  0  0  0.0000000  0  9G 9G26G27G28G18G15G17G12G10
 112173939.59848  87408257.20748  21345993.9524   21345996.3054   21345993.9034
       243.000         208.000
 108412516.11848  84477276.74948  20630222.2894   20630224.4784   20630222.5154
       252.000         224.000
 125777688.58348  98008573.93348  23934708.6534   23934711.4124   23934708.4104
       226.000         173.000
 121339478.68048  94550238.24948  23090138.1604   23090139.4854   23090139.2824
       228.000         183.000
 120868699.50948  94183399.76348  23000551.0994   23000552.6164   23000550.8204
       232.000         184.000
 106827671.97048  83242334.07348  20328634.8094   20328635.9754   20328634.5394
       254.000         240.000
 125147384.30748  97517436.88248  23814758.6624   23814760.3054   23814758.7094
       219.000         171.000
 126921062.81148  98899510.29848  24152291.3604   24152293.3134   24152291.0344
       219.000         171.000
 126803529.29748  98807921.12348  24129926.7854   24129931.5304   24129928.1504
       217.000         162.000
 09  1 21  0  0 30.0000000  0  9G 9G26G27G28G18G15G17G12G10
 112106592.80748  87355779.20648  21333178.1714   21333180.5854   21333178.6394
       242.000         209.000
 108460253.11548  84514474.40448  20639306.2634   20639308.4914   20639306.2444
       251.000         224.000
 125846580.26048  98062255.73448  23947817.8094   23947820.4674   23947818.2604
       223.000         171.000
 121415934.50348  94609814.21948  23104687.1124   23104688.6194   23104687.9484
       227.000         183.000
 120806019.72248  94134558.36248  22988623.7744   22988624.9394   22988624.2054
       233.000         186.000
 106823329.08148  83238950.00748  20327808.3804   20327809.5894   20327808.0894
       254.000         241.000
 125094595.63548  97476302.86748  23804713.5114   23804715.5034   23804712.6734
       219.000         172.000
 126809240.92848  98812376.37448  24131012.7554   24131014.3864   24131012.9574
       220.000         171.000
 126914228.74548  98894180.39548  24150991.4924   24150996.9344   24150992.6664
       213.000         163.000
 09  1 21  0  1  0.0000000  0  9G 9G26G27G28G18G15G17G12G10
 112039522.48048  87303516.62648  21320414.8324   21320417.7874   21320414.8614
       242.000         209.000
 108508380.13848  84551975.97848  20648464.3564   20648466.6374   20648464.1304
       250.000         224.000
 125915493.87748  98115954.61848  23960931.1604   23960934.1304   23960931.2384
       225.000         172.000
 121492685.87848  94669620.47548  23119292.4404   23119293.6834   23119292.8744
       228.000         183.000
 120743801.86248  94086076.91948  22976784.0184   22976785.5984   22976785.3164
       233.000         185.000
 106819400.34248  83235888.64648  20327060.7004   20327061.9554   20327060.5064
       254.000         241.000
 125042177.62148  97435457.65848  23794738.9054   23794741.0474   23794738.8434
       220.000         174.000
 126697549.65748  98725344.25148  24109758.6794   24109760.3004   24109757.4264
       219.000         170.000
 127024974.75648  98980475.96848  24172066.8584   24172071.0814   24172066.6584
       220.000         165.000
 09  1 21  0  1 30.0000000  0  9G 9G26G27G28G18G15G17G12G10
 111972728.89448  87251469.67948  21307704.7564   21307707.3754   21307704.5404
       242.000         209.000
 108556896.93648  84589781.27448  20657696.7914   20657699.2114   20657696.6084
       251.000         224.000
 125984429.03448  98169670.28748  23974049.0374   23974051.8544   23974049.4424
       223.000         171.000
 121569730.58648  94729655.30648  23133953.6004   23133954.9184   23133954.6554
       230.000         184.000
 120682047.76448  94037956.85048  22965032.2824   22965034.4994   22965033.0374
       232.000         187.000
 106815886.38748  83233150.50048  20326391.9444   20326393.1934   20326391.6424
       254.000         241.000
 124990132.83848  97394903.28748  23784834.9534   23784837.2834   23784835.2274
       220.000         174.000
 126585991.42048  98638415.78148  24088529.1274   24088531.4114   24088527.9534
       217.000         171.000
 127135764.61448  99066805.71548  24193150.3594   24193154.0684   24193151.8834
       220.000         166.000
 09  1 21  0  2  0.0000000  0  9G 9G26G27G28G18G15G17G12G10
 111906212.70648  87199638.88248  21295046.9824   21295049.5104   21295046.6494
       242.000         209.000
 108605803.37648  84627890.18348  20667003.5984   20667005.8674   20667003.4614
       251.000         224.000
 126053385.53148  98223402.60948  23987171.2844   23987173.6084   23987171.7564
       221.000         168.000
 121647066.24148  94789916.85148  23148670.0574   23148671.5004   23148671.1474
       229.000         184.000
 120620759.87648  93990200.04448  22953369.6424   22953371.1214   22953371.1334
       231.000         183.000
 106812788.48448  83230736.54848  20325802.5484   20325803.6744   20325802.3524
       255.000         241.000
 124938463.75348  97354641.66648  23775002.3964   23775004.6274   23775002.6534
       219.000         176.000
 126474568.49848  98551592.75148  24067325.7694   24067328.9684   24067325.3474
       222.000         173.000
 127246595.80148  99153167.65048  24214240.3184   24214244.6534   24214241.2194
       222.000         165.000
 09  1 21  0  2 30.0000000  0  9G 9G26G27G28G18G15G17G12G10
 111839974.72648  87148024.88948  21282442.2154   21282445.0704   21282442.0184
       242.000         209.000
 108655099.29748  84666302.59148  20676384.0874   20676386.4974   20676384.0954
       250.000         224.000
 126122363.44648  98277151.58448  24000297.2374   24000299.6404   24000297.3464
       220.000         169.000
 121724690.83848  94850403.54648  23163441.5884   23163442.8594   23163441.8154
       230.000         183.000
 120559940.23748  93942808.12548  22941795.7184   22941797.6954   22941797.2424
       232.000         186.000
 106810107.76548  83228647.67448  20325292.4964   20325293.6114   20325292.4494
       254.000         241.000
 124887173.64048  97314675.35848  23765242.4324   23765244.6424   23765242.1234
       218.000         175.000
 126363283.21948  98464876.99348  24046149.2264   24046151.8464   24046148.9234
       222.000         172.000
 127357465.90648  99239559.95048  24235339.0984   24235341.7734   24235339.0764
       222.000         164.000
 09  1 21  0  3  0.0000000  0  9G 9G26G27G28G18G15G17G12G10
 111774015.68248  87096628.23048  21269890.8494   21269893.2724   21269891.6924
       242.000         209.000
 108704784.37148  84705018.23748  20685838.8044   20685841.2954   20685838.7284
       250.000         224.000
 126191362.83248  98330917.32248  24013426.9224   24013429.7624   24013426.7044
       221.000         169.000
 121802602.19248  94911113.69648  23178267.7484   23178268.9124   23178267.7854
       229.000         184.000
 120499590.92348  93895782.68148  22930311.6414   22930313.2064   22930312.4294
       231.000         185.000
 106807845.19548  83226884.63248  20324861.7124   20324863.1084   20324861.4684
       254.000         241.000
 124836264.68648  97275006.06548  23755554.8604   23755557.0034   23755554.2634
       221.000         176.000
 126252137.97248  98378270.28748  24024999.5884   24025001.5474   24024999.8194
       224.000         174.000
 127468372.29248  99325980.53648  24256442.9844   24256446.5404   24256444.3884
       218.000         160.000
 09  1 21  0  3 30.0000000  0  9G 9G26G27G28G18G15G17G12G10
 111708336.07248  87045449.33048  21257392.3214   21257394.7314   21257393.0594
       241.000         209.000
 108754858.31248  84744036.87748  20695367.6404   20695370.1064   20695367.4604
       250.000         223.000
 126260383.29748  98384699.47748  24026561.2774   24026564.0954   24026560.6314
       219.000         168.000
 121880798.02148  94972045.49448  23193147.6764   23193148.8394   23193148.1704
       229.000         182.000
 120439714.03248  93849125.37048  22918917.6274   22918919.2974   22918917.6334
       232.000         186.000
 106806001.64848  83225448.10648  20324510.8384   20324512.2694   20324510.5554
       255.000         241.000
 124785739.57548  97235635.84148  23745940.4114   23745942.0824   23745939.6724
       220.000         177.000
 126141134.97648  98291774.45048  24003876.4894   24003878.2614   24003876.6224
       222.000         173.000
 127579312.41648  99412427.34848  24277553.9894   24277558.1904   24277554.8564
       220.000         162.000
 09  1 21  0  4  0.0000000  0  9G 9G26G27G28G18G15G17G12G10
 111642935.68848  86994488.00648  21244946.9664   21244949.4834   21244947.5304
       243.000         210.000
 108805320.41848  84783358.00348  20704970.1394   20704972.6444   20704969.9454
       250.000         223.000
 126329424.32148  98438497.65148  24039699.2524   24039702.9814   24039699.3734
       221.000         168.000
 121959275.89748  95033197.09448  23208081.7774   23208082.7134   23208082.9274
       230.000         184.000
 120380311.25848  93802837.50948  22907613.8904   22907615.3034   22907614.2264
       233.000         185.000
 106804578.08148  83224338.83148  20324240.0864   20324241.3894   20324239.9884
       254.000         241.000
 124735600.20248  97196566.21548  23736398.8214   23736401.2144   23736398.6294
       220.000         177.000
 126030276.30448  98205391.06748  23982781.5534   23982782.1954   23982781.1514
       224.000         173.000
 127690283.72748  99498898.49148  24298671.6114   24298675.4284   24298672.8434
       219.000         162.000
 09  1 21  0  4 30.0000000  0  9G 9G26G27G28G18G15G17G12G10
 111577815.60048  86943745.08348  21232555.1224   21232557.5284   21232555.2514
       241.000         209.000
 108856170.51248  84822981.45448  20714646.7204   20714649.0474   20714646.6644
       251.000         223.000
 126398486.14548  98492312.05448  24052841.4834   24052844.7414   24052841.6524
       218.000         169.000
 122038033.83848  95094566.91148  23223068.8514   23223070.1854   23223069.4524
       229.000         182.000
 120321384.51748  93756920.54948  22896400.5294   22896401.7364   22896400.9574
       233.000         187.000
 106803575.89848  83223557.90948  20324049.3514   20324050.6594   20324049.0574
       254.000         241.000
 124685849.50648  97157799.45048  23726931.7414   23726933.8704   23726931.3614
       220.000         176.000
 125919564.33848  98119122.04548  23961712.9554   23961714.3274   23961713.9174
       224.000         174.000
 127801283.96648  99585392.18048  24319794.3454   24319798.5334   24319795.6134
       219.000         162.000
 09  1 21  0  5  0.0000000  0  9G 9G26G27G28G18G15G17G12G10
 111512976.12948  86893220.82348  21220216.4074   21220218.9504   21220216.4644
       242.000         209.000
 108907407.99248  84862906.75248  20724396.8754   20724399.2604   20724396.7874
       251.000         223.000
 126467568.28248  98546142.27948  24065987.0944   24065990.5824   24065987.1964
       217.000         166.000
 122117069.02248  95156152.75748  23238108.6814   23238110.1054   23238109.5434
       230.000         182.000
 120262935.82848  93711376.12748  22885278.0494   22885279.5854   22885278.8394
       232.000         187.000
 106802995.47248  83223105.62548  20323938.9014   20323940.1264   20323938.7224
       254.000         241.000
 124636489.73148  97119337.28148  23717539.1264   23717540.5144   23717538.7984
       221.000         176.000
 125809001.25848  98032969.00148  23940673.5074   23940674.6134   23940673.5754
       223.000         174.000
 127912310.11848  99671906.03148  24340921.5914   24340925.5674   24340921.7934
       217.000         163.000
 09  1 21  0  5 30.0000000  0  9G 9G26G27G28G18G15G17G12G10
 111448418.32748  86842916.04648  21207931.7234   21207934.0464   21207932.3294
       243.000         210.000
 108959033.25648  84903134.22948  20734220.9014   20734223.3544   20734220.8804
       250.000         224.000
 126536671.39848  98599988.81348  24079137.1594   24079140.8254   24079136.6774
       219.000         164.000
 122196380.07548  95217953.58348  23253200.9834   23253202.5374   23253202.0954
       229.000         184.000
 120204967.96948  93666206.36448  22874246.9134   22874248.3804   22874246.9424
       233.000         187.000
 106802838.48348  83222983.29248  20323909.0484   20323910.2244   20323908.7994
       254.000         241.000
 124587524.03148  97081182.22048  23708221.1724   23708223.0614   23708220.7914
       222.000         176.000
 125698590.06148  97946934.29248  23919662.6924   23919663.7074   23919661.6324
       222.000         172.000
 128023359.98448  99758438.39248  24362054.1154   24362057.9174   24362054.1614
       219.000         162.000
 09  1 21  0  6  0.0000000  0  9G 9G26G27G28G18G15G17G12G10
 111384142.35448  86792830.88248  21195700.3634   21195702.7764   21195700.6764
       243.000         210.000
 109011045.52348  84943663.26448  20744118.7544   20744120.8374   20744118.7404
       251.000         224.000
 126605794.82948  98653851.22348  24092291.0704   24092294.3424   24092291.0744
       217.000         164.000
 122275964.47348  95279967.39848  23268345.3044   23268347.4384   23268345.7134
       229.000         183.000
 120147482.25348  93621412.29548  22863307.9224   22863309.1014   22863308.3444
       233.000         185.000
 106803105.41948  83223191.29448  20323959.8794   20323961.1134   20323959.6264
       255.000         241.000
 124538954.07248  97043335.53748  23698978.7894   23698980.4594   23698978.2364
       222.000         177.000
 125588331.98148  97861018.91248  23898680.4374   23898682.3814   23898680.4384
       223.000         174.000
 128134431.02248  99844987.25348  24383189.6494   24383194.2544   24383190.9914
       217.000         156.000
 09  1 21  0  6 30.0000000  0  9G 9G26G27G28G18G15G17G12G10
 111320149.10948  86742966.01748  21183522.8614   21183525.2434   21183523.0244
       243.000         211.000
 109063444.57548  84984493.69448  20754089.8664   20754091.9584   20754089.8434
       251.000         224.000
 126674938.92448  98707729.72548  24105448.5174   24105452.5834   24105448.1754
       218.000         165.000
 122355820.43648  95342192.81248  23283541.4884   23283543.4104   23283542.6164
       229.000         183.000
 120090480.93048  93576995.67748  22852461.1334   22852462.2284   22852461.1384
       233.000         186.000
 106803797.78348  83223730.79748  20324091.5954   20324092.8984   20324091.3814
       255.000         241.000
 124490782.90448  97005799.54148  23689811.9364   23689813.4414   23689811.5564
       224.000         177.000
 125478230.19548  97775225.30648  23877729.2544   23877731.3734   23877728.0544
       221.000         176.000
 128245521.20948  99931551.06048  24404329.0224   24404334.5054   24404330.6954
       215.000         154.000
 09  1 21  0  7  0.0000000  0  9G 9G26G27G28G18G15G17G12G10
 111256438.21048  86693321.17748  21171398.8784   21171401.5374   21171399.2124
       243.000         210.000
 109116228.89548  85025624.32348  20764134.3654   20764136.7174   20764134.1714
       250.000         224.000
 126744102.46748  98761623.34848  24118610.0254   24118613.8594   24118610.0734
       220.000         164.000
 122435944.46348  95404627.11348  23298788.6384   23298790.4944   23298789.3304
       227.000         182.000
 120033964.92448  93532957.24148  22841705.7574   22841707.5614   22841706.8054
       231.000         185.000
 106804915.16148  83224601.47448  20324304.3714   20324305.5294   20324304.2474
       254.000         241.000
 124443011.77148  96968575.30948  23680721.7074   23680723.5444   23680722.1804
       223.000         179.000
 125368285.67448  97689554.26548  23856808.0054   23856810.2184   23856807.9514
       225.000         176.000
 128356626.37248 100018126.44348  24425471.8084   24425476.2274   24425473.2944
       218.000         159.000
 09  1 21  0  7 30.0000000  0  9G 9G26G27G28G18G15G17G12G10
 111193010.99948  86643897.37948  21159329.1184   21159331.5604   21159329.1654
       244.000         211.000
 109169398.75548  85067055.38048  20774252.0634   20774254.7724   20774251.9114
       250.000         223.000
 126813285.70348  98815532.33148  24131775.8604   24131778.9964   24131775.9414
       222.000         164.000
 122516334.78148  95467268.91248  23314086.6684   23314087.9904   23314086.5264
       227.000         182.000
 119977936.67848  93489298.86448  22831044.1894   22831045.9674   22831044.7964
       229.000         185.000
 106806459.31348  83225804.70348  20324598.1184   20324599.4014   20324597.8654
       254.000         241.000
 124395643.69148  96931665.12048  23671707.5844   23671709.4114   23671707.3494
       223.000         177.000
 125258501.23848  97604007.95848  23835916.6604   23835918.7884   23835917.8924
       223.000         176.000
 128467744.80348 100104712.23548  24446618.3294   24446621.7884   24446619.3274
       220.000         163.000
 09  1 21  0  8  0.0000000  0  9G 9G26G27G28G18G15G17G12G10
 111129867.31148  86594694.50748  21147313.6544   21147315.8294   21147313.3914
       244.000         211.000
 109222953.34448  85108786.22348  20784443.3064   20784445.6584   20784443.2504
       251.000         223.000
 126882488.08248  98869456.23848  24144944.6604   24144947.5604   24144945.0004
       221.000         164.000
 122596988.80848  95530116.20148  23329434.6954   23329435.7264   23329434.3824
       227.000         181.000
 119922397.84848  93446021.86448  22820475.2534   22820476.7614   22820475.8644
       229.000         184.000
 106808430.61148  83227340.77148  20324973.1294   20324974.5174   20324972.8284
       254.000         241.000
 124348680.64948  96895070.55648  23662770.9224   23662771.9744   23662771.0374
       225.000         176.000
 125148878.71848  97518587.80248  23815055.7714   23815057.8714   23815055.6184
       223.000         174.000
 128578873.77448 100191306.22648  24467764.9014   24467769.8244   24467765.9584
       215.000         160.000
 09  1 21  0  8 30.0000000  0  9G 9G26G27G28G18G15G17G12G10
 111067008.37948  86545713.54348  21135351.8384   21135354.1244   21135352.2914
       244.000         212.000
 109276893.27848  85150817.34448  20794707.7054   20794709.9654   20794707.5414
       251.000         223.000
 126951710.60448  98923395.85948  24158117.1944   24158120.2754   24158117.7804
       221.000         162.000
 122677905.56748  95593168.21848  23344832.5334   23344833.6394   23344832.9404
       226.000         180.000
 119867350.95148  93403128.16148  22810000.3954   22810002.1964   22810000.5644
       228.000         185.000
 106810830.91048  83229211.13248  20325429.9704   20325431.3124   20325429.7664
       254.000         241.000
 124302126.24348  96858794.41548  23653911.4324   23653913.3914   23653911.6634
       222.000         176.000
 125039421.25148  97433296.27248  23794226.6794   23794228.2424   23794226.2194
       224.000         177.000
 128690011.98648 100277907.38748  24488912.6024   24488918.7464   24488912.7434
       212.000         154.000
 09  1 21  0  9  0.0000000  0  9G 9G26G27G28G18G15G17G12G10
 111004434.33648  86496954.54148  21123444.3744   21123446.6174   21123444.8524
       243.000         212.000
 109331217.52448  85193147.92448  20805045.1974   20805047.6794   20805044.9894
       250.000         223.000
 127020952.53848  98977350.60648  24171293.6574   24171296.0674   24171294.4504
       219.000         162.000
 122759081.92148  95656422.50248  23360279.6734   23360281.0824   23360280.3314
       227.000         180.000
 119812797.82348  93360619.23948  22799619.0324   22799621.0884   22799619.6084
       231.000         186.000
 106813660.49548  83231416.00048  20325968.4964   20325969.7194   20325968.3454
       254.000         241.000
 124255982.12448  96822837.96948  23645130.7604   23645132.8154   23645130.2524
       223.000         178.000
 124930130.74548  97348134.83648  23773429.5444   23773431.0054   23773429.8774
       223.000         177.000
 128801155.82948 100364512.95648  24510063.0974   24510067.4854   24510063.8764
       215.000         154.000
 09  1 21  0  9 30.0000000  0  9G 9G26G27G28G18G15G17G12G10
 110942145.51448  86448417.81748  21111590.7324   21111593.7384   21111590.5174
       243.000         212.000
 109385925.25648  85235777.32048  20815455.7824   20815458.0764   20815455.6884
       249.000         223.000
 127090213.53448  99031320.16048  24184473.7434   24184476.4084   24184474.3064
       220.000         161.000
 122840515.47948  95719877.22648  23375775.9014   23375777.2194   23375776.0824
       228.000         181.000
 119758739.53048  93318495.88948  22789332.5014   22789333.8714   22789332.2724
       233.000         188.000
 106816920.05548  83233955.91448  20326588.7384   20326589.9654   20326588.5724
       254.000         241.000
 124210250.21948  96787202.70448  23636428.6454   23636429.9664   23636428.5804
       223.000         178.000
 124821009.05648  97263104.95048  23752664.2654   23752665.9814   23752664.2604
       222.000         177.000
 128912302.89248 100451121.06248  24531214.5274   24531217.5614   24531215.2124
       218.000         157.000
 09  1 21  0 10  0.0000000  0 10G 9G 5G26G27G28G18G15G17G12G10
 110880143.07348  86400104.22848  21099792.3124   21099794.7254   21099791.8874
       243.000         212.000
 141199294.58958  92233204.36558  24966404.8605   24966407.8055   24966405.6215
       216.000         157.000
 109441016.44048  85278705.50548  20825939.3704   20825941.6394   20825939.2774
       250.000         223.000
 127159493.88448  99085304.84848  24197656.8034   24197660.2264   24197657.1464
       214.000         161.000
 122922204.38648  95783530.90348  23391320.8244   23391322.2284   23391320.1684
       225.000         179.000
 119705178.36548  93276759.93048  22779140.2954   22779141.8314   22779141.3154
       233.000         188.000
 106820610.74648  83236831.77248  20327291.0204   20327292.2904   20327290.7124
       254.000         241.000
 124164933.15048  96751890.70748  23627804.7314   23627806.9144   23627804.2024
       224.000         180.000
 124712058.91648  97178208.77148  23731931.5514   23731934.0634   23731931.2814
       223.000         179.000
 129023450.72048 100537729.73448  24552365.3744   24552368.9444   24552366.9854
       216.000         154.000
 09  1 21  0 10 30.0000000  0 10G 9G 5G26G27G28G18G15G17G12G10
 110818426.79948  86352013.64148  21088048.0874   21088050.7484   21088048.1804
       244.000         213.000
 141083921.86348  92143303.57148  24944449.3704   24944452.6924   24944450.2544
       214.000         157.000
 109496490.27548  85321931.86348  20836495.6694   20836498.0004   20836495.5214
       251.000         222.000
 127228793.43648  99139304.46348  24210844.4044   24210848.0634   24210844.7184
       214.000         161.000
 123004146.31048  95847381.74648  23406913.5184   23406915.0524   23406913.5594
       226.000         178.000
 119652116.13848  93235412.72648  22769042.9914   22769044.1364   22769043.4324
       233.000         188.000
 106824733.50248  83240044.30548  20328075.6084   20328076.8454   20328075.3474
       254.000         240.000
 124120033.56048  96716904.03148  23619260.6174   23619262.5204   23619260.8274
       224.000         178.000
 124603282.25848  97093447.75248  23711232.7074   23711234.3064   23711231.9674
       226.000         180.000
 129134597.01348 100624337.24248  24573515.6824   24573519.3814   24573516.6334
       215.000         154.000
 09  1 21  0 11  0.0000000  0 10G 9G 5G26G27G28G18G15G17G12G10
 110756997.46148  86304146.63248  21076358.6634   21076361.0854   21076359.1204
       244.000         213.000
 140968620.39948  92053458.30548  24922509.3254   24922512.1814   24922510.7284
       212.000         158.000
 109552346.22148  85365455.97648  20847124.7314   20847127.0844   20847124.7174
       250.000         222.000
 127298111.73948  99193318.71248  24224034.8864   24224037.9354   24224034.4964
       214.000         159.000
 123086338.51548  95911427.61948  23422554.3184   23422555.8384   23422554.9094
       227.000         180.000
 119599553.87748  93194455.12648  22759040.7484   22759042.3424   22759041.4874
       233.000         189.000
 106829288.73648  83243593.83348  20328942.3394   20328943.6764   20328942.0544
       254.000         240.000
 124075553.01448  96682243.87648  23610795.8984   23610797.5734   23610795.8644
       224.000         177.000
 124494680.53548  97008823.03648  23690567.0654   23690568.1394   23690567.0014
       228.000         181.000
 129245738.94648 100710941.36448  24594665.4144   24594668.7334   24594666.3324
       217.000         157.000
 09  1 21  0 11 30.0000000  0 10G 9G 5G26G27G28G18G15G17G12G10
 110695855.43948  86256503.51048  21064723.4434   21064726.0674   21064723.9474
       246.000         214.000
 140853392.33548  91963670.25648  24900581.1344   24900584.5924   24900582.6604
       212.000         158.000
 109608583.72948  85409277.40948  20857826.1404   20857828.6344   20857825.9524
       250.000         222.000
 127367448.73748  99247347.50748  24237229.6474   24237232.0734   24237230.0734
       212.000         158.000
 123168778.75848  95975666.75748  23438242.3094   23438244.1064   23438242.7204
       227.000         180.000
 119547494.01348  93153888.99648  22749134.1684   22749135.6524   22749134.6124
       231.000         188.000
 106834277.14148  83247480.90248  20329891.7344   20329892.9504   20329891.5954
       254.000         240.000
 124031494.07748  96647912.23848  23602412.2624   23602414.3064   23602412.2894
       224.000         180.000
 124386257.08348  96924337.22948  23669934.6724   23669936.3384   23669934.7654
       231.000         181.000
 129356873.94848 100797540.03548  24615812.9024   24615817.1944   24615814.0884
       210.000         156.000
 09  1 21  0 12  0.0000000  0 10G 9G 5G26G27G28G18G15G17G12G10
 110634999.90748  86209083.62948  21053143.3524   21053145.8294   21053143.6334
       245.000         214.000
 140738238.12848  91873939.73448  24878667.6964   24878671.1504   24878668.0644
       210.000         155.000
 109665200.91048  85453394.67948  20868600.0894   20868602.6014   20868600.0254
       248.000         222.000
 127436802.93748  99301389.70248  24250427.1734   24250429.5634   24250427.6474
       213.000         158.000
 123251463.73348  96040096.61648  23453976.6204   23453978.7624   23453977.2524
       227.000         180.000
 119495936.62148  93113714.42148  22739322.7164   22739324.0894   22739323.1354
       233.000         187.000
 106839698.33748  83251705.20948  20330923.3184   20330924.5104   20330923.1474
       254.000         240.000
 123987857.64548  96613909.83048  23594108.1244   23594110.2934   23594108.6884
       223.000         179.000
 124278011.73648  96839990.19848  23649336.0264   23649338.0574   23649336.7614
       225.000         181.000
 129467998.43348 100884130.47148  24636959.6544   24636963.8564   24636958.8664
       213.000         154.000
 09  1 21  0 12 30.0000000  0 10G 9G 5G26G27G28G18G15G17G12G10
 110574434.17448  86161889.55548  21041617.8944   21041620.5804   21041618.0374
       245.000         214.000
 140623162.67548  91784270.57848  24856768.8094   24856772.4394   24856768.2094
       210.000         153.000
 109722200.08548  85497809.60748  20879446.7304   20879449.2564   20879446.4144
       248.000         222.000
 127506176.99748  99355447.37048  24263628.6174   24263631.8254   24263629.4674
       213.000         157.000
 123334393.79148  96104717.43148  23469757.6944   23469759.6984   23469758.1094
       229.000         180.000
 119444886.42748  93073935.03248  22729607.9954   22729609.5304   22729608.5454
       231.000         186.000
 106845555.81448  83256269.47048  20332037.9074   20332039.1954   20332037.6354
       254.000         241.000
 123944648.72148  96580240.55448  23585886.2094   23585887.4584   23585886.1414
       223.000         180.000
 124169949.59748  96755785.92548  23628771.6904   23628774.3704   23628770.4984
       224.000         180.000
 129579112.01048 100970712.48448  24658103.8804   24658107.5544   24658104.7414
       217.000         154.000
 09  1 21  0 13  0.0000000  0 10G 9G 5G26G27G28G18G15G17G12G10
 110514158.13948  86114921.22448  21030147.6814   21030150.3414   21030147.6934
       245.000         214.000
 140508167.56348  91694664.00448  24834886.5004   24834888.7984   24834888.0954
       212.000         154.000
 109779580.42348  85542521.55048  20890365.9354   20890368.4294   20890365.8174
       249.000         222.000
 127575570.52248  99409520.23448  24276833.9494   24276837.1734   24276833.5884
       213.000         158.000
 123417566.48648  96169527.30448  23485584.7494   23485586.8164   23485586.0854
       227.000         178.000
 119394344.73148  93034551.91548  22719989.6774   22719992.0484   22719990.7124
       229.000         185.000
 106851850.07748  83261174.09048  20333235.7444   20333237.0244   20333235.6444
       254.000         241.000
 123901869.24048  96546905.88348  23577745.0904   23577747.6504   23577745.3424
       226.000         180.000
 124062072.95948  96671726.21148  23608243.0684   23608245.9664   23608242.5344
       223.000         177.000
 129690212.22448 101057284.12648  24679246.0834   24679248.8414   24679247.2804
       218.000         154.000
 09  1 21  0 13 30.0000000  0 10G 9G 5G26G27G28G18G15G17G12G10
 110454171.51548  86068178.41248  21018732.7294   21018735.1114   21018732.7094
       246.000         214.000
 140393254.06448  91605121.04848  24813019.2874   24813021.7354   24813019.9684
       214.000         154.000
 109837340.40648  85587529.33048  20901357.0264   20901359.8424   20901356.8034
       249.000         221.000
 127644982.51148  99463607.48248  24290042.5774   24290045.2434   24290042.1924
       212.000         155.000
 123500978.66248  96234523.81348  23501457.8364   23501459.4074   23501458.4634
       227.000         179.000
 119344312.18248  92995565.49648  22710469.3484   22710470.9164   22710469.5074
       232.000         187.000
 106858581.08848  83266419.02648  20334516.5344   20334517.8384   20334516.2224
       254.000         240.000
 123859520.27548  96513906.71548  23569686.5414   23569688.1354   23569686.7484
       226.000         179.000
 123954382.99048  96587811.95048  23587750.5464   23587752.7654   23587750.7424
       228.000         181.000
 129801295.80048 101143842.77648  24700384.4564   24700387.6214   24700385.4774
       216.000         153.000
 09  1 21  0 14  0.0000000  0 10G 9G 5G26G27G28G18G15G17G12G10
 110394474.70948  86021661.42848  21007372.6084   21007374.9944   21007372.8014
       245.000         214.000
 140278423.85648  91515643.00248  24791168.4874   24791171.5864   24791170.4234
       212.000         155.000
 109895479.41748  85632832.45748  20912420.5614   20912423.2304   20912420.3974
       249.000         221.000
 127714412.77448  99517708.94148  24303254.9334   24303257.5664   24303255.5304
       211.000         157.000
 123584627.86348  96299704.99348  23517375.7924   23517377.3014   23517377.0244
       227.000         177.000
 119294790.45248  92956977.12948  22701045.6424   22701047.5444   22701045.8774
       229.000         186.000
 106865749.53348  83272004.82148  20335880.6334   20335881.9094   20335880.3624
       253.000         240.000
 123817604.14048  96481244.78248  23561710.2204   23561711.7954   23561709.9794
       224.000         180.000
 123846881.78148  96504044.78648  23567294.4204   23567295.7084   23567294.7944
       226.000         180.000
 129912360.03248 101230386.28948  24721518.9974   24721523.8224   24721520.3204
       213.000         157.000
 09  1 21  0 14 30.0000000  0 10G 9G 5G26G27G28G18G15G17G12G10
 110335068.88148  85975371.18048  20996068.2154   20996070.7204   20996068.2344
       246.000         215.000
 140163679.47348  91426231.83548  24769333.0454   24769336.0584   24769334.1574
       209.000         153.000
 109953997.44248  85678430.91448  20923556.3164   20923558.7804   20923556.3454
       249.000         221.000
 127783861.83048  99571825.06348  24316470.2414   24316473.5394   24316470.5894
       209.000         157.000
 123668512.49348  96365069.64748  23533338.6154   23533340.2474   23533338.1484
       227.000         179.000
 119245781.81348  92918788.57648  22691719.4904   22691721.3874   22691719.2724
       232.000         188.000
 106873356.38648  83277932.23448  20337328.2044   20337329.5074   20337327.8914
       254.000         240.000
 123776123.60548  96448922.29548  23553816.9464   23553818.5014   23553816.0424
       224.000         180.000
 123739572.41048  96420427.10648  23546873.8684   23546875.0784   23546873.6434
       227.000         181.000
 130023403.12348 101316913.34048  24742649.4774   24742654.5394   24742650.1794
       214.000         158.000
 09  1 21  0 15  0.0000000  0 10G 9G 5G26G27G28G18G15G17G12G10
 110275954.12448  85929307.75048  20984818.9234   20984821.6434   20984819.6094
       246.000         214.000
 140049022.56748  91336888.81448  24747513.7754   24747517.6334   24747514.7014
       204.000         151.000
 110012893.37548  85724323.84848  20934763.8744   20934766.3954   20934763.8304
       249.000         221.000
 127853329.13748  99625955.39948  24329689.1064   24329693.2834   24329689.3694
       211.000         155.000
 123752629.81648  96430615.59648  23549345.4634   23549347.4334   23549345.7964
       227.000         179.000
 119197287.66248  92881000.93148  22682491.7444   22682493.0564   22682492.1484
       233.000         188.000
 106881402.45648  83284201.89348  20338859.4004   20338860.6214   20338859.1744
       254.000         240.000
 123735080.17048  96416940.43048  23546005.9124   23546008.4074   23546005.5144
       225.000         180.000
 123632455.97648  96336959.76548  23526490.3244   23526491.9074   23526489.9004
       228.000         181.000
 130134422.15348 101403421.68048  24763776.6264   24763780.5054   24763777.0984
       212.000         157.000
 09  1 21  0 15 30.0000000  0 10G 9G 5G26G27G28G18G15G17G12G10
 110217130.98548  85883471.54848  20973625.2974   20973627.7454   20973625.9384
       246.000         215.000
 139934455.25448  91247615.63348  24725711.8334   24725716.1514   24725711.5094
       212.000         153.000
 110072167.05648  85770511.13048  20946043.1954   20946045.8314   20946043.0254
       249.000         221.000
 127922814.82948  99680100.07748  24342911.8254   24342915.9514   24342911.7654
       208.000         156.000
 123836978.01248  96496341.46848  23565396.6464   23565398.1834   23565398.1114
       227.000         179.000
 119149309.53648  92843615.38248  22673361.7844   22673363.0524   22673362.5614
       233.000         188.000
 106889888.47448  83290814.37148  20340474.1934   20340475.4644   20340474.0604
       254.000         240.000
 123694476.61148  96385301.30048  23538279.6724   23538281.4524   23538279.2544
       224.000         181.000
 123525535.11748  96253644.81648  23506144.0054   23506145.9554   23506144.1504
       226.000         183.000
 130245414.78348 101489909.44248  24784897.7384   24784902.0714   24784898.7834
       210.000         153.000
 09  1 21  0 16  0.0000000  0 10G 9G 5G26G27G28G18G15G17G12G10
 110158599.44048  85837862.55448  20962487.2274   20962489.6344   20962487.4294
       246.000         215.000
 139819979.27048  91158413.60848  24703927.8894   24703931.5604   24703928.2784
       210.000         154.000
 110131817.55448  85816992.03448  20957394.4324   20957396.9054   20957394.4184
       249.000         221.000
 127992318.46448  99734258.75548  24356137.8124   24356142.4064   24356138.5884
       206.000         156.000
 123921554.30548  96562245.06248  23581490.6274   23581492.7414   23581491.7524
       226.000         178.000
 119101848.90648  92806633.06748  22664330.0074   22664331.7314   22664329.8774
       233.000         188.000
 106898814.88748  83297770.01448  20342172.8454   20342174.1304   20342172.6334
       254.000         240.000
 123654314.68148  96354006.29948  23530637.4334   23530638.8324   23530637.0894
       227.000         181.000
 123418811.79748  96170483.80748  23485834.8144   23485837.4954   23485834.3804
       226.000         183.000
 130356378.53648 101576374.67348  24806011.9184   24806016.7124   24806011.7404
       209.000         147.000
 09  1 21  0 16 30.0000000  0 10G 9G 5G26G27G28G18G15G17G12G10
 110100360.94448  85792481.91548  20951404.8004   20951407.1824   20951405.1554
       247.000         215.000
 139705596.87148  91069284.47148  24682162.5414   24682164.7374   24682162.5934
       214.000         153.000
 110191844.49448  85863766.27348  20968817.1544   20968819.6754   20968816.9844
       249.000         221.000
 128061840.31948  99788431.60448  24369367.7194   24369371.2304   24369369.0814
       209.000         157.000
 124006356.80348  96628324.89748  23597628.1064   23597630.2374   23597628.5184
       227.000         177.000
 119054907.62248  92770055.43848  22655397.5814   22655398.9334   22655398.2774
       230.000         187.000
 106908182.73148  83305069.62548  20343955.5244   20343956.7364   20343955.3444
       254.000         240.000
 123614596.77748  96323057.29448  23523079.2684   23523080.6114   23523079.4504
       223.000         180.000
 123312288.55748  96087478.70648  23465564.4094   23465566.7704   23465564.1114
       225.000         182.000
 130467311.12648 101662815.67248  24827121.3934   24827124.9454   24827122.0184
       210.000         146.000
 09  1 21  0 17  0.0000000  0 10G 9G 5G26G27G28G18G15G17G12G10
 110042415.07348  85747329.29348  20940378.0224   20940380.2674   20940378.4344
       246.000         215.000
 139591309.65248  90980229.51048  24660414.7744   24660416.1204   24660415.2454
       214.000         153.000
 110252246.81348  85910833.01248  20980311.4304   20980313.7314   20980311.3734
       249.000         220.000
 128131380.07448  99842618.37748  24382600.6244   24382604.6014   24382600.8814
       209.000         156.000
 124091382.97048  96694579.04848  23613808.3244   23613809.7624   23613809.5334
       228.000         176.000
 119008486.83648  92733883.39048  22646564.3044   22646565.4434   22646564.7874
       233.000         188.000
 106917992.06448  83312713.25848  20345822.0954   20345823.4714   20345821.8284
       254.000         240.000
 123575324.25648  96292455.32948  23515605.8404   23515607.3234   23515604.8434
       225.000         182.000
 123205966.86348  96004630.65748  23445331.5754   23445334.2194   23445331.6604
       227.000         183.000
 130578208.99248 101749229.59948  24848225.7744   24848229.0464   24848227.2104
       214.000         153.000
 09  1 21  0 17 30.0000000  0 10G 9G 5G26G27G28G18G15G17G12G10
 109984762.19748  85702404.98248  20929407.1584   20929409.3214   20929407.4654
       246.000         216.000
 139477119.23948  90891249.98648  24638684.3554   24638686.5544   24638686.0684
       212.000         152.000
 110313023.54448  85958191.50848  20991876.7204   20991879.2254   20991876.7974
       249.000         220.000
 128200937.28848  99896818.79448  24395837.2644   24395840.1394   24395837.4444
       205.000         155.000
 124176630.20248  96761005.46048  23630030.3914   23630031.7964   23630031.3994
       226.000         178.000
 118962587.96648  92698118.04748  22637829.6564   22637831.7534   22637830.4244
       233.000         188.000
 106928243.56348  83320701.44148  20347772.8514   20347774.3534   20347772.6084
       254.000         240.000
 123536499.19148  96262202.04948  23508217.2534   23508219.4824   23508216.5494
       224.000         181.000
 123099848.70448  95921941.20148  23425138.4834   23425140.3424   23425138.7774
       226.000         181.000
 130689070.18748 101835614.90048  24869322.0334   24869326.0154   24869323.1174
       215.000         160.000
 09  1 21  0 18  0.0000000  0 10G 9G 5G26G27G28G18G15G17G12G10
 109927403.55848  85657709.95448  20918491.9274   20918494.5984   20918492.3994
       247.000         216.000
 139363028.47348  90802348.12048  24616973.8664   24616976.2064   24616974.6154
       215.000         156.000
 110374175.15548  86005842.10948  21003513.5474   21003515.9824   21003513.3234
       248.000         220.000
 128270512.80348  99951033.44548  24409076.6164   24409080.7604   24409077.3604
       207.000         154.000
 124262096.89848  96827602.88348  23646294.2514   23646295.3734   23646294.4434
       226.000         177.000
 118917213.05648  92662760.97848  22629195.3614   22629196.8464   22629196.2074
       234.000         189.000
 106938938.45048  83329035.10948  20349808.1624   20349809.4444   20349807.9004
       254.000         240.000
 123498124.74548  96232299.89448  23500914.8324   23500916.8454   23500914.1744
       227.000         182.000
 122993937.21248  95839412.79648  23404984.0254   23404985.4494   23404983.5084
       227.000         181.000
 130799892.98748 101921970.30748  24890410.4894   24890414.6784   24890411.5054
       212.000         156.000
 09  1 21  0 18 30.0000000  0 10G 9G 5G26G27G28G18G15G17G12G10
 109870339.05548  85613244.11648  20907633.0644   20907635.5624   20907633.2824
       247.000         216.000
 139249038.58148  90713524.86048  24595282.5244   24595285.5774   24595283.7744
       215.000         159.000
 110435700.14448  86053783.66348  21015221.2254   21015223.7884   21015221.1754
       248.000         219.000
 128340105.79548 100005261.75848  24422319.3414   24422323.3264   24422320.3384
       208.000         157.000
 124347780.38848  96894369.23448  23662599.0794   23662600.4784   23662599.6254
       225.000         176.000
 118872362.92648  92627812.82348  22620660.7784   22620662.0734   22620661.4414
       236.000         190.000
 106950076.70748  83337714.26948  20351927.5654   20351929.0544   20351927.3494
       254.000         240.000
 123460201.89148  96202749.63448  23493698.6784   23493700.7244   23493698.5454
       225.000         181.000
 122888233.77348  95757046.49848  23384869.6054   23384870.3694   23384869.3484
       228.000         182.000
 130910673.97948 102008293.12348  24911491.0534   24911494.6984   24911490.7494
       201.000         140.000
 09  1 21  0 19  0.0000000  0 10G 9G 5G26G27G28G18G15G17G12G10
 109813569.87648  85569008.39448  20896830.2084   20896832.7624   20896830.3624
       247.000         216.000
 139135152.53648  90624782.52948  24573610.0954   24573614.1624   24573610.6054
       211.000         160.000
 110497598.81948  86102016.39348  21027000.1834   21027002.6394   21027000.0884
       248.000         219.000
 128409717.29048 100059504.46848  24435567.0074   24435569.9384   24435567.4704
       211.000         158.000
 124433679.30748  96961303.45548  23678945.1034   23678946.6384   23678944.5394
       225.000         177.000
 118828040.42648  92593275.81948  22612226.1384   22612227.7804   22612226.6874
       234.000         189.000
 106961660.31448  83346740.45548  20354131.8274   20354133.3844   20354131.6794
       253.000         240.000
 123422733.80648  96173553.73248  23486568.5564   23486570.4614   23486567.6274
       227.000         181.000
 122782741.62548  95674844.85648  23364794.6424   23364795.6694   23364795.0674
       228.000         182.000
 131021412.04148 102094582.57948  24932563.0454   24932565.4484   24932563.4034
       208.000         139.000
 09  1 21  0 19 30.0000000  0 10G 9G 5G26G27G28G18G15G17G12G10
 109757098.20348  85525004.48848  20886083.9174   20886086.3624   20886084.5104
       247.000         216.000
 139021373.94348  90536123.89048  24551958.5334   24551962.3384   24551958.4234
       213.000         160.000
 110559872.21248  86150541.10648  21038850.3994   21038853.0934   21038850.2254
       248.000         219.000
 128479348.81548 100113762.77448  24448817.2834   24448820.6234   24448816.6694
       212.000         159.000
 124519793.27348  97028405.22748  23695332.1014   23695333.7334   23695332.5224
       224.000         175.000
 118784248.50248  92559152.23048  22603892.8234   22603894.0994   22603893.5674
       234.000         189.000
 106973690.88248  83356114.91248  20356421.4214   20356422.7204   20356421.2774
       253.000         240.000
 123385724.13748  96144715.04248  23479525.9584   23479527.8184   23479526.0634
       226.000         181.000
 122677464.05048  95592810.41148  23344761.2694   23344762.2894   23344760.9694
       228.000         185.000
 131132106.23248 102180837.83748  24953627.8164   24953632.2594   24953629.1774
       214.000         154.000
 09  1 21  0 20  0.0000000  0 10G 9G 5G26G27G28G18G15G17G12G10
 109700921.74948  85481230.63948  20875393.9824   20875396.4294   20875394.1324
       247.000         217.000
 138907702.00048  90447548.36448  24530327.2264   24530331.1984   24530327.6554
       217.000         161.000
 110622516.81448  86199355.07748  21050771.2664   21050774.0224   21050771.0504
       248.000         219.000
 128548997.61248 100168034.54248  24462070.5454   24462073.9484   24462070.4134
       207.000         156.000
 124606117.02048  97095670.49048  23711758.7844   23711760.4624   23711759.1814
       225.000         175.000
 118740985.73948  92525440.99048  22595660.4674   22595661.6084   22595660.6224
       235.000         190.000
 106986166.92848  83365836.50948  20358795.5104   20358796.7374   20358795.2684
       253.000         240.000
 123349172.08848  96116232.94348  23472569.8674   23472572.3134   23472570.0304
       226.000         182.000
 122572400.62248  95510942.84248  23324768.8134   23324770.1484   23324768.3534
       229.000         186.000
 131242751.40348 102267054.83348  24974683.1864   24974688.1084   24974684.0394
       212.000         156.000
 09  1 21  0 20 30.0000000  0 10G 9G 5G26G27G28G18G15G17G12G10
 109645041.01748  85437687.20648  20864760.3624   20864762.5944   20864760.6054
       247.000         216.000
 138794138.54248  90359057.35248  24508717.7534   24508720.8704   24508718.6504
       216.000         162.000
 110685531.88048  86248457.72048  21062762.7234   21062765.1574   21062762.5764
       248.000         219.000
 128618663.66148 100222319.78448  24475327.2084   24475331.0374   24475327.1874
       207.000         155.000
 124692648.25748  97163097.43248  23728225.3194   23728226.6704   23728225.8514
       225.000         175.000
 118698253.38548  92492143.05248  22587528.7534   22587530.3054   22587529.3524
       235.000         191.000
 106999088.82748  83375905.51548  20361254.4714   20361255.6544   20361254.3114
       254.000         240.000
 123313079.62048  96088108.96248  23465701.6244   23465703.5254   23465701.3554
       226.000         180.000
 122467553.55348  95429243.85548  23304816.7734   23304818.6834   23304816.5884
       229.000         186.000
 131353345.24748 102353231.79048  24995729.8184   24995732.7584   24995730.8044
       208.000         149.000
 09  1 21  0 21  0.0000000  0 10G 9G 5G26G27G28G18G15G17G12G10
 109589456.94148  85394374.93848  20854182.7824   20854185.2074   20854183.0204
       247.000         217.000
 138680686.16948  90270652.95348  24487128.9564   24487132.1274   24487129.6934
       217.000         164.000
 110748917.30348  86297848.95448  21074824.6094   21074826.8894   21074824.4154
       249.000         219.000
 128688347.43648 100276618.79048  24488587.7014   24488591.3774   24488588.0814
       209.000         157.000
 124779385.53248  97230684.89948  23744730.6734   23744732.5744   23744730.3024
       226.000         175.000
 118656053.59648  92459260.08748  22579498.5674   22579499.9694   22579498.9324
       234.000         192.000
 107012457.74448  83386322.84848  20363798.3254   20363799.7634   20363798.0884
       253.000         239.000
 123277449.37148  96060345.12948  23458921.7714   23458924.0394   23458921.6954
       227.000         182.000
 122362925.45648  95347715.48748  23284906.6404   23284908.6824   23284906.1224
       228.000         185.000
 131463885.45148 102439366.98048  25016764.0834   25016766.7244   25016766.1714
       213.000         148.000
 09  1 21  0 21 30.0000000  0 10G 9G 5G26G27G28G18G15G17G12G10
 109534166.63948  85351291.58548  20843661.5204   20843663.9184   20843661.2634
       247.000         217.000
 138567343.33248  90182333.88548  24465560.7084   24465563.9734   24465562.2704
       217.000         164.000
 110812669.12148  86347525.69148  21086956.0834   21086958.5834   21086956.1054
       248.000         218.000
 128758045.44348 100330928.91848  24501852.2234   24501854.6024   24501852.9064
       213.000         158.000
 124866323.04048  97298428.40648  23761274.1194   23761276.5304   23761274.5424
       225.000         177.000
 118614384.46948  92426790.63648  22571568.7584   22571570.5184   22571569.1714
       234.000         191.000
 107026270.95448  83397086.38048  20366426.8664   20366428.3534   20366426.4474
       253.000         239.000
 123242279.23848  96032939.84448  23452229.1954   23452231.3354   23452229.4674
       227.000         181.000
 122258515.14548  95266356.82948  23265037.7434   23265039.5834   23265038.4944
       230.000         187.000
 131574366.13048 102525455.89648  25037788.9204   25037790.1474   25037789.3384
       213.000         149.000
 09  1 21  0 22  0.0000000  0 10G 9G 5G26G27G28G18G15G17G12G10
 109479174.76848  85308440.78148  20833196.8874   20833199.3614   20833197.0714
       248.000         217.000
 138454116.19248  90094104.95648  24444013.1084   24444017.1714   24444014.3534
       216.000         161.000
 110876790.60448  86397490.47948  21099157.9694   21099160.5264   21099157.7114
       248.000         218.000
 128827761.85948 100385253.37748  24515117.8804   24515121.6774   24515118.3654
       211.000         158.000
 124953462.67348  97366329.40148  23777856.6304   23777858.5584   23777857.8154
       226.000         175.000
 118573251.41248  92394738.91348  22563741.7834   22563742.8414   22563742.4974
       235.000         192.000
 107040532.77048  83408199.47648  20369140.9754   20369142.2604   20369140.8144
       254.000         239.000
 123207575.90148  96005898.28748  23445625.6754   23445626.9774   23445625.5314
       227.000         181.000
 122154328.63148  95185172.56548  23245212.1564   23245214.0004   23245211.8294
       229.000         186.000
 131684789.19748 102611499.87148  25058801.4064   25058804.1954   25058802.7824
       209.000         146.000
 09  1 21  0 22 30.0000000  0 10G 9G 5G26G27G28G18G15G17G12G10
 109424481.91948  85265822.97948  20822789.0954   20822791.7974   20822789.4264
       247.000         217.000
 138341007.12948  90005967.99548  24422489.1674   24422492.9594   24422489.4514
       214.000         161.000
 110941281.41748  86447743.06448  21111430.1414   21111432.6214   21111430.1114
       247.000         218.000
 128897497.07248 100439592.50148  24528388.0784   24528391.6274   24528388.3424
       211.000         160.000
 125040802.86648  97434386.72148  23794476.7164   23794478.4474   23794477.3984
       224.000         171.000
 118532656.24248  92363106.32248  22556017.0374   22556017.8564   22556017.4954
       236.000         192.000
 107055244.37048  83419663.05848  20371940.3784   20371941.7484   20371940.3104
       253.000         239.000
 123173341.63848  95979222.23948  23439110.9974   23439112.3894   23439110.9424
       228.000         182.000
 122050368.50748  95104164.70948  23225428.7344   23225430.8014   23225428.5964
       230.000         185.000
 131795152.43148 102697497.08548  25079801.3734   25079806.3044   25079802.0504
       205.000         145.000
 09  1 21  0 23  0.0000000  0 10G 9G 5G26G27G28G18G15G17G12G10
 109370088.45748  85223438.46548  20812438.5554   20812440.8174   20812438.4494
       248.000         217.000
 138228017.59348  89917924.18548  24400988.0524   24400991.6484   24400987.5364
       216.000         161.000
 111006140.60148  86498282.68548  21123772.4474   21123775.0444   21123772.2844
       248.000         218.000
 128967250.58848 100493945.86648  24541661.6074   24541665.5124   24541662.0314
       211.000         160.000
 125128340.72648  97502598.02648  23811134.8114   23811136.4994   23811134.8364
       225.000         168.000
 118492599.90048  92331893.58448  22548394.4284   22548395.2704   22548395.2044
       235.000         192.000
 107070405.82248  83431477.16948  20374825.3994   20374826.8124   20374825.2154
       253.000         238.000
 123139578.11248  95952913.00048  23432685.8284   23432687.6494   23432685.8404
       227.000         182.000
 121946636.60048  95023334.65348  23205689.5914   23205690.8394   23205690.2714
       228.000         184.000
 131905453.96148 102783446.31448  25100791.2394   25100794.9974   25100791.3204
       212.000         150.000
 09  1 21  0 23 30.0000000  0 10G 9G 5G26G27G28G18G15G17G12G10
 109315994.18148  85181287.08748  20802144.5094   20802146.9924   20802144.9154
       247.000         217.000
 138115148.96848  89829974.59448  24379510.7404   24379513.5114   24379512.4664
       215.000         162.000
 111071366.49248  86549108.05048  21136184.6824   21136187.1404   21136184.5964
       248.000         218.000
 129037021.73048 100548312.96448  24554938.7054   24554942.3824   24554939.8204
       211.000         161.000
 125216073.52548  97570961.25948  23827830.1124   23827831.0924   23827830.6914
       225.000         168.000
 118453082.97748  92301101.18548  22540874.0634   22540876.0294   22540874.7244
       233.000         192.000
 107086017.05248  83443641.75648  20377796.1454   20377797.5604   20377795.9164
       253.000         238.000
 123106286.47848  95926971.47348  23426350.9414   23426353.0524   23426350.2664
       227.000         185.000
 121843134.36748  94942683.58248  23185993.0914   23185994.8764   23185992.6704
       229.000         185.000
 132015689.70848 102869344.34348  25121769.4754   25121772.1854   25121769.9754
       208.000         147.000
 09  1 21  0 24  0.0000000  0 10G 9G 5G26G27G28G18G15G17G12G10
 109262199.74648  85139369.35048  20791907.8384   20791910.4644   20791907.6474
       247.000         218.000
 138002403.25248  89742120.82248  24358055.7294   24358058.8754   24358055.6334
       217.000         163.000
 111136958.59648  86600218.77748  21148666.3004   21148668.7944   21148666.3754
       248.000         217.000
 129106810.78248 100602694.04348  24568219.2514   24568222.3954   24568218.5174
       213.000         162.000
 125303999.13448  97639474.72748  23844561.5994   23844562.6444   23844561.8804
       225.000         170.000
 118414106.85348  92270730.17948  22533457.0514   22533459.1214   22533457.5414
       235.000         192.000
 107102078.85548  83456157.44848  20380852.6204   20380854.1054   20380852.4144
       253.000         238.000
 123073468.51648  95901399.06148  23420105.6094   23420107.5874   23420105.5524
       226.000         185.000
 121739863.86748  94862213.08148  23166341.4264   23166343.5654   23166341.0414
       230.000         187.000
 132125857.56348 102955189.44148  25142733.5994   25142736.4404   25142734.4564
       206.000         144.000
 09  1 21  0 24 30.0000000  0 10G 9G 5G26G27G28G18G15G17G12G10
 109208705.96048  85097685.88348  20781728.4344   20781730.7374   20781728.6034
       248.000         218.000
 137889783.05248  89654364.83348  24336625.2514   24336627.8254   24336625.3004
       218.000         164.000
 111202916.84648  86651614.81348  21161217.6554   21161220.2374   21161217.5774
       247.000         217.000
 129176617.97148 100657089.24348  24581503.0254   24581506.1064   24581502.8704
       216.000         161.000
 125392116.01248  97708137.22948  23861330.1424   23861330.9234   23861330.5474
       226.000         174.000
 118375673.57548  92240782.16948  22526143.6634   22526145.2254   22526144.5684
       235.000         193.000
 107118592.01048  83469024.83648  20383995.0314   20383996.4234   20383994.8584
       253.000         238.000
 123041126.57248  95876197.55548  23413951.5144   23413953.1124   23413950.8634
       228.000         185.000
 121636827.85148  94781925.29248  23146734.4274   23146736.6964   23146734.5884
       229.000         188.000
 132235956.21648 103040980.54648  25163683.8464   25163687.9084   25163685.3114
       208.000         148.000
 09  1 21  0 25  0.0000000  0 10G 9G 5G26G27G28G18G15G17G12G10
 109155512.46348  85056236.40248  20771606.3244   20771608.6344   20771606.3304
       248.000         219.000
 137777289.42448  89566707.43948  24315217.6724   24315220.8454   24315217.8964
       218.000         165.000
 111269239.58148  86703294.86448  21173838.4834   21173841.0674   21173838.2304
       248.000         217.000
 129246442.63248 100711498.03948  24594790.1814   24594793.5954   24594791.1344
       214.000         160.000
 125480421.11448  97776946.38148  23878133.8134   23878135.0784   23878134.3554
       225.000         173.000
 118337783.28548  92211257.27348  22518933.3194   22518934.8354   22518934.2524
       235.000         193.000
 107135556.26048  83482243.72548  20387223.2034   20387224.5684   20387223.0114
       253.000         238.000
 123009261.34748  95851367.51148  23407887.6434   23407889.5484   23407887.2614
       228.000         185.000
 121534027.57348  94701821.18648  23127171.9514   23127173.9934   23127171.0924
       230.000         188.000
 132345982.02748 103126714.89648  25184621.5784   25184625.8084   25184621.8154
       209.000         148.000
 09  1 21  0 25 30.0000000  0 10G 9G 5G26G27G28G18G15G17G12G10
 109102620.00448  85015021.50748  20761540.8364   20761543.5034   20761541.0314
       248.000         218.000
 137664924.52648  89479150.34848  24293835.2824   24293838.4744   24293835.4194
       217.000         165.000
