     2.11           OBSERVATION DATA    G (GPS)             RINEX VERSION / TYPE
teqc  2008Oct2      gpsops              20090107 00:05:37UTCPGM / RUN BY / DATE
    30.0000                                                 INTERVAL
     1     1                                                WAVELENGTH FACT L1/2
     7    L1    L2    P1    P2    C1    S1    S2            # / TYPES OF OBSERV
Linux 2.4.20-8|Pentium IV|gcc -static|Linux|486/DX+         COMMENT
     2.10           OBSERVATION DATA    GPS                 COMMENT
soc2rnx ver 1.20    gpsops               7-Jan-2009 00:05:35COMMENT
S1, if present, is the SNR for the C/A data stream on L1.   COMMENT
 SNR is mapped to RINEX snr flag value [1,4-9]              COMMENT
    SNR:   >316  >100  >31.6  >10  >3.2    >0 bad=0         COMMENT
L1 & L2:      9     8     7     6     5     4     1         COMMENT
                                                            COMMENT
This data is provided as a public service by NASA/JPL.      COMMENT
No warranty is expressed or implied regarding suitability   COMMENT
for use.  For further information, contact:                 COMMENT
Dave Stowers, NASA/JPL m/s 238-600                          COMMENT
4800 Oak Grove Drive, Pasadena CA 91109 USA                 COMMENT
                                                            COMMENT
Forced Modulo Decimation to 30 seconds                      COMMENT
  2009     1     6     0     0    0.0000000     GPS         TIME OF FIRST OBS
DSN                 JPL                                     OBSERVER / AGENCY
451-U               AOAD/M_T        NONE                    ANT # / TYPE
  4849202.3940  -360328.9929  4114913.1862                  APPROX POSITION XYZ
        0.0254        0.0000        0.0000                  ANTENNA: DELTA H/E/N
LP03574             ASHTECH Z-XII3      CC00                REC # / TYPE / VERS
MADR                                                        MARKER NAME
13407S012                                                   MARKER NUMBER
                                                            END OF HEADER
 09  1  6  0  0  0.0000000  0  9G24G28G 8G 9G15G10G21G26G27
 128119921.36848  99833683.40148  24380429.1724   24380431.8514   24380428.4864
       211.000         154.000
 114795385.71448  89450939.65548  21844844.0954   21844845.8874   21844844.6884
       242.000         209.000
 122009675.54748  95072467.85648  23217674.3984   23217677.8634   23217674.5544
       226.000         178.000
 122392623.34048  95370862.23648  23290551.8154   23290554.8764   23290553.0204
       228.000         176.000
 110230326.86048  85893755.50948  20976138.9224   20976140.4004   20976138.5554
       250.000         229.000
 114597050.20448  89296388.21948  21807105.5014   21807109.1184   21807106.0964
       241.000         206.000
 128554614.39948 100172448.44348  24463110.2504   24463111.6864   24463113.8724
       220.000         161.000
 105546988.81148  82244397.73248  20084931.4144   20084933.8764   20084931.4024
       251.000         228.000
 121543165.45048  94708942.61148  23128908.2404   23128910.8844   23128909.4114
       234.000         193.000
 09  1  6  0  0 30.0000000  0  9G24G28G 8G 9G15G10G21G26G27
 128188930.44648  99887456.72148  24393559.7384   24393563.3024   24393559.6264
       210.000         153.000
 114819950.75148  89470081.24648  21849518.4224   21849520.5694   21849518.8844
       242.000         210.000
 122096731.50648  95140303.66648  23234240.7634   23234244.4104   23234241.2744
       228.000         179.000
 122296253.49548  95295768.88748  23272213.0234   23272216.6314   23272213.1704
       225.000         175.000
 110183910.37248  85857586.82048  20967306.1504   20967307.7204   20967305.8634
       249.000         229.000
 114683256.95548  89363562.30148  21823510.1934   21823513.6114   21823511.0614
       240.000         206.000
 128567258.76448 100182301.20948  24465516.2654   24465517.6954   24465518.5524
       211.000         159.000
 105546697.12248  82244170.44048  20084876.0514   20084878.3224   20084875.8634
       251.000         228.000
 121613997.32048  94764136.26348  23142386.8854   23142389.9744   23142387.3664
       232.000         192.000
 09  1  6  0  1  0.0000000  0  9G24G28G 8G 9G15G10G21G26G27
 128258131.52348  99941379.61448  24406727.3944   24406730.9704   24406727.6554
       209.000         152.000
 114845031.80748  89489624.93048  21854291.4394   21854293.1484   21854291.9184
       243.000         209.000
 122183880.82848  95208212.21548  23250824.6704   23250828.5474   23250824.8344
       225.000         178.000
 122200071.59948  95220821.97648  23253909.9724   23253913.4474   23253910.3304
       227.000         176.000
 110137746.84848  85821615.23748  20958521.5264   20958523.0534   20958521.1294
       250.000         229.000
 114769817.22548  89431011.86248  21839982.1304   21839985.4614   21839983.0344
       241.000         206.000
 128580379.94848 100192525.50848  24468011.9114   24468014.4424   24468009.8334
       204.000         147.000
 105546774.11248  82244230.43848  20084890.7074   20084893.0314   20084890.6774
       251.000         228.000
 121684879.55448  94819369.16948  23155875.2794   23155878.4874   23155875.6724
       232.000         191.000
 09  1  6  0  1 30.0000000  0  9G24G28G 8G 9G15G10G21G26G27
 128327522.01848  99995450.14748  24419932.6844   24419935.9594   24419932.6784
       208.000         154.000
 114870628.49348  89509570.39348  21859162.2414   21859163.8074   21859162.7444
       242.000         209.000
 122271122.44648  95276192.69448  23267426.0134   23267429.8314   23267426.2584
       227.000         177.000
 122104079.13348  95146022.67048  23235643.6544   23235646.6554   23235643.7034
       228.000         176.000
 110091837.85648  85785841.99848  20949785.3214   20949786.9374   20949785.2364
       249.000         229.000
 114856729.16148  89498735.44148  21856520.7534   21856524.2194   21856521.4904
       240.000         205.000
 128593977.27448 100203120.77348  24470599.3694   24470602.7724   24470600.2044
       205.000         153.000
 105547220.53648  82244578.30248  20084975.4784   20084977.9664   20084975.4114
       250.000         228.000
 121755811.80348  94874641.04548  23169373.1424   23169376.2354   23169373.2094
       233.000         191.000
 09  1  6  0  2  0.0000000  0  9G24G28G 8G 9G15G10G21G26G27
 128397098.06148 100049665.24748  24433172.1404   24433175.8904   24433172.1884
       213.000         153.000
 114896738.59248  89529915.92948  21864130.4704   21864132.5854   21864130.9044
       241.000         208.000
 122358454.34248  95344243.49648  23284044.9174   23284048.3114   23284045.2364
       224.000         175.000
 122008275.96548  95071370.85148  23217413.4034   23217416.2344   23217414.4424
       227.000         176.000
 110046183.89448  85750267.48848  20941097.5034   20941099.3944   20941097.3324
       250.000         230.000
 114943989.34848  89566730.38248  21873125.6654   21873129.2214   21873126.4274
       240.000         204.000
 128608048.19948 100214085.09348  24473278.0374   24473279.9614   24473278.8144
       215.000         157.000
 105548036.12348  82245213.81248  20085130.7594   20085133.2244   20085130.6814
       251.000         229.000
 121826792.44548  94929950.62048  23182880.3794   23182883.4144   23182880.7964
       229.000         190.000
 09  1  6  0  2 30.0000000  0  9G24G28G 8G 9G15G10G21G26G27
 128466856.89848 100104022.75148  24446446.1664   24446450.7224   24446445.9034
       210.000         150.000
 114923361.39748  89550660.98948  21869196.3744   21869198.6644   21869196.7684
       241.000         208.000
 122445874.61548  95412363.20448  23300680.4294   23300684.0124   23300680.7024
       227.000         175.000
 121912663.10048  94996867.33548  23199218.6684   23199221.3244   23199219.2114
       226.000         176.000
 110000786.26948  85714892.71548  20932458.7404   20932460.4544   20932458.3604
       250.000         230.000
 115031595.50248  89634994.91148  21889796.6764   21889800.2374   21889797.5094
       240.000         205.000
 128622591.46048 100225417.52748  24476045.4304   24476047.6604   24476046.4554
       213.000         157.000
 105549221.52648  82246137.49748  20085356.4214   20085358.8484   20085356.2824
       252.000         229.000
 121897820.47148  94985297.11748  23196396.1724   23196399.8654   23196396.6454
       228.000         190.000
 09  1  6  0  3  0.0000000  0  9G24G28G 8G 9G15G10G21G26G27
 128536796.15648 100158520.88548  24459755.2664   24459759.6644   24459756.1264
       207.000         149.000
 114950496.49748  89571805.22348  21874360.4064   21874362.4894   21874361.1734
       242.000         208.000
 122533382.86148  95480551.44048  23317332.9084   23317336.5374   23317333.4164
       228.000         176.000
 121817242.02648  94922513.26848  23181060.3814   23181063.3844   23181060.5684
       223.000         177.000
 109955646.64748  85679718.98848  20923868.9074   20923870.6314   20923868.6964
       250.000         230.000
 115119546.09448  89703527.83548  21906533.1394   21906536.8564   21906533.8674
       240.000         205.000
 128637606.51048 100237117.58948  24478903.1824   24478904.7554   24478901.6054
       216.000         158.000
 105550777.84548  82247350.21648  20085652.6444   20085654.9834   20085652.6114
       251.000         229.000
 121968895.67948  95040680.38848  23209921.6424   23209925.0774   23209921.4754
       231.000         191.000
 09  1  6  0  3 30.0000000  0  9G24G28G 8G 9G15G10G21G26G27
 128606912.59148 100213157.03248  24473097.6354   24473102.6994   24473097.3034
       211.000         152.000
 114978142.54748  89593347.59948  21879621.2104   21879622.9364   21879621.7454
       241.000         208.000
 122620977.14848  95548806.74248  23334001.8024   23334004.8174   23334002.5354
       226.000         173.000
 121722013.13748  94848308.97748  23162938.1164   23162941.9214   23162937.8834
       223.000         177.000
 109910766.26648  85644747.26848  20915328.3964   20915330.1294   20915328.0954
       250.000         230.000
 115207838.17648  89772326.85948  21923334.7164   21923338.4554   21923335.2934
       240.000         205.000
 128653091.39448 100249183.72548  24481849.7664   24481850.6574   24481851.8284
       214.000         156.000
 105552705.18648  82248852.03748  20086019.3034   20086021.8134   20086019.1844
       250.000         229.000
 122040016.57148  95096099.25948  23223455.9114   23223458.9714   23223456.2984
       230.000         190.000
 09  1  6  0  4  0.0000000  0  9G24G28G 8G 9G15G10G21G26G27
 128677203.28148 100267929.00248  24486474.0044   24486479.1974   24486474.6984
       213.000         152.000
 115006297.88248  89615286.83048  21884979.2794   21884980.9604   21884979.8664
       242.000         208.000
 122708656.21848  95617128.08348  23350686.1374   23350689.7924   23350686.4474
       226.000         175.000
 121626977.24548  94774255.07448  23144853.0364   23144857.0604   23144853.3484
       223.000         178.000
 109866146.06148  85609978.28148  20906837.5104   20906839.2824   20906837.2594
       250.000         230.000
 115296469.38748  89841390.13648  21940200.8074   21940204.2484   21940201.5724
       241.000         205.000
 128669044.93648 100261615.07048  24484884.9294   24484886.6434   24484886.5044
       212.000         154.000
 105555003.85848  82250643.20248  20086456.7334   20086459.2444   20086456.5134
       251.000         229.000
 122111182.16548  95151552.95048  23236997.9534   23237001.2464   23236998.3314
       229.000         189.000
 09  1  6  0  4 30.0000000  0  9G24G28G 8G 9G15G10G21G26G27
 128747665.80748 100322834.83948  24499882.5324   24499887.1374   24499882.7094
       212.000         151.000
 115034962.22748  89637622.68048  21890434.1544   21890435.5114   21890434.5344
       244.000         209.000
 122796418.89348  95685514.57848  23367386.5664   23367390.6714   23367386.6734
       225.000         173.000
 121532135.91248  94700352.74048  23126806.1684   23126808.5634   23126806.3904
       226.000         180.000
 109821788.15048  85575413.68048  20898396.3704   20898398.1814   20898396.1024
       250.000         230.000
 115385437.89048  89910716.23048  21957130.9574   21957134.2404   21957131.9684
       241.000         204.000
 128685466.33948 100274410.94448  24488010.6914   24488012.2634   24488009.9424
       209.000         155.000
 105557675.05648  82252724.64648  20086965.0364   20086967.4784   20086964.8404
       252.000         229.000
 122182392.19848  95207041.27548  23250548.3834   23250552.0334   23250548.5894
       228.000         188.000
 09  1  6  0  5  0.0000000  0  9G24G28G 8G 9G15G10G21G26G27
 128818296.82948 100377871.99648  24513323.9674   24513328.2354   24513324.9954
       211.000         153.000
 115064134.02048  89660353.95348  21895985.2674   21895987.0284   21895985.9274
       242.000         209.000
 122884263.59248  95753964.99948  23384103.1324   23384107.2344   23384103.7614
       225.000         175.000
 121437489.26748  94626602.12548  23108796.0364   23108798.6984   23108796.2734
       228.000         181.000
 109777693.47948  85541054.19748  20890005.5104   20890007.2584   20890005.2114
       251.000         230.000
 115474740.85748  89980302.95748  21974124.8784   21974128.1014   21974125.8794
       242.000         205.000
 128702353.21348 100287569.56048  24491223.8384   24491225.6214   24491225.0404
       209.000         152.000
 105560718.66548  82255096.28648  20087544.2234   20087546.6374   20087544.2374
       251.000         228.000
 122253645.64548  95262563.43148  23264107.7014   23264111.1024   23264107.5924
       228.000         187.000
 09  1  6  0  5 30.0000000  0  9G24G28G 8G 9G15G10G21G26G27
 128889093.36948 100433038.13648  24526795.4984   24526799.9294   24526795.4794
       213.000         152.000
 115093811.92948  89683479.60448  21901632.5124   21901634.5294   21901633.1134
       241.000         208.000
 122972188.83848  95822478.16748  23400834.9214   23400838.6364   23400835.0214
       229.000         173.000
 121343038.61848  94553004.22248  23090822.4744   23090825.1024   23090822.3124
       228.000         180.000
 109733862.99948  85506900.57748  20881664.7974   20881666.5764   20881664.6524
       250.000         230.000
 115564375.81948  90050148.36648  21991181.9434   21991185.2554   21991182.8594
       240.000         205.000
 128719704.44648 100301089.98348  24494525.5544   24494527.6564   24494525.5884
       206.000         149.000
 105564135.32848  82257758.61048  20088194.4344   20088196.7594   20088194.3284
       251.000         228.000
 122324941.79948  95318118.87348  23277675.1544   23277677.7664   23277675.3284
       230.000         187.000
 09  1  6  0  6  0.0000000  0  9G24G28G 8G 9G15G10G21G26G27
 128960052.86348 100488331.23548  24540298.9124   24540303.2264   24540298.8274
       215.000         155.000
 115123995.21548  89706999.05448  21907375.9484   21907378.0064   21907376.6594
       240.000         207.000
 123060193.46148  95891053.21548  23417581.9054   23417584.4984   23417582.7014
       228.000         171.000
 121248785.16648  94479559.97948  23072886.8994   23072889.4664   23072887.2384
       230.000         181.000
 109690298.34548  85472954.09448  20873374.8204   20873376.4864   20873374.6104
       250.000         230.000
 115654341.03148  90120251.12448  22008301.7284   22008304.9844   22008302.5164
       240.000         204.000
 128737518.86148 100314971.35048  24497915.2784   24497918.0004   24497915.4854
       212.000         148.000
 105567925.76548  82260712.19048  20088915.6834   20088918.1744   20088915.6074
       251.000         229.000
 122396279.98548  95373707.05948  23291250.0384   23291253.0294   23291250.3474
       228.000         188.000
 09  1  6  0  6 30.0000000  0  9G24G28G 8G 9G15G10G21G26G27
 129031171.96148 100543748.71348  24553832.3344   24553836.7274   24553832.8464
       215.000         157.000
 115154682.35548  89730911.10848  21913215.3354   21913217.6744   21913215.8034
       241.000         207.000
 123148275.80548  95959688.81148  23434342.9284   23434345.8894   23434343.6484
       226.000         170.000
 121154729.03148  94406269.50448  23054988.4514   23054991.3644   23054989.0914
       225.000         181.000
 109647000.57548  85439215.57748  20865135.5404   20865137.2154   20865135.2684
       250.000         231.000
 115744633.33448  90190608.74948  22025483.6184   22025487.0464   22025484.3634
       239.000         203.000
 128755794.53448 100329212.12548  24501393.1484   24501394.2534   24501394.8524
       210.000         148.000
 105572089.79348  82263956.88148  20089708.0364   20089710.6044   20089707.8714
       251.000         229.000
 122467658.57848  95429326.74148  23304833.2804   23304836.3364   23304833.6434
       229.000         188.000
 09  1  6  0  7  0.0000000  0  9G24G28G 8G 9G15G10G21G26G27
 129102448.44648 100599288.80548  24567395.8224   24567400.1674   24567396.5234
       214.000         159.000
 115185872.61648  89755215.21348  21919150.9324   21919152.9844   21919151.8794
       240.000         208.000
 123236435.17448  96028384.42148  23451118.8724   23451123.3264   23451119.2694
       226.000         172.000
 121060871.46648  94333133.74548  23037126.9814   23037130.7364   23037126.9974
       224.000         179.000
 109603971.70148  85405686.59148  20856947.3574   20856949.0794   20856947.0144
       250.000         231.000
 115835250.88748  90261219.81948  22042727.5024   22042730.9894   22042728.3144
       239.000         202.000
 128774530.60048 100343811.63348  24504958.9404   24504959.7974   24504958.1704
       211.000         149.000
 105576628.65548  82267493.65048  20090571.7844   20090574.3554   20090571.6184
       251.000         229.000
 122539077.50848  95484977.86048  23318423.8034   23318426.8434   23318424.0924
       229.000         188.000
 09  1  6  0  7 30.0000000  0 10G24G28G 8G 9G15G10G21G26G17G27
 129173879.25148 100654949.18048  24580989.1334   24580993.3944   24580988.8064
       213.000         159.000
 115217564.79648  89779910.41748  21925181.6674   21925183.7864   21925181.9494
       241.000         207.000
 123324670.34148  96097139.05848  23467910.0534   23467913.5794   23467910.2834
       229.000         173.000
 120967213.56848  94260153.58048  23019304.7354   23019308.3604   23019304.3584
       225.000         179.000
 109561213.18348  85372368.27048  20848810.6824   20848812.3424   20848810.3964
       251.000         231.000
 115926191.58248  90332082.69448  22060032.6454   22060036.2324   22060033.6234
       240.000         202.000
 128793725.51148 100358768.70348  24508611.4934   24508612.9074   24508614.3494
       211.000         149.000
 105581543.14848  82271323.12448  20091506.9794   20091509.5124   20091506.7604
       251.000         229.000
 142441902.74058  93201475.00558  25202862.3065   25202865.5505   25202862.8945
       215.000         154.000
 122610536.18348  95540659.92348  23332021.5854   23332025.0824   23332021.5984
       227.000         188.000
 09  1  6  0  8  0.0000000  0 10G24G28G 8G 9G15G10G21G26G17G27
 129245461.50548 100710727.52448  24594609.5684   24594614.3774   24594610.4754
       208.000         156.000
 115249757.43148  89804995.59948  21931307.8664   21931309.8434   21931308.6354
       241.000         208.000
 123412979.69548  96165951.55748  23484715.4174   23484717.7814   23484716.2754
       229.000         173.000
 120873755.85548  94187329.39948  23001520.3634   23001524.0944   23001520.6714
       226.000         180.000
 109518725.78748  85339261.20648  20840725.6824   20840727.3204   20840725.3354
       250.000         231.000
 116017451.99448  90403194.69848  22077399.0554   22077402.6154   22077399.7054
       240.000         202.000
 128813377.50448 100374081.88348  24512350.4434   24512351.5564   24512352.6644
       208.000         146.000
 105586833.14448  82275445.19248  20092513.7314   20092516.1244   20092513.7224
       252.000         229.000
 142365445.23548  93141897.64048  25188312.9424   25188315.5004   25188312.7154
       215.000         159.000
 122682033.12748  95596371.80748  23345626.9734   23345630.7934   23345626.7724
       228.000         188.000
 09  1  6  0  8 30.0000000  0 10G24G28G 8G 9G15G10G21G26G17G27
 129317192.43148 100766621.75448  24608260.0114   24608263.8574   24608260.1284
       210.000         155.000
 115282449.60248  89830470.01848  21937528.6744   21937531.1944   21937529.4484
       241.000         208.000
 123501361.96348  96234820.86648  23501533.7454   23501536.2484   23501534.2924
       228.000         171.000
 120780499.68548  94114662.26348  22983774.2984   22983777.8424   22983774.2554
       226.000         179.000
 109476510.77548  85306366.39448  20832692.3964   20832694.1564   20832692.1084
       251.000         231.000
 116109030.95548  90474554.92048  22094826.3574   22094829.6544   22094827.1434
       239.000         202.000
 128833485.08748 100389750.08348  24516176.4814   24516178.8414   24516174.6694
       205.000         144.000
 105592499.38248  82279860.43648  20093591.9564   20093594.3884   20093591.9224
       252.000         228.000
 142289047.21848  93082366.74848  25173774.8454   25173777.1804   25173773.7004
       214.000         162.000
 122753568.23048  95652113.42748  23359240.2694   23359243.4984   23359240.8324
       231.000         189.000
 09  1  6  0  9  0.0000000  0 10G24G28G 8G 9G15G10G21G26G17G27
 129389068.65748 100822629.18548  24621937.4914   24621941.8204   24621937.7994
       213.000         157.000
 115315639.96548  89856332.65648  21943844.9044   21943846.7964   21943845.4454
       242.000         208.000
 123589815.74848  96303745.89048  23518365.4294   23518368.6194   23518366.6924
       224.000         166.000
 120687445.47148  94042152.50848  22966066.9534   22966070.0614   22966067.3764
       228.000         180.000
 109434570.02948  85273685.29648  20824711.4944   20824713.0224   20824711.3534
       251.000         231.000
 116200925.59748  90546161.13648  22112313.0984   22112316.6794   22112313.6784
       239.000         202.000
 128854046.69148 100405772.07748  24520090.3724   24520091.6494   24520091.3654
       210.000         149.000
 105598542.18748  82284569.12548  20094741.8874   20094744.3314   20094741.8624
       251.000         229.000
 142212711.12548  93022884.13248  25159248.7594   25159251.1584   25159248.2854
       215.000         162.000
 122825140.47848  95707884.02648  23372860.1564   23372862.8984   23372860.7354
       229.000         189.000
 09  1  6  0  9 30.0000000  0 10G24G28G 8G 9G15G10G21G26G17G27
 129461086.88148 100878747.27648  24635642.0934   24635646.7804   24635642.6794
       208.000         155.000
 115349326.51348  89882581.90648  21950255.3074   21950257.3644   21950255.8364
       241.000         208.000
 123678339.21648  96372725.20248  23535210.8844   23535214.0474   23535211.0724
       224.000         167.000
 120594593.58648  93969800.39948  22948397.8884   22948401.0404   22948398.3134
       229.000         181.000
 109392904.44748  85241218.60348  20816782.7624   20816784.3874   20816782.4104
       251.000         231.000
 116293132.64948  90618010.77448  22129859.3334   22129863.4144   22129859.7674
       238.000         202.000
 128875060.17548 100422146.22748  24524088.3254   24524090.3434   24524090.4724
       206.000         145.000
 105604961.63348  82289571.28148  20095963.5124   20095965.9204   20095963.4094
       251.000         229.000
 142136439.51948  92963451.65748  25144734.9944   25144736.3334   25144734.1384
       217.000         160.000
 122896748.56648  95763682.52648  23386486.3314   23386489.6054   23386486.6624
       228.000         186.000
 09  1  6  0 10  0.0000000  0 10G24G28G 8G 9G15G10G21G26G17G27
 129533248.11148 100934976.78448  24649374.0564   24649378.5164   24649373.7994
       212.000         154.000
 115383511.90548  89909219.87648  21956760.4754   21956762.5354   21956761.0624
       241.000         207.000
 123766935.39748  96441761.19848  23552070.0194   23552072.9034   23552070.2474
       225.000         169.000
 120501948.72648  93897609.61448  22930768.1484   22930770.9934   22930768.3944
       230.000         182.000
 109351518.77048  85208970.01948  20808907.2484   20808908.9524   20808907.0094
       250.000         231.000
 116385653.32348  90690104.78248  22147465.4544   22147469.4464   22147466.3924
       239.000         201.000
 128896527.88848 100438874.29148  24528173.8714   24528175.2894   24528171.8864
       211.000         148.000
 105611761.87248  82294870.16648  20097257.6024   20097259.9634   20097257.5714
       252.000         229.000
 142060239.10648  92904074.71648  25130234.2274   25130235.7644   25130233.8314
       216.000         159.000
 122968395.44248  95819511.23048  23400119.5894   23400123.6584   23400120.1594
       225.000         185.000
 09  1  6  0 10 30.0000000  0 10G24G28G 8G 9G15G10G21G26G17G27
 129605544.23548 100991311.43848  24663132.0904   24663136.0024   24663132.9374
       210.000         156.000
 115418189.41348  89936241.31748  21963359.1814   21963361.3744   21963359.8074
       241.000         207.000
 123855597.06148  96510848.20848  23568942.1844   23568944.8934   23568942.6544
       226.000         167.000
 120409506.33548  93825576.59948  22913176.9604   22913180.1254   22913176.9404
       233.000         183.000
 109310409.05048  85176936.47248  20801084.2254   20801085.9834   20801083.9064
       250.000         231.000
 116478480.58148  90762437.70548  22165130.0104   22165133.8224   22165130.9714
       238.000         201.000
 128918442.82748 100455950.83448  24532344.5344   24532345.4774   24532345.1274
       207.000         146.000
 105618937.93248  82300461.89948  20098623.1354   20098625.5334   20098623.1154
       252.000         229.000
 141984107.50848  92844751.39648  25115746.6954   25115748.2254   25115746.6054
       213.000         155.000
 123040074.86948  95875365.30648  23413760.0004   23413763.8934   23413760.1974
       230.000         189.000
 09  1  6  0 11  0.0000000  0 11G24G28G 8G 9G15G18G10G21G26G17G27
 129677973.24548 101047749.62348  24676913.9564   24676919.2154   24676913.9964
       206.000         154.000
 115453358.84848  89963646.07648  21970051.8594   21970054.1054   21970052.2534
       240.000         207.000
 123944323.86348  96579985.97348  23585826.4994   23585829.8534   23585826.9914
       225.000         166.000
 120317268.04748  93753702.63148  22895624.2054   22895627.6904   22895624.7484
       229.000         181.000
 109269577.86348  85145119.96148  20793314.3634   20793316.1314   20793313.9574
       250.000         231.000
 138893139.88258  90436208.27858  24527552.0325   24527553.0955   24527552.2745
       218.000         160.000
 116571612.35448  90835007.91448  22182852.8564   22182855.8544   22182853.0824
       240.000         201.000
 128940804.18248 100473375.22548  24536598.7824   24536601.8624   24536600.4374
       198.000         141.000
 105626491.31348  82306347.64348  20100060.5144   20100062.9244   20100060.5024
       251.000         229.000
 141908048.40748  92785484.52648  25101273.7184   25101274.6604   25101273.8884
       217.000         164.000
 123111786.99248  95931244.88148  23427407.6644   23427410.0224   23427407.8934
       232.000         190.000
 09  1  6  0 11 30.0000000  0 11G24G28G 8G 9G15G18G10G21G26G17G27
 129750533.13048 101104289.77948  24690722.8794   24690726.8174   24690722.7664
       214.000         156.000
 115489019.95248  89991433.94548  21976838.1914   21976840.0454   21976838.6674
       241.000         207.000
 124033115.94848  96649174.59948  23602722.3564   23602725.9764   23602723.2114
       220.000         165.000
 120225235.99948  93681989.34448  22878111.2154   22878114.3744   22878111.1694
       232.000         182.000
 109229027.21248  85113522.05048  20785597.8164   20785599.4724   20785597.5354
       250.000         231.000
 138796343.08548  90360782.29048  24509131.5194   24509132.9904   24509133.8644
       214.000         158.000
 116665047.17748  90907814.26448  22200632.9424   22200636.0604   22200633.8164
       240.000         201.000
 128963611.40848 100491147.06948  24540938.2744   24540940.9134   24540937.3234
       202.000         144.000
 105634423.54748  82312528.60548  20101569.8994   20101572.2934   20101569.8554
       252.000         228.000
 141832065.93248  92726277.39648  25086814.7614   25086816.3884   25086815.0604
       215.000         162.000
 123183532.19348  95987150.23348  23441059.9234   23441062.7724   23441060.2544
       228.000         188.000
 09  1  6  0 12  0.0000000  0 11G24G28G 8G 9G15G18G10G21G26G17G27
 129823221.48348 101160930.10848  24704554.9564   24704559.1094   24704555.9754
       208.000         153.000
 115525171.62248  90019604.08348  21983717.4924   21983719.5104   21983717.8274
       241.000         207.000
 124121972.45048  96718413.40148  23619630.6874   23619634.7244   23619630.8724
       221.000         164.000
 120133411.47448  93610437.79248  22860637.9694   22860640.9734   22860638.5144
       231.000         184.000
 109188759.04748  85082144.25848  20777935.1104   20777936.5954   20777934.7074
       250.000         231.000
 138699767.58348  90285528.66948  24490753.6174   24490756.1594   24490754.0704
       217.000         159.000
 116758783.22748  90980855.33648  22218470.3214   22218473.5554   22218471.3924
       240.000         201.000
 128986863.13448 100509265.24648  24545364.0604   24545365.6194   24545364.1584
       208.000         149.000
 105642735.41048  82319005.39148  20103151.4164   20103153.9174   20103151.3564
       251.000         228.000
 141756163.45348  92667132.60048  25072369.7794   25072372.8084   25072370.1474
       207.000         160.000
 123255310.29148  96043081.20048  23454718.0014   23454721.5304   23454718.2344
       227.000         185.000
 09  1  6  0 12 30.0000000  0 11G24G28G 8G 9G15G18G10G21G26G17G27
 129896035.92048 101217668.64648  24718410.2814   24718415.4364   24718409.5564
       211.000         151.000
 115561812.43248  90048155.36348  21990689.8734   21990691.7244   21990690.4534
       241.000         206.000
 124210892.44648  96787701.72048  23636553.1194   23636555.4614   23636553.0554
       227.000         169.000
 120041795.73248  93539048.92248  22843204.0844   22843206.9194   22843204.6024
       232.000         183.000
 109148775.20248  85050988.00948  20770326.3824   20770327.9254   20770326.0074
       250.000         231.000
 138603416.01948  90210449.52248  24472418.1724   24472421.3774   24472418.7044
       211.000         159.000
 116852818.54348  91054129.60048  22236364.5174   22236367.9614   22236365.8414
       239.000         200.000
 129010557.98048 100527728.80348  24549872.7904   24549874.3464   24549875.8214
       211.000         150.000
 105651427.68448  82325778.57948  20104805.5594   20104808.0174   20104805.3604
       251.000         229.000
 141680344.12648  92608052.63348  25057942.4824   25057944.4854   25057942.2604
       213.000         162.000
 123327120.77548  96099037.39848  23468383.1504   23468386.4924   23468383.1794
       228.000         186.000
 09  1  6  0 13  0.0000000  0 11G24G28G 8G 9G15G18G10G21G26G17G27
 129968973.06448 101274502.78548  24732289.8984   24732294.8444   24732290.9534
       207.000         146.000
 115598941.28548  90077086.94748  21997755.2984   21997757.3304   21997755.5914
       240.000         206.000
 124299873.90248  96857037.95748  23653485.9184   23653488.1404   23653487.1764
       224.000         166.000
 119950388.82548  93467822.78348  22825809.6984   22825812.3414   22825810.0324
       230.000         182.000
 109109076.70448  85020054.11548  20762772.0724   20762773.5424   20762771.9534
       251.000         231.000
 138507291.00848  90135546.98448  24454126.1714   24454129.2414   24454125.8944
       215.000         162.000
 116947150.28448  91127634.83948  22254314.9244   22254318.6004   22254315.4804
       237.000         199.000
 129034694.27848 100546536.17348  24554466.7524   24554468.8584   24554466.0224
       204.000         154.000
 105660500.40848  82332848.23348  20106532.2094   20106534.5574   20106532.1834
       252.000         229.000
 141604610.61448  92549039.50048  25043530.9664   25043533.2004   25043530.6004
       215.000         165.000
 123398962.69348  96155018.11148  23482055.1024   23482057.7094   23482054.8844
       232.000         190.000
 09  1  6  0 13 30.0000000  0 11G24G28G 8G 9G15G18G10G21G26G17G27
 130042029.84148 101331430.11948  24746190.7514   24746196.9934   24746191.9204
       200.000         146.000
 115636556.58748  90106397.57348  22004913.3224   22004915.1954   22004913.9234
       241.000         206.000
 124388916.16848  96926421.52748  23670428.1484   23670432.5754   23670428.8814
       218.000         162.000
 119859191.87548  93396760.25748  22808455.1204   22808458.2844   22808455.0294
       229.000         183.000
 109069664.57348  84989343.36648  20755272.1604   20755273.6914   20755272.0424
       250.000         231.000
 138411395.06848  90060822.88748  24435878.1064   24435880.6654   24435878.5464
       217.000         156.000
 117041775.74748  91201368.94548  22272321.8244   22272325.2294   22272322.4134
       238.000         200.000
 129059269.90048 100565686.01348  24559142.7844   24559144.6114   24559143.6254
       217.000         157.000
 105669954.09948  82340214.73448  20108331.2144   20108333.5764   20108331.0744
       251.000         229.000
 141528965.73348  92490095.47248  25029135.9234   25029137.6104   25029136.2104
       210.000         157.000
 123470835.07248  96211022.57248  23495731.8674   23495734.7164   23495732.5834
       230.000         188.000
 09  1  6  0 14  0.0000000  0 11G24G28G 8G 9G15G18G10G21G26G17G27
 130115203.90748 101388448.87548  24760116.2524   24760121.1784   24760115.0104
       209.000         148.000
 115674656.97248  90136086.19148  22012163.7504   22012165.4074   22012164.1344
       241.000         207.000
 124478018.01948  96995851.52648  23687384.4104   23687388.1954   23687384.4714
       222.000         165.000
 119768206.13848  93325862.29948  22791141.4884   22791144.1724   22791141.9464
       229.000         183.000
 109030540.72248  84958857.25048  20747827.1054   20747828.6174   20747826.8404
       250.000         231.000
 138315730.87848  89986279.31248  24417673.7074   24417675.1494   24417673.9354
       214.000         155.000
 117136692.93148  91275330.39148  22290384.0644   22290387.1924   22290384.9194
       239.000         198.000
 129084283.77348 100585177.34048  24563903.7354   24563905.6124   24563906.2164
       209.000         156.000
 105679789.63448  82347878.78748  20110202.8554   20110205.1934   20110202.8574
       251.000         229.000
 141453412.95948  92431223.18648  25014757.9774   25014760.7524   25014757.3064
       210.000         157.000
 123542737.78348  96267050.64548  23509413.8314   23509417.4404   23509413.8914
       228.000         187.000
 09  1  6  0 14 30.0000000  0 11G24G28G 8G 9G15G18G10G21G26G17G27
 130188491.71548 101445556.28348  24774063.9894   24774066.6854   24774064.8334
       209.000         146.000
 115713240.91548  90166151.59448  22019505.7224   22019507.8654   22019506.4194
       240.000         206.000
 124567177.62048  97065326.57148  23704352.0934   23704354.1204   23704353.0544
       223.000         165.000
 119677431.69848  93255128.98048  22773867.5314   22773870.4174   22773867.4914
       231.000         184.000
 108991706.08748  84928596.50148  20740437.0934   20740438.7214   20740436.8804
       250.000         231.000
 138220300.32448  89911917.84948  24399514.4604   24399514.7704   24399514.1614
       218.000         157.000
 117231898.49348  91349516.54048  22308500.9294   22308504.3114   22308501.7524
       238.000         198.000
 129109733.28348 100605008.08548  24568745.8664   24568747.5864   24568743.8634
       212.000         151.000
 105690006.74448  82355840.17448  20112146.9564   20112149.3924   20112146.9204
       251.000         228.000
 141377954.59048  92372424.42248  25000400.8064   25000401.1954   25000400.6034
       215.000         165.000
 123614669.43848  96323101.26348  23523102.2084   23523105.6034   23523102.0334
       229.000         187.000
 09  1  6  0 15  0.0000000  0 11G24G28G 8G 9G15G18G10G21G26G17G27
 130261889.94548 101502749.72448  24788030.3374   24788034.3004   24788031.3834
       205.000         149.000
 115752306.28048  90196592.15648  22026939.4074   22026941.5224   22026939.9384
       240.000         206.000
 124656393.69948  97134845.55848  23721327.9904   23721331.6694   23721328.5534
       219.000         163.000
 119586868.86748  93184560.54648  22756633.8704   22756636.9664   22756634.1024
       231.000         185.000
 108953161.32548  84898561.62048  20733102.3544   20733103.8174   20733102.1664
       250.000         231.000
 138125105.48848  89837740.09348  24381399.3214   24381400.4384   24381399.1864
       211.000         152.000
 117327389.73748  91423925.29648  22326672.0524   22326675.7704   22326673.0674
       237.000         198.000
 129135616.14848 100625176.56548  24573671.4264   24573673.2094   24573672.7844
       210.000         154.000
 105700605.24048  82364098.74348  20114163.6014   20114166.2214   20114163.4754
       251.000         229.000
 141302592.86648  92313701.02148  24986058.7234   24986060.8574   24986058.6404
       213.000         163.000
 123686628.71248  96379173.40348  23536795.7284   23536799.1004   23536795.9634
       230.000         187.000
 09  1  6  0 15 30.0000000  0 11G24G28G 8G 9G15G18G10G21G26G17G27
 130335396.95848 101560027.90348  24802017.7284   24802023.1354   24802017.6104
       205.000         145.000
 115791852.76048  90227407.58948  22034464.6294   22034467.2814   22034465.0794
       241.000         206.000
 124745665.93248  97204408.32548  23738316.3284   23738319.9764   23738316.2674
       222.000         165.000
 119496519.66848  93114158.58448  22739441.2304   22739444.3534   22739441.5874
       230.000         186.000
 108914909.09148  84868754.69148  20725823.0684   20725824.7084   20725822.7814
       250.000         231.000
 138030150.32148  89763749.09448  24363329.9574   24363331.7474   24363329.6324
       214.000         159.000
 117423164.92948  91498555.31748  22344897.4394   22344901.0804   22344898.2454
       237.000         197.000
 129161931.85548 100645682.29848  24578679.4874   24578680.8384   24578679.5744
       216.000         153.000
 105711586.74448  82372655.75048  20116253.5224   20116255.9724   20116253.4024
       252.000         229.000
 141227332.06148  92255056.30648  24971737.3214   24971739.9044   24971737.2514
       207.000         159.000
 123758616.23348  96435267.58648  23550495.2194   23550497.6714   23550495.3754
       232.000         188.000
 09  1  6  0 16  0.0000000  0 11G24G28G 8G 9G15G18G10G21G26G17G27
 130409011.89948 101617390.19148  24816026.2914   24816030.9934   24816026.9384
       203.000         141.000
 115831880.87448  90258598.33448  22042081.9924   22042084.3014   22042082.6404
       240.000         206.000
 124834995.20648  97274015.57448  23755315.9094   23755318.3834   23755316.9494
       220.000         164.000
 119406386.88448  93043925.27648  22722289.3884   22722292.5774   22722290.1534
       229.000         185.000
 108876952.78048  84839178.33948  20718600.3244   20718601.9244   20718600.0364
       250.000         232.000
 137935439.46748  89689948.43348  24345307.1234   24345309.0834   24345307.2294
       214.000         160.000
 117519224.09348  91573406.60748  22363176.7144   22363180.5654   22363177.3884
       236.000         196.000
 129188680.25048 100666525.13948  24583768.7144   24583770.3894   24583770.0754
       205.000         150.000
 105722953.77448  82381513.18048  20118416.6534   20118419.1184   20118416.6294
       252.000         229.000
 141152177.39548  92196494.17548  24957436.1774   24957437.9034   24957435.7434
       210.000         162.000
 123830633.32548  96491384.80748  23564199.0284   23564201.9754   23564199.3174
       229.000         184.000
 09  1  6  0 16 30.0000000  0 11G24G28G 8G 9G15G18G10G21G26G17G27
 130482728.82448 101674831.93848  24830054.0224   24830058.3164   24830055.0204
       212.000         144.000
 115872386.26148  90290160.97048  22049790.1834   22049792.3684   22049790.9814
       240.000         206.000
 124924377.36948  97343663.99148  23772323.9334   23772327.1264   23772324.0104
       217.000         159.000
 119316468.55248  92973859.06348  22705178.7164   22705181.8334   22705178.7044
       230.000         187.000
 108839290.76648  84809831.31548  20711433.4604   20711435.1824   20711433.3474
       250.000         232.000
 137840972.06748  89616337.50848  24327330.2624   24327332.1044   24327329.1834
       215.000         158.000
 117615561.67048  91648474.83348  22381509.4074   22381512.9644   22381510.0084
       236.000         197.000
 129215857.20748 100687702.00648  24588940.8904   24588942.0284   24588939.0194
       210.000         152.000
 105734703.84548  82390669.07448  20120652.5994   20120655.0184   20120652.4914
       251.000         229.000
 141077128.59348  92138014.60648  24943154.2304   24943156.8074   24943154.2514
       210.000         164.000
 123902676.53048  96547522.33948  23577907.9524   23577911.4304   23577907.8044
       232.000         186.000
 09  1  6  0 17  0.0000000  0 11G24G28G 8G 9G15G18G10G21G26G17G27
 130556543.95748 101732350.24048  24844101.2384   24844104.8844   24844102.2334
       208.000         146.000
 115913366.59648  90322093.69648  22057588.3914   22057590.4124   22057588.9604
       240.000         206.000
 125013810.73548  97413352.29148  23789342.1614   23789346.3714   23789341.8334
       216.000         161.000
 119226764.50148  92903959.82548  22688108.5244   22688111.4544   22688108.8904
       228.000         187.000
 108801923.72048  84780714.13248  20704322.6574   20704324.4544   20704322.3554
       250.000         232.000
 137746750.08848  89542917.82548  24309400.7884   24309402.6954   24309400.9894
       218.000         161.000
 117712174.38648  91723757.46448  22399894.2354   22399898.0284   22399895.2294
       237.000         197.000
 129243460.02448 100709210.64248  24594192.6884   24594194.9874   24594194.3954
       206.000         149.000
 105746836.49048  82400123.07048  20122961.4394   20122963.7854   20122961.2364
       251.000         228.000
 141002187.83648  92079619.23348  24928894.0374   24928895.8974   24928894.1354
       214.000         163.000
 123974744.32348  96603679.08048  23591623.3904   23591625.6544   23591624.1234
       232.000         186.000
 09  1  6  0 17 30.0000000  0 11G24G28G 8G 9G15G18G10G21G26G17G27
 130630454.84748 101789943.13748  24858165.5424   24858170.5724   24858165.7544
       213.000         149.000
 115954820.83048  90354395.69948  22065477.0004   22065479.0464   22065477.7684
       240.000         206.000
 125103294.54448  97483079.94948  23806370.5164   23806374.5404   23806370.8504
       218.000         160.000
 119137275.96848  92834228.51948  22671078.9214   22671082.2404   22671079.3854
       228.000         187.000
 108764853.66248  84751828.37648  20697268.4004   20697270.2094   20697268.1644
       250.000         232.000
 137652776.65848  89469691.78948  24291517.7924   24291519.7074   24291518.2694
       217.000         159.000
 117809060.44648  91799253.09248  22418330.8334   22418334.8824   22418331.5114
       236.000         197.000
 129271486.72348 100731049.56348  24599526.3924   24599528.6464   24599526.0724
       211.000         155.000
 105759352.54548  82409875.83248  20125343.1034   20125345.5564   20125343.0304
       251.000         228.000
 140927358.75848  92021310.83748  24914654.1924   24914656.4564   24914654.7214
       211.000         163.000
 124046836.45748  96659854.74648  23605340.3544   23605344.4084   23605341.1754
       226.000         182.000
 09  1  6  0 18  0.0000000  0 11G24G28G 8G 9G15G18G10G21G26G17G27
 130704459.66948 101847609.24448  24872249.0584   24872253.4084   24872249.1984
       208.000         150.000
 115996748.70248  90387066.76348  22073455.4964   22073457.6604   22073455.7294
       240.000         205.000
 125192828.74048  97552846.84748  23823409.1344   23823412.2524   23823410.1214
       219.000         161.000
 119048004.93248  92764666.68248  22654091.2074   22654094.2174   22654091.5534
       231.000         186.000
 108728082.69348  84723175.67348  20690271.1614   20690273.0724   20690270.8874
       250.000         232.000
 137559055.44348  89396662.28948  24273683.2834   24273685.2174   24273682.5444
       213.000         156.000
 117906217.51848  91874959.89548  22436819.4504   22436823.3914   22436819.9804
       237.000         197.000
 129299936.78448 100753218.42748  24604940.3104   24604942.5844   24604940.9724
       210.000         155.000
 105772253.45748  82419928.48048  20127798.1654   20127800.5084   20127798.0824
       251.000         228.000
 140852645.02648  91963092.34748  24900436.0544   24900439.0784   24900436.2194
       213.000         159.000
 124118953.05648  96716049.48548  23619064.1504   23619067.5224   23619063.9484
       231.000         185.000
 09  1  6  0 18 30.0000000  0 11G24G28G 8G 9G15G18G10G21G26G17G27
 130778554.65548 101905345.58348  24886347.8024   24886353.6944   24886347.2654
       205.000         147.000
 116039147.14348  90420104.51448  22081523.6904   22081525.7794   22081523.9494
       240.000         205.000
 125282410.84348  97622651.05148  23840455.9894   23840459.3254   23840455.6464
       216.000         161.000
 118958950.84748  92695273.88948  22637144.9114   22637147.6744   22637145.2714
       232.000         188.000
 108691611.41648  84694756.50248  20683330.9694   20683332.6974   20683330.6754
       250.000         232.000
 137465587.78948  89323830.37248  24255896.3784   24255899.1314   24255897.7904
       214.000         158.000
 118003642.51848  91950875.46648  22455358.7794   22455362.6864   22455359.4684
       236.000         196.000
 129328807.33948 100775714.95948  24610434.0654   24610436.5034   24610434.4004
       211.000         154.000
 105785538.42748  82430280.40348  20130326.1284   20130328.5404   20130326.2184
       251.000         228.000
 140778048.71748  91904965.35948  24886240.6374   24886243.2444   24886241.1404
       213.000         162.000
 124191092.58348  96772262.11748  23632792.6184   23632795.0264   23632793.2204
       229.000         185.000
 09  1  6  0 19  0.0000000  0 11G24G28G 8G 9G15G18G10G21G26G17G27
 130852737.41148 101963150.33448  24900464.2304   24900469.8004   24900464.8414
       209.000         151.000
 116082015.33048  90453508.30148  22089681.3304   22089683.3594   22089681.6214
       240.000         205.000
 125372040.26748  97692492.16048  23857511.2174   23857515.2594   23857511.8054
       217.000         160.000
 118870115.10148  92626051.24248  22620240.3534   22620243.0744   22620240.6574
       232.000         188.000
 108655441.21748  84666571.93448  20676448.1114   20676449.7154   20676447.9054
       250.000         233.000
 137372376.54348  89251198.22748  24238159.9564   24238161.4044   24238159.9234
       215.000         158.000
 118101333.44948  92026998.26548  22473948.7444   22473952.6994   22473949.4594
       236.000         196.000
 129358096.76048 100798537.83248  24616007.6904   24616009.2464   24616009.7414
       212.000         154.000
 105799208.31048  82440932.24748  20132927.4244   20132929.8384   20132927.2644
       251.000         228.000
 140703573.13748  91846932.45848  24872069.2204   24872071.8304   24872068.4824
       217.000         167.000
 124263255.00848  96828492.56548  23646523.7714   23646527.1754   23646523.2414
       228.000         183.000
 09  1  6  0 19 30.0000000  0 11G24G28G 8G 9G15G18G10G21G26G17G27
 130927005.49048 102021021.54848  24914596.5394   24914602.2824   24914597.3704
       204.000         149.000
 116125351.89448  90487277.05448  22097927.8264   22097929.7894   22097928.3564
       239.000         204.000
 125461716.27148  97762369.53448  23874577.2734   23874580.5204   23874577.0224
       218.000         162.000
 118781498.90348  92556999.66348  22603377.3134   22603379.9994   22603377.6264
       232.000         188.000
 108619574.15648  84638623.57548  20669622.7934   20669624.3184   20669622.4744
       250.000         233.000
 137279424.98348  89178768.46948  24220471.7944   24220473.8324   24220471.6054
       218.000         163.000
 118199287.87948  92103326.38148  22492588.9304   22492592.8664   22492589.7474
       235.000         196.000
 129387803.45448 100821685.90348  24621661.8934   24621663.1284   24621660.2764
       209.000         151.000
 105813263.96048  82451884.69848  20135602.1154   20135604.6274   20135602.1634
       251.000         228.000
 140629221.58848  91788996.22648  24857920.0214   24857922.6604   24857919.7414
       215.000         161.000
 124335440.09948  96884740.68848  23660260.8284   23660263.4224   23660261.1654
       229.000         184.000
 09  1  6  0 20  0.0000000  0 11G24G28G 8G 9G15G18G10G21G26G17G27
 131001355.49248 102078956.61848  24928745.9764   24928751.0544   24928745.9804
       209.000         149.000
 116169155.04048  90521409.37448  22106263.3994   22106265.3814   22106263.5524
       240.000         205.000
 125551437.36248  97832282.06148  23891649.9314   23891653.3034   23891650.2424
       213.000         160.000
 118693102.55448  92488119.39048  22586556.1954   22586558.7884   22586556.3974
       233.000         189.000
 108584011.22148  84610912.20048  20662855.5714   20662857.0744   20662855.5074
       250.000         233.000
 137186735.11448  89106542.65148  24202833.6694   24202835.4184   24202836.0264
       218.000         164.000
 118297503.40448  92179857.95448  22511279.0594   22511282.4324   22511279.8214
       236.000         195.000
 129417925.53648 100845157.60248  24627393.6124   24627394.8274   24627394.4464
       208.000         154.000
 105827705.33548  82463137.71648  20138350.1804   20138352.7194   20138350.0654
       251.000         228.000
 140554996.92648  91731158.81948  24843796.9844   24843797.4254   24843796.4724
       219.000         161.000
 124407646.80848  96941005.64948  23674000.7604   23674003.9324   23674000.8454
       226.000         182.000
 09  1  6  0 20 30.0000000  0 11G24G28G 8G 9G15G18G10G21G26G17G27
 131075784.65248 102136953.36848  24942909.5294   24942913.9294   24942908.7674
       207.000         145.000
 116213423.44048  90555904.22548  22114687.5714   22114689.4334   22114688.2564
       240.000         204.000
 125641202.73748  97902229.06148  23908730.9074   23908735.1504   23908732.1664
       210.000         157.000
 118604927.06048  92419411.21948  22569776.8094   22569779.8274   22569777.3144
       232.000         190.000
 108548754.00948  84583439.05348  20656146.3154   20656147.9384   20656146.0774
       250.000         233.000
 137094309.53448  89034522.72348  24185245.6694   24185247.0004   24185246.4994
       215.000         160.000
 118395977.13248  92256590.72348  22530017.5644   22530021.4834   22530018.6254
       235.000         195.000
 129448460.64948 100868951.17348  24633203.6574   24633205.5384   24633202.6574
       207.000         154.000
 105842532.97548  82474691.71148  20141171.7964   20141174.2474   20141171.7274
       251.000         228.000
 140480902.33948  91673422.74748  24829696.3224   24829697.1274   24829696.2924
       218.000         161.000
 124479874.67348  96997287.11448  23687744.9224   23687748.3554   23687744.8344
       227.000         182.000
 09  1  6  0 21  0.0000000  0 11G24G28G 8G 9G15G18G10G21G26G17G27
 131150290.68948 102195010.05348  24957085.9794   24957091.2194   24957086.8414
       205.000         139.000
 116258155.71748  90590760.54948  22123199.8134   22123201.4714   22123200.2304
       239.000         205.000
 125731011.64248  97972210.01848  23925822.3864   23925824.6894   23925823.3024
       213.000         158.000
 118516973.75148  92350876.18948  22553039.7814   22553042.6774   22553039.6734
       229.000         189.000
 108513804.19348  84556205.43348  20649495.4394   20649497.1744   20649495.1274
       250.000         233.000
 137002151.55848  88962711.35448  24167708.5584   24167710.0244   24167709.6454
       217.000         163.000
 118494707.64248  92333523.57348  22548805.1994   22548809.1594   22548805.7824
       234.000         194.000
 129479407.67948 100893065.66748  24639093.1064   24639094.5644   24639092.6524
       211.000         155.000
 105857747.76548  82486547.38748  20144067.1064   20144069.5244   20144067.0914
       251.000         228.000
 140406940.96348  91615790.56948  24815621.5874   24815623.5394   24815622.1424
       214.000         160.000
 124552123.54648  97053584.92148  23701493.5334   23701496.9944   23701493.3164
       227.000         182.000
 09  1  6  0 21 30.0000000  0 11G24G28G 8G 9G15G18G10G21G26G17G27
 131224870.91248 102253124.58548  24971278.9604   24971283.0054   24971279.4844
       201.000         135.000
 116303350.47948  90625977.24648  22131799.7664   22131801.9474   22131799.8144
       240.000         204.000
 125820863.13948  98042224.16348  23942919.6044   23942922.7504   23942918.9734
       211.000         158.000
 118429243.53348  92282515.00748  22536344.6874   22536348.4124   22536344.3694
       229.000         188.000
 108479163.55448  84529212.73148  20642903.4214   20642905.2694   20642903.0324
       250.000         233.000
 136910263.84348  88891110.53748  24150223.0104   24150224.1984   24150223.6574
       220.000         161.000
 118593691.66948  92410653.96548  22567641.5424   22567645.1474   22567642.1454
       234.000         193.000
 129510764.49048 100917499.55748  24645058.6374   24645061.0964   24645060.0624
       213.000         152.000
 105873350.04348  82498704.99548  20147036.1494   20147038.5434   20147036.0214
       251.000         228.000
 140333115.89048  91558264.50648  24801573.2874   24801575.2954   24801572.7664
       218.000         163.000
 124624393.04148  97109898.82648  23715246.2724   23715249.1554   23715246.3144
       230.000         182.000
 09  1  6  0 22  0.0000000  0 11G24G28G 8G 9G15G18G10G21G26G17G27
 131299522.42048 102311294.55948  24985485.9264   24985489.8464   24985487.4974
       203.000         137.000
 116349005.85748  90661552.86948  22140487.8314   22140489.8794   22140488.8074
       240.000         204.000
 125910755.97248  98112270.52548  23960025.4484   23960029.1614   23960026.3844
       213.000         158.000
 118341737.03648  92214328.13648  22519692.9074   22519696.3254   22519693.3784
       230.000         187.000
 108444833.27348  84502461.86148  20636370.5884   20636372.4094   20636370.2514
       250.000         233.000
 136818648.60248  88819722.05648  24132788.8834   24132790.8444   24132791.2264
       216.000         161.000
 118692926.86448  92487980.07748  22586525.3864   22586528.7254   22586526.1114
       234.000         193.000
 129542529.16148 100942251.25148  24651104.2864   24651106.2914   24651104.0694
       213.000         153.000
 105889340.05748  82511164.73948  20150078.9484   20150081.3664   20150078.8924
       251.000         228.000
 140259430.19448  91500847.07848  24787551.8034   24787553.6394   24787552.0624
       215.000         165.000
 124696682.33848  97166228.13648  23729002.4714   23729005.5454   23729002.9244
       227.000         180.000
 09  1  6  0 22 30.0000000  0 11G24G28G 8G 9G15G18G10G21G26G17G27
 131374241.90948 102369517.54148  24999704.5694   24999706.7554   24999704.7864
       209.000         142.000
 116395120.08848  90697486.04748  22149262.8914   22149265.2364   22149262.9274
       240.000         204.000
 126000688.98848  98182348.16248  23977139.5674   23977142.4864   23977138.7374
       212.000         158.000
 118254454.87448  92146316.07748  22503083.6294   22503086.4014   22503083.9614
       230.000         186.000
 108410814.65748  84475953.84948  20629897.1254   20629898.8894   20629896.8614
       250.000         233.000
 136727308.34348  88748547.84048  24115407.0994   24115408.9654   24115408.0404
       218.000         163.000
 118792410.27848  92565499.61748  22605456.2114   22605459.7184   22605457.0274
       235.000         192.000
 129574699.13848 100967318.74648  24657226.0464   24657228.9324   24657227.1184
       200.000         145.000
 105905717.88648  82523926.67748  20153195.5014   20153198.0034   20153195.3844
       251.000         228.000
 140185886.37148  91443540.24248  24773556.4204   24773559.3454   24773556.8484
       214.000         163.000
 124768990.73148  97222572.33548  23742762.2074   23742765.7244   23742762.4424
       226.000         180.000
 09  1  6  0 23  0.0000000  0 11G24G28G 8G 9G15G18G10G21G26G17G27
 131449026.67448 102427791.38148  25013935.6684   25013939.0944   25013935.9474
       207.000         144.000
 116441691.82148  90733775.70348  22158125.4384   22158127.3964   22158126.0974
       240.000         203.000
 126090661.07748  98252456.27048  23994260.2004   23994263.8924   23994261.2584
       215.000         160.000
 118167397.79548  92078479.39348  22486517.4964   22486520.1144   22486517.3504
       232.000         187.000
 108377108.95948  84449689.67248  20623483.1394   20623484.7544   20623482.9634
       250.000         233.000
 136636245.74248  88677590.00448  24098078.6024   24098079.9974   24098079.3274
       215.000         161.000
 118892139.89548  92643211.00048  22624434.3434   22624437.8644   22624435.3354
       234.000         193.000
 129607273.03948 100992700.90548  24663424.6104   24663427.9124   24663424.0794
       197.000         145.000
 105922484.02048  82536991.19048  20156386.0234   20156388.4904   20156385.9234
       251.000         228.000
 140112487.88448  91386346.59148  24759588.5544   24759591.3484   24759588.3204
       219.000         162.000
 124841317.68448  97278931.00948  23756525.8804   23756528.8964   23756525.8834
       229.000         182.000
 09  1  6  0 23 30.0000000  0 11G24G28G 8G 9G15G18G10G21G26G17G27
 131523873.73448 102486113.77348  25028177.8494   25028181.8804   25028176.7374
       209.000         146.000
 116488719.02848  90770420.28648  22167074.1334   22167076.0814   22167074.1284
       239.000         203.000
 126180671.15348  98322593.96448  24011388.1994   24011392.8544   24011387.6194
       208.000         158.000
 118080566.19048  92010818.39248  22469994.1184   22469996.5704   22469994.1434
       232.000         188.000
 108343717.25848  84423670.16248  20617128.9124   20617130.6404   20617128.6764
       250.000         233.000
 136545463.14148  88606850.30148  24080802.9754   24080804.7194   24080803.3634
       215.000         162.000
 118992112.90948  92721112.03048  22643458.4154   22643462.3714   22643458.7814
       233.000         192.000
 129640248.20348 101018395.79148  24669699.8044   24669700.8794   24669699.7854
       207.000         148.000
 105939638.67948  82550358.44848  20159650.4744   20159652.9144   20159650.4324
       251.000         228.000
 140039237.08648  91329268.02948  24745650.5794   24745652.1774   24745650.6794
       213.000         163.000
 124913662.63048  97335303.67348  23770292.3394   23770295.8814   23770292.8524
       226.000         181.000
 09  1  6  0 24  0.0000000  0 11G24G28G 8G 9G15G18G10G21G26G17G27
 131598780.87548 102544482.99548  25042431.8594   25042436.4424   25042433.6334
       208.000         149.000
 116536200.42548  90807418.77448  22176109.8774   22176111.7594   22176110.2234
       240.000         203.000
