     2.11           OBSERVATION DATA    G (GPS)             RINEX VERSION / TYPE
teqc  2008Oct2      gpsops              20090128 00:05:48UTCPGM / RUN BY / DATE
    30.0000                                                 INTERVAL
     1     1                                                WAVELENGTH FACT L1/2
     7    L1    L2    P1    P2    C1    S1    S2            # / TYPES OF OBSERV
Linux 2.4.20-8|Pentium IV|gcc -static|Linux|486/DX+         COMMENT
     2.10           OBSERVATION DATA    GPS                 COMMENT
soc2rnx ver 1.20    gpsops              28-Jan-2009 00:05:43COMMENT
S1, if present, is the SNR for the C/A data stream on L1.   COMMENT
 SNR is mapped to RINEX snr flag value [1,4-9]              COMMENT
    SNR:   >316  >100  >31.6  >10  >3.2    >0 bad=0         COMMENT
L1 & L2:      9     8     7     6     5     4     1         COMMENT
                                                            COMMENT
This data is provided as a public service by NASA/JPL.      COMMENT
No warranty is expressed or implied regarding suitability   COMMENT
for use.  For further information, contact:                 COMMENT
Dave Stowers, NASA/JPL m/s 238-600                          COMMENT
4800 Oak Grove Drive, Pasadena CA 91109 USA                 COMMENT
                                                            COMMENT
Forced Modulo Decimation to 30 seconds                      COMMENT
  2009     1    27     0     0    0.0000000     GPS         TIME OF FIRST OBS
DSN                 JPL                                     OBSERVER / AGENCY
451-U               AOAD/M_T        NONE                    ANT # / TYPE
  4849202.3940  -360328.9929  4114913.1862                  APPROX POSITION XYZ
        0.0254        0.0000        0.0000                  ANTENNA: DELTA H/E/N
LP03574             ASHTECH Z-XII3      CC00                REC # / TYPE / VERS
MADR                                                        MARKER NAME
13407S012                                                   MARKER NUMBER
                                                            END OF HEADER
 09  1 27  0  0  0.0000000  0 10G 5G 9G18G26G15G17G10G27G28G12
 127869441.69348  99638503.03848  24332764.2634   24332767.3874   24332764.3554
       216.000         162.000
 109187808.83148  85081401.66548  20777753.3274   20777756.0404   20777753.4564
       245.000         216.000
 118437651.39748  92289078.28348  22537935.9934   22537937.9704   22537936.1864
       233.000         189.000
 111228810.53148  86671791.13148  21166148.1264   21166150.8854   21166148.0644
       245.000         214.000
 107153033.95048  83495868.01748  20390547.8794   20390549.3404   20390547.8134
       251.000         236.000
 123049792.95348  95882946.08748  23415603.8934   23415605.7844   23415604.0594
       228.000         183.000
 132123005.26648 102952972.15248  25142187.4224   25142190.8564   25142185.9704
       208.000         144.000
 127344176.63648  99229211.36248  24232803.3004   24232807.9574   24232803.7494
       208.000         154.000
 125440656.51048  97745954.53148  23870573.0894   23870575.0614   23870573.1354
       223.000         174.000
 121709309.59148  94838418.63248  23160513.3014   23160515.7784   23160512.7734
       227.000         185.000
 09  1 27  0  0 30.0000000  0 10G 5G 9G18G26G15G17G10G27G28G12
 127756987.51348  99550876.41148  24311364.6454   24311368.1514   24311364.8364
       217.000         164.000
 109134687.89048  85040008.73248  20767644.8024   20767647.4984   20767644.7944
       244.000         216.000
 118399392.54648  92259266.20548  22530655.7024   22530657.6314   22530656.6654
       234.000         191.000
 111295276.22848  86723582.57348  21178796.0914   21178798.8004   21178796.0474
       245.000         215.000
 107170628.14748  83509577.77348  20393895.8894   20393897.4344   20393895.6114
       251.000         237.000
 123018168.77348  95858303.89048  23409586.3064   23409588.0694   23409586.1004
       229.000         184.000
 132233060.32348 103038729.32948  25163129.5014   25163133.1424   25163130.2324
       206.000         145.000
 127412489.48748  99282442.12648  24245803.4874   24245807.0054   24245803.1954
       210.000         155.000
 125529030.82748  97814817.61748  23887390.1474   23887391.6864   23887390.5434
       223.000         170.000
 121606365.97948  94758202.82948  23140924.2114   23140926.0954   23140924.5724
       229.000         188.000
 09  1 27  0  1  0.0000000  0 10G 5G 9G18G26G15G17G10G27G28G12
 127644662.74948  99463350.65448  24289989.5184   24289993.5544   24289989.6984
       210.000         162.000
 109081868.11648  84998850.47748  20757593.3314   20757596.0214   20757593.5024
       245.000         216.000
 118361676.87948  92229877.37048  22523478.5904   22523480.3394   22523479.0474
       233.000         189.000
 111362105.21648  86775657.10848  21191513.3794   21191515.9194   21191513.3434
       245.000         214.000
 107188674.08248  83523639.53248  20397330.0034   20397331.4814   20397329.7324
       251.000         236.000
 122987024.30048  95834035.46948  23403659.7834   23403661.7714   23403659.6044
       227.000         184.000
 132343042.36848 103124429.62548  25184057.5464   25184061.6924   25184060.3474
       205.000         145.000
 127480830.16648  99335694.60848  24258807.8264   24258811.2184   24258807.6274
       207.000         154.000
 125617590.23048  97883824.92748  23904242.2964   23904243.8614   23904242.9144
       222.000         168.000
 121503659.01348  94678171.42048  23121380.1584   23121381.3094   23121380.3574
       228.000         187.000
 09  1 27  0  1 30.0000000  0 10G 5G 9G18G26G15G17G10G27G28G12
 127532469.89548  99375927.69448  24268639.5464   24268643.7694   24268638.9694
       214.000         162.000
 109029350.39348  84957927.57548  20747599.5264   20747602.1744   20747599.8844
       246.000         216.000
 118324506.46748  92200913.41148  22516405.3034   22516407.2224   22516405.7344
       234.000         190.000
 111429297.30448  86828014.57248  21204299.5314   21204302.3864   21204299.3134
       245.000         215.000
 107207172.40248  83538053.80348  20400850.1434   20400851.5664   20400849.9474
       251.000         236.000
 122956361.49048  95810142.37648  23397824.7114   23397826.6784   23397824.6794
       228.000         184.000
 132452949.78548 103210071.73848  25204971.5374   25204975.2514   25204972.5694
       208.000         144.000
 127549198.95148  99388968.97348  24271819.0374   24271822.0754   24271819.0574
       208.000         155.000
 125706332.97748  97952975.12248  23921129.1274   23921130.5484   23921129.4574
       220.000         163.000
 121401190.92648  94598326.15848  23101880.3524   23101881.9824   23101879.4074
       226.000         185.000
 09  1 27  0  2  0.0000000  0 10G 5G 9G18G26G15G17G10G27G28G12
 127420411.04948  99288609.13648  24247315.9684   24247319.7234   24247317.5004
       218.000         162.000
 108977135.21248  84917240.43448  20737663.2514   20737665.8964   20737663.4084
       246.000         216.000
 118287882.33548  92172375.11548  22509435.8044   22509437.3384   22509435.9494
       233.000         189.000
 111496851.64148  86880654.30048  21217154.6264   21217157.2664   21217154.4704
       245.000         214.000
 107226123.62648  83552820.98348  20404456.3654   20404457.9094   20404456.1324
       251.000         236.000
 122926182.96448  95786626.65848  23392081.9274   23392083.8814   23392081.5584
       227.000         184.000
 132562779.94448 103295653.68348  25225871.9924   25225874.8754   25225872.4904
       207.000         142.000
 127617596.12848  99442265.47448  24284833.6564   24284837.3484   24284834.2294
       209.000         153.000
 125795257.31048  98022266.80448  23938050.9754   23938052.0604   23938051.3054
       221.000         163.000
 121298964.18748  94518668.96348  23082427.4754   23082428.9744   23082428.0694
       227.000         186.000
 09  1 27  0  2 30.0000000  0 10G 5G 9G18G26G15G17G10G27G28G12
 127308486.93848  99201395.55148  24226018.3024   24226021.2684   24226020.3084
       216.000         162.000
 108925221.87348  84876788.48348  20727784.7144   20727786.9724   20727784.6324
       246.000         217.000
 118251804.27248  92144262.33948  22502570.1774   22502572.3524   22502571.3434
       233.000         191.000
 111564766.30848  86933574.81448  21230078.6114   21230081.0184   21230078.4734
       246.000         214.000
 107245526.83248  83567940.35648  20408148.7254   20408150.2224   20408148.3824
       252.000         236.000
 122896488.77348  95763488.32448  23386431.3284   23386433.3094   23386431.1804
       228.000         185.000
 132672529.40748 103381172.77448  25246757.2844   25246759.1064   25246758.3984
       209.000         140.000
 127686020.42048  99495583.07748  24297854.9424   24297858.4884   24297855.3454
       208.000         156.000
 125884359.63748  98091697.19648  23955006.4904   23955007.4734   23955007.1324
       218.000         163.000
 121196979.19448  94439200.13748  23063020.2604   23063021.9164   23063020.1004
       228.000         187.000
 09  1 27  0  3  0.0000000  0 10G 5G 9G18G26G15G17G10G27G28G12
 127196700.13548  99114288.97648  24204745.2754   24204749.0104   24204745.3524
       215.000         162.000
 108873611.32048  84836572.48448  20717963.4554   20717966.1384   20717963.5914
       248.000         217.000
 118216274.52748  92116576.82348  22495809.4294   22495811.5574   22495809.4674
       235.000         193.000
 111633041.27548  86986776.08148  21243070.8004   21243073.5664   21243070.8204
       245.000         214.000
 107265383.65748  83583413.20348  20411927.4694   20411928.8244   20411927.2134
       251.000         236.000
 122867281.38248  95740729.33348  23380873.2544   23380875.1964   23380873.1574
       229.000         185.000
 132782196.48948 103466627.63948  25267626.3644   25267628.9004   25267627.6334
       206.000         139.000
 127754472.52548  99548922.35848  24310880.4024   24310884.0534   24310880.1864
       208.000         157.000
 125973638.26448  98161264.95848  23971995.7934   23971997.1894   23971995.0944
       220.000         164.000
 121095239.17848  94359922.20448  23043659.6764   23043661.3864   23043659.8494
       228.000         188.000
 09  1 27  0  3 30.0000000  0 10G 5G 9G18G26G15G17G10G27G28G12
 127085053.65348  99027291.72948  24183499.7494   24183503.2364   24183500.6154
       217.000         164.000
 108822305.23948  84796593.72048  20708200.1964   20708202.7624   20708200.4444
       248.000         217.000
 118181295.20748  92089320.21048  22489153.1854   22489155.1194   22489154.1084
       234.000         192.000
 111701676.63948  87040258.17548  21256131.5554   21256134.2864   21256131.5344
       245.000         213.000
 107285695.22948  83599240.39848  20415792.5774   20415794.0834   20415792.3954
       251.000         236.000
 122838563.61348  95718351.83748  23375408.5034   23375410.4474   23375408.0584
       229.000         186.000
 132891779.93348 103552017.33248  25288478.8624   25288481.4934   25288479.2384
       204.000         142.000
 127822953.58048  99602284.20648  24323911.9864   24323916.4864   24323911.9644
       210.000         157.000
 126063092.32648  98230969.41548  23989018.2754   23989019.6034   23989018.4344
       222.000         162.000
 120993746.82148  94280837.24448  23024346.7054   23024348.5024   23024346.6114
       228.000         188.000
 09  1 27  0  4  0.0000000  0 10G 5G 9G18G26G15G17G10G27G28G12
 126973547.71948  98940404.03048  24162280.7554   24162284.1414   24162281.3654
       216.000         163.000
 108771302.48148  84756851.32048  20698494.7134   20698497.3584   20698494.8644
       248.000         216.000
 118146866.32148  92062492.50448  22482601.4154   22482603.2544   22482602.4044
       235.000         191.000
 111770670.01648  87094019.23948  21269260.5124   21269263.0954   21269260.2864
       244.000         212.000
 107306460.23948  83615420.91948  20419743.8754   20419745.5594   20419743.5284
       249.000         235.000
 122810335.42948  95696355.85348  23370037.0234   23370038.7784   23370036.9304
       228.000         185.000
 133001275.55448 103637338.60148  25309314.7024   25309318.5124   25309314.2284
       198.000         139.000
 127891461.78248  99655667.21648  24336949.0164   24336952.9304   24336948.8244
       206.000         157.000
 126152718.11748  98300807.67748  24006073.8814   24006075.1334   24006075.1444
       218.000         162.000
 120892502.75848  94201945.77348  23005080.6684   23005082.3974   23005080.8294
       226.000         186.000
 09  1 27  0  4 30.0000000  0 10G 5G 9G18G26G15G17G10G27G28G12
 126862184.88448  98853627.83448  24141089.5114   24141092.3214   24141090.0624
       220.000         165.000
 108720603.89748  84717345.92948  20688847.1284   20688849.5214   20688847.6444
       248.000         217.000
 118112988.66648  92036094.33048  22476155.1354   22476156.8244   22476155.4504
       234.000         191.000
 111840021.10748  87148059.04648  21282457.6744   21282460.3894   21282457.6424
       245.000         212.000
 107327679.74748  83631955.59948  20423781.9294   20423783.5154   20423781.6194
       251.000         235.000
 122782598.89548  95674742.98348  23364758.6284   23364760.8174   23364758.7344
       229.000         184.000
 133110681.80848 103722590.22448  25330133.6724   25330137.7034   25330132.8304
       203.000         140.000
 127959997.63348  99709071.76048  24349992.0134   24349995.0794   24349991.8524
       209.000         157.000
 126242513.69648  98370778.24748  24023161.3674   24023162.6664   24023162.3854
       222.000         162.000
 120791509.54448  94123249.77848  22985861.5594   22985863.6524   22985861.4104
       228.000         186.000
 09  1 27  0  5  0.0000000  0 10G 5G 9G18G26G15G17G10G27G28G12
 126750967.15048  98766964.68648  24119925.6944   24119928.4424   24119926.0864
       218.000         167.000
 108670210.29548  84678078.19348  20679257.4574   20679260.0624   20679257.3784
       247.000         216.000
 118079663.26848  92010126.48048  22469813.6774   22469814.8764   22469814.4784
       234.000         190.000
 111909729.00748  87202376.87948  21295722.6814   21295725.2934   21295722.8694
       243.000         211.000
 107349354.11848  83648844.70848  20427906.4274   20427907.9104   20427906.2014
       249.000         234.000
 122755355.88548  95653514.65948  23359574.5184   23359576.3644   23359574.5264
       227.000         185.000
 133219996.15048 103807770.25648  25350936.1864   25350940.1954   25350936.9984
       203.000         138.000
 128028561.24148  99762497.93648  24363038.3694   24363042.3454   24363038.1804
       209.000         157.000
 126332477.21948  98440879.69448  24040280.8364   24040282.7884   24040281.3914
       220.000         161.000
 120690769.40848  94044750.97748  22966691.3534   22966693.4594   22966690.9644
       227.000         187.000
 09  1 27  0  5 30.0000000  0 10G 5G 9G18G26G15G17G10G27G28G12
 126639897.22048  98680416.72948  24098789.4784   24098792.6244   24098789.3124
       217.000         166.000
 108620122.85548  84639049.02948  20669726.0524   20669728.4884   20669726.2974
       247.000         217.000
 118046892.78148  91984591.02848  22463577.9224   22463578.7764   22463578.3864
       236.000         192.000
 111979793.77848  87256972.79948  21309055.5874   21309058.4044   21309055.4524
       243.000         212.000
 107371484.33348  83666089.02948  20432117.6754   20432119.1624   20432117.4054
       250.000         234.000
 122728608.94948  95632672.90148  23354484.3454   23354486.5114   23354484.6134
       228.000         184.000
 133329217.19748 103892877.57648  25371719.0564   25371723.4484   25371719.5844
       203.000         136.000
 128097153.57848  99815946.50848  24376091.1794   24376094.4704   24376091.0074
       209.000         157.000
 126422607.03648  98511110.71448  24057431.8274   24057434.1544   24057432.6074
       219.000         161.000
 120590285.21748  93966451.61648  22947570.1014   22947571.8804   22947569.9284
       228.000         188.000
 09  1 27  0  6  0.0000000  0 10G 5G 9G18G26G15G17G10G27G28G12
 126528976.23748  98593984.83048  24077681.8434   24077685.0674   24077682.4604
       221.000         167.000
 108570340.82548  84600257.84848  20660252.9264   20660255.5554   20660253.2454
       249.000         217.000
 118014677.00248  91959487.82448  22457447.1994   22457448.3594   22457447.9234
       235.000         192.000
 112050213.82548  87311845.55848  21322456.1904   21322458.8964   21322456.0934
       245.000         212.000
 107394069.95848  83683688.21048  20436415.4794   20436417.1584   20436415.2934
       250.000         235.000
 122702358.76248  95612218.22148  23349489.3574   23349491.1914   23349489.5124
       230.000         185.000
 133438342.33748 103977910.16948  25392487.1414   25392489.5044   25392487.5064
       203.000         137.000
 128165773.97748  99869416.94248  24389148.5004   24389152.5224   24389148.4994
       213.000         157.000
 126512900.37148  98581469.15748  24074613.6484   24074616.0674   24074613.2424
       218.000         161.000
 120490057.86648  93888352.40148  22928497.3654   22928499.4484   22928497.4744
       229.000         189.000
 09  1 27  0  6 30.0000000  0 10G 5G 9G18G26G15G17G10G27G28G12
 126418205.67148  98507670.12248  24056603.3914   24056606.2054   24056604.2764
       220.000         168.000
 108520864.63948  84561704.97948  20650837.9244   20650840.2644   20650838.5534
       248.000         217.000
 117983016.58448  91934817.36148  22451422.2574   22451423.7484   22451422.8144
       236.000         191.000
 112120987.72948  87366994.04548  21335924.1204   21335926.5674   21335924.2334
       243.000         211.000
 107417111.32548  83701642.51148  20440800.2254   20440801.8584   20440800.0224
       250.000         235.000
 122676606.61848  95592151.61748  23344589.0494   23344591.0534   23344589.3394
       229.000         185.000
 133547368.26348 104062865.45148  25413233.4074   25413236.4884   25413234.2864
       201.000         137.000
 128234421.93248  99922908.83248  24402212.4164   24402215.7764   24402212.9964
       212.000         157.000
 126603354.62348  98651952.96448  24091826.7654   24091829.3944   24091827.7074
       220.000         160.000
 120390089.54348  93810455.00348  22909474.3684   22909475.9104   22909474.0644
       228.000         187.000
 09  1 27  0  7  0.0000000  0 10G 5G 9G18G26G15G17G10G27G28G12
 126307588.24348  98421474.74448  24035553.5094   24035556.2524   24035554.0664
       220.000         170.000
 108471695.43448  84523391.31148  20641481.4574   20641483.9644   20641481.5214
       249.000         218.000
 117951913.47448  91910581.17148  22445503.2994   22445504.7894   22445504.4054
       234.000         191.000
 112192115.33548  87422418.14848  21349459.0054   21349461.6874   21349458.8324
       245.000         212.000
 107440609.15448  83719952.50048  20445271.7534   20445273.3144   20445271.6644
       250.000         235.000
 122651355.00348  95572475.04248  23339783.9254   23339785.9564   23339783.7464
       230.000         186.000
 133656293.33748 104147742.16648  25433961.6174   25433964.3604   25433962.5624
       204.000         138.000
 128303098.07348  99976422.69348  24415280.9984   24415283.6084   24415281.7844
       210.000         158.000
 126693968.64648  98722561.28448  24109070.0324   24109072.1484   24109071.1414
       218.000         157.000
 120290382.17148  93732760.97948  22890500.2884   22890502.5954   22890500.2034
       230.000         189.000
 09  1 27  0  7 30.0000000  0 10G 5G 9G18G26G15G17G10G27G28G12
 126197125.84348  98335400.18548  24014532.4294   24014536.0464   24014532.6844
       220.000         170.000
 108422833.61648  84485317.18048  20632183.1144   20632185.7394   20632183.1394
       249.000         218.000
 117921368.73248  91886780.07848  22439690.7664   22439692.3334   22439691.0624
       235.000         191.000
 112263595.81548  87478117.21648  21363061.7184   21363064.1114   21363062.0124
       244.000         212.000
 107464563.68448  83738618.36548  20449830.0454   20449831.6324   20449829.7334
       250.000         235.000
 122626605.17148  95553189.46148  23335074.0914   23335075.8774   23335073.4234
       230.000         187.000
 133765115.72148 104232538.80248  25454668.6884   25454672.3004   25454670.5614
       203.000         138.000
 128371802.49748 100029958.58348  24428354.5734   24428358.3994   24428353.9124
       211.000         158.000
 126784740.22448  98793292.39648  24126342.8084   24126345.7584   24126342.5054
       215.000         158.000
 120190938.21248  93655272.20848  22871576.7504   22871579.0004   22871576.6714
       230.000         190.000
 09  1 27  0  8  0.0000000  0 11G 5G 9G18G26G15G17G22G10G27G28G12
 126086819.11248  98249446.90648  23993542.0644   23993545.2204   23993543.0774
       222.000         169.000
 108374278.52648  84447482.04848  20622943.5224   20622946.0744   20622943.5394
       249.000         219.000
 117891381.63948  91863413.50948  22433984.6704   22433986.3024   22433985.5334
       235.000         192.000
 112335427.01548  87534089.57948  21376730.3804   21376733.0394   21376730.2994
       244.000         211.000
 107488974.10348  83757639.46148  20454475.2494   20454476.7314   20454474.9834
       250.000         234.000
 122602357.31448  95534295.03148  23330459.8104   23330461.8064   23330459.7574
       232.000         188.000
 138194478.85358  89891804.99358  24394596.0995   24394595.7235   24394597.2615
       220.000         159.000
 133873831.56848 104317252.48548  25475357.9404   25475359.5104   25475358.4774
       203.000         138.000
 128440534.04948 100083515.64148  24441434.2864   24441437.2304   24441434.4384
       211.000         161.000
 126875665.80348  98864143.49148  24143645.4044   24143648.0894   24143645.3994
       219.000         159.000
 120091758.48348  93577989.31448  22852703.9324   22852705.4024   22852703.9064
       230.000         190.000
 09  1 27  0  8 30.0000000  0 11G 5G 9G18G26G15G17G22G10G27G28G12
 125976671.02848  98163617.24648  23972581.5304   23972584.6374   23972582.5814
       222.000         169.000
 108326031.52148  84409886.98548  20613762.4884   20613765.0824   20613763.0294
       248.000         218.000
 117861954.28948  91840483.10248  22428384.6884   22428386.1864   22428384.6354
       235.000         191.000
 112407609.21448  87590335.44048  21390466.2324   21390468.8564   21390466.2724
       244.000         210.000
 107513841.62848  83777016.74448  20459207.3624   20459208.8884   20459207.0964
       250.000         234.000
 122578613.99948  95515793.74248  23325942.0344   23325943.6394   23325942.0334
       232.000         187.000
 138121386.39248  89834849.77248  24380686.2634   24380686.7204   24380686.5714
       217.000         164.000
 133982439.87348 104401882.32348  25496023.6784   25496028.4274   25496025.4974
       200.000         136.000
 128509293.79148 100137094.64048  24454518.9904   24454522.8664   24454519.3874
       214.000         159.000
 126966744.40848  98935113.82348  24160977.7304   24160979.8244   24160978.9764
       216.000         158.000
 119992845.81448  93500914.52948  22833881.4474   22833882.8074   22833881.4904
       231.000         191.000
 09  1 27  0  9  0.0000000  0 11G 5G 9G18G26G15G17G22G10G27G28G12
 125866683.53548  98077912.74248  23951651.7204   23951654.9064   23951651.9544
       219.000         168.000
 108278093.17048  84372532.43048  20604640.0604   20604642.6094   20604639.9044
       249.000         219.000
 117833087.65948  91817989.61548  22422891.2504   22422892.9554   22422891.8044
       233.000         190.000
 112480141.27348  87646853.92148  21404268.5864   21404271.1844   21404268.3064
       242.000         210.000
 107539166.35848  83796750.29048  20464026.4514   20464028.1454   20464026.0724
       250.000         234.000
 122555377.08648  95497687.06748  23321519.7904   23321521.5934   23321519.9264
       229.000         187.000
 138048676.00148  89778192.40048  24366849.5944   24366850.4694   24366847.7284
       211.000         161.000
 134090938.53248 104486426.78048  25516671.7574   25516674.7574   25516672.1264
       200.000         134.000
 128578081.78948 100190695.71048  24467609.1434   24467612.0074   24467608.8824
       209.000         158.000
 127057973.75748  99006201.62548  24178338.1044   24178340.6094   24178338.2504
       218.000         161.000
 119894202.09248  93424049.31548  22815109.9714   22815111.7204   22815109.8214
       231.000         192.000
 09  1 27  0  9 30.0000000  0 11G 5G 9G18G26G15G17G22G10G27G28G12
 125756859.33348  97992335.48048  23930752.6904   23930756.0554   23930753.7494
       220.000         169.000
 108230464.56948  84335419.24248  20595576.7464   20595579.2774   20595577.0754
       249.000         220.000
 117804783.48548  91795934.41548  22417505.3604   22417507.1144   22417505.6014
       233.000         191.000
 112553023.30848  87703645.11148  21418137.5204   21418140.2854   21418137.3024
       244.000         211.000
 107564949.72948  83816841.21948  20468932.9864   20468934.5554   20468932.8124
       249.000         234.000
 122532648.49248  95479976.50048  23317194.5594   23317196.7154   23317194.2614
       229.000         188.000
 137976351.09748  89721835.29148  24353087.0734   24353088.4334   24353086.6144
       219.000         162.000
 134199325.94448 104570884.51948  25537296.1634   25537300.3604   25537298.5704
       200.000         134.000
 128646898.85748 100244319.38248  24480704.2384   24480707.4734   24480704.5914
       212.000         159.000
 127149352.73148  99077405.99148  24195727.2184   24195729.5354   24195727.8724
       217.000         159.000
 119795830.47448  93347396.11548  22796390.5284   22796392.3954   22796390.3444
       232.000         192.000
 09  1 27  0 10  0.0000000  0 11G 5G 9G18G26G15G17G22G10G27G28G12
 125647199.38848  97906886.20348  23909885.2884   23909888.5454   23909885.3764
       222.000         170.000
 108183145.46848  84298547.22048  20586572.0444   20586574.6604   20586572.2854
       248.000         219.000
 117777041.98648  91774317.66248  22412226.3264   22412228.0444   22412227.1534
       233.000         190.000
 112626253.37848  87760707.49748  21432072.8284   21432075.5554   21432072.9054
       242.000         210.000
 107591190.78848  83837288.79648  20473926.3984   20473927.9644   20473926.1454
       249.000         234.000
 122510428.98348  95462662.59848  23312966.1754   23312968.4744   23312966.0534
       229.000         187.000
 137904412.74648  89665779.40248  24339397.9524   24339397.2254   24339398.0194
       215.000         161.000
 134307598.78548 104655252.99848  25557900.2534   25557904.6814   25557901.7154
       195.000         132.000
 128715743.99948 100297964.93048  24493805.3744   24493808.5114   24493805.0514
       210.000         160.000
 127240878.41248  99148724.70448  24213144.3844   24213146.0054   24213144.2134
       215.000         159.000
 119697731.87448  93270955.65548  22777722.9274   22777724.7784   22777722.5254
       231.000         191.000
 09  1 27  0 10 30.0000000  0 11G 5G 9G18G26G15G17G22G10G27G28G12
 125537705.96648  97821566.65048  23889049.7114   23889052.7744   23889050.9454
       224.000         172.000
 108136136.49948  84261916.86148  20577626.4704   20577628.9774   20577626.9244
       248.000         218.000
 117749863.90348  91753139.93148  22407054.5294   22407055.7464   22407054.5544
       233.000         190.000
 112699830.70248  87818040.47148  21446074.1404   21446076.8224   21446074.1394
       242.000         209.000
 107617890.20648  83858093.52748  20479007.1574   20479008.7274   20479006.7924
       249.000         233.000
 122488720.16248  95445746.63948  23308835.4414   23308837.0124   23308835.1394
       231.000         188.000
 137832863.74548  89610026.96148  24325782.7344   24325782.8364   24325783.4534
       214.000         162.000
 134415754.65248 104739530.33748  25578481.0924   25578485.5874   25578481.3394
       200.000         134.000
 128784617.68248 100351632.72648  24506911.3574   24506914.3254   24506911.2494
       215.000         160.000
 127332548.74948  99220156.13648  24230587.9994   24230590.4924   24230587.8064
       217.000         158.000
 119599908.55948  93194729.71348  22759107.7454   22759109.6574   22759108.0714
       231.000         191.000
 09  1 27  0 11  0.0000000  0 10G 5G 9G18G26G15G17G22G27G28G12
 125428380.11348  97736377.68948  23868245.4554   23868249.0394   23868246.3214
       220.000         172.000
 108089437.26748  84225527.85948  20568739.7464   20568742.7114   20568739.9014
       248.000         219.000
 117723249.28548  91732401.26448  22401989.6214   22401991.3614   22401989.8254
       234.000         191.000
 112773753.72048  87875642.81548  21460141.1264   21460143.9314   21460141.1884
       243.000         210.000
 107645047.24848  83879254.85248  20484175.0494   20484176.6434   20484174.8234
       250.000         234.000
 122467522.79848  95429229.21248  23304801.5034   23304803.5644   23304801.8474
       231.000         188.000
 137761704.80448  89554578.50348  24312241.2254   24312242.1914   24312240.8884
       216.000         168.000
 128853519.12748 100405322.16248  24520023.2584   24520025.9414   24520023.0664
       215.000         164.000
 127424361.08448  99291698.18948  24248059.2294   24248061.7024   24248060.8724
       218.000         159.000
 119502361.55748  93118719.10048  22740545.0304   22740547.2124   22740544.9574
       231.000         194.000
 09  1 27  0 11 30.0000000  0 10G 5G 9G18G26G15G17G22G27G28G12
 125319224.85948  97651321.70648  23847473.3994   23847477.3574   23847473.4714
       221.000         172.000
 108043049.26848  84189381.37348  20559912.4774   20559915.1694   20559912.6664
       249.000         220.000
 117697200.25748  91712103.31448  22397032.9724   22397034.4964   22397033.3734
       233.000         191.000
 112848022.68848  87933514.72848  21474274.0364   21474276.8504   21474273.6984
       242.000         209.000
 107672663.18348  83900773.75248  20489430.1844   20489431.8364   20489429.9234
       250.000         234.000
 122446839.41848  95413112.29748  23300865.4534   23300867.8374   23300865.1434
       230.000         189.000
 137690939.40948  89499436.65948  24298775.1574   24298776.1464   24298773.8014
       217.000         165.000
 128922449.52248 100459034.15848  24533140.3964   24533143.1844   24533140.4784
       216.000         164.000
 127516314.35948  99363350.09348  24265557.3154   24265559.5084   24265558.9824
       218.000         159.000
 119405094.02648  93042926.24148  22722035.9234   22722037.6904   22722035.6904
       233.000         194.000
 09  1 27  0 12  0.0000000  0 10G 5G 9G18G26G15G17G22G27G28G12
 125210241.24248  97566399.41448  23826734.9884   23826738.4984   23826735.6304
       221.000         174.000
 107996972.11948  84153477.10248  20551144.4884   20551147.0264   20551144.4784
       250.000         220.000
 117671716.69448  91692245.98448  22392183.4204   22392185.3314   22392183.8534
       234.000         193.000
 112922635.46248  87991654.54648  21488472.4564   21488475.2104   21488472.5354
       243.000         210.000
 107700737.34448  83922649.71548  20494772.6074   20494774.1154   20494772.4364
       251.000         234.000
 122426670.38048  95397396.16648  23297027.5834   23297029.7604   23297027.6314
       232.000         189.000
 137620568.83248  89444602.42548  24285384.8304   24285384.0494   24285386.2984
       221.000         166.000
 128991408.37648 100512768.34748  24546263.1324   24546265.4604   24546263.9104
       214.000         163.000
 127608405.64548  99435109.52148  24283081.8184   24283083.7594   24283082.5704
       214.000         159.000
 119308106.98848  92967351.93848  22703579.6874   22703581.6754   22703579.9954
       232.000         193.000
 09  1 27  0 12 30.0000000  0 10G 5G 9G18G26G15G17G22G27G28G12
 125101431.52448  97481612.66048  23806028.6524   23806032.3334   23806028.6824
       222.000         172.000
 107951206.85948  84117815.86348  20542435.6284   20542438.1294   20542435.8714
       248.000         220.000
 117646799.83048  91672830.24348  22387442.4314   22387443.8134   22387442.8404
       236.000         193.000
 112997591.65448  88050061.95648  21502736.1284   21502739.0464   21502736.0444
       242.000         209.000
 107729270.18648  83944883.09348  20500202.1794   20500203.6664   20500201.9664
       250.000         233.000
 122407017.42048  95382082.19048  23293287.7774   23293289.8094   23293287.7504
       232.000         190.000
 137550595.62848  89390077.82948  24272068.1294   24272068.5334   24272066.9504
       216.000         163.000
 129060395.97448 100566524.88848  24559390.6284   24559393.3074   24559390.4414
       214.000         162.000
 127700633.18648  99506975.11148  24300632.1414   24300634.0654   24300632.7834
       214.000         156.000
 119211402.70148  92891997.97048  22685177.0144   22685179.2814   22685176.5184
       230.000         192.000
 09  1 27  0 13  0.0000000  0 10G 5G 9G18G26G15G17G22G27G28G12
 124992797.91548  97396963.10048  23785356.3934   23785360.2924   23785357.4484
       222.000         173.000
 107905753.69748  84082397.82648  20533786.2114   20533788.6784   20533786.3124
       246.000         219.000
 117622450.58848  91653856.81648  22382808.5304   22382810.3524   22382809.3874
       232.000         191.000
 113072890.45348  88108736.34748  21517065.0634   21517067.8274   21517065.1624
       241.000         208.000
 107758262.24548  83967474.30148  20505719.1014   20505720.6374   20505718.8724
       249.000         232.000
 122387882.16748  95367171.61648  23289646.6994   23289648.4084   23289646.8334
       231.000         190.000
 137481022.09148  89335864.69548  24258828.8614   24258829.7724   24258828.6824
       221.000         164.000
 129129412.36048 100620303.88148  24572522.8944   24572526.9074   24572523.7264
       211.000         161.000
 127792994.90848  99578945.28948  24318207.8084   24318209.7404   24318208.0534
       215.000         157.000
 119114983.55548  92816866.19648  22666829.0784   22666831.3444   22666828.7944
       231.000         193.000
 09  1 27  0 13 30.0000000  0 10G 5G 9G18G26G15G17G22G27G28G12
 124884341.86248  97312451.90648  23764717.9794   23764721.6234   23764719.0904
       224.000         174.000
 107860613.11748  84047223.35248  20525196.1354   20525198.5604   20525196.3694
       247.000         220.000
 117598669.31748  91635325.95548  22378282.9694   22378284.6534   22378283.5274
       233.000         191.000
 113148530.60148  88167676.71648  21531458.8164   21531461.6274   21531458.4834
       241.000         209.000
 107787713.39848  83990423.24148  20511323.4614   20511324.9954   20511323.1624
       249.000         233.000
 122369265.30648  95352664.97748  23286103.6294   23286105.8654   23286103.7664
       231.000         190.000
 137411850.09148  89281964.44548  24245666.3984   24245666.9824   24245669.4054
       217.000         168.000
 129198457.42848 100674105.26348  24585662.0694   24585665.9124   24585661.2904
       212.000         163.000
 127885488.56548  99651018.25448  24335808.8334   24335810.7864   24335811.3564
       214.000         155.000
 119018850.61248  92741957.42848  22648536.0114   22648537.9484   22648536.0824
       233.000         195.000
 09  1 27  0 14  0.0000000  0 10G 5G 9G18G26G15G17G22G27G28G12
 124776064.12848  97228079.65448  23744114.0074   23744116.9874   23744114.4184
       226.000         176.000
 107815784.44548  84012291.92648  20516665.5264   20516668.0264   20516665.6084
       247.000         220.000
 117575455.33748  91617237.12848  22373865.5874   22373867.1144   22373866.1704
       234.000         191.000
 113224510.00648  88226881.44348  21545917.0824   21545919.9994   21545916.9164
       242.000         208.000
 107817622.49848  84013729.02848  20517014.9124   20517016.6214   20517014.6664
       250.000         233.000
 122351167.15248  95338562.53548  23282659.7984   23282661.9484   23282660.1194
       232.000         191.000
 137343080.51248  89228377.74048  24232579.8154   24232580.0084   24232577.6994
       214.000         164.000
 129267530.19448 100727928.19048  24598806.6324   24598810.4274   24598806.3424
       211.000         162.000
 127978111.10348  99723191.65148  24353434.5794   24353436.2044   24353434.7004
       211.000         154.000
 118923005.28548  92667272.76248  22630297.3764   22630299.1914   22630297.3564
       234.000         195.000
 09  1 27  0 14 30.0000000  0 10G 5G 9G18G26G15G17G22G27G28G12
 124667969.24948  97143849.90148  23723543.6394   23723546.8294   23723544.1834
       224.000         173.000
 107771270.75148  83977605.93548  20508194.9914   20508197.4484   20508195.3524
       247.000         220.000
 117552812.09248  91599593.03348  22369556.9934   22369558.4624   22369557.5454
       234.000         192.000
 113300830.13648  88286351.67148  21560440.3594   21560443.3514   21560440.0774
       240.000         208.000
 107847992.40248  84037393.87448  20522794.2394   20522795.8704   20522793.9964
       250.000         232.000
 122333592.03848  95324867.64948  23279315.4874   23279317.4604   23279315.2154
       231.000         190.000
 137274717.99448  89175108.28748  24219570.0584   24219571.4104   24219572.0354
       217.000         165.000
 129336633.24748 100781774.71848  24611956.1124   24611959.6394   24611956.0184
       216.000         162.000
 128070862.94048  99795465.80248  24371084.2724   24371086.3104   24371083.2094
       211.000         153.000
 118827452.01848  92592815.68848  22612114.1004   22612116.2374   22612113.7924
       233.000         195.000
 09  1 27  0 15  0.0000000  0 10G 5G 9G18G26G15G17G22G27G28G12
 124560056.87648  97059762.31948  23703008.8234   23703011.5394   23703009.6964
       224.000         172.000
 107727070.20448  83943163.95448  20499783.6884   20499786.4554   20499783.7864
       247.000         220.000
 117530737.98048  91582392.42148  22365356.4874   22365357.7444   22365357.0764
       235.000         192.000
 113377487.87148  88346084.96748  21575027.9194   21575030.8854   21575027.6144
       241.000         207.000
 107878820.90448  84061416.08148  20528660.7074   20528662.2694   20528660.6044
       249.000         232.000
 122316538.61248  95311579.26448  23276070.1824   23276072.2794   23276069.5154
       230.000         190.000
 137206762.31448  89122155.80348  24206638.8164   24206640.3204   24206640.5294
       220.000         169.000
 129405764.35048 100835643.12148  24625111.3684   24625115.0704   24625111.8934
       212.000         161.000
 128163739.86048  99867837.40848  24388758.8754   24388760.3294   24388759.4704
       212.000         153.000
 118732190.32348  92518585.80548  22593986.1414   22593988.4014   22593986.0094
       233.000         194.000
 09  1 27  0 15 30.0000000  0 10G 5G 9G18G26G15G17G22G27G28G12
 124452329.47748  96975818.92248  23682508.9224   23682511.7624   23682509.6504
       223.000         174.000
 107683183.96748  83908966.89448  20491432.5224   20491435.0874   20491433.0704
       246.000         220.000
 117509234.71848  91565636.63248  22361264.5244   22361265.8184   22361264.9774
       235.000         192.000
 113454482.79848  88406081.00848  21589679.5544   21589682.5134   21589679.6004
       241.000         207.000
 107910108.74048  84085796.20848  20534614.4314   20534616.1604   20534614.0374
       249.000         232.000
 122300008.69948  95298698.83348  23272924.6364   23272926.7284   23272924.3484
       229.000         189.000
 137139216.31048  89069522.57348  24193785.9914   24193786.1644   24193785.8774
       219.000         166.000
 129474924.43548 100889534.08148  24638272.3524   24638275.0094   24638273.4324
       210.000         159.000
 128256740.43948  99940305.39748  24406456.5694   24406457.7754   24406458.0204
       214.000         153.000
 118637222.69648  92444585.07148  22575914.3784   22575916.4924   22575914.0564
       233.000         195.000
 09  1 27  0 16  0.0000000  0 10G 5G 9G18G26G15G17G22G27G28G12
 124344788.92448  96892021.09448  23662044.6244   23662047.6794   23662045.1274
       224.000         175.000
 107639612.22948  83875014.89848  20483140.9744   20483143.7314   20483141.0544
       246.000         220.000
 117488302.07248  91549325.46648  22357281.2444   22357282.8104   22357281.4534
       234.000         193.000
 113531813.81448  88466338.93848  21604395.0414   21604397.9314   21604395.0424
       240.000         206.000
 107941855.84248  84110534.20048  20540655.8804   20540657.3294   20540655.7584
       249.000         231.000
 122284003.54448  95286227.28248  23269878.9144   23269881.0394   23269878.7874
       229.000         190.000
 137072082.01248  89017210.18248  24181010.2764   24181010.8324   24181011.4324
       217.000         165.000
 129544113.42948 100943447.57248  24651438.5884   24651441.8574   24651438.3854
       214.000         161.000
 128349862.45448 100012868.01248  24424176.6824   24424178.8544   24424178.0334
       211.000         154.000
 118542550.96548  92370814.89148  22557898.7294   22557900.7354   22557898.5944
       233.000         194.000
 09  1 27  0 16 30.0000000  0 10G 5G 9G18G26G15G17G22G27G28G12
 124237437.45548  96808370.61248  23641616.2874   23641619.1744   23641616.5634
       222.000         173.000
 107596356.19548  83841308.90748  20474909.5094   20474912.3244   20474909.6044
       246.000         220.000
 117467941.19848  91533459.85648  22353406.8364   22353408.1484   22353407.5374
       235.000         193.000
 113609480.16348  88526858.16948  21619174.5284   21619177.3884   21619174.3234
       240.000         206.000
 107974062.49248  84135630.28848  20546784.4914   20546786.1594   20546784.2364
       248.000         232.000
 122268524.62848  95274165.80248  23266933.4304   23266935.6294   23266933.3584
       229.000         190.000
 137005361.91648  88965220.46548  24168314.4354   24168314.7984   24168314.2654
       220.000         168.000
 129613331.95548 100997384.08948  24664610.1544   24664613.7864   24664610.7344
       214.000         161.000
 128443104.48348 100085524.12848  24441919.7484   24441922.0344   24441919.2024
       211.000         156.000
 118448177.34748  92297277.02548  22539940.1044   22539942.1084   22539939.7284
       233.000         195.000
 09  1 27  0 17  0.0000000  0 10G 5G 9G18G26G15G17G22G27G28G12
 124130276.78548  96724868.80048  23621224.0844   23621227.2134   23621224.8264
       224.000         175.000
 107553415.82148  83807848.87748  20466738.4204   20466741.0144   20466738.5724
       246.000         220.000
 117448152.95348  91518040.43848  22349641.0434   22349642.8884   22349641.6824
       235.000         193.000
 113687480.89248  88587637.95148  21634017.7994   21634020.4144   21634017.7864
       241.000         206.000
 108006728.60548  84161084.39248  20553000.6714   20553002.4314   20553000.3044
       249.000         231.000
 122253573.09248  95262515.26548  23264088.1194   23264090.1094   23264087.5954
       230.000         190.000
 136939057.86348  88913554.95248  24155697.4344   24155697.2994   24155698.4444
       221.000         167.000
 129682579.84048 101051343.50648  24677788.1594   24677790.9164   24677788.5104
       214.000         163.000
 128536464.36048 100158272.03648  24459686.3224   24459688.3364   24459686.5644
       214.000         158.000
 118354103.73548  92223972.91648  22522038.5224   22522040.3154   22522038.6894
       235.000         195.000
 09  1 27  0 17 30.0000000  0 10G 5G 9G18G26G15G17G22G27G28G12
 124023308.02248  96641516.50048  23600869.1184   23600871.6654   23600869.4894
       224.000         176.000
 107510790.93448  83774634.68148  20458627.1944   20458629.9444   20458627.1904
       247.000         221.000
 117428936.80148  91503066.80748  22345984.2744   22345986.4544   22345984.6794
       234.000         193.000
 113765814.09148  88648676.80648  21648924.0954   21648926.6554   21648923.8814
       241.000         206.000
 108039853.59648  84186896.06548  20559304.2474   20559305.8044   20559304.0804
       248.000         231.000
 122239149.31548  95251275.96648  23261343.4514   23261345.2814   23261343.2354
       230.000         191.000
 136873171.05648  88862214.59648  24143158.6964   24143158.7724   24143160.3834
       215.000         160.000
 129751856.53448 101105325.29048  24690970.8434   24690974.2624   24690971.5494
       216.000         162.000
 128629939.13648 100231109.51748  24477474.2454   24477475.7414   24477475.0164
       214.000         155.000
 118260331.10448  92150903.33448  22504194.5764   22504196.2464   22504194.4764
       235.000         197.000
 09  1 27  0 18  0.0000000  0 10G 5G 9G18G26G15G17G22G27G28G12
 123916533.48148  96558315.57248  23580550.0834   23580553.3034   23580550.7044
       223.000         176.000
 107468482.22248  83741666.86348  20450576.1394   20450578.6764   20450576.6604
       247.000         221.000
 117410293.77448  91488539.76448  22342436.7794   22342438.6464   22342437.3354
       236.000         194.000
 113844479.08848  88709974.19848  21663893.8194   21663896.3084   21663893.9684
       241.000         207.000
 108073437.89748  84213065.64548  20565695.1824   20565696.6204   20565694.8514
       249.000         231.000
 122225254.91148  95240449.16948  23258699.3324   23258701.5954   23258699.3384
       230.000         191.000
 136807704.08448  88811201.38448  24130700.0664   24130700.6914   24130700.2104
       214.000         160.000
 129821162.64848 101159330.07748  24704159.0714   24704162.2484   24704159.2444
       214.000         163.000
 128723527.28148 100304035.33448  24495283.8444   24495284.8494   24495284.6874
       211.000         155.000
 118166861.81148  92078070.12648  22486408.0014   22486409.5584   22486408.0504
       234.000         198.000
 09  1 27  0 18 30.0000000  0 10G 5G 9G18G26G15G17G22G27G28G12
 123809955.42648  96475267.74548  23560269.1484   23560272.2214   23560269.2384
       224.000         176.000
 107426490.80348  83708946.27648  20442585.5204   20442587.9064   20442585.4644
       248.000         222.000
 117392224.82148  91474460.06848  22338998.2384   22339000.2064   22338999.1284
       236.000         194.000
 113923475.40848  88771529.77848  21678925.9974   21678928.8474   21678926.1334
       241.000         207.000
 108107481.98248  84239593.50148  20572173.4144   20572175.0134   20572173.1514
       249.000         231.000
 122211891.17148  95230035.88648  23256156.2484   23256158.6494   23256156.1344
       230.000         192.000
 136742659.06548  88760516.94948  24118323.5904   24118323.0924   24118324.3894
       220.000         165.000
 129890498.58748 101213358.08248  24717353.4734   24717357.6954   24717353.4644
       213.000         166.000
 128817227.30748 100377048.32748  24513114.0974   24513115.2834   24513115.3644
       214.000         153.000
 118073698.12348  92005475.07848  22468679.0604   22468681.1084   22468678.7694
       234.000         197.000
 09  1 27  0 19  0.0000000  0 10G 5G 9G18G26G15G17G22G27G28G12
 123703575.35748  96392374.20448  23540025.7074   23540029.0184   23540026.3194
       225.000         178.000
 107384816.52048  83676472.81648  20434655.0434   20434657.4954   20434655.2544
       248.000         222.000
 117374730.01348  91460827.74348  22335669.1524   22335671.0524   22335669.0194
       236.000         194.000
 114002801.46748  88833342.28548  21694021.1634   21694023.9924   21694021.0224
       241.000         207.000
 108141985.38248  84266479.25448  20578739.1644   20578740.8484   20578738.9704
       248.000         231.000
 122199058.79048  95220036.62948  23253714.6224   23253716.6514   23253713.8554
       232.000         192.000
 136678038.02948  88710162.88548  24106025.9364   24106026.7984   24106025.9164
       215.000         164.000
 129959864.10948 101267409.14648  24730553.1454   24730556.6304   24730553.1144
       218.000         166.000
 128911036.95848 100450146.75448  24530965.1784   24530966.1314   24530966.5744
       209.000         152.000
 117980841.50148  91933119.27148  22451008.9664   22451010.7924   22451008.8704
       235.000         196.000
 09  1 27  0 19 30.0000000  0 10G 5G 9G18G26G15G17G22G27G28G12
 123597395.53648  96309636.67948  23519820.2354   23519823.8184   23519820.8984
       223.000         178.000
 107343460.12048  83644247.04948  20426785.1394   20426787.6554   20426785.1914
       247.000         221.000
 117357810.20048  91447643.46448  22332449.4024   22332451.2454   22332450.0684
       237.000         194.000
 114082456.65348  88895411.25448  21709179.1114   21709181.7024   21709179.0784
       240.000         206.000
 108176948.26848  84293723.05048  20585392.2694   20585393.9974   20585391.9954
       247.000         230.000
 122186759.45348  95210452.74548  23251374.1664   23251376.0214   23251374.1214
       230.000         190.000
 136613843.32948  88660141.02148  24093809.8124   24093811.2434   24093809.1894
       219.000         167.000
 130029259.68848 101321483.62348  24743758.3584   24743762.7704   24743757.8034
       211.000         163.000
 129004954.46048 100523329.22248  24548837.3554   24548837.7774   24548837.1344
       212.000         152.000
 117888294.10748  91861004.43048  22433397.6924   22433399.4914   22433397.8674
       235.000         197.000
 09  1 27  0 20  0.0000000  0 10G 5G 9G18G26G15G17G22G27G28G12
 123491417.36748  96227056.28248  23499653.2964   23499656.8964   23499653.4114
       224.000         177.000
 107302421.66948  83612269.03648  20418975.6914   20418978.2954   20418975.9204
       247.000         221.000
 117341465.50048  91434907.33348  22329338.9684   22329341.0014   22329339.6374
       236.000         193.000
 114162439.20248  88957735.31648  21724399.4454   21724402.1374   21724399.4804
       241.000         206.000
 108212370.39348  84321324.70248  20592132.8504   20592134.5734   20592132.4614
       248.000         230.000
 122174993.77348  95201284.69348  23249134.8554   23249136.9844   23249134.0354
       230.000         190.000
 136550075.96448  88610452.21748  24081676.0244   24081676.7484   24081677.2604
       221.000         170.000
 130098684.88948 101375581.18048  24756969.2204   24756973.2774   24756969.5044
       214.000         162.000
 129098977.22848 100596593.71948  24566729.0234   24566729.6454   24566729.1134
       209.000         150.000
 117796057.34748  91789131.64248  22415845.9444   22415847.5624   22415845.5904
       237.000         199.000
 09  1 27  0 20 30.0000000  0 10G 5G 9G18G26G15G17G22G27G28G12
 123385642.08948  96144633.97948  23479525.1254   23479528.2524   23479525.6534
       224.000         177.000
 107261701.46448  83580539.01148  20411226.9854   20411229.5744   20411227.0824
       248.000         222.000
 117325695.45548  91422618.98148  22326338.1824   22326340.0194   22326338.9494
       236.000         194.000
 114242747.93848  89020313.55048  21739681.5574   21739684.4624   21739681.7084
       240.000         205.000
 108248251.13448  84349283.71448  20598960.8474   20598962.4004   20598960.7024
       247.000         230.000
 122163762.02148  95192532.68248  23246997.9714   23246999.3894   23246997.5774
       231.000         190.000
 136486737.90948  88561097.90748  24069623.6964   24069623.4674   24069623.7954
       219.000         168.000
 130168139.51248 101429701.69148  24770186.5274   24770190.2744   24770187.3614
       216.000         163.000
 129193102.97548 100669938.45348  24584639.8564   24584640.7824   24584640.6304
       208.000         148.000
 117704132.49048  91717501.90448  22398352.9804   22398354.7574   22398352.7464
       237.000         199.000
 09  1 27  0 21  0.0000000  0 10G 5G 9G18G26G15G17G22G27G28G12
 123280072.49548  96062371.96748  23459435.6744   23459439.1864   23459436.2164
       225.000         177.000
 107221300.63548  83549057.84848  20403539.0474   20403541.5634   20403539.3324
       249.000         222.000
 117310501.20048  91410779.29948  22323446.5754   22323448.4614   22323447.1544
       236.000         193.000
 114323382.17948  89083145.42148  21755025.6454   21755028.4384   21755025.4964
       240.000         205.000
 108284591.39848  84377600.79948  20605876.2494   20605877.8864   20605875.8714
       248.000         230.000
 122153066.21748  95184198.31148  23244962.4434   23244964.3734   23244962.2864
       231.000         190.000
 136423831.92948  88512080.28448  24057652.2304   24057652.6674   24057651.4894
       219.000         169.000
 130237624.53648 101483845.85648  24783409.4184   24783412.2584   24783410.4604
       213.000         162.000
 129287330.36548 100743362.40048  24602571.0604   24602571.8604   24602570.7664
       206.000         147.000
 117612522.14548  91646117.23648  22380920.2364   22380922.1564   22380920.3494
       237.000         199.000
 09  1 27  0 21 30.0000000  0 10G 5G 9G18G26G15G17G22G27G28G12
 123174709.79748  95980271.14848  23439386.1634   23439388.9974   23439387.2154
       225.000         177.000
 107181219.10248  83517825.49048  20395911.7744   20395914.2934   20395912.1454
       247.000         222.000
 117295882.83048  91399388.34748  22320664.9984   22320666.5674   22320665.1634
       235.000         192.000
 114404340.50348  89146229.81748  21770431.6014   21770434.4034   21770431.5174
       240.000         205.000
 108321390.23048  84406275.20348  20612879.0584   20612880.5834   20612878.9514
       248.000         230.000
 122142906.62348  95176281.74448  23243029.2584   23243031.1144   23243029.0324
       229.000         190.000
 136361359.04248  88463400.10048  24045764.3494   24045765.3144   24045764.9734
       221.000         170.000
 130307139.34148 101538013.23948  24796638.0284   24796640.7664   24796637.5174
       212.000         160.000
 129381657.04748 100816863.72848  24620520.5114   24620522.2814   24620520.5504
       206.000         147.000
 117521227.75148  91574978.76348  22363547.2264   22363549.4234   22363547.2394
       237.000         199.000
 09  1 27  0 22  0.0000000  0 10G 5G 9G18G26G15G17G22G27G28G12
 123069556.15048  95898333.23848  23419376.1454   23419378.7904   23419376.4064
       226.000         178.000
 107141457.57848  83486842.49548  20388345.3894   20388347.8114   20388345.4604
       247.000         222.000
 117281840.39048  91388446.18348  22317992.7554   22317994.3944   22317993.4194
       234.000         192.000
 114485622.00348  89209566.05648  21785899.1084   21785901.5434   21785899.0474
       241.000         204.000
 108358647.88648  84435307.14148  20619968.7504   20619970.3924   20619968.4304
       248.000         230.000
 122133284.51248  95168784.00548  23241198.0784   23241199.9314   23241197.9804
       229.000         191.000
 136299321.81048  88415059.42948  24033959.4494   24033959.4724   24033960.4124
       219.000         169.000
 130376684.39048 101592204.19948  24809871.0194   24809874.8564   24809870.8334
       209.000         159.000
 129476081.54948 100890441.22448  24638488.8514   24638490.6294   24638490.0594
       204.000         147.000
 117430251.47848  91504088.18148  22346235.2124   22346237.1054   22346235.0334
       239.000         200.000
 09  1 27  0 22 30.0000000  0 10G 5G 9G18G26G15G17G22G27G28G12
 122964612.64848  95816559.08748  23399405.8804   23399409.1154   23399407.1784
       224.000         179.000
 107102015.69248  83456108.56948  20380839.7534   20380842.3234   20380839.6924
       248.000         222.000
 117268373.93048  91377952.84548  22315429.9774   22315432.0234   22315430.8364
       234.000         192.000
 114567224.69948  89273152.56848  21801427.3874   21801430.1034   21801427.4354
       240.000         204.000
 108396363.63148  84464696.02548  20627145.7384   20627147.4114   20627145.4864
       247.000         229.000
 122124200.09748  95161705.25648  23239469.6154   23239471.2774   23239469.4624
       229.000         191.000
 136237721.18248  88367058.94348  24022236.3844   24022236.9704   24022236.1504
       220.000         167.000
 130446259.16948 101646418.29348  24823110.7894   24823114.0904   24823111.1254
       214.000         161.000
 129570600.90048 100964092.65848  24656476.2404   24656477.2484   24656476.6304
       204.000         149.000
 117339593.99248  91433445.99148  22328983.9454   22328985.3814   22328983.7904
       239.000         202.000
 09  1 27  0 23  0.0000000  0 10G 5G 9G18G26G15G17G22G27G28G12
 122859881.92948  95734950.73548  23379475.8994   23379479.4364   23379476.3504
       223.000         177.000
 107062894.79048  83425624.75648  20373395.4144   20373397.9214   20373395.6474
       249.000         223.000
 117255484.66248  91367909.24348  22312977.2814   22312979.1184   22312977.5904
       235.000         193.000
 114649148.56048  89336989.33748  21817017.1324   21817019.9034   21817016.9964
       242.000         205.000
 108434537.80448  84494442.12348  20634409.9664   20634411.6654   20634409.6664
       248.000         229.000
 122115655.09848  95155046.82748  23237843.5234   23237845.1384   23237843.2524
       230.000         192.000
 136176560.03348  88319400.91048  24010598.6684   24010598.5384   24010599.3604
       221.000         170.000
 130515864.60848 101700656.27848  24836356.6874   24836360.4094   24836357.3594
       215.000         162.000
 129665213.99448 101037817.15148  24674479.8414   24674481.6644   24674477.8824
       204.000         150.000
 117249258.01448  91363054.33248  22311793.6244   22311794.9274   22311793.5174
       240.000         202.000
 09  1 27  0 23 30.0000000  0 10G 5G 9G18G26G15G17G22G27G28G12
 122755365.97448  95653509.74148  23359586.8644   23359590.6394   23359587.5364
       223.000         177.000
 107024095.43448  83395391.49548  20366012.1694   20366014.6784   20366012.6694
       248.000         222.000
 117243172.86148  91358315.63848  22310634.5284   22310636.2764   22310635.2074
       236.000         193.000
 114731392.28548  89401075.36148  21832667.5374   21832670.2334   21832667.7144
       240.000         204.000
 108473170.92048  84524545.84048  20641761.5884   20641763.4424   20641761.4064
       248.000         229.000
 122107650.61348  95148809.58848  23236320.1564   23236322.1774   23236319.6234
       230.000         192.000
 136115840.26248  88272086.83748  23999043.8214   23999044.1914   23999044.5354
       222.000         165.000
 130585501.05548 101754918.44148  24849608.1334   24849611.9984   24849608.2324
       216.000         162.000
 129759919.16848 101111613.35048  24692501.4514   24692504.1024   24692501.5644
       203.000         149.000
 117159245.64548  91292914.83648  22294664.4814   22294666.1804   22294664.2944
       238.000         201.000
 09  1 27  0 24  0.0000000  0 10G 5G 9G18G26G15G17G22G27G28G12
 122651065.43448  95572236.60748  23339739.4474   23339742.7934   23339739.7844
       225.000         178.000
 106985616.95248  83365408.26448  20358689.9594   20358692.3004   20358689.9534
       249.000         223.000
 117231437.55948  91349171.24448  22308401.7464   22308402.9354   22308402.5274
       236.000         193.000
 114813953.97848  89465409.14248  21848378.5034   21848381.2554   21848378.2484
       241.000         205.000
 108512261.56848  84555006.07848  20649200.3474   20649202.0994   20649199.9844
       248.000         230.000
 122100186.33548  95142993.27248  23234899.7944   23234901.7674   23234899.7674
       231.000         192.000
 136055562.59848  88225117.18448  23987572.6184   23987573.0114   23987573.8984
       219.000         165.000
