     2.11           OBSERVATION DATA    G (GPS)             RINEX VERSION / TYPE
teqc  2008Oct2      gpsops              20090124 00:05:56UTCPGM / RUN BY / DATE
    30.0000                                                 INTERVAL
     1     1                                                WAVELENGTH FACT L1/2
     7    L1    L2    P1    P2    C1    S1    S2            # / TYPES OF OBSERV
Linux 2.4.20-8|Pentium IV|gcc -static|Linux|486/DX+         COMMENT
     2.10           OBSERVATION DATA    GPS                 COMMENT
soc2rnx ver 1.20    gpsops              24-Jan-2009 00:05:52COMMENT
S1, if present, is the SNR for the C/A data stream on L1.   COMMENT
 SNR is mapped to RINEX snr flag value [1,4-9]              COMMENT
    SNR:   >316  >100  >31.6  >10  >3.2    >0 bad=0         COMMENT
L1 & L2:      9     8     7     6     5     4     1         COMMENT
                                                            COMMENT
This data is provided as a public service by NASA/JPL.      COMMENT
No warranty is expressed or implied regarding suitability   COMMENT
for use.  For further information, contact:                 COMMENT
Dave Stowers, NASA/JPL m/s 238-600                          COMMENT
4800 Oak Grove Drive, Pasadena CA 91109 USA                 COMMENT
                                                            COMMENT
Forced Modulo Decimation to 30 seconds                      COMMENT
  2009     1    23     0     0    0.0000000     GPS         TIME OF FIRST OBS
DSN                 JPL                                     OBSERVER / AGENCY
451-U               AOAD/M_T        NONE                    ANT # / TYPE
  4849202.3940  -360328.9929  4114913.1862                  APPROX POSITION XYZ
        0.0254        0.0000        0.0000                  ANTENNA: DELTA H/E/N
LP03574             ASHTECH Z-XII3      CC00                REC # / TYPE / VERS
MADR                                                        MARKER NAME
13407S012                                                   MARKER NUMBER
                                                            END OF HEADER
 09  1 23  0  0  0.0000000  0  8G 9G17G26G18G10G27G12G28
 111101598.10648  86572666.67848  21141935.4804   21141938.1494   21141935.7874
       243.000         209.000
 124333741.68548  96883431.42048  23659927.9114   23659929.9124   23659928.2534
       225.000         177.000
 109247590.67048  85127980.11448  20789134.9944   20789137.3184   20789134.9004
       250.000         222.000
 119928231.31848  93450565.27048  22821585.3244   22821587.7574   22821585.3804
       229.000         183.000
 128578579.50648 100191080.33748  24467705.7574   24467711.9704   24467706.6964
       213.000         159.000
 126305179.53248  98419609.09748  24035082.9344   24035087.4714   24035084.4364
       220.000         166.000
 125136212.37348  97508729.99848  23812634.9974   23812637.7854   23812635.9854
       221.000         174.000
 122641237.13348  95564596.57348  23337854.4204   23337855.8334   23337855.0734
       226.000         178.000
 09  1 23  0  0 30.0000000  0  9G 9G17G15G26G18G10G27G12G28
 111038848.11548  86523770.58748  21129994.4664   21129997.0504   21129995.2334
       243.000         210.000
 124287400.92348  96847321.71648  23651109.8074   23651111.8214   23651109.5574
       225.000         179.000
 116816276.75258  73233456.87058  20326466.0015   20326467.3865   20326465.9525
       255.000         240.000
 109301716.45548  85170156.03648  20799434.7874   20799437.2754   20799434.7074
       249.000         222.000
 119873236.18848  93407711.90348  22811120.4324   22811122.2674   22811120.6584
       228.000         184.000
 128689710.30248 100277675.71948  24488853.0044   24488859.4194   24488852.6864
       210.000         156.000
 126373824.30048  98473098.49748  24048146.4354   24048149.5524   24048146.8564
       222.000         166.000
 125026778.12848  97423456.55548  23791811.2764   23791812.5934   23791811.1974
       223.000         176.000
 122722278.17048  95627745.42648  23353276.1384   23353277.4784   23353276.6874
       227.000         177.000
 09  1 23  0  1  0.0000000  0  9G 9G17G15G26G18G10G27G12G28
 110976383.04748  86475096.51648  21118107.7504   21118110.4054   21118107.8604
       242.000         210.000
 124241471.33448  96811532.44148  23642369.9794   23642371.9094   23642370.1124
       226.000         180.000
  96819471.50758  93235947.39758  20327073.0865   20327074.3025   20327072.8145
       255.000         240.000
 109356226.09348  85212631.07548  20809807.4504   20809810.0584   20809807.0714
       249.000         221.000
 119818734.14448  93365242.78048  22800748.8214   22800750.7694   22800749.2394
       232.000         185.000
 128800846.70848 100364275.52648  24510003.1104   24510006.7194   24510004.4044
       213.000         155.000
 126442491.88548  98526605.70748  24061213.6104   24061216.3514   24061213.9574
       221.000         167.000
 124917510.71448  97338313.11648  23771018.2754   23771019.7914   23771017.6964
       220.000         174.000
 122803577.65248  95691095.66448  23368746.6194   23368748.1164   23368747.0714
       226.000         178.000
 09  1 23  0  1 30.0000000  0  9G 9G17G15G26G18G10G27G12G28
 110914203.82248  86426645.19148  21106275.0064   21106278.1454   21106274.5114
       241.000         209.000
 124195955.80448  96776065.81748  23633708.5364   23633710.6344   23633708.9964
       225.000         180.000
 116823090.26858  73238766.76158  20327762.0705   20327763.3205   20327761.7855
       255.000         239.000
 109411119.52348  85255405.17748  20820253.4504   20820255.9604   20820253.4124
       249.000         221.000
 119764727.79748  93323159.91048  22790472.1464   22790473.7184   22790472.3964
       232.000         187.000
 128911986.61348 100450878.06748  24531151.8254   24531155.3454   24531152.3974
       212.000         155.000
 126511182.76448  98580131.04548  24074284.5724   24074288.3414   24074284.9354
       220.000         164.000
 124808413.10648  97253302.00048  23750257.3264   23750259.2434   23750256.5774
       220.000         175.000
 122885133.77748  95754645.88248  23384266.6304   23384267.7664   23384265.8744
       226.000         178.000
 09  1 23  0  2  0.0000000  0  9G 9G17G15G26G18G10G27G12G28
 110852310.93948  86378416.97148  21094497.3434   21094500.0214   21094496.9054
       242.000         210.000
 124150856.21748  96740923.27648  23625126.3474   23625128.6304   23625125.5214
       227.000         180.000
 116827142.32648  73241924.20248  20328533.0844   20328534.4574   20328532.7544
       255.000         239.000
 109466395.90848  85298477.67648  20830772.0254   20830774.8054   20830772.0884
       249.000         221.000
 119711218.88048  93281464.65948  22780289.7954   22780291.5834   22780291.0974
       231.000         186.000
 129023127.24248 100537481.15448  24552301.1414   24552305.0484   24552302.3114
       214.000         154.000
 126579896.57748  98633674.24848  24087360.7484   24087364.1754   24087361.0224
       221.000         164.000
 124699487.08048  97168424.61848  23729529.2904   23729532.1214   23729528.9454
       223.000         177.000
 122966944.06548  95818394.14848  23399833.9204   23399835.7824   23399834.1154
       225.000         176.000
 09  1 23  0  2 30.0000000  0 10G 9G17G 5G15G26G18G10G27G12G28
 110790704.39548  86330411.88248  21082774.2874   21082777.0834   21082774.6584
       244.000         211.000
 124106174.56548  96706106.39348  23616623.5714   23616625.5424   23616624.1514
       225.000         180.000
 141037116.21658  92106827.59858  24935546.3485   24935549.9595   24935547.4245
       217.000         156.000
 116831626.49848  73245418.35948  20329386.3374   20329387.8174   20329386.0184
       255.000         239.000
 109522054.67948  85341848.13148  20841363.6764   20841366.3384   20841363.6944
       248.000         221.000
 119658208.65048  93240157.96648  22770202.4154   22770203.8084   22770202.6214
       233.000         187.000
 129134265.51948 100624082.41348  24573450.8654   24573454.2604   24573451.3924
       215.000         154.000
 126648632.75648  98687234.90848  24100440.5904   24100444.0304   24100439.8774
       220.000         164.000
 124590734.49248  97083682.32248  23708835.2374   23708836.7654   23708834.9854
       226.000         178.000
 123049005.95848  95882338.47248  23415449.7034   23415451.6884   23415449.8114
       225.000         175.000
 09  1 23  0  3  0.0000000  0 10G 9G17G 5G15G26G18G10G27G12G28
 110729384.45748  86282630.12148  21071105.5474   21071107.9844   21071106.0074
       244.000         211.000
 124061912.79648  96671616.73848  23608200.4074   23608202.6944   23608200.5654
       224.000         181.000
 140921842.44148  92017003.89248  24913611.2104   24913614.0134   24913612.7044
       213.000         156.000
  96836541.38458  93249246.69558  20330322.0525   20330323.4235   20330322.0725
       255.000         239.000
 109578095.03148  85385515.92448  20852027.8464   20852030.4394   20852027.6274
       248.000         220.000
 119605698.61948  93199241.07748  22760209.9564   22760211.8894   22760210.7364
       233.000         188.000
 129245399.09848 100710680.03748  24594599.1154   24594602.1704   24594599.1084
       216.000         158.000
 126717391.17048  98740812.89448  24113525.1264   24113528.1944   24113524.9914
       221.000         163.000
 124482157.50048  96999076.89548  23688174.3074   23688175.5284   23688174.2534
       226.000         179.000
 123131316.86548  95946476.82848  23431113.3314   23431114.9654   23431113.6884
       227.000         176.000
 09  1 23  0  3 30.0000000  0 10G 9G17G 5G15G26G18G10G27G12G28
 110668349.68248  86235070.56648  21059490.7894   21059493.7484   21059491.1644
       243.000         212.000
 124018071.24148  96637454.48648  23599858.0004   23599860.6494   23599858.2424
       227.000         181.000
 140806640.62748  91927236.26348  24891688.1074   24891691.6664   24891689.0214
       215.000         156.000
  96841889.56348  93253414.10348  20331339.7594   20331341.1454   20331339.6634
       255.000         239.000
 109634514.16748  85429478.87648  20862764.0714   20862766.6984   20862763.8414
       250.000         220.000
 119553688.46248  93158713.67748  22750312.9334   22750314.6554   22750313.4774
       230.000         187.000
 129356523.25448 100797270.27448  24615744.1204   24615748.2604   24615745.0744
       209.000         156.000
 126786169.50548  98794406.38948  24126613.1744   24126616.5984   24126613.7974
       220.000         160.000
 124373756.20048  96914608.33448  23667546.0264   23667547.7984   23667546.1194
       228.000         180.000
 123213872.62548  96010805.98348  23446823.2194   23446825.1424   23446824.0434
       227.000         176.000
 09  1 23  0  4  0.0000000  0 10G 9G17G 5G15G26G18G10G27G12G28
 110607603.54948  86187735.92148  21047931.3204   21047934.2794   21047931.6184
       243.000         212.000
 123974655.06748  96603623.71348  23591596.1104   23591598.1674   23591595.7554
       228.000         182.000
 140691515.66648  91837528.52148  24869779.9204   24869783.4134   24869780.3344
       213.000         155.000
  96847672.71848  93257920.45248  20332440.2984   20332441.7004   20332440.0054
       255.000         240.000
 109691314.58348  85473738.93848  20873572.7664   20873575.5094   20873572.6934
       249.000         220.000
 119502182.61148  93118579.25748  22740510.8624   22740513.2034   22740511.1354
       233.000         186.000
 129467639.05748 100883853.96448  24636887.9354   24636892.8164   24636887.3474
       208.000         153.000
 126854970.50448  98848017.54548  24139706.1204   24139708.8834   24139706.1954
       219.000         162.000
 124265535.45648  96830280.48948  23646951.7664   23646954.2344   23646951.8884
       224.000         177.000
 123296673.68348  96075326.30648  23462579.5484   23462581.6184   23462580.2714
       228.000         177.000
 09  1 23  0  4 30.0000000  0 10G 9G17G 5G15G26G18G10G27G12G28
 110547147.73848  86140627.50348  21036426.8414   21036429.7934   21036427.1014
       242.000         211.000
 123931667.77848  96570127.14548  23583415.7804   23583418.2404   23583415.7614
       227.000         182.000
 140576470.57848  91747882.98248  24847887.0444   24847890.9974   24847886.9604
       214.000         153.000
  96853892.80248  93262767.27048  20333623.9874   20333625.3764   20333623.7104
       255.000         240.000
 109748496.94548  85518296.62048  20884454.1954   20884456.8424   20884454.0464
       249.000         220.000
 119451184.21348  93078840.23848  22730806.4184   22730808.3784   22730806.8334
       232.000         186.000
 129578743.94448 100970429.22148  24658031.5764   24658034.9934   24658031.5434
       214.000         153.000
 126923795.09348  98901647.09048  24152802.6504   24152805.2694   24152802.5344
       217.000         159.000
 124157498.85748  96746096.11948  23626392.1614   23626395.3064   23626391.4504
       222.000         177.000
 123379718.98548  96140036.90848  23478382.5044   23478384.5664   23478383.6704
       226.000         176.000
 09  1 23  0  5  0.0000000  0  9G 9G17G 5G26G18G10G27G12G28
 110486982.36648  86093745.40348  21024977.7954   21024980.4714   21024977.5254
       244.000         212.000
 123889111.44448  96536966.37048  23575317.5184   23575319.9844   23575317.3894
       228.000         181.000
 140461507.32648  91658301.20948  24826011.2254   24826013.9904   24826012.7334
       210.000         153.000
 109806060.55248  85563151.36148  20895408.0894   20895410.9484   20895408.1574
       247.000         220.000
 119400694.79148  93039497.84948  22721198.3904   22721200.6084   22721199.4134
       230.000         186.000
 129689835.87548 101056994.41648  24679171.0234   24679175.6004   24679172.1054
       217.000         154.000
 126992643.18748  98955294.92748  24165904.1784   24165906.8554   24165904.4414
       216.000         161.000
 124049648.22448  96662056.67548  23605868.8394   23605871.5404   23605868.2044
       222.000         176.000
 123463006.16748  96204935.99948  23494231.6174   23494233.6204   23494231.7014
       226.000         175.000
 09  1 23  0  5 30.0000000  0 10G 9G17G 5G15G26G18G10G27G12G28
 110427106.81248  86047089.12848  21013583.9204   21013586.4924   21013584.0074
       244.000         211.000
 123846987.00448  96504142.14048  23567301.9314   23567303.5964   23567301.8274
       226.000         180.000
 140346626.67048  91568783.83648  24804150.3094   24804153.1044   24804151.2534
       215.000         154.000
 116867645.21358  73273484.41958  20336240.9285   20336242.3075   20336240.6775
       255.000         239.000
 109864003.65448  85608301.81648  20906434.3564   20906437.1644   20906434.0774
       247.000         220.000
 119350715.09248  93000552.61748  22711687.8074   22711689.6094   22711687.8924
       230.000         187.000
 129800911.13148 101143546.58048  24700308.8404   24700313.6924   24700309.7064
       216.000         154.000
 127061513.44548  99008960.05548  24179009.5224   24179013.1464   24179009.5554
       216.000         160.000
 123941984.61448  96578162.95048  23585381.6924   23585383.3384   23585381.7374
       226.000         179.000
 123546531.82448  96270020.92948  23510125.8664   23510128.0764   23510126.8284
       227.000         175.000
 09  1 23  0  6  0.0000000  0 10G 9G17G 5G15G26G18G10G27G12G28
 110367521.58648  86000659.08948  21002244.9834   21002247.6604   21002244.9624
       244.000         212.000
 123805296.41948  96471655.97348  23559368.3334   23559370.2084   23559367.9614
       226.000         182.000
 140231830.36148  91479332.16848  24782306.0714   24782308.9214   24782307.0614
       211.000         154.000
 116875177.76648  73279353.93548  20337674.3214   20337675.7594   20337674.0124
       255.000         239.000
 109922325.54248  85653747.42748  20917532.7324   20917535.3304   20917532.4814
       248.000         219.000
 119301246.85848  92962005.93748  22702274.4424   22702276.2294   22702274.0014
       231.000         188.000
 129911967.30548 101230083.84548  24721442.2084   24721446.8844   24721442.9444
       214.000         156.000
 127130405.52748  99062642.19348  24192119.8934   24192122.3734   24192120.4764
       216.000         159.000
 123834510.39748  96494416.80248  23564930.4194   23564931.5354   23564931.3304
       225.000         177.000
 123630293.41248  96335289.69048  23526065.3774   23526067.1574   23526065.6254
       226.000         175.000
 09  1 23  0  6 30.0000000  0 10G 9G17G 5G15G26G18G10G27G12G28
 110308226.98348  85954455.50848  20990961.8454   20990964.6024   20990962.1014
       245.000         212.000
 123764041.86748  96439509.57448  23551517.7954   23551519.7734   23551517.6434
       225.000         181.000
 140117120.55648  91389947.93248  24760476.6594   24760479.5164   24760477.7224
       209.000         153.000
 116883148.91648  73285565.21748  20339191.2344   20339192.5634   20339190.9474
       255.000         239.000
 109981025.69148  85699487.80648  20928703.0964   20928705.6144   20928703.0234
       249.000         219.000
 119252290.89448  92923858.44648  22692958.2984   22692960.3254   22692958.5394
       233.000         188.000
 130023001.81948 101316604.24348  24742570.9824   24742575.9164   24742572.1744
       216.000         159.000
 127199319.65948  99116341.49748  24205233.0764   24205236.7984   24205233.0174
       215.000         157.000
 123727227.37848  96410819.64748  23544514.9144   23544516.1334   23544514.5164
       225.000         179.000
 123714288.91148  96400740.73548  23542049.2774   23542051.0694   23542048.8494
       226.000         175.000
 09  1 23  0  7  0.0000000  0 10G 9G17G 5G15G26G18G10G27G12G28
 110249224.08348  85908479.22348  20979733.9244   20979736.5584   20979734.6164
       245.000         212.000
 123723226.29448  96407705.26048  23543750.7004   23543752.9904   23543750.2744
       226.000         181.000
 140002499.67048  91300632.97948  24738664.2464   24738668.3554   24738665.8144
       208.000         152.000
 116891559.67248  73292119.04448  20340791.6994   20340793.0884   20340791.4744
       255.000         239.000
 110040104.07248  85745522.90148  20939945.1484   20939947.9344   20939945.0604
       248.000         219.000
 119203849.66248  92886112.03948  22683740.3694   22683742.0874   22683740.9354
       233.000         188.000
 130134012.22348 101403105.87048  24763695.3634   24763700.2514   24763695.6844
       213.000         156.000
 127268255.99348  99170058.11348  24218350.5564   24218354.1794   24218351.3224
       210.000         154.000
 123620138.42648  96327373.71248  23524136.6154   23524138.5644   23524135.9814
       225.000         179.000
 123798516.79248  96466372.84948  23558077.3674   23558079.0684   23558078.1264
       227.000         176.000
 09  1 23  0  7 30.0000000  0 10G 9G17G 5G15G26G18G10G27G12G28
 110190512.51748  85862729.95948  20968561.4434   20968564.2484   20968562.2604
       245.000         213.000
 123682850.87248  96376243.88548  23536067.5634   23536070.0824   23536066.7384
       225.000         181.000
 139887968.96748  91211388.27548  24716869.3474   24716873.8734   24716869.2214
       212.000         153.000
 116900410.35848  73299015.68048  20342475.9084   20342477.3614   20342475.5844
       255.000         239.000
 110099559.29548  85791851.63648  20951259.2334   20951261.7914   20951259.1724
       248.000         219.000
 119155924.40048  92848767.68848  22674620.2264   22674622.1644   22674620.9954
       232.000         187.000
 130244995.58348 101489586.42048  24784815.4904   24784819.2884   24784816.3624
       212.000         153.000
 127337213.87548  99223791.53848  24231473.2304   24231476.8084   24231472.9124
       213.000         158.000
 123513244.99948  96244080.14748  23503795.2354   23503797.7464   23503795.5804
       225.000         181.000
 123882973.77248  96532183.47848  23574148.7964   23574150.8444   23574149.4954
       227.000         176.000
 09  1 23  0  8  0.0000000  0 10G 9G17G 5G15G26G18G10G27G12G28
 110132093.38548  85817208.54948  20957444.9424   20957447.1984   20957445.0354
       245.000         213.000
 123642918.55548  96345127.80648  23528468.8924   23528470.9074   23528468.7414
       227.000         182.000
 139773531.03648  91122215.85548  24695093.4934   24695096.5224   24695093.9924
       212.000         152.000
 116909701.94748  73306255.87648  20344244.0874   20344245.4884   20344243.8974
       255.000         239.000
 110159391.33848  85838473.99648  20962644.9714   20962647.4344   20962644.8154
       248.000         218.000
 119108517.31648  92811827.10048  22665599.2714   22665600.8774   22665599.1974
       232.000         188.000
 130355950.54148 101576044.82448  24805928.5414   24805932.8294   24805929.6464
       209.000         149.000
 127406193.80848  99277542.09548  24244600.1884   24244603.8014   24244600.1404
       213.000         160.000
 123406549.80848  96160941.05348  23483491.6344   23483494.6694   23483491.1964
       226.000         181.000
 123967658.05948  96598171.22148  23590263.5364   23590266.0474   23590264.3884
       224.000         177.000
 09  1 23  0  8 30.0000000  0 10G 9G17G 5G15G26G18G10G27G12G28
 110073966.73848  85771915.06748  20946383.7184   20946386.1264   20946384.0784
       245.000         214.000
 123603430.81248  96314358.13948  23520954.4114   23520956.3084   23520954.2484
       227.000         182.000
 139659187.31548  91033116.83948  24673335.4924   24673337.1614   24673335.3244
       210.000         152.000
 116919435.02548  73313840.08748  20346096.2074   20346097.6614   20346095.9844
       255.000         239.000
 110219599.27848  85885389.25948  20974102.1914   20974104.6144   20974102.1384
       248.000         218.000
 119061629.32148  92775291.00748  22656676.9334   22656678.2824   22656678.0704
       230.000         186.000
 130466873.41548 101662478.25548  24827036.2824   24827039.6754   24827036.6294
       211.000         146.000
 127475195.38048  99331309.53048  24257730.7374   24257734.7504   24257731.2284
       209.000         157.000
 123300054.37148  96077957.59648  23463226.5874   23463229.3174   23463226.1684
       226.000         181.000
 124052567.24148  96664334.21748  23606421.5594   23606423.5754   23606421.8544
       226.000         175.000
 09  1 23  0  9  0.0000000  0 10G 9G17G 5G15G26G18G10G27G12G28
 110016133.05148  85726849.86248  20935378.2164   20935380.6174   20935378.8024
       245.000         213.000
 123564389.41548  96283936.27648  23513525.2484   23513527.3994   23513525.0334
       228.000         183.000
 139544939.53248  90944092.58448  24651594.0584   24651595.7644   24651594.9504
       212.000         151.000
 116929609.86548  73321768.53248  20348032.4104   20348033.8934   20348032.1674
       255.000         239.000
 110280182.20748  85932596.72948  20985630.6214   20985633.1574   20985630.5294
       248.000         218.000
 119015261.75748  92739160.43248  22647853.3664   22647854.8334   22647853.8264
       233.000         187.000
 130577762.11548 101748885.05548  24848138.0354   24848141.6204   24848138.7924
       214.000         153.000
 127544218.06048  99385093.42648  24270864.8164   24270868.2634   24270864.9094
       207.000         154.000
 123193760.57448  95995131.26648  23442999.6434   23443002.1424   23442999.4734
       229.000         183.000
 124137698.59348  96730670.33148  23622621.5414   23622623.3434   23622623.0334
       225.000         175.000
 09  1 23  0  9 30.0000000  0 10G 9G17G 5G15G26G18G10G27G12G28
 109958593.16148  85682013.58948  20924428.7744   20924431.1214   20924428.8964
       245.000         213.000
 123525796.86548  96253864.16848  23506180.7824   23506183.2584   23506180.4244
       227.000         182.000
 139430790.02648  90855144.93348  24629871.8024   24629874.4324   24629873.6474
       210.000         153.000
 116940227.24948  73330041.81448  20350052.8474   20350054.3214   20350052.6194
       254.000         239.000
 110341139.78448  85980096.12948  20997230.5184   20997233.1164   20997230.3824
       248.000         218.000
 118969416.40048  92703436.79248  22639128.9814   22639131.2714   22639130.0744
       232.000         189.000
 130688613.91748 101835263.04648  24869233.3474   24869236.8524   24869233.6274
       216.000         159.000
 127613262.12248  99438893.95048  24284003.8504   24284006.4734   24284003.9754
       210.000         152.000
 123087671.50748  95912464.46548  23422812.1564   23422813.6094   23422812.6554
       228.000         181.000
 124223050.44948  96797178.28148  23638863.6584   23638864.8954   23638863.9654
       225.000         174.000
 09  1 23  0 10  0.0000000  0 10G 9G17G 5G15G26G18G10G27G12G28
 109901347.50748  85637406.59748  20913535.1374   20913537.9084   20913535.5914
       246.000         214.000
 123487655.76848  96224143.83748  23498923.0024   23498925.2384   23498922.9034
       229.000         184.000
 139316741.14148  90766275.69248  24608169.3324   24608172.0624   24608170.5754
       214.000         158.000
 116951288.77448  73338661.18548  20352157.7754   20352159.3284   20352157.5604
       254.000         239.000
 110402471.68248  86027887.21048  21008901.5544   21008904.2174   21008901.4424
       247.000         217.000
 118924095.14548  92668121.53348  22630505.1794   22630506.7164   22630505.9104
       233.000         189.000
 130799427.28648 101921611.13148  24890319.9444   24890323.8024   24890320.6994
       214.000         157.000
 127682327.65848  99492711.19948  24297146.5414   24297149.6444   24297147.6954
       210.000         152.000
 122981789.14948  95829958.75048  23402662.9434   23402664.2844   23402662.8464
       229.000         180.000
 124308620.71548  96863856.39948  23655146.9304   23655148.3324   23655147.5104
       224.000         173.000
 09  1 23  0 10 30.0000000  0 10G 9G17G 5G15G26G18G10G27G12G28
 109844395.70748  85593028.57648  20902697.7194   20902700.1784   20902697.7804
       246.000         214.000
 123449966.87248  96194775.87548  23491751.0854   23491753.2724   23491750.9304
       227.000         182.000
 139202793.76648  90677485.53848  24586486.3594   24586488.9614   24586487.8204
       213.000         160.000
 116962793.73648  73347626.08248  20354347.0444   20354348.6784   20354346.7104
       255.000         239.000
 110464176.30848  86075968.73148  21020643.4744   21020646.1374   21020643.3154
       247.000         217.000
 118879298.53548  92633215.08748  22621980.5274   22621982.4394   22621981.3854
       234.000         190.000
 130910198.56048 102007926.35048  24911398.2274   24911402.3754   24911398.7784
       203.000         142.000
 127751413.94748  99546544.67348  24310293.0714   24310296.1874   24310293.0014
       206.000         155.000
 122876114.90348  95747615.17148  23382554.0794   23382554.9274   23382553.3564
       227.000         181.000
 124394406.46248  96930702.44048  23671471.2804   23671472.9404   23671471.8514
       226.000         176.000
 09  1 23  0 11  0.0000000  0 10G 9G17G 5G15G26G18G10G27G12G28
 109787740.34748  85548881.54748  20891916.5614   20891919.1294   20891916.8884
       247.000         214.000
 123412734.39048  96165763.57048  23484665.9344   23484667.7784   23484665.7554
       227.000         182.000
 139088951.99448  90588777.68248  24564822.3034   24564826.2474   24564823.0034
       213.000         160.000
 116974744.65448  73356938.48348  20356621.3894   20356622.8364   20356621.2164
       254.000         239.000
 110526254.91948  86124341.67248  21032456.7014   21032459.5034   21032456.6364
       247.000         217.000
 118835030.09348  92598720.21548  22613556.2044   22613558.2714   22613556.7114
       233.000         189.000
 131020927.15848 102094208.45448  24932469.0164   24932470.4504   24932468.5104
       211.000         138.000
 127820522.73548  99600395.65148  24323444.8334   24323447.0934   24323444.4594
       210.000         155.000
 122770652.68248  95665436.81948  23362484.8574   23362485.9744   23362484.5984
       227.000         181.000
 124480407.15848  96997715.95748  23687836.9694   23687838.6894   23687837.7654
       225.000         175.000
 09  1 23  0 11 30.0000000  0 10G 9G17G 5G15G26G18G10G27G12G28
 109731380.95648  85504965.14548  20881191.5764   20881194.1974   20881192.0454
       245.000         214.000
 123375959.28248  96137107.65548  23477667.8464   23477670.2164   23477668.1414
       228.000         182.000
 138975216.78048  90500152.83348  24543178.7554   24543182.8294   24543179.5444
       210.000         158.000
 116987141.11548  73366598.05848  20358980.4044   20358981.7494   20358980.1094
       255.000         239.000
 110588706.21448  86173004.99948  21044340.7564   21044343.7404   21044340.5554
       247.000         218.000
 118791290.50548  92564637.41448  22605232.9204   22605234.3174   22605233.2884
       232.000         189.000
 131131609.74748 102180454.69748  24953531.3814   24953534.8104   24953532.5984
       217.000         152.000
 127889653.19548  99654263.52248  24336599.2554   24336602.0784   24336599.3664
       209.000         156.000
 122665403.60848  95583424.56248  23342457.0064   23342458.1994   23342456.5154
       229.000         184.000
 124566619.97748  97064894.77948  23704242.3614   23704244.1484   23704242.8724
       225.000         173.000
 09  1 23  0 12  0.0000000  0 10G 9G17G 5G15G26G18G10G27G12G28
 109675318.28148  85461279.94548  20870523.3534   20870525.8144   20870523.3034
       247.000         215.000
 123339643.85848  96108809.93448  23470756.9434   23470759.3114   23470756.6704
       226.000         180.000
 138861590.44248  90411612.81548  24521556.4384   24521560.3704   24521556.7414
       212.000         159.000
 116999984.30648  73376605.73448  20361424.4064   20361425.6414   20361424.2564
       255.000         239.000
 110651529.67048  86221958.33048  21056295.8154   21056298.4004   21056295.7424
       247.000         217.000
 118748081.56448  92530968.10248  22597010.5894   22597012.0444   22597010.7564
       234.000         189.000
 131242244.60448 102266663.66948  24974584.7734   24974589.3664   24974585.7474
       214.000         156.000
 127958805.95848  99708148.79448  24349758.4194   24349762.1634   24349758.1304
       205.000         155.000
 122560370.52948  95501580.60348  23322469.8424   23322471.6574   23322469.6644
       229.000         184.000
 124653042.86948  97132237.28448  23720688.4804   23720689.8054   23720689.3304
       225.000         173.000
 09  1 23  0 12 30.0000000  0 10G 9G17G 5G15G26G18G10G27G12G28
 109619552.15248  85417825.82548  20859911.4524   20859913.7854   20859911.7114
       246.000         215.000
 123303789.91548  96080871.81648  23463934.4304   23463936.4794   23463933.7864
       230.000         182.000
 138748074.22948  90323158.63648  24499955.5524   24499959.2894   24499955.6224
       210.000         160.000
 117013274.15648  73386961.46048  20363953.2864   20363954.6794   20363953.0944
       254.000         239.000
 110714723.76648  86271200.47648  21068321.2644   21068323.7304   21068321.0974
       248.000         216.000
 118705403.89548  92497712.77948  22588889.5084   22588891.1774   22588890.1484
       234.000         191.000
 131352828.29648 102352832.73648  24995628.5584   24995632.7214   24995629.1294
       209.000         150.000
 128027979.90648  99762050.52148  24362921.6964   24362925.8524   24362920.9554
       203.000         153.000
 122455554.58248  95419905.85148  23302523.6324   23302526.0304   23302523.4314
       227.000         184.000
 124739672.66348  97199741.03148  23737173.4124   23737175.0864   23737173.3284
       224.000         174.000
 09  1 23  0 13  0.0000000  0 10G 9G17G 5G15G26G18G10G27G12G28
 109564082.60848  85374602.80848  20849355.7864   20849358.3244   20849355.8394
       246.000         215.000
 123268398.57348  96053294.15648  23457199.7804   23457202.1404   23457199.7774
       230.000         182.000
 138634669.54548  90234791.36548  24478375.6104   24478378.8174   24478375.6524
       219.000         164.000
 117027010.49948  73397665.09448  20366567.1114   20366568.6784   20366566.7794
       254.000         238.000
 110778287.45048  86320730.61248  21080417.0734   21080419.4414   21080417.0924
       247.000         216.000
 118663258.48748  92464872.19348  22580869.6494   22580871.3034   22580869.9344
       234.000         191.000
 131463357.76348 102438959.55148  25016661.3774   25016664.1254   25016663.2284
       212.000         147.000
 128097174.53448  99815968.39248  24376088.6164   24376092.6674   24376088.6664
       206.000         153.000
 122350957.81048  95338401.86548  23282619.6554   23282621.6444   23282619.3204
       226.000         183.000
 124826506.77748  97267403.96848  23753697.4914   23753699.3604   23753697.6724
       225.000         176.000
 09  1 23  0 13 30.0000000  0 10G 9G17G 5G15G26G18G10G27G12G28
 109508910.04948  85331611.21948  20838856.8454   20838859.3984   20838856.5254
       246.000         216.000
 123233471.75248  96026078.46048  23450553.5554   23450555.9144   23450552.9744
       229.000         183.000
 138521378.55148  90146512.69148  24456817.3714   24456820.5594   24456819.1864
       216.000         162.000
 117041194.13848  73408717.27248  20369266.3124   20369267.7074   20369265.9344
       254.000         239.000
 110842220.06048  86370548.22048  21092582.8924   21092585.4554   21092582.6574
       247.000         215.000
 118621646.69848  92432447.42748  22572950.5744   22572952.6134   22572951.1654
       233.000         190.000
 131573830.79948 102525042.49948  25037684.7604   25037685.9634   25037684.9744
       216.000         147.000
 128166389.67348  99869902.24748  24389260.5064   24389263.9404   24389260.9074
       207.000         156.000
 122246581.75148  95257069.87748  23262757.4314   23262759.5084   23262757.6084
       227.000         183.000
 124913543.11348  97335224.47048  23770259.7964   23770261.7604   23770260.2924
       226.000         173.000
 09  1 23  0 14  0.0000000  0 10G 9G17G 5G15G26G18G10G27G12G28
 109454035.19348  85288851.59648  20828414.5944   20828417.2394   20828414.9094
       246.000         216.000
 123199011.44948  95999226.27148  23443995.9674   23443997.9244   23443996.0144
       230.000         181.000
 138408203.24048  90058324.10448  24435279.7834   24435283.7514   24435280.8254
       214.000         158.000
 117055825.85948  73420118.61148  20372050.6254   20372052.0594   20372050.4414
       254.000         238.000
 110906520.97548  86420652.81748  21104818.9394   21104821.4974   21104818.7074
       246.000         215.000
 118580570.12848  92400439.70548  22565134.2874   22565135.7464   22565134.7044
       235.000         191.000
 131684245.28948 102611079.80448  25058695.8734   25058698.6794   25058697.0294
       211.000         148.000
 128235625.73748  99923852.42248  24402436.1784   24402439.4834   24402435.8324
       210.000         158.000
 122142428.85848  95175911.79448  23242937.9924   23242940.3784   23242937.7434
       226.000         184.000
 125000779.70348  97403201.04148  23786860.5234   23786862.2254   23786861.0184
       224.000         173.000
 09  1 23  0 14 30.0000000  0 10G 9G17G 5G15G26G18G10G27G12G28
 109399458.73848  85246324.49048  20818028.8774   20818031.6424   20818028.8904
       246.000         216.000
 123165019.77348  95972739.25448  23437527.5444   23437529.3654   23437527.6814
       230.000         183.000
 138295146.06048  89970227.58848  24413765.7844   24413769.0484   24413766.1124
       210.000         156.000
 117070906.51148  73431869.75748  20374920.2774   20374921.7664   20374919.9914
       254.000         238.000
 110971189.92248  86471044.19748  21117125.0324   21117127.5334   21117124.8954
       247.000         216.000
 118540030.39848  92368850.30448  22557420.0594   22557421.3034   22557420.7124
       234.000         191.000
 131794599.52548 102697070.08548  25079694.5404   25079698.9164   25079695.4274
       206.000         146.000
 128304883.07148  99977819.16448  24415614.5344   24415618.9564   24415615.1184
       207.000         157.000
 122038501.72548  95094929.62148  23223161.0584   23223163.4514   23223161.3354
       229.000         184.000
 125088214.70748  97471332.22048  23803498.4834   23803500.5164   23803498.2704
       224.000         171.000
 09  1 23  0 15  0.0000000  0 10G 9G17G 5G15G26G18G10G27G12G28
 109345181.53148  85204030.56948  20807700.3964   20807702.7524   20807700.5894
       246.000         216.000
 123131499.34048  95946619.43448  23431148.6614   23431151.0894   23431148.4644
       231.000         184.000
 138182209.06248  89882224.71948  24392274.3294   24392277.7004   24392274.5254
       214.000         158.000
 117086436.90648  73443971.35948  20377875.5324   20377877.1264   20377875.2644
       254.000         238.000
 111036226.25548  86521721.85548  21129501.0324   21129503.7414   21129500.8424
       247.000         215.000
 118500029.26248  92337680.58048  22549808.1554   22549809.0594   22549808.7264
       234.000         190.000
 131904890.73848 102783011.27448  25100682.3614   25100686.0304   25100681.7924
       211.000         149.000
 128374161.55448 100031802.38748  24428797.8254   24428801.8754   24428797.8354
       205.000         155.000
 121934802.67548  95014125.16048  23203428.0634   23203429.5344   23203427.9724
       227.000         182.000
 125175845.88448  97539616.26548  23820174.4104   23820176.2524   23820174.8914
       224.000         169.000
 09  1 23  0 15 30.0000000  0 10G 9G17G 5G15G26G18G10G27G12G28
 109291203.97848  85161970.14748  20797428.5914   20797431.3314   20797428.8384
       246.000         216.000
 123098451.90548  95920868.20048  23424860.0894   23424862.3554   23424860.1794
       231.000         183.000
 138069394.26348  89794317.09048  24370807.2034   24370810.4334   24370808.7004
       215.000         159.000
 117102417.55348  73456423.80348  20380916.6014   20380918.2514   20380916.2574
       254.000         238.000
 111101629.49148  86572685.40448  21141946.9824   21141949.5494   21141946.7934
       246.000         215.000
 118460568.04248  92306931.56948  22542298.2064   22542300.3724   22542299.0614
       233.000         189.000
 132015116.94348 102868901.89348  25121657.6134   25121660.9744   25121658.6704
       210.000         148.000
 128443461.39948 100085802.25248  24441984.8514   24441988.6474   24441984.7364
       209.000         156.000
 121831333.82448  94933500.08748  23183738.0824   23183739.9714   23183737.7344
       228.000         184.000
 125263671.07048  97608051.48248  23836887.1394   23836888.6894   23836887.2494
       225.000         171.000
 09  1 23  0 16  0.0000000  0 10G 9G17G 5G15G26G18G10G27G12G28
 109237525.84348  85120143.03148  20787213.9694   20787216.8614   20787214.0794
       248.000         216.000
 123065878.64948  95895486.44548  23418661.7794   23418663.7094   23418661.6064
       230.000         183.000
 137956702.95248  89706505.68348  24349363.4364   24349365.5464   24349364.0944
       220.000         160.000
 117118848.35248  73469227.01748  20384043.3464   20384044.9444   20384043.0614
       254.000         238.000
 111167398.09248  86623933.66348  21154462.1454   21154464.8214   21154462.1834
       246.000         215.000
 118421647.01648  92276603.48848  22534891.8634   22534893.9274   22534892.2304
       235.000         190.000
 132125274.56048 102954738.98248  25142620.1634   25142623.6674   25142620.7874
       212.000         146.000
 128512782.09348 100139818.35848  24455177.1394   24455180.3944   24455177.2874
       206.000         157.000
 121728096.62848  94853055.51648  23164092.7474   23164095.0944   23164092.8334
       228.000         185.000
 125351687.81848  97676635.94648  23853636.3574   23853638.0244   23853637.0984
       225.000         173.000
 09  1 23  0 16 30.0000000  0 10G 9G17G 5G15G26G18G10G27G12G28
 109184147.73348  85078549.70048  20777056.7784   20777059.2204   20777057.0114
       247.000         217.000
 123033781.36448  95870475.57248  23412553.8514   23412555.9044   23412553.4294
       231.000         184.000
 137844137.10648  89618792.05048  24327942.5074   24327945.3154   24327942.7924
       218.000         163.000
 117135729.42248  73482381.09848  20387255.6714   20387257.2094   20387255.4454
       254.000         238.000
 111233531.32948  86675466.04448  21167046.8204   21167049.8034   21167046.6734
       246.000         215.000
 118383267.75348  92246697.56948  22527588.8224   22527590.4194   22527589.8344
       234.000         191.000
 132235361.84948 103040521.28148  25163568.9774   25163571.9524   25163572.2114
       210.000         145.000
 128582123.47748 100193850.59748  24468372.5624   24468375.3194   24468373.1294
       212.000         159.000
 121625093.34248  94772793.23248  23144491.9824   23144494.4634   23144491.4794
       227.000         185.000
 125439893.60148  97745367.72848  23870421.4854   23870422.9934   23870421.7744
       226.000         175.000
 09  1 23  0 17  0.0000000  0 10G 9G17G 5G15G26G18G10G27G12G28
 109131070.50148  85037190.82348  20766956.4154   20766959.1914   20766956.6644
       246.000         217.000
 123002162.30048  95845837.35548  23406536.7054   23406538.8254   23406536.8834
       230.000         183.000
 137731699.19548  89531178.06448  24306546.1144   24306548.8984   24306546.3594
       217.000         164.000
 117153062.35148  73495887.27048  20390553.9844   20390555.4834   20390553.6674
       254.000         237.000
 111300028.94148  86727282.34748  21179701.0584   21179703.6874   21179701.0354
       246.000         215.000
 118345432.12548  92217215.26248  22520388.8274   22520390.4644   22520389.6614
       234.000         191.000
 132345376.68248 103126247.10448  25184503.2374   25184507.9044   25184505.9554
       209.000         147.000
 128651486.14148 100247899.44048  24481570.9494   24481575.2394   24481571.7484
       207.000         158.000
 121522326.39148  94692715.08548  23124936.3814   23124938.1024   23124936.6104
       229.000         187.000
 125528287.01848  97814245.70048  23887242.2304   23887243.7124   23887242.7554
       225.000         174.000
 09  1 23  0 17 30.0000000  0 10G 9G17G 5G15G26G18G10G27G12G28
 109078294.59548  84996066.75148  20756913.4384   20756916.1164   20756913.6194
       247.000         217.000
 122971022.97648  95821572.96448  23400610.9624   23400612.8824   23400610.7604
       228.000         183.000
 137619390.92848  89443665.13448  24285173.9394   24285177.4704   24285173.5994
       213.000         163.000
 117170847.36848  73509745.72348  20393938.3424   20393939.8124   20393937.9894
       253.000         237.000
 111366890.00048  86779381.87648  21192424.3914   21192426.9754   21192424.3284
       245.000         214.000
 118308141.30148  92188157.46848  22513292.4714   22513294.5324   22513293.0454
       234.000         190.000
 132455316.29048 103211914.35848  25205425.2344   25205428.4394   25205425.8264
       208.000         147.000
 128720869.89248 100301964.68148  24494774.4904   24494777.8614   24494774.0614
       211.000         160.000
 121419797.44648  94612822.40748  23105425.6674   23105427.0204   23105425.5564
       227.000         184.000
 125616865.13448  97883267.61648  23904097.7414   23904099.2274   23904098.2014
       224.000         171.000
 09  1 23  0 18  0.0000000  0 10G 9G17G 5G15G26G18G10G27G12G28
 109025821.42548  84955178.57048  20746928.0894   20746930.8404   20746928.2304
       247.000         217.000
 122940366.36248  95797684.69148  23394777.3454   23394779.5854   23394777.6364
       227.000         183.000
 137507215.31548  89356255.58548  24263827.2684   24263830.9524   24263828.1444
       218.000         163.000
 117189085.53148  73523957.26748  20397409.0534   20397410.5374   20397408.6174
       254.000         237.000
 111434114.77648  86831764.81048  21205216.7474   21205219.5134   21205216.5284
       246.000         215.000
 118271397.12748  92159525.63148  22506300.3184   22506301.8954   22506300.5264
       235.000         191.000
 132565179.46048 103297522.01648  25226330.7614   25226334.5754   25226331.8904
       207.000         144.000
 128790275.89748 100356047.26648  24507982.2274   24507985.3324   24507982.6084
       212.000         162.000
 121317509.83048  94533117.77448  23085960.8964   23085962.5544   23085960.8414
       229.000         185.000
 125705627.17648  97952432.82348  23920988.5334   23920989.7304   23920988.5194
       221.000         166.000
 09  1 23  0 18 30.0000000  0 10G 9G17G 5G15G26G18G10G27G12G28
 108973650.27248  84914525.72848  20737000.2404   20737002.8184   20737000.5334
       247.000         217.000
 122910193.37148  95774173.28848  23389035.6844   23389037.3234   23389035.2414
       231.000         183.000
 137395173.02248  89268949.89248  24242507.2424   24242510.2004   24242508.8624
       218.000         164.000
 117207776.41648  73538521.59048  20400965.8524   20400967.2544   20400965.6864
       254.000         237.000
 111501701.25948  86884429.59448  21218078.0664   21218080.5414   21218077.9414
       246.000         214.000
 118235199.67848  92131319.82248  22499412.2314   22499414.3004   22499413.1734
       234.000         192.000
 132674962.88648 103383067.57748  25247222.8114   25247224.9444   25247224.0814
       207.000         143.000
 128859702.81748 100410146.14948  24521194.0694   24521197.3224   24521194.3974
       211.000         163.000
 121215464.15648  94453601.67848  23066542.4914   23066543.5584   23066542.5894
       230.000         186.000
 125794569.83148  98021738.80648  23937913.6874   23937914.6924   23937914.5204
       222.000         165.000
 09  1 23  0 19  0.0000000  0 10G 9G17G 5G15G26G18G10G27G12G28
 108921780.93648  84874108.05748  20727130.0374   20727132.3524   20727129.8444
       247.000         218.000
 122880504.97548  95751039.46648  23383386.2264   23383388.1074   23383386.3904
       230.000         185.000
 137283265.65848  89181749.35248  24221212.3014   24221215.1334   24221213.2394
       215.000         164.000
 117226920.02248  73553438.67448  20404608.7214   20404610.1234   20404608.4614
       254.000         237.000
 111569648.18248  86937375.24248  21231008.0954   21231010.5354   21231007.8434
       245.000         214.000
 118199549.94948  92103540.81048  22492628.3614   22492630.5104   22492628.6584
       234.000         192.000
 132784663.40348 103468548.51348  25268097.4884   25268100.6194   25268098.7314
       206.000         142.000
 128929150.05148 100464260.88548  24534409.6944   24534412.5454   24534410.1344
       212.000         162.000
 121113662.62048  94374275.81748  23047170.2044   23047171.4564   23047169.8184
       230.000         187.000
 125883690.42748  98091183.42748  23954872.4174   23954873.6034   23954873.5194
       221.000         163.000
 09  1 23  0 19 30.0000000  0 10G 9G17G 5G15G26G18G10G27G12G28
 108870215.61648  84833927.30048  20717317.3254   20717319.9134   20717317.3354
       247.000         218.000
 122851304.23848  95728285.66448  23377829.4004   23377831.4474   23377829.1204
       231.000         185.000
 137171496.64048  89094656.60248  24199942.4334   24199946.3684   24199942.3764
       217.000         162.000
 117246518.17848  73568709.95848  20408338.1194   20408339.5994   20408337.8334
       253.000         237.000
 111637956.22748  86990602.28448  21244006.5744   21244009.1564   21244006.5894
       246.000         214.000
 118164450.54548  92076190.63048  22485949.1504   22485951.2634   22485949.6964
       236.000         192.000
 132894280.40748 103553964.36848  25288957.6294   25288960.0474   25288958.4534
       208.000         145.000
 128998619.20848 100518392.67348  24547628.8084   24547632.2834   24547628.1974
       214.000         162.000
 121012108.30148  94295142.60548  23027844.8024   23027846.6984   23027844.9624
       230.000         188.000
 125972988.25448  98160766.16948  23971865.4744   23971866.6734   23971865.2084
       220.000         164.000
 09  1 23  0 20  0.0000000  0 10G 9G17G 5G15G26G18G10G27G12G28
 108818953.61848  84793982.88648  20707562.4824   20707565.1614   20707562.8254
       246.000         218.000
 122822592.14148  95705912.60648  23372365.6214   23372367.6884   23372365.3684
       230.000         186.000
 137059866.90648  89007672.39048  24178700.1614   24178703.9174   24178700.4984
       217.000         164.000
 117266570.23648  73584334.93448  20412153.8684   20412155.4824   20412153.5644
       253.000         237.000
 111706623.59948  87044109.31648  21257073.5304   21257075.9684   21257073.4434
       245.000         213.000
 118129901.84948  92049269.55748  22479375.0514   22479376.4674   22479376.2834
       236.000         193.000
 133003810.24548 103639312.25448  25309800.4384   25309803.5724   25309801.5214
       211.000         144.000
 129068109.46548 100572540.93448  24560852.6014   24560855.5654   24560853.1984
       209.000         161.000
 120910802.30048  94216202.86148  23008567.5344   23008568.7374   23008567.4414
       230.000         188.000
 126062460.06948  98230484.45648  23988891.5724   23988892.5384   23988891.5694
       222.000         165.000
 09  1 23  0 20 30.0000000  0  9G17G 5G15G26G18G10G27G12G28
 122794370.34048  95683921.58048  23366995.2824   23366997.3354   23366994.8564
       230.000         187.000
 136948378.55948  88920798.36248  24157484.4644   24157487.8954   24157484.8734
       219.000         164.000
 117287076.71348  73600314.00048  20416056.1714   20416057.8134   20416056.0034
       253.000         237.000
 111775649.54548  87097895.76348  21270208.5774   21270211.0614   21270208.3344
       244.000         213.000
 118095904.39848  92022778.02948  22472905.6054   22472907.2154   22472905.6134
       235.000         192.000
 133113251.07848 103724590.84748  25330626.4304   25330628.9674   25330628.2204
       203.000         143.000
 129137621.11548 100626705.83548  24574079.6274   24574083.7424   24574080.1564
       211.000         162.000
 120809746.99848  94137458.47248  22989337.1504   22989338.8124   22989337.1144
       229.000         186.000
 126152103.86648  98300336.75248  24005950.2054   24005951.5374   24005952.3174
       221.000         166.000
 09  1 23  0 21  0.0000000  0 10G 9G17G 5G15G26G18G10G27G12G28
 118717319.85558  74714783.88858  20688226.4475   20688229.0295   20688226.7215
       247.000         218.000
 122766640.70448  95662314.08348  23361718.5354   23361720.6754   23361718.5344
       230.000         185.000
 136837033.36648  88834035.88048  24136296.7404   24136299.5904   24136297.0954
       221.000         167.000
 117308037.81448  73616647.32248  20420044.9024   20420046.5444   20420044.7044
       253.000         237.000
 111845033.26048  87151960.98548  21283412.0714   21283414.5834   21283412.0194
       245.000         213.000
 118062459.37048  91996716.97048  22466541.3834   22466542.6524   22466542.2114
       235.000         192.000
 133222600.57448 103809798.24148  25351434.3914   25351436.9034   25351433.5614
       206.000         138.000
 129207153.89448 100680887.23048  24587311.8434   24587314.9724   24587311.9264
       212.000         161.000
 120708944.28248  94058910.90748  22970154.8524   22970156.7924   22970154.6804
       228.000         188.000
 126241917.58548  98370321.47048  24023041.4924   24023042.8104   24023042.1894
       221.000         166.000
 09  1 23  0 21 30.0000000  0 10G 9G17G 5G15G26G18G10G27G12G28
 118666970.66248  74675550.75348  20678645.1554   20678647.9544   20678645.2214
       248.000         218.000
 122739404.32448  95641090.94148  23356535.4084   23356537.5234   23356535.3674
       229.000         186.000
 136725832.99648  88747386.24248  24115136.3724   24115138.8634   24115137.6674
       220.000         168.000
 117329453.97648  73633335.23248  20424120.2654   20424121.7934   20424119.9704
       253.000         236.000
 111914773.38148  87206303.92748  21296683.2024   21296685.7344   21296683.2734
       245.000         213.000
 118029567.90848  91971087.24648  22460282.3964   22460283.4404   22460282.5974
       235.000         193.000
 133331855.86848 103894932.27648  25372224.7644   25372227.0774   25372226.4124
       211.000         141.000
 129276707.35248 100735084.70848  24600546.7704   24600550.1304   24600546.2774
       214.000         162.000
 120608395.54748  93980561.25348  22951020.6214   22951022.7384   22951020.1834
       229.000         189.000
 126331898.68448  98440436.59348  24040163.7174   24040166.1144   24040164.6124
       219.000         164.000
 09  1 23  0 22  0.0000000  0 10G 9G17G 5G15G26G18G10G27G12G28
 118616927.11848  74636555.78148  20669122.1304   20669124.8544   20669122.4244
       248.000         218.000
 122712664.08648  95620254.39148  23351446.6294   23351448.8524   23351446.7164
       229.000         185.000
 136614780.51248  88660851.84348  24094003.3254   24094006.4284   24094003.6854
       221.000         168.000
 117351326.49948  73650378.75148  20428282.4824   20428284.0064   20428282.3064
       253.000         236.000
 111984870.46448  87260925.01848  21310022.1274   21310024.9764   21310022.0204
       245.000         213.000
 117997232.12148  91945890.53748  22454128.9064   22454130.5454   22454129.2534
       235.000         192.000
 133441015.97848 103979992.12548  25392996.5274   25393000.2594   25392999.6064
       208.000         138.000
 129346282.83548 100789299.35648  24613786.1074   24613790.0014   24613785.7954
       212.000         162.000
 120508104.36948  93902412.30048  22931935.6794   22931938.0084   22931935.5614
       231.000         189.000
 126422046.00848  98510681.26348  24057318.3944   24057320.4864   24057319.7874
       220.000         162.000
 09  1 23  0 22 30.0000000  0 10G 9G17G 5G15G26G18G10G27G12G28
 118567189.20548  74597798.96548  20659657.3924   20659660.2124   20659657.8194
       250.000         218.000
 122686420.25348  95599804.65848  23346452.6974   23346454.7444   23346453.0674
       230.000         186.000
 136503876.87148  88574433.42248  24072899.5014   24072902.5514   24072900.0354
       221.000         168.000
 117373654.68848  73667777.33448  20432531.2774   20432532.9524   20432531.0464
       253.000         236.000
 112055322.53348  87315822.72248  21323429.0014   21323431.5784   21323428.9484
       245.000         213.000
 117965452.11348  91921126.88248  22448081.6084   22448082.6624   22448082.1994
       235.000         192.000
 133550077.39448 104064975.06548  25413751.0964   25413755.9844   25413752.2204
       204.000         137.000
 129415879.25748 100843530.34748  24627030.3674   24627034.2184   24627030.2424
       209.000         162.000
 120408071.70148  93824464.76248  22912900.6214   22912902.0244   22912900.7484
       230.000         188.000
 126512356.59548  98581053.15348  24074503.4494   24074506.1934   24074503.7834
       217.000         161.000
 09  1 23  0 23  0.0000000  0 10G 9G17G 5G15G26G18G10G27G12G28
 118517757.76748  74559280.96948  20650250.8394   20650253.5044   20650251.5214
       249.000         219.000
 122660675.00448  95579743.44848  23341553.8814   23341555.5164   23341554.0174
       230.000         186.000
 136393124.06848  88488132.55248  24051823.5984   24051826.8094   24051824.9144
       218.000         168.000
 117396439.08748  73685531.40648  20436867.1244   20436868.7374   20436866.6964
       253.000         236.000
 112126128.99848  87370996.59348  21336902.8154   21336905.4204   21336902.8344
       245.000         212.000
 117934229.02648  91896797.20648  22442139.7674   22442141.2504   22442140.6004
       235.000         192.000
 133659038.08048 104149879.48648  25434485.7864   25434489.1334   25434487.2404
       207.000         141.000
 129485497.05048 100897777.93148  24640277.9344   24640281.6444   24640277.5104
       214.000         161.000
 120308299.77048  93746720.40748  22893914.6204   22893916.3094   22893914.8544
       229.000         189.000
 126602828.28948  98651550.55848  24091720.1964   24091722.4534   24091720.5804
       218.000         160.000
 09  1 23  0 23 30.0000000  0 10G 9G17G 5G15G26G18G10G27G12G28
 118468633.43948  74521002.26748  20640903.0484   20640905.6224   20640903.1924
       249.000         219.000
 122635430.48748  95560072.40048  23336749.9064   23336751.9534   23336749.9494
       231.000         186.000
 136282524.59748  88401951.14448  24030777.2454   24030780.4634   24030777.5494
       219.000         170.000
 117419680.47148  73703641.56548  20441289.8464   20441291.4734   20441289.6314
       253.000         236.000
 112197289.16848  87426446.06448  21350444.1804   21350446.7284   21350444.2424
       245.000         213.000
 117903564.48648  91872902.76548  22436304.2154   22436305.9074   22436304.3824
       236.000         193.000
 133767896.03648 104234703.88048  25455200.7314   25455203.8254   25455201.9574
       206.000         142.000
 129555136.49348 100952042.44548  24653529.8204   24653533.9614   24653530.9614
       211.000         160.000
 120208790.66448  93669180.84948  22874978.5244   22874980.5534   22874978.0284
       229.000         190.000
 126693459.56648  98722172.33248  24108966.5274   24108968.2894   24108968.2164
       215.000         158.000
 09  1 23  0 24  0.0000000  0 10G 9G17G 5G15G26G18G10G27G12G28
 118419815.96548  74482962.67948  20631613.1624   20631615.9044   20631613.1364
       249.000         219.000
 122610687.12148  95540791.86948  23332041.3284   23332043.3224   23332040.5684
       230.000         187.000
 136172079.52248  88315890.05948  24009760.3464   24009763.6174   24009761.1254
       221.000         171.000
 117443378.27548  73722107.38448  20445799.3544   20445800.9504   20445799.1224
       253.000         236.000
 112268801.62248  87482170.05048  21364052.7264   21364055.2864   21364052.8384
       245.000         212.000
 117873457.85548  91849443.04648  22430575.4434   22430577.0674   22430576.2194
       234.000         192.000
 133876648.35848 104319445.96548  25475896.5424   25475899.6444   25475896.0304
       205.000         142.000
 129624797.07148 101006323.39648  24666786.4164   24666789.3844   24666786.7404
       215.000         162.000
 120109545.70548  93591847.12048  22856092.8384   22856095.0614   22856092.5564
       230.000         191.000
 126784247.31548  98792916.02548  24126242.0764   24126245.0034   24126242.2484
       211.000         155.000
 09  1 23  0 24 30.0000000  0 11G 9G17G 5G15G26G18G10G27G12G22G28
 118371305.55948  74445162.37048  20622382.0064   20622384.7454   20622382.0434
       250.000         219.000
 122586446.63748  95521903.18748  23327428.2344   23327430.3964   23327427.8404
       231.000         187.000
 136061790.67748  88229950.69548  23988773.0304   23988776.4244   23988773.5414
       220.000         171.000
 117467532.79848  73740929.08548  20450395.7904   20450397.3004   20450395.5164
       252.000         235.000
 112340665.27148  87538167.69348  21377727.6994   21377730.4914   21377727.5304
       245.000         212.000
 117843910.47148  91826419.11748  22424952.5074   22424954.0334   22424952.6154
       236.000         193.000
 133985292.94248 104404104.07148  25496570.1374   25496573.9364   25496569.2944
       204.000         140.000
 129694478.83048 101060620.86548  24680046.7764   24680049.4784   24680046.6634
       216.000         164.000
 120010566.90048  93514720.79648  22837257.7474   22837259.7604   22837257.3904
       230.000         190.000
 138176580.50258  89877855.25658  24391190.3345   24391190.4925   24391191.2255
       221.000         161.000
 126875189.54748  98863780.12348  24143548.2234   24143550.5574   24143547.2284
       217.000         157.000
