     2.11           OBSERVATION DATA    G (GPS)             RINEX VERSION / TYPE
teqc  2008Oct2      gpsops              20090130 00:05:57UTCPGM / RUN BY / DATE
    30.0000                                                 INTERVAL
     1     1                                                WAVELENGTH FACT L1/2
     7    L1    L2    P1    P2    C1    S1    S2            # / TYPES OF OBSERV
Linux 2.4.20-8|Pentium IV|gcc -static|Linux|486/DX+         COMMENT
     2.10           OBSERVATION DATA    GPS                 COMMENT
soc2rnx ver 1.20    gpsops              30-Jan-2009 00:05:53COMMENT
S1, if present, is the SNR for the C/A data stream on L1.   COMMENT
 SNR is mapped to RINEX snr flag value [1,4-9]              COMMENT
    SNR:   >316  >100  >31.6  >10  >3.2    >0 bad=0         COMMENT
L1 & L2:      9     8     7     6     5     4     1         COMMENT
                                                            COMMENT
This data is provided as a public service by NASA/JPL.      COMMENT
No warranty is expressed or implied regarding suitability   COMMENT
for use.  For further information, contact:                 COMMENT
Dave Stowers, NASA/JPL m/s 238-600                          COMMENT
4800 Oak Grove Drive, Pasadena CA 91109 USA                 COMMENT
                                                            COMMENT
Forced Modulo Decimation to 30 seconds                      COMMENT
  2009     1    29     0     0    0.0000000     GPS         TIME OF FIRST OBS
DSN                 JPL                                     OBSERVER / AGENCY
451-U               AOAD/M_T        NONE                    ANT # / TYPE
  4849202.3940  -360328.9929  4114913.1862                  APPROX POSITION XYZ
        0.0254        0.0000        0.0000                  ANTENNA: DELTA H/E/N
LP03574             ASHTECH Z-XII3      CC00                REC # / TYPE / VERS
MADR                                                        MARKER NAME
13407S012                                                   MARKER NUMBER
                                                            END OF HEADER
 09  1 29  0  0  0.0000000  0 10G 5G 9G10G26G15G18G17G27G12G28
 126039965.99248  98212942.87048  23984621.1974   23984624.6784   23984622.3764
       221.000         171.000
 108350936.76548  84429288.35448  20618508.7404   20618511.7794   20618509.5444
       250.000         219.000
 133874823.71048 104318031.44148  25475540.2534   25475543.2344   25475541.9364
       202.000         140.000
 112368607.46948  87559931.74848  21383052.0024   21383054.7254   21383051.9784
       244.000         212.000
 107512288.55948  83775803.41948  20458911.7654   20458913.4414   20458911.4704
       250.000         235.000
 117899103.19448  91869424.39848  22435457.8844   22435459.7074   22435458.5454
       235.000         193.000
 122597024.89048  95530137.89248  23329447.4034   23329448.8964   23329447.0214
       231.000         189.000
 127857461.67348  99629175.27648  24330478.5514   24330482.0514   24330477.8634
       209.000         156.000
 120079670.85648  93568560.50748  22850411.3234   22850413.8884   22850411.9514
       230.000         190.000
 126923019.98048  98901047.42548  24152651.4334   24152653.5374   24152653.2004
       220.000         163.000
 09  1 29  0  0 30.0000000  0 10G 5G 9G10G26G15G18G17G27G12G28
 125929897.56348  98127175.25148  23963675.8264   23963679.2724   23963676.7164
       219.000         171.000
 108302838.93248  84391809.52948  20609355.9094   20609359.0004   20609356.1674
       249.000         219.000
 133983410.32748 104402644.39448  25496203.8924   25496208.0944   25496205.5214
       201.000         138.000
 112440941.53248  87616295.95048  21396816.6504   21396819.2774   21396816.5684
       244.000         212.000
 107537500.60348  83795449.15448  20463709.4964   20463711.3584   20463709.1014
       251.000         235.000
 117869752.98048  91846554.08948  22429872.5674   22429874.7464   22429872.4154
       235.000         192.000
 122573509.77448  95511814.42748  23324972.2544   23324974.0564   23324972.3114
       230.000         188.000
 127925710.65548  99682356.29248  24343466.3674   24343469.4544   24343466.5684
       210.000         157.000
 119980802.30648  93491520.08748  22831597.6084   22831599.6734   22831597.5794
       232.000         192.000
 127014164.89748  98972069.43048  24169995.9574   24169998.1034   24169996.9794
       218.000         163.000
 09  1 29  0  1  0.0000000  0 11G 5G 9G10G26G15G18G17G27G12G28G22
 125819991.52248  98041534.20148  23942761.1174   23942765.1274   23942761.3994
       221.000         170.000
 108255050.67848  84354571.93148  20600262.4564   20600265.0584   20600262.5254
       249.000         220.000
 134091887.37248 104487171.98048  25516847.4574   25516851.1074   25516848.1864
       202.000         138.000
 112513625.84248  87672933.06848  21410647.7984   21410650.7354   21410647.5914
       244.000         212.000
 107563171.21548  83815452.22248  20468594.6074   20468596.2954   20468594.4534
       250.000         234.000
 117840964.26748  91824121.32348  22424394.2684   22424396.3484   22424395.0914
       233.000         192.000
 122550502.20448  95493886.45448  23320593.6054   23320595.4814   23320593.6554
       231.000         187.000
 127993992.04448  99735562.53148  24356459.3594   24356462.6534   24356460.2164
       207.000         155.000
 119882203.82648  93414690.11448  22812835.1334   22812837.2274   22812834.9264
       233.000         193.000
 127105460.63048  99043208.94448  24187368.9494   24187371.4454   24187369.3584
       219.000         164.000
 138018755.95458  89754869.14258  24361163.4475   24361164.5345   24361162.3645
       222.000         166.000
 09  1 29  0  1 30.0000000  0 11G 5G 9G10G26G15G18G17G27G12G28G22
 125710249.32648  97956020.79348  23921877.9564   23921882.0804   23921878.9864
       221.000         171.000
 108207572.02348  84317575.58948  20591227.3684   20591230.3054   20591227.6284
       249.000         220.000
 134200252.83048 104571612.63548  25537469.3584   25537472.5714   25537471.1234
       200.000         135.000
 112586659.07548  87729842.07748  21424545.9064   21424548.5384   21424545.9104
       244.000         212.000
 107589299.57748  83835811.98848  20473566.5144   20473568.1964   20473566.1534
       251.000         234.000
 117812737.53248  91802126.46248  22419023.0544   22419025.2724   22419023.1704
       235.000         192.000
 122528003.52748  95476355.03748  23316312.3164   23316314.5674   23316311.8184
       230.000         188.000
 128062305.31448  99788793.66348  24369458.1814   24369461.4994   24369458.3364
       205.000         154.000
 119783877.04548  93338071.84548  22794124.3134   22794126.6554   22794124.2424
       233.000         193.000
 127196904.67548  99114464.02248  24204770.4904   24204772.5724   24204771.1924
       219.000         162.000
 137946586.26348  89698632.89248  24347430.2944   24347430.6684   24347430.4384
       220.000         163.000
 09  1 29  0  2  0.0000000  0 11G 5G 9G10G26G15G18G17G27G12G28G22
 125600672.99948  97870636.64448  23901026.9754   23901030.2034   23901026.5264
       225.000         174.000
 108160403.74448  84280821.09548  20582251.4634   20582254.2534   20582251.7364
       249.000         219.000
 134308503.90248 104655964.12448  25558068.6084   25558072.6074   25558068.6574
       198.000         136.000
 112660040.37548  87787022.31248  21438509.8134   21438512.5244   21438509.7964
       243.000         212.000
 107615886.08448  83856528.74148  20478625.8034   20478627.4594   20478625.5144
       251.000         234.000
 117785073.79148  91780570.29048  22413758.5304   22413760.8804   22413759.3804
       233.000         192.000
 122506015.08848  95459221.19248  23312128.0584   23312129.8534   23312127.2994
       231.000         187.000
 128130650.73548  99842049.81648  24382464.1324   24382467.7374   24382463.9944
       208.000         156.000
 119685824.14148  93261666.99348  22775465.4054   22775467.6504   22775465.2314
       232.000         193.000
 127288494.76148  99185832.92448  24222199.3384   24222201.5674   24222198.6074
       214.000         160.000
 137874804.47548  89642699.06748  24333770.7554   24333769.9774   24333770.7094
       219.000         168.000
 09  1 29  0  2 30.0000000  0 11G 5G 9G10G26G15G18G17G27G12G28G22
 125491263.90148  97785382.77848  23880207.3444   23880210.6594   23880208.7004
       223.000         173.000
 108113545.45948  84244308.15448  20573334.4564   20573337.4114   20573334.7354
       246.000         220.000
 134416638.31948 104740224.73948  25578644.5744   25578649.5694   25578646.1924
       203.000         138.000
 112733768.30748  87844472.64048  21452539.6894   21452542.4084   21452539.4194
       243.000         211.000
 107642930.49048  83877602.30448  20483772.2944   20483773.9294   20483772.0844
       251.000         234.000
 117757973.36148  91759453.07748  22408601.6384   22408603.3734   22408601.5994
       233.000         191.000
 122484537.76748  95442485.61648  23308041.5944   23308042.6584   23308041.0484
       232.000         189.000
 128199027.71648  99895330.56848  24395476.3334   24395479.6184   24395477.0094
       208.000         158.000
 119588046.53248  93185476.67448  22756858.9204   22756861.1434   22756859.1074
       233.000         194.000
 127380228.27648  99257313.56348  24239655.2864   24239657.8774   24239655.7194
       219.000         160.000
 137803412.18448  89587068.69448  24320184.7324   24320186.0654   24320185.2954
       215.000         163.000
 09  1 29  0  3  0.0000000  0 10G 5G 9G26G15G18G17G27G12G28G22
 125382023.35348  97700260.30148  23859418.3934   23859422.6124   23859419.1374
       221.000         172.000
 108066997.01548  84208036.64648  20564476.5664   20564479.6744   20564476.8124
       247.000         220.000
 112807841.47248  87902191.98648  21466635.2114   21466638.1974   21466635.2354
       243.000         211.000
 107670432.42948  83899032.38748  20489005.6904   20489007.4694   20489005.3704
       251.000         234.000
 117731436.85848  91738775.27248  22403551.6654   22403553.8724   22403551.7464
       235.000         192.000
 122463572.28648  95426148.88948  23304051.5984   23304053.6184   23304051.6434
       231.000         189.000
 128267435.75848  99948635.55048  24408493.4204   24408498.0714   24408493.5984
       208.000         160.000
 119490545.41348  93109501.80348  22738305.3494   22738307.2464   22738305.2674
       234.000         195.000
 127472102.73048  99328904.04448  24257138.8964   24257140.6684   24257140.8424
       216.000         158.000
 137732411.43248  89531743.44048  24306674.3294   24306674.7974   24306673.4684
       218.000         173.000
 09  1 29  0  3 30.0000000  0 10G 5G 9G26G15G18G17G27G12G28G22
 125272953.94348  97615271.15248  23838663.3244   23838667.0614   23838663.4634
       224.000         173.000
 108020759.71248  84172007.58448  20555678.0004   20555680.8834   20555678.1874
       247.000         220.000
 112882259.53948  87960180.08348  21480796.6324   21480799.3304   21480796.6824
       243.000         211.000
 107698392.68448  83920819.59048  20494326.4414   20494328.1004   20494326.2764
       251.000         234.000
 117705465.28848  91718537.67348  22398609.8504   22398611.7824   22398610.4574
       234.000         192.000
 122443120.95648  95410212.80348  23300159.7604   23300161.8604   23300159.5554
       232.000         190.000
 128335875.66548 100001965.33348  24421517.8734   24421521.6994   24421518.6764
       208.000         159.000
 119393323.68148  93033744.62548  22719804.8924   22719806.3764   22719804.8954
       235.000         195.000
 127564116.51548  99400603.08148  24274648.1014   24274650.2854   24274649.8744
       218.000         159.000
 137661804.82148  89476725.30348  24293238.4674   24293238.4184   24293238.8594
       224.000         167.000
 09  1 29  0  4  0.0000000  0 10G 5G 9G26G15G18G17G27G12G28G22
 125164057.02848  97530416.42748  23817941.3614   23817944.5124   23817942.0284
       223.000         174.000
 107974833.34748  84136220.82148  20546938.6564   20546941.3894   20546938.7884
       248.000         221.000
 112957020.91548  88018435.69848  21495023.2314   21495026.0884   21495023.1474
       243.000         210.000
 107726810.98548  83942963.72048  20499734.2104   20499735.7764   20499734.0124
       250.000         234.000
 117680059.25148  91698740.76248  22393775.0204   22393777.2024   22393775.4564
       235.000         193.000
 122423184.64348  95394678.02548  23296365.8744   23296368.1714   23296365.8894
       232.000         190.000
 128404347.23448 100055319.77848  24434548.0214   24434550.8764   24434548.2234
       211.000         159.000
 119296382.53748  92958206.08048  22701357.0464   22701359.1084   22701357.4224
       233.000         195.000
 127656267.25348  99472408.80648  24292183.8194   24292185.8794   24292185.0424
       212.000         158.000
 137591593.14048  89422014.88548  24279876.9734   24279877.3514   24279877.7604
       216.000         161.000
 09  1 29  0  4 30.0000000  0 10G 5G 9G26G15G18G17G27G12G28G22
 125055335.75248  97445698.56548  23797252.5564   23797255.6494   23797252.1574
       224.000         175.000
 107929219.46348  84100677.54448  20538258.6384   20538261.4164   20538258.4804
       248.000         221.000
 113032126.06948  88076959.18748  21509315.3644   21509318.1554   21509315.4004
       243.000         210.000
 107755688.56648  83965465.72748  20505229.3434   20505231.0044   20505229.1164
       251.000         234.000
 117655220.52448  91679385.91548  22389048.6774   22389050.7034   22389048.9314
       237.000         193.000
 122403765.53548  95379546.26148  23292670.8534   23292672.6384   23292670.6784
       231.000         191.000
 128472851.62648 100108699.80548  24447584.4494   24447587.4154   24447584.6184
       212.000         160.000
 119199725.10348  92882888.60948  22682963.1634   22682965.6314   22682962.3564
       232.000         193.000
 127748554.29648  99544320.79948  24309745.2254   24309747.3514   24309745.1354
       213.000         157.000
 137521780.37548  89367615.24348  24266591.7204   24266592.3914   24266589.6504
       217.000         165.000
 09  1 29  0  5  0.0000000  0 10G 5G 9G26G15G18G17G27G12G28G22
 124946791.37948  97361118.53348  23776597.0364   23776600.7344   23776598.1884
       224.000         176.000
 107883918.13648  84065377.82448  20529637.9894   20529640.7254   20529638.3524
       248.000         221.000
 113107573.03448  88135749.02448  21523672.3314   21523675.1874   21523672.1894
       242.000         210.000
 107785024.83048  83988325.14548  20510811.9184   20510813.5504   20510811.5984
       251.000         234.000
 117630948.95348  91660473.00448  22384429.7164   22384431.8544   22384430.3234
       235.000         192.000
 122384864.57048  95364818.23348  23289073.8054   23289076.1964   23289073.4214
       231.000         190.000
 128541388.01448 100162104.75448  24460625.6824   24460629.2684   24460625.9594
       213.000         159.000
 119103352.81848  92807793.34348  22664624.4724   22664626.7554   22664624.2944
       235.000         195.000
 127840974.42548  99616336.45348  24327332.4974   24327334.3084   24327333.3014
       212.000         153.000
 137452368.52948  89313528.05248  24253383.6214   24253384.2224   24253385.9524
       220.000         166.000
 09  1 29  0  5 30.0000000  0 10G 5G 9G26G15G18G17G27G12G28G22
 124838424.33048  97276676.66948  23755975.5094   23755979.4104   23755976.3244
       224.000         175.000
 107838928.26148  84030320.78948  20521076.7554   20521079.4774   20521076.8984
       248.000         221.000
 113183359.75148  88194803.60748  21538094.0444   21538096.9354   21538093.9434
       242.000         209.000
 107814818.87948  84011541.28348  20516481.4484   20516483.2294   20516481.1504
       250.000         234.000
 117607244.21948  91642001.77848  22379919.0254   22379920.8284   22379919.5514
       236.000         192.000
 122366481.77048  95350493.98248  23285575.5414   23285578.0734   23285575.4494
       232.000         192.000
 128609955.08148 100215533.64748  24473673.7994   24473676.6084   24473674.3484
       210.000         160.000
 119007266.02348  92732920.52448  22646340.0554   22646341.9224   22646340.1274
       235.000         196.000
 127933524.18448  99688453.12548  24344944.4644   24344945.5804   24344946.7254
       210.000         152.000
 137383357.91748  89259753.54948  24240250.8564   24240251.6394   24240250.7714
       216.000         165.000
 09  1 29  0  6  0.0000000  0 10G 5G 9G26G15G18G17G27G12G28G22
 124730238.47048  97192375.99648  23735388.0644   23735391.8164   23735388.5974
       222.000         174.000
 107794252.47448  83995508.50648  20512575.1524   20512577.8194   20512575.3054
       248.000         221.000
 113259486.76748  88254123.35948  21552580.4274   21552583.4594   21552580.2734
       242.000         209.000
 107845072.48248  84035115.51248  20522238.5744   20522240.3844   20522238.4154
       251.000         233.000
 117584108.77748  91623974.14948  22375516.3934   22375518.3804   22375517.0684
       235.000         192.000
 122348620.02748  95336575.75648  23282176.7044   23282178.9944   23282176.8574
       231.000         191.000
 128678554.91248 100268988.03648  24486727.1064   24486731.5124   24486726.9204
       215.000         162.000
 118911468.80748  92658273.35748  22628110.5774   22628112.3934   22628110.4314
       235.000         196.000
 128026203.64748  99760670.88048  24362580.2944   24362582.2324   24362578.9444
       209.000         151.000
 137314751.77948  89206294.22248  24227196.2234   24227196.2404   24227195.0854
       216.000         166.000
 09  1 29  0  6 30.0000000  0 10G 5G 9G26G15G18G17G27G12G28G22
 124622235.33648  97108217.70348  23714835.2684   23714839.3304   23714835.1444
       224.000         173.000
 107749891.01848  83960941.14648  20504133.5344   20504136.2944   20504133.8964
       248.000         221.000
 113335953.13248  88313707.53648  21567131.6344   21567134.5824   21567131.3794
       243.000         209.000
 107875785.54348  84059047.75948  20528083.2164   20528084.7774   20528083.0494
       250.000         233.000
 117561543.16248  91606390.55048  22371222.5494   22371224.5834   22371223.1214
       235.000         193.000
 122331280.52248  95323064.45048  23278877.2284   23278879.5634   23278877.2254
       231.000         191.000
 128747187.42448 100322467.90448  24499788.1854   24499791.4634   24499788.6164
       210.000         162.000
 118815962.62848  92583852.96548  22609936.1634   22609938.3334   22609936.1054
       235.000         196.000
 128119010.55048  99832987.90848  24380240.8804   24380242.3954   24380241.3114
       207.000         149.000
 137246553.52748  89153152.73748  24214217.3554   24214219.4084   24214220.0734
       217.000         169.000
 09  1 29  0  7  0.0000000  0 10G 5G 9G26G15G18G17G27G12G28G22
 124514416.07748  97024202.68848  23694318.3724   23694321.9984   23694319.4024
       225.000         175.000
 107705843.03648  83926618.04948  20495751.4634   20495754.1284   20495751.7134
       249.000         222.000
 113412756.98448  88373554.68948  21581747.0874   21581749.9374   21581746.9774
       243.000         209.000
 107906957.17248  84083337.33848  20534014.7224   20534016.5214   20534014.3624
       250.000         233.000
 117539546.80848  91589250.53548  22367036.8674   22367038.4944   22367037.4224
       236.000         194.000
 122314463.64848  95309960.38548  23275677.1604   23275679.1434   23275676.2424
       233.000         191.000
 128815851.77048 100375972.59248  24512854.4944   24512858.0304   24512854.8064
       214.000         163.000
 118720748.60548  92509660.23048  22591817.2104   22591819.4894   22591817.0054
       233.000         195.000
 128211941.98448  99905401.96148  24397925.8974   24397927.7964   24397926.5354
       209.000         149.000
 137178762.55848  89100328.57948  24201317.9824   24201319.3884   24201318.2734
       218.000         170.000
 09  1 29  0  7 30.0000000  0 10G 5G 9G26G15G18G17G27G12G28G22
 124406782.37848  96940332.28448  23673836.3694   23673839.8564   23673837.5024
       225.000         175.000
 107662109.44648  83892539.93648  20487429.0654   20487432.0074   20487429.3214
       248.000         221.000
 113489897.16848  88433663.92048  21596426.3034   21596429.1414   21596426.3894
       242.000         209.000
 107938587.19948  84107984.10648  20540033.8234   20540035.4664   20540033.5204
       250.000         233.000
 117518120.52048  91572554.73048  22362959.5324   22362961.3434   22362959.8894
       236.000         193.000
 122298170.68348  95297264.57448  23272576.6864   23272578.5814   23272576.7364
       233.000         191.000
 128884548.06448 100429502.16248  24525927.2204   24525930.7174   24525928.1334
       212.000         163.000
 118625828.62948  92435696.61648  22573754.4794   22573756.8074   22573754.2474
       233.000         196.000
 128304995.81148  99977911.45148  24415632.9524   24415634.8214   24415635.3474
       213.000         153.000
 137111381.73448  89047824.07448  24188496.0174   24188496.7074   24188496.4234
       220.000         168.000
 09  1 29  0  8  0.0000000  0 10G 5G 9G26G15G18G17G27G12G28G22
 124299336.40548  96856608.14048  23653390.3994   23653393.6374   23653391.1404
       225.000         176.000
 107618690.24348  83858706.79548  20479166.7734   20479169.5794   20479167.0944
       248.000         222.000
 113567372.78048  88494034.52248  21611169.3914   21611172.1354   21611169.1634
       242.000         209.000
 107970676.39848  84132988.67148  20546140.1884   20546141.8664   20546140.0534
       250.000         233.000
 117497264.98348  91556303.65448  22358990.9104   22358992.8594   22358990.9564
       236.000         194.000
 122282402.75448  95284977.87148  23269575.9804   23269578.2374   23269575.9774
       231.000         192.000
 128953276.34648 100483056.66948  24539005.3474   24539008.5534   24539005.8544
       215.000         161.000
 118531204.55748  92361963.58048  22555748.0864   22555750.1204   22555748.0274
       235.000         197.000
 128398170.08948 100050514.78448  24433363.8644   24433365.6504   24433363.8334
       210.000         154.000
 137044413.63648  88995641.13248  24175752.1514   24175753.2874   24175753.1694
       222.000         169.000
 09  1 29  0  8 30.0000000  0 10G 5G 9G26G15G18G17G27G12G28G22
 124192080.33348  96773031.98148  23632980.0624   23632983.3224   23632980.2854
       225.000         175.000
 107575586.65848  83825119.57948  20470964.4164   20470967.2484   20470964.3624
       248.000         222.000
 113645183.04548  88554665.88848  21625976.1554   21625978.9574   21625976.0764
       242.000         208.000
 108003224.93748  84158351.16548  20552333.9414   20552335.7644   20552333.5134
       250.000         233.000
 117476981.32248  91540498.20948  22355131.2404   22355132.8674   22355131.8734
       237.000         194.000
 122267161.46748  95273101.54948  23266675.6674   23266677.7694   23266675.3124
       231.000         190.000
 129022037.05648 100536636.44348  24552090.4384   24552093.7224   24552090.9324
       211.000         163.000
 118436878.69848  92288462.91548  22537798.7164   22537800.7744   22537798.4904
       236.000         197.000
 128491463.26148 100123210.69748  24451116.8544   24451119.4414   24451117.0894
       212.000         154.000
 136977860.34448  88943781.37148  24163088.2604   24163089.0754   24163088.4554
       224.000         173.000
 09  1 29  0  9  0.0000000  0 10G 5G 9G26G15G18G17G27G12G28G22
 124085015.81648  96689605.07448  23612606.6744   23612609.6154   23612607.2234
       225.000         177.000
 107532798.42748  83791778.09848  20462821.9804   20462824.9664   20462822.1624
       249.000         222.000
 113723327.07448  88615557.34048  21640846.6334   21640849.1054   21640846.4724
       242.000         208.000
 108036232.55348  84184071.37448  20558615.2374   20558616.8544   20558615.0494
       250.000         233.000
 117457269.92148  91525138.66748  22351380.1734   22351381.8754   22351380.8694
       236.000         193.000
 122252447.68348  95261636.26348  23263875.9104   23263877.5984   23263875.3474
       231.000         191.000
 129090830.16848 100590241.42748  24565181.2444   24565184.0934   24565181.9874
       215.000         162.000
 118342852.85248  92215196.02248  22519906.2234   22519908.1514   22519906.1004
       237.000         198.000
 128584873.10148 100195997.54948  24468892.8204   24468894.3674   24468893.5724
       212.000         155.000
 136911723.59048  88892246.26948  24150502.8224   24150502.9704   24150504.7444
       219.000         166.000
 09  1 29  0  9 30.0000000  0 10G 5G 9G26G15G18G17G27G12G28G22
 123978144.72648  96606328.90848  23592269.6294   23592272.7114   23592270.0474
       223.000         176.000
 107490326.49048  83758683.07648  20454740.1454   20454742.9244   20454740.4194
       249.000         222.000
 113801803.43848  88676707.74648  21655780.1744   21655782.7764   21655780.0734
       243.000         208.000
 108069699.18748  84210149.26448  20564983.7494   20564985.3094   20564983.4744
       250.000         232.000
 117438131.24748  91510225.40048  22347738.0424   22347740.4044   22347738.4294
       235.000         193.000
 122238262.85148  95250583.16148  23261176.4544   23261178.6694   23261176.6144
       229.000         192.000
 129159655.74948 100643871.76848  24578277.3884   24578281.4054   24578277.1214
       211.000         163.000
 118249128.57548  92142164.12748  22502071.4524   22502073.2754   22502071.4784
       237.000         199.000
 128678397.50348 100268873.68248  24486689.7484   24486691.2714   24486690.4064
       211.000         154.000
 136846005.61348  88841037.43548  24137995.9694   24137996.7824   24137996.9344
       215.000         161.000
 09  1 29  0 10  0.0000000  0 10G 5G 9G26G15G18G17G27G12G28G22
 123871469.24048  96523205.14548  23571969.9744   23571973.3234   23571970.3264
       223.000         177.000
 107448171.41548  83725834.97048  20446718.1594   20446720.8544   20446718.2364
       249.000         223.000
 113880611.53148  88738116.65848  21670776.8854   21670779.5664   21670777.1854
       242.000         207.000
 108103625.26248  84236585.16348  20571439.6674   20571441.2864   20571439.4034
       250.000         232.000
 117419565.98648  91495758.95248  22344205.4724   22344207.4214   22344205.9984
       236.000         194.000
 122224608.31348  95239943.27648  23258577.8754   23258580.4404   23258577.9544
       232.000         192.000
 129228514.10148 100697527.62348  24591380.9494   24591385.2194   24591381.0694
       210.000         162.000
 118155708.37148  92069369.17848  22484294.0714   22484295.8524   22484293.9824
       236.000         199.000
 128772034.62448 100341837.64148  24504508.4594   24504509.5574   24504508.9954
       211.000         153.000
 136780708.59548  88790156.63948  24125570.9674   24125571.0934   24125571.7264
       217.000         165.000
 09  1 29  0 10 30.0000000  0 10G 5G 9G26G15G18G17G27G12G28G22
 123764990.67148  96440234.84448  23551707.6344   23551711.2924   23551707.8894
       224.000         178.000
 107406333.21548  83693233.77748  20438756.7094   20438759.2994   20438756.7874
       249.000         223.000
 113959749.66848  88799782.72648  21685835.9714   21685839.1474   21685835.7254
       242.000         207.000
 108138010.29948  84263378.68748  20577982.8814   20577984.5884   20577982.6654
       250.000         232.000
 117401574.14648  91481739.33648  22340781.3894   22340783.5574   22340782.1274
       235.000         194.000
 122211484.41148  95229716.87448  23256080.5414   23256083.0824   23256080.1114
       232.000         193.000
 129297405.19348 100751208.98448  24604491.4024   24604494.5844   24604491.2594
       214.000         163.000
 118062593.54848  91996812.19248  22466574.4474   22466576.7714   22466574.1784
       238.000         198.000
 128865782.12648 100414887.61548  24522348.0264   24522349.3684   24522349.8154
       212.000         149.000
 136715833.99248  88739605.01148  24113225.2774   24113226.3694   24113226.5114
       216.000         167.000
 09  1 29  0 11  0.0000000  0 10G 5G 9G26G15G18G17G27G12G28G22
 123658711.17948  96357419.67648  23531483.2044   23531487.0754   23531484.1644
       226.000         179.000
 107364812.76348  83660880.18648  20430855.5634   20430858.2124   20430855.7074
       249.000         223.000
 114039217.20448  88861705.46948  21700958.1744   21700961.0484   21700958.0674
       241.000         206.000
 108172854.47848  84290529.98548  20584613.3564   20584615.1664   20584613.0724
       249.000         232.000
 117384156.46048  91468167.10748  22337467.0634   22337469.0514   22337467.0454
       237.000         194.000
 122198892.60248  95219905.06848  23253685.0144   23253686.8854   23253684.3824
       231.000         194.000
 129366329.30548 100804916.08848  24617605.9714   24617611.0164   24617606.0454
       210.000         161.000
 117969785.88648  91924494.54748  22448913.6454   22448915.6464   22448913.4054
       237.000         198.000
 128959638.26548 100488022.23948  24540207.9564   24540208.9954   24540208.4974
       212.000         150.000
 136651384.22248  88689384.35548  24100960.8374   24100962.5774   24100959.2174
       216.000         165.000
 09  1 29  0 11 30.0000000  0 10G 5G 9G26G15G18G17G27G12G28G22
 123552632.57448  96274761.02848  23511297.1834   23511300.6964   23511297.6044
       224.000         177.000
 107323610.27248  83628774.35548  20423014.8474   20423017.6314   20423015.0564
       249.000         223.000
 114119012.95448  88923883.97848  21716142.9574   21716145.6504   21716143.0094
       242.000         206.000
 108208157.48548  84318038.81148  20591331.2354   20591333.0164   20591330.8724
       249.000         232.000
 117367313.29448  91455042.54048  22334261.9664   22334263.8904   22334262.3684
       237.000         193.000
 122186833.89948  95210508.68348  23251389.9284   23251391.9764   23251389.6044
       229.000         192.000
 129435286.31448 100858648.81548  24630728.5264   24630732.8674   24630728.2744
       211.000         159.000
 117877287.43548  91852417.84448  22431311.5144   22431313.6574   22431311.5254
       238.000         199.000
 129053601.05448 100561239.99448  24558088.8344   24558089.4384   24558089.2354
       210.000         151.000
 136587360.94748  88639496.08248  24088778.0984   24088778.8244   24088778.8114
       219.000         170.000
 09  1 29  0 12  0.0000000  0 10G 5G 9G26G15G18G17G27G12G28G22
 123446756.63948  96192260.29648  23491149.5094   23491153.0694   23491149.6494
       225.000         178.000
 107282726.14948  83596916.60648  20415234.9024   20415237.8044   20415234.9374
       249.000         223.000
 114199136.02948  88986317.53748  21731390.1264   21731392.8214   21731390.0264
       242.000         207.000
 108243919.31148  84345905.15448  20598136.6354   20598138.2614   20598136.4914
       250.000         231.000
 117351045.03448  91442365.97248  22331166.0824   22331168.3204   22331166.4054
       237.000         195.000
 122175309.29848  95201528.47948  23249196.8144   23249198.7854   23249196.3664
       230.000         191.000
 129504276.60848 100912407.47548  24643857.4134   24643861.2444   24643857.3254
       212.000         162.000
 117785100.03848  91780583.51448  22413769.0684   22413771.2174   22413768.7054
       239.000         200.000
 129147668.48648 100634539.28048  24575988.9174   24575989.9554   24575988.4664
       206.000         147.000
 136523766.17848  88589941.77148  24076676.8924   24076677.4834   24076677.7394
       220.000         171.000
 09  1 29  0 12 30.0000000  0 10G 5G 9G26G15G18G17G27G12G28G22
 123341085.21248  96109918.93048  23471040.8024   23471044.5024   23471041.6474
       225.000         177.000
 107242160.82548  83565307.26748  20407515.6064   20407518.3884   20407515.7524
       249.000         223.000
 114279584.94048  89049004.99048  21746698.9444   21746701.5784   21746698.9294
       241.000         206.000
 108280140.22248  84374129.23648  20605029.2244   20605030.9364   20605029.0214
       249.000         231.000
 117335352.01248  91430137.63448  22328179.9904   22328182.1524   22328180.8554
       237.000         194.000
 122164319.69348  95192965.16248  23247105.6794   23247107.6224   23247105.8384
       230.000         192.000
 129573299.99048 100966191.94448  24656991.8024   24656995.7374   24656991.9454
       214.000         162.000
 117693225.31748  91708992.82948  22396285.8034   22396288.1044   22396285.7004
       238.000         201.000
 129241838.36448 100707918.39448  24593908.2974   24593909.4584   24593908.6734
       207.000         145.000
 136460602.22248  88540723.08148  24064656.6894   24064657.1834   24064655.5214
       217.000         167.000
 09  1 29  0 13  0.0000000  0 10G 5G 9G26G15G18G17G27G12G28G22
 123235619.98948  96027738.22948  23450971.7424   23450975.2184   23450972.4934
       226.000         178.000
 107201914.70948  83533946.66548  20399857.0814   20399859.8694   20399857.5444
       248.000         223.000
 114360358.60148  89111945.50148  21762069.7014   21762072.4114   21762069.4864
       242.000         206.000
 108316819.66748  84402710.61548  20612009.2364   20612010.9024   20612008.9404
       250.000         231.000
 117320234.61248  91418357.82948  22325302.8984   22325305.2014   22325303.1304
       237.000         194.000
 122153866.03148  95184819.45048  23245116.3694   23245118.3964   23245116.0014
       230.000         191.000
 129642356.47148 101020002.20948  24670131.9674   24670136.6184   24670132.1474
       214.000         161.000
 117601665.03448  91637647.16148  22378862.5744   22378864.8214   22378862.2754
       238.000         200.000
 129336108.84648 100781375.90548  24611847.5254   24611848.5514   24611847.8234
       205.000         144.000
 136397870.89548  88491841.52148  24052718.9534   24052720.5094   24052718.9004
       219.000         171.000
 09  1 29  0 13 30.0000000  0 10G 5G 9G26G15G18G17G27G12G28G22
 123130362.67048  95945719.54348  23430942.2534   23430944.8854   23430942.9994
       226.000         179.000
 107161987.83148  83502834.81148  20392259.2064   20392261.9554   20392259.3964
       248.000         223.000
 114441455.73048  89175138.06048  21777502.0664   21777504.5684   21777502.1134
       242.000         206.000
 108353957.59848  84431649.26448  20619076.3574   20619077.9674   20619076.2084
       250.000         231.000
 117305692.79048  91407026.52148  22322535.8734   22322537.7354   22322536.1764
       237.000         193.000
 122143949.10648  95177091.98148  23243229.2724   23243231.2704   23243229.4094
       231.000         192.000
 129711446.05448 101073838.23748  24683280.2354   24683283.9584   24683281.3984
       212.000         162.000
 117510420.85648  91566547.80448  22361499.3094   22361501.7544   22361499.3934
       238.000         201.000
 129430477.92848 100854910.21848  24629805.4834   24629807.0134   24629805.4684
       207.000         144.000
 136335572.83248  88443297.57048  24040864.8004   24040865.4864   24040865.6104
       219.000         170.000
 09  1 29  0 14  0.0000000  0 10G 5G 9G26G15G18G17G27G12G28G22
 123025314.72548  95863863.98648  23410952.2994   23410955.2874   23410953.0744
       225.000         179.000
 107122380.50048  83471971.95548  20384722.1344   20384725.0164   20384722.1374
       249.000         223.000
 114522874.89548  89238581.57448  21792995.5454   21792997.9914   21792995.5154
       241.000         205.000
 108391553.29148  84460944.60948  20626230.3624   20626232.1844   20626230.0154
       250.000         231.000
 117291726.78148  91396143.90548  22319878.2164   22319880.0784   22319878.9444
       236.000         193.000
 122134569.24048  95169783.00748  23241444.3514   23241446.2924   23241444.0864
       232.000         192.000
 129780568.40448 101127699.84948  24696433.5874   24696437.2644   24696434.0764
       214.000         162.000
 117419494.03548  91495695.74148  22344196.6644   22344198.7584   22344196.4674
       240.000         202.000
 129524942.83948 100928519.18248  24647781.4974   24647783.6524   24647783.4624
       206.000         148.000
 136273710.82748  88395093.41348  24029092.3344   24029093.3464   24029092.2884
       218.000         169.000
 09  1 29  0 14 30.0000000  0 10G 5G 9G26G15G18G17G27G12G28G22
 122920478.06748  95782173.11348  23391002.1494   23391005.7244   23391002.9404
       223.000         178.000
 107083093.24748  83441358.51148  20377245.9784   20377248.7724   20377245.9844
       249.000         223.000
 114604615.11348  89302275.24748  21808549.9844   21808552.7214   21808549.7774
       242.000         205.000
 108429606.97348  84490596.82248  20633471.6654   20633473.5534   20633471.3854
       249.000         230.000
 117278336.92248  91385710.24748  22317330.1864   22317332.2664   22317331.3544
       236.000         193.000
 122125727.75248  95162893.53448  23239762.1304   23239763.7474   23239762.2064
       231.000         192.000
 129849724.08248 101181587.38648  24709593.7354   24709597.1184   24709593.9684
       216.000         165.000
 117328886.63048  91425092.57848  22326954.9534   22326956.5824   22326954.8824
       242.000         203.000
 129619502.00148 101002201.62848  24665776.1684   24665777.5934   24665776.3664
       202.000         149.000
 136212286.27048  88347230.12448  24017404.1114   24017404.4654   24017403.7824
       223.000         171.000
 09  1 29  0 15  0.0000000  0 10G 5G 9G26G15G18G17G27G12G28G22
 122815855.14848  95700648.75648  23371092.7434   23371096.5414   23371092.7144
       223.000         178.000
 107044127.34148  83410995.47748  20369831.1224   20369833.9824   20369831.6114
       249.000         224.000
 114686675.74248  89366218.59748  21824165.8084   21824168.2954   21824165.9324
       240.000         204.000
 108468119.02448  84520606.20748  20640800.3074   20640802.2364   20640800.0794
       249.000         231.000
 117265524.07648  91375726.19948  22314891.8604   22314893.9394   22314892.1334
       236.000         193.000
 122117426.41148  95156424.97748  23238182.4704   23238184.0644   23238182.2964
       231.000         192.000
 129918913.64348 101235501.36448  24722759.4964   24722764.0374   24722759.8174
       215.000         165.000
 117238600.88148  91354740.03648  22309774.2284   22309775.7544   22309774.0704
       242.000         203.000
 129714153.79148 101075956.26448  24683787.3404   24683789.8544   24683786.4114
       206.000         151.000
 136151301.85248  88299709.78548  24005799.4404   24005799.6254   24005800.3464
       220.000         168.000
 09  1 29  0 15 30.0000000  0 10G 5G 9G26G15G18G17G27G12G28G22
 122711448.03948  95619292.57448  23351224.7084   23351228.3964   23351225.2034
       224.000         178.000
 107005483.44748  83380883.35448  20362477.4644   20362480.0244   20362477.5294
       249.000         224.000
 114769055.94248  89430410.95448  21839842.0134   21839844.6904   21839841.7654
       241.000         204.000
 108507089.57848  84550972.86548  20648216.1674   20648218.1134   20648215.7264
       249.000         231.000
 117253288.57248  91366192.04048  22312563.6934   22312565.5614   22312564.3354
       237.000         193.000
 122109665.94548  95150377.89248  23236705.3784   23236707.2684   23236704.8614
       231.000         192.000
 129988137.23448 101289441.82148  24735932.4804   24735936.6434   24735931.8424
       216.000         165.000
 117148638.80348  91284639.72948  22292654.6774   22292656.7314   22292654.6634
       240.000         202.000
 129808896.95848 101149782.07548  24701816.4794   24701818.7264   24701816.8574
       206.000         150.000
 136090760.00848  88252534.31448  23994277.5454   23994279.0664   23994278.7064
       222.000         165.000
 09  1 29  0 16  0.0000000  0 10G 5G 9G26G15G18G17G27G12G28G22
 122607258.30148  95538105.76648  23331398.3974   23331401.8654   23331398.7164
       226.000         179.000
 106967161.46448  83351022.07648  20355185.1034   20355187.7554   20355185.4484
       249.000         224.000
 114851754.27948  89494851.20948  21855579.1494   21855581.8934   21855579.0374
       241.000         204.000
 108546517.71248  84581696.08248  20655719.2794   20655721.0224   20655718.9184
       250.000         230.000
 117241630.35248  91357107.70748  22310345.2604   22310346.9134   22310346.0114
       236.000         193.000
 122102446.89048  95144752.66148  23235331.8264   23235333.5434   23235331.2354
       232.000         193.000
 130057395.05648 101343408.94148  24749111.4054   24749115.4224   24749111.9044
       218.000         164.000
 117059002.19348  91214793.05248  22275597.1024   22275599.6804   22275596.7274
       239.000         203.000
 129903729.28148 101223677.37348  24719862.1474   24719864.5124   24719862.3294
       206.000         150.000
 136030662.04648  88205704.71548  23982841.3064   23982842.4014   23982840.6574
       222.000         170.000
 09  1 29  0 16 30.0000000  0 10G 5G 9G26G15G18G17G27G12G28G22
 122503287.55148  95457089.58648  23311613.4944   23311616.8714   23311614.6404
       226.000         180.000
 106929161.89948  83321412.02548  20347954.0344   20347956.4564   20347954.2824
       249.000         224.000
 114934769.41448  89559538.33348  21871376.1854   21871379.1424   21871375.8864
       240.000         204.000
 108586403.57848  84612775.97748  20663309.2314   20663311.1444   20663308.9514
       249.000         230.000
 117230549.48548  91348473.26248  22308236.3594   22308238.5654   22308237.3634
       236.000         193.000
 122095770.06948  95139549.95148  23234061.2994   23234062.9964   23234061.5054
       233.000         194.000
 130126686.87648 101397402.56848  24762297.8694   24762301.6864   24762297.4444
       216.000         163.000
 116969692.42748  91145201.04348  22258602.4594   22258604.5844   22258602.4134
       242.000         205.000
 129998648.50048 101297640.45148  24737925.2194   24737926.7004   24737922.9214
       205.000         152.000
 135971009.75048  88159222.41348  23971490.4274   23971491.5714   23971490.2494
       221.000         173.000
 09  1 29  0 17  0.0000000  0 10G 5G 9G26G15G18G17G27G12G28G22
 122399536.87048  95376244.92048  23291870.0844   23291874.1594   23291870.6534
       223.000         179.000
 106891484.19048  83292052.79048  20340783.9444   20340786.8774   20340783.9094
       249.000         224.000
 115018099.35848  89624470.75848  21887233.6304   21887236.2994   21887233.4114
       242.000         204.000
 108626746.16948  84644211.75948  20670986.2924   20670988.0094   20670985.9874
       249.000         230.000
 117220045.60848  91340288.41448  22306237.6454   22306239.4694   22306238.3134
       237.000         193.000
 122089635.47848  95134769.76248  23232894.0764   23232895.7864   23232894.4414
       229.000         193.000
 130196012.12148 101451422.24548  24775490.4574   24775494.3554   24775490.4634
       215.000         164.000
 116880710.56448  91075864.53248  22241669.9674   22241671.8054   22241669.7954
       240.000         205.000
 130093651.86848 101371669.04148  24756003.4474   24756006.4544   24756004.1614
       207.000         152.000
 135911804.32048  88113088.29848  23960224.1554   23960225.3554   23960224.1044
       221.000         170.000
 09  1 29  0 17 30.0000000  0 10G 5G 9G26G15G18G17G27G12G28G22
 122296008.34148  95295573.33748  23272169.1864   23272173.0774   23272169.1424
       224.000         179.000
 106854129.18548  83262944.99248  20333675.6994   20333678.3654   20333675.7934
       249.000         224.000
 115101743.32648  89689647.86948  21903150.3904   21903153.2154   21903150.5564
       241.000         203.000
 108667545.53348  84676003.46948  20678749.9734   20678751.7444   20678749.6124
       249.000         229.000
 117210119.13948  91332553.49548  22304348.9804   22304350.8744   22304348.9304
       238.000         195.000
 122084044.27448  95130413.00448  23231829.7124   23231831.5744   23231829.5284
       230.000         192.000
 130265371.28048 101505468.33848  24788688.7754   24788691.7144   24788688.4204
       212.000         162.000
 116792058.55948  91006785.05848  22224800.0214   22224801.6564   22224799.8774
       240.000         205.000
 130188737.80348 101445761.95748  24774097.4444   24774100.4494   24774098.3364
       204.000         151.000
 135853047.93248  88067304.09148  23949043.0184   23949043.8714   23949043.7434
       220.000         170.000
 09  1 29  0 18  0.0000000  0 10G 5G 9G26G15G18G17G27G12G28G22
 122192703.85248  95215076.33548  23252511.5664   23252515.1034   23252511.7464
       226.000         181.000
 106817097.37148  83234089.04548  20326628.5534   20326631.4554   20326628.9634
       249.000         224.000
 115185700.35748  89755068.93448  21919126.8924   21919129.2834   21919126.7554
       240.000         202.000
 108708801.22348  84708150.75848  20686600.6814   20686602.3984   20686600.4394
       248.000         230.000
 117200769.90348  91325268.37748  22302570.2064   22302571.6284   22302570.8784
       238.000         195.000
 122078996.85948  95126479.95948  23230869.2664   23230871.4764   23230869.4364
       230.000         193.000
 130334764.65948 101559541.09948  24801893.6234   24801897.2434   24801892.9864
       214.000         163.000
 116703737.73848  90937963.65448  22207992.8764   22207994.8124   22207992.7004
       240.000         204.000
 130283904.44548 101519917.78248  24792207.7704   24792209.6214   24792207.6624
       206.000         153.000
 135794741.77148  88021870.77848  23937948.3104   23937948.3334   23937949.4364
       222.000         173.000
 09  1 29  0 18 30.0000000  0 10G 5G 9G26G15G18G17G27G12G28G22
 122089625.06548  95134755.21448  23232896.2184   23232899.9684   23232897.3384
       226.000         181.000
 106780389.41448  83205485.45048  20319643.3064   20319646.0454   20319643.4054
       249.000         224.000
 115269969.01348  89820732.81848  21935162.8114   21935165.3024   21935162.7744
       240.000         203.000
 108750513.42848  84740653.77548  20694538.2744   20694540.1414   20694537.9264
       249.000         230.000
 117191998.17648  91318433.25848  22300900.5344   22300902.3384   22300901.0104
       236.000         194.000
 122074494.07948  95122971.31148  23230012.2074   23230014.6904   23230012.3274
       227.000         191.000
 130404192.26648 101613640.52948  24815104.8964   24815109.0524   24815105.0164
       214.000         162.000
 116615750.36548  90869402.07148  22191249.0964   22191251.2534   22191248.8204
       239.000         204.000
 130379150.46948 101594135.46848  24810331.5254   24810334.6934   24810331.8824
       204.000         152.000
 135736888.30348  87976790.16148  23926938.7494   23926939.7494   23926937.5584
       221.000         174.000
 09  1 29  0 19  0.0000000  0 10G 5G 9G26G15G18G17G27G12G28G22
 121986774.82048  95054612.16648  23213324.0724   23213328.2134   23213324.9584
       224.000         180.000
 106744006.56748  83177135.19148  20312719.9794   20312722.6694   20312720.3544
       249.000         224.000
 115354549.10548  89886639.38448  21951257.8814   21951260.5024   21951257.8294
       241.000         203.000
 108792682.65548  84773512.90548  20702562.7914   20702564.7104   20702562.4954
       249.000         229.000
 117183805.09948  91312049.02948  22299341.2704   22299343.6464   22299341.6304
       238.000         195.000
 122070538.04548  95119888.69648  23229259.4474   23229261.5624   23229258.8694
       231.000         192.000
 130473655.17748 101667767.44848  24828323.9074   24828326.9474   24828323.4834
       219.000         163.000
 116528098.99148  90801102.30948  22174569.3524   22174571.7164   22174569.3914
       240.000         204.000
 130474474.38948 101668413.81848  24828471.0474   24828474.3754   24828470.0084
       204.000         154.000
 135679490.08348  87932064.25848  23916016.5934   23916016.7494   23916015.5414
       224.000         173.000
 09  1 29  0 19 30.0000000  0 10G 5G 9G26G15G18G17G27G12G28G22
 121884153.69648  94974647.66748  23193796.0414   23193800.1934   23193795.9514
       226.000         182.000
 106707947.75848  83149037.42448  20305857.9804   20305860.8264   20305858.2044
       249.000         224.000
 115439438.29648  89952786.80748  21967411.8134   21967414.3854   21967411.8654
       241.000         202.000
 108835307.24048  84806726.85748  20710673.9934   20710675.8654   20710673.7714
       249.000         229.000
 117176189.40448  91306114.71248  22297892.4664   22297894.4034   22297893.3274
       237.000         195.000
 122067128.17148  95117231.65648  23228610.9504   23228612.4934   23228611.1884
       230.000         192.000
 130543152.29548 101721921.04248  24841548.4994   24841552.3254   24841549.3114
       216.000         162.000
 116440784.16848  90733064.80048  22157954.3904   22157956.1924   22157954.0024
       239.000         205.000
 130569873.35448 101742750.70348  24846624.8324   24846628.0124   24846624.1084
       204.000         155.000
 135622547.52148  87887693.43348  23905180.6454   23905180.8554   23905183.0204
       225.000         173.000
 09  1 29  0 20  0.0000000  0 10G 5G 9G26G15G18G17G27G12G28G22
 121781763.08248  94894862.77048  23174311.8704   23174315.7534   23174312.1264
       228.000         182.000
 106672213.42848  83121192.49048  20299058.1524   20299060.9994   20299058.0464
       250.000         224.000
 115524634.92948  90019173.78948  21983624.1424   21983626.8574   21983624.1954
       240.000         202.000
 108878386.50848  84840295.10848  20718871.6484   20718873.5734   20718871.1914
       249.000         229.000
 117169150.60648  91300629.93048  22296552.9954   22296554.8694   22296553.1804
       237.000         195.000
 122064264.52248  95115000.24548  23228065.6914   23228067.6494   23228065.9094
       229.000         191.000
 130612683.38948 101776101.09448  24854780.5474   24854783.6394   24854780.9784
       214.000         161.000
 116353806.95848  90665290.35548  22141403.3204   22141405.0734   22141403.0114
       241.000         206.000
 130665344.75848 101817143.97348  24864791.9934   24864795.7644   24864792.3134
       207.000         156.000
 135566062.11148  87843678.83248  23894431.3814   23894432.3294   23894433.0324
       225.000         173.000
 09  1 29  0 20 30.0000000  0 10G 5G 9G26G15G18G17G27G12G28G22
 121679605.23148  94815259.25548  23154871.7844   23154875.4864   23154872.6684
       226.000         181.000
 106636804.54848  83093601.16748  20292320.0224   20292322.8454   20292320.4394
       249.000         225.000
 115610138.34048  90085799.82648  21999895.0394   21999897.5724   21999895.0024
       240.000         202.000
 108921920.94448  84874218.04248  20727155.9794   20727157.8024   20727155.7664
       248.000         229.000
 117162689.41948  91295595.23748  22295323.3374   22295325.2334   22295324.0144
       235.000         194.000
 122061948.31048  95113195.41848  23227624.8044   23227626.6444   23227624.2814
       229.000         191.000
 130682248.96948 101830308.05348  24868017.3304   24868021.5754   24868017.7354
       208.000         159.000
 116267169.52748  90597780.67148  22124916.7854   22124918.6134   22124916.7934
       240.000         207.000
 130760887.74248 101891593.07248  24882974.2674   24882976.5204   24882974.9234
       208.000         156.000
 135510035.98348  87800022.10748  23883770.4694   23883771.0704   23883770.1444
       227.000         175.000
 09  1 29  0 21  0.0000000  0 10G 5G 9G26G15G18G17G27G12G28G22
 121577682.44848  94735838.90148  23135476.5184   23135480.1134   23135476.9264
       226.000         180.000
 106601721.87548  83066264.02848  20285644.0534   20285646.6884   20285644.1894
       250.000         225.000
 115695947.79648  90152664.33948  22016223.7904   22016226.4964   22016223.5734
       239.000         201.000
 108965910.59948  84908495.70048  20735527.0114   20735528.8504   20735526.6714
       249.000         229.000
 117156806.43148  91291011.07448  22294203.6564   22294206.0144   22294203.6144
       237.000         195.000
 122060180.52748  95111817.94248  23227288.6394   23227290.3674   23227288.2964
       229.000         191.000
 130751850.09648 101884542.70348  24881262.9094   24881266.1204   24881262.6234
       217.000         164.000
 116180874.24548  90530537.62048  22108495.2044   22108497.1254   22108495.0214
       240.000         205.000
 130856500.73448 101966096.71648  24901168.8824   24901170.8084   24901169.2194
       211.000         157.000
 135454471.55848  87756725.14148  23873196.6594   23873196.9614   23873196.8244
       223.000         170.000
 09  1 29  0 21 30.0000000  0 10G 5G 9G26G15G18G17G27G12G28G22
 121475995.82348  94656602.55848  23116125.9274   23116130.0974   23116126.3724
       226.000         181.000
 106566965.32148  83039181.01648  20279030.0994   20279032.7794   20279030.2504
       250.000         225.000
 115782061.57948  90219765.98848  22032610.9504   22032613.3424   22032610.5064
       241.000         202.000
 109010354.26648  84943127.12148  20743984.4164   20743986.1874   20743984.2094
       249.000         229.000
 117151500.41948  91286876.51348  22293194.0764   22293196.2664   22293195.0334
       236.000         194.000
 122058961.09948  95110867.76048  23227056.3494   23227058.7224   23227056.4624
       228.000         192.000
 130821486.19448 101938804.59748  24894513.4674   24894517.4854   24894514.8974
       214.000         161.000
 116094922.03848  90463561.88048  22092138.9464   22092140.6704   22092138.8274
       239.000         204.000
 130952180.62248 102040652.47948  24919376.1834   24919377.6964   24919376.3384
       211.000         159.000
 135399369.97548  87713788.84048  23862711.0804   23862711.7244   23862712.5944
       225.000         175.000
 09  1 29  0 22  0.0000000  0 10G 5G 9G26G15G18G17G27G12G28G22
 121374546.69048  94577551.29648  23096821.2084   23096825.0834   23096822.2424
       225.000         182.000
 106532534.75048  83012352.00448  20272478.3534   20272480.8784   20272478.3894
       250.000         225.000
 115868477.59048  90287103.13548  22049055.2844   22049057.9964   22049055.2584
       240.000         202.000
 109055251.40648  84978111.89548  20752527.9114   20752529.8354   20752527.6314
       248.000         228.000
 117146771.18148  91283191.39348  22292294.0764   22292296.2214   22292294.7284
       235.000         194.000
 122058290.35948  95110345.10348  23226928.7684   23226931.0404   23226928.4254
       229.000         192.000
 130891156.80848 101993093.40348  24907771.6524   24907775.0654   24907771.7284
       216.000         162.000
 116009314.11048  90396854.41448  22075848.2054   22075850.0024   22075848.3614
       240.000         205.000
 131047926.10948 102115259.36848  24937595.7354   24937597.2494   24937596.1564
       211.000         158.000
 135344732.40848  87671214.09148  23852313.5974   23852314.4634   23852313.3794
       225.000         177.000
 09  1 29  0 22 30.0000000  0 10G 5G 9G26G15G18G17G27G12G28G22
 121273336.98748  94498686.61048  23077561.2124   23077565.4884   23077561.7544
       227.000         183.000
 106498431.22548  82985777.83948  20265988.5704   20265991.2594   20265988.9884
       250.000         225.000
 115955195.11548  90354675.22548  22065557.0154   22065559.9914   22065556.9494
       239.000         201.000
 109100601.85048  85013449.89848  20761157.8714   20761159.7574   20761157.5364
       249.000         228.000
 117142618.81848  91279955.76248  22291503.6904   22291505.9104   22291504.2664
       235.000         193.000
 122058169.07448  95110250.62048  23226905.6034   23226907.8014   23226905.1924
       230.000         190.000
 130960862.45148 102047409.50548  24921035.9564   24921038.9094   24921035.9834
       217.000         160.000
 115924052.28848  90330416.63648  22059623.4714   22059625.1394   22059623.2314
       239.000         206.000
 131143734.90548 102189915.61948  24955827.8844   24955828.5494   24955827.9974
       214.000         159.000
 135290560.67048  87629002.37048  23842005.4854   23842006.1474   23842005.2764
       223.000         171.000
 09  1 29  0 23  0.0000000  0 10G 5G 9G26G15G18G17G27G12G28G22
 121172370.75048  94420011.62948  23058348.3434   23058352.3894   23058349.4134
       226.000         184.000
 106464657.19248  82959460.41548  20259561.5654   20259564.2244   20259561.7594
       250.000         225.000
 116042215.19448  90422483.08748  22082116.3734   22082119.1984   22082116.1704
       239.000         200.000
 109146407.63948  85049142.71348  20769874.3964   20769876.4364   20769874.1544
       248.000         228.000
 117139045.96148  91277171.71048  22290823.9204   22290826.0414   22290824.6714
       236.000         194.000
 122058599.91448  95110586.34048  23226987.3104   23226989.7634   23226987.0234
       229.000         191.000
 131030605.69148 102101754.89748  24934307.9474   24934311.3434   24934308.3914
       219.000         163.000
 115839140.42848  90264251.54848  22043465.1364   22043467.2094   22043464.8314
       240.000         207.000
 131239607.82348 102264621.84748  24974071.6944   24974072.8134   24974072.5154
       213.000         159.000
 135236858.62448  87587156.65148  23831786.2444   23831786.8274   23831786.7364
       227.000         174.000
 09  1 29  0 23 30.0000000  0 10G 5G 9G26G15G18G17G27G12G28G22
 121071648.41648  94341526.70348  23039181.4924   23039185.7734   23039181.3924
       227.000         184.000
 106431211.53248  82933398.86548  20253197.0034   20253199.7854   20253197.3064
       250.000         225.000
 116129535.23548  90490524.67248  22098732.7274   22098735.5744   22098732.5934
       238.000         200.000
 109192666.78948  85085188.79748  20778677.1944   20778679.3144   20778676.9404
       248.000         228.000
 117136050.40048  91274837.50048  22290254.3044   22290255.8464   22290254.4044
       237.000         195.000
 122059582.12448  95111351.71648  23227174.3834   23227176.4774   23227174.1644
       230.000         191.000
 131100385.19648 102156128.53248  24947586.4404   24947590.5084   24947587.6124
       215.000         162.000
 115754578.62848  90198359.25148  22027373.6664   22027375.8444   22027373.4884
       240.000         207.000
 131335541.63948 102339375.49548  24992327.2324   24992328.7634   24992328.1914
       212.000         159.000
 135183626.78448  87545677.26148  23821657.4434   23821657.2684   23821657.9824
       225.000         177.000
 09  1 29  0 24  0.0000000  0 10G 5G 9G26G15G18G17G27G12G28G22
 120971170.46948  94263232.21248  23020060.9584   23020065.1434   23020061.8674
       227.000         182.000
 106398093.72848  82907592.78548  20246894.8104   20246897.4634   20246894.8284
       250.000         225.000
 116217152.59248  90558797.93548  22115405.7524   22115408.5554   22115405.4724
       240.000         199.000
 109239377.69748  85121586.90248  20787566.2294   20787568.0364   20787565.9234
       249.000         228.000
 117133631.01448  91272952.26348  22289793.8324   22289795.6714   22289794.3014
       236.000         195.000
 122061114.74748  95112545.98848  23227465.7504   23227468.1344   23227466.2024
       229.000         190.000
 131170199.95348 102210529.66148  24960872.0664   24960874.6094   24960872.0684
       216.000         158.000
 115670367.45348  90132740.16548  22011348.8914   22011350.9204   22011348.9354
       240.000         207.000
 131431533.03248 102414174.01648  25010593.3014   25010594.8844   25010594.0274
       210.000         158.000
