     2.11           OBSERVATION DATA    G (GPS)             RINEX VERSION / TYPE
teqc  2008Oct2      gpsops              20090120 00:05:37UTCPGM / RUN BY / DATE
    30.0000                                                 INTERVAL
     1     1                                                WAVELENGTH FACT L1/2
     7    L1    L2    P1    P2    C1    S1    S2            # / TYPES OF OBSERV
Linux 2.4.20-8|Pentium IV|gcc -static|Linux|486/DX+         COMMENT
     2.10           OBSERVATION DATA    GPS                 COMMENT
soc2rnx ver 1.20    gpsops              20-Jan-2009 00:05:35COMMENT
S1, if present, is the SNR for the C/A data stream on L1.   COMMENT
 SNR is mapped to RINEX snr flag value [1,4-9]              COMMENT
    SNR:   >316  >100  >31.6  >10  >3.2    >0 bad=0         COMMENT
L1 & L2:      9     8     7     6     5     4     1         COMMENT
                                                            COMMENT
This data is provided as a public service by NASA/JPL.      COMMENT
No warranty is expressed or implied regarding suitability   COMMENT
for use.  For further information, contact:                 COMMENT
Dave Stowers, NASA/JPL m/s 238-600                          COMMENT
4800 Oak Grove Drive, Pasadena CA 91109 USA                 COMMENT
                                                            COMMENT
Forced Modulo Decimation to 30 seconds                      COMMENT
  2009     1    19     0     0    0.0000000     GPS         TIME OF FIRST OBS
DSN                 JPL                                     OBSERVER / AGENCY
451-U               AOAD/M_T        NONE                    ANT # / TYPE
  4849202.3940  -360328.9929  4114913.1862                  APPROX POSITION XYZ
        0.0254        0.0000        0.0000                  ANTENNA: DELTA H/E/N
LP03574             ASHTECH Z-XII3      CC00                REC # / TYPE / VERS
MADR                                                        MARKER NAME
13407S012                                                   MARKER NUMBER
                                                            END OF HEADER
 09  1 19  0  0  0.0000000  0 10G 8G 9G15G26G18G17G10G27G28G12
 131491972.52248 102461280.11248  25022089.1404   25022088.6834   25022087.7384
       195.000         130.000
 113320695.98548  88301802.35648  21564244.7804   21564247.1414   21564245.1344
       240.000         205.000
 106959332.03848  83344930.61148  20353686.6974   20353688.2324   20353686.4594
       253.000         240.000
 107684173.98448  83909730.39648  20491629.0554   20491631.8914   20491628.8224
       251.000         225.000
 121930260.22348  95010593.10448  23202555.9354   23202556.7324   23202556.3724
       227.000         178.000
 126061484.03048  98229719.47948  23988709.9464   23988711.5934   23988710.5894
       221.000         174.000
 125038241.37248  97432380.38148  23793997.7894   23794001.6304   23793998.1694
       221.000         169.000
 125242504.42648  97591552.26348  23832862.0614   23832865.4794   23832861.2824
       223.000         176.000
 120116390.59048  93597180.32548  22857393.5544   22857395.7864   22857393.8374
       233.000         190.000
 128742063.06048 100318469.96348  24498816.2934   24498817.9874   24498814.7944
       219.000         168.000
 09  1 19  0  0 30.0000000  0  9G 9G15G26G18G17G10G27G28G12
 113248898.33848  88245856.15648  21550581.9454   21550584.4774   21550581.8584
       238.000         204.000
 106948162.74048  83336227.25548  20351561.2804   20351562.7274   20351561.0314
       253.000         239.000
 107725433.44248  83941880.61348  20499480.4164   20499483.1974   20499480.3294
       251.000         225.000
 121860424.61048  94956175.73848  23189265.5884   23189267.5794   23189266.2384
       225.000         178.000
 126002941.22248  98184101.72248  23977568.4824   23977570.5394   23977568.6124
       221.000         170.000
 125147845.10248  97517785.87248  23814854.5384   23814859.0114   23814854.8164
       223.000         170.000
 125311679.15148  97645454.63148  23846025.4954   23846028.9734   23846025.8164
       224.000         177.000
 120187649.87948  93652707.04348  22870954.4524   22870955.9004   22870954.6464
       233.000         191.000
 128628439.42248 100229932.08948  24477194.4464   24477196.6884   24477193.2704
       216.000         168.000
 09  1 19  0  1  0.0000000  0  9G 9G15G26G18G17G10G27G28G12
 113177367.71848  88190118.06148  21536969.7064   21536972.9134   21536969.9084
       238.000         205.000
 106937389.37648  83327832.41848  20349511.1874   20349512.6054   20349510.8754
       253.000         239.000
 107767086.89148  83974337.84548  20507406.9774   20507409.4984   20507407.0254
       250.000         224.000
 121791016.50148  94902091.46548  23176058.2294   23176059.6514   23176058.5614
       226.000         179.000
 125944725.82448  98138739.04648  23966491.1444   23966492.1754   23966491.1074
       220.000         171.000
 125257536.71748  97603259.86148  23835728.6304   23835731.9224   23835729.8254
       223.000         168.000
 125380875.76848  97699374.06548  23859192.9894   23859196.4734   23859193.6264
       223.000         176.000
 120259241.20348  93708492.49348  22884577.8574   22884579.6594   22884578.0554
       231.000         190.000
 128514909.48448 100141467.21648  24455590.2454   24455592.6554   24455589.6394
       217.000         169.000
 09  1 19  0  1 30.0000000  0  9G 9G15G26G18G17G10G27G28G12
 113106104.96648  88134588.65348  21523408.9764   21523412.0724   21523408.5904
       240.000         206.000
 106927013.58548  83319747.38048  20347536.6914   20347538.2024   20347536.5114
       253.000         239.000
 107809134.87248  84007102.49248  20515408.2424   20515410.9314   20515407.8464
       252.000         225.000
 121722037.95748  94848341.95848  23162931.8954   23162934.0994   23162931.9134
       229.000         179.000
 125886841.01248  98093634.02548  23955475.3814   23955477.8084   23955475.9444
       219.000         172.000
 125367314.11048  97688800.70448  23856618.2914   23856621.2544   23856617.9644
       221.000         168.000
 125450094.29048  97753310.56848  23872364.5194   23872368.2864   23872364.9984
       223.000         174.000
 120331162.76848  93764535.27148  22898263.6674   22898265.6064   22898263.6124
       230.000         188.000
 128401476.30248 100053077.74548  24434004.6904   24434006.7274   24434004.0804
       216.000         164.000
 09  1 19  0  2  0.0000000  0  9G 9G15G26G18G17G10G27G28G12
 113035110.66448  88079268.43248  21509899.5244   21509902.3604   21509899.8404
       238.000         206.000
 106917036.16148  83311972.76248  20345637.8504   20345639.5044   20345637.5294
       254.000         240.000
 107851577.02248  84040174.30048  20523485.1154   20523487.2964   20523485.3674
       250.000         224.000
 121653491.01348  94794928.73748  23149887.9864   23149889.8404   23149888.8224
       228.000         181.000
 125829289.41448  98048788.64948  23944523.7584   23944525.1734   23944523.6104
       220.000         171.000
 125477174.93948  97774406.51848  23877524.1414   23877527.8374   23877524.5814
       222.000         167.000
 125519334.41948  97807263.90648  23885540.9204   23885543.9994   23885540.9874
       223.000         173.000
 120403412.60448  93820833.84548  22912011.9734   22912014.3654   22912011.6554
       231.000         188.000
 128288142.08448  99964765.38648  24412437.4914   24412438.9044   24412437.6234
       218.000         165.000
 09  1 19  0  2 30.0000000  0  9G 9G15G26G18G17G10G27G28G12
 112964384.38748  88024157.08948  21496440.2184   21496443.7514   21496440.0814
       240.000         206.000
 106907457.31748  83304508.72048  20343815.2334   20343816.7274   20343814.8384
       253.000         240.000
 107894411.94248  84073552.13948  20531635.9434   20531638.5444   20531635.5424
       251.000         224.000
 121585377.11848  94741852.96748  23136926.2434   23136927.9244   23136927.4934
       227.000         179.000
 125772072.68148  98004204.18848  23933635.6744   23933637.3964   23933635.3034
       220.000         172.000
 125587114.97648  97860074.04548  23898445.4324   23898449.8204   23898446.4444
       222.000         169.000
 125588594.71648  97861232.95048  23898720.8414   23898723.6544   23898720.7944
       223.000         173.000
 120475987.23048  93877385.50148  22925822.8434   22925824.6234   22925823.4144
       230.000         188.000
 128174908.11748  99876531.13548  24390889.8674   24390890.9374   24390889.6424
       221.000         166.000
 09  1 19  0  3  0.0000000  0  9G 9G15G26G18G17G10G27G28G12
 112893927.53648  87969255.66148  21483033.2434   21483036.0044   21483033.4804
       240.000         206.000
 106898278.75448  83297356.58848  20342068.7344   20342070.2094   20342068.6674
       253.000         240.000
 107937640.19448  84107236.48448  20539862.1824   20539864.7164   20539862.2794
       250.000         224.000
 121517699.20048  94689116.91948  23124047.7594   23124049.5364   23124048.9694
       228.000         181.000
 125715194.13748  97959883.26748  23922811.8544   23922813.9564   23922812.4034
       215.000         169.000
 125697132.62648  97945802.07748  23919380.9114   23919384.8754   23919381.0714
       221.000         168.000
 125657875.68748  97915218.11548  23911904.8164   23911907.6004   23911905.4434
       224.000         174.000
 120548884.90448  93934188.89048  22939694.7564   22939696.6184   22939695.2364
       232.000         187.000
 128061776.94948  99788377.00148  24369362.1594   24369362.8834   24369362.8724
       216.000         164.000
 09  1 19  0  3 30.0000000  0  9G 9G15G26G18G17G10G27G28G12
 112823740.81648  87914564.73748  21469676.8634   21469679.9074   21469676.5734
       241.000         205.000
 106889502.00448  83290517.56348  20340398.6124   20340400.0664   20340398.1324
       254.000         240.000
 107981261.95748  84141227.46148  20548163.2364   20548165.7294   20548162.8964
       252.000         225.000
 121450459.49848  94636722.36748  23111252.0934   23111254.0594   23111253.6104
       228.000         179.000
 125658656.60048  97915828.04048  23912053.0224   23912054.5764   23912052.8064
       219.000         170.000
 125807225.36348  98031588.60748  23940330.4914   23940333.8254   23940331.2784
       220.000         162.000
 125727177.31048  97969219.37148  23925092.1094   23925095.4774   23925092.0404
       224.000         175.000
 120622103.81848  93991242.59348  22953628.0174   22953629.5294   22953629.1334
       231.000         186.000
 127948751.65348  99700305.37548  24347853.8404   24347854.9964   24347853.2744
       216.000         162.000
 09  1 19  0  4  0.0000000  0  9G 9G15G26G18G17G10G27G28G12
 112753824.71748  87860084.67648  21456372.6274   21456375.1794   21456373.0024
       240.000         206.000
 106881127.96148  83283992.32848  20338804.8914   20338806.4314   20338804.8184
       253.000         240.000
 108025276.86848  84175524.78148  20556538.8054   20556541.4634   20556539.0694
       250.000         224.000
 121383660.36548  94584671.08948  23098540.7704   23098542.8064   23098541.7594
       228.000         180.000
 125602462.78248  97872040.64948  23901360.0384   23901362.1774   23901360.2684
       221.000         173.000
 125917390.83848  98117431.83648  23961295.3674   23961297.6074   23961295.9474
       222.000         165.000
 125796499.37248  98023236.53748  23938284.2244   23938287.2594   23938284.2664
       223.000         175.000
 120695641.81948  94048544.91348  22967621.7984   22967623.4744   22967622.7304
       230.000         187.000
 127835834.27548  99612317.82548  24326366.5734   24326368.3764   24326366.6894
       217.000         165.000
 09  1 19  0  4 30.0000000  0  9G 9G15G26G18G17G10G27G28G12
 112684179.60548  87805815.77048  21443119.2954   21443122.2774   21443119.1184
       240.000         206.000
 106873157.65048  83277781.69048  20337288.2714   20337289.7074   20337287.8394
       253.000         240.000
 108069684.23648  84210127.91948  20564989.4114   20564992.0094   20564989.1144
       252.000         225.000
 121317303.60848  94532964.51048  23085913.7854   23085915.5704   23085914.8464
       226.000         180.000
 125546615.12348  97828522.99748  23890732.2214   23890734.2464   23890732.7884
       219.000         173.000
 126027626.04248  98203329.39748  23982273.1124   23982275.3924   23982274.4854
       223.000         168.000
 125865841.12948  98077269.06448  23951479.1734   23951482.3454   23951479.1664
       224.000         173.000
 120769496.25248  94106093.83148  22981675.9214   22981677.4214   22981675.9734
       232.000         186.000
 127723026.38548  99524415.57648  24304899.9634   24304901.5554   24304899.7944
       220.000         164.000
 09  1 19  0  5  0.0000000  0  9G 9G15G26G18G17G10G27G28G12
 112614806.72248  87751758.99748  21429917.9534   21429921.0824   21429917.9774
       240.000         206.000
 106865593.02648  83271887.17648  20335848.6574   20335850.2674   20335848.4014
       254.000         240.000
 108114484.88848  84245037.50848  20573514.5604   20573517.3944   20573514.5684
       251.000         224.000
 121251392.05548  94481604.86648  23073370.4934   23073373.3134   23073370.8744
       226.000         180.000
 125491116.75848  97785277.53048  23880171.1214   23880173.2944   23880170.9524
       217.000         170.000
 126137929.09248  98289279.81448  24003262.3734   24003264.9254   24003263.6104
       219.000         163.000
 125935203.31048  98131317.51148  23964678.5584   23964681.1124   23964678.4444
       222.000         172.000
 120843665.83348  94163888.32348  22995789.9694   22995791.5714   22995790.6924
       230.000         186.000
 127610331.27048  99436601.20348  24283454.5424   24283456.1404   24283455.0864
       218.000         165.000
 09  1 19  0  5 30.0000000  0  9G 9G15G26G18G17G10G27G28G12
 112545706.53448  87697914.70948  21416768.7754   21416771.5924   21416769.2274
       241.000         208.000
 106858434.84148  83266309.36348  20334486.5924   20334488.0674   20334486.3184
       254.000         240.000
 108159678.44148  84280253.25648  20582114.9834   20582117.2624   20582114.8924
       252.000         224.000
 121185928.08048  94430593.94848  23060913.9614   23060915.1994   23060914.1624
       226.000         179.000
 125435970.83548  97742306.69648  23869677.6994   23869680.0594   23869677.5494
       219.000         174.000
 126248297.30748  98375281.01248  24024263.9154   24024267.4394   24024264.0234
       218.000         165.000
 126004585.59448  98185381.58148  23977881.1794   23977884.2414   23977880.8404
       224.000         171.000
 120918148.42348  94221926.70648  23009963.3204   23009965.4574   23009962.9864
       229.000         186.000
 127497751.20948  99348876.52148  24262030.1584   24262033.3654   24262030.7634
       219.000         167.000
 09  1 19  0  6  0.0000000  0  9G 9G15G26G18G17G10G27G28G12
 112476879.72748  87644283.43848  21403671.6704   21403674.1704   21403671.9014
       241.000         207.000
 106851684.18948  83261049.11248  20333202.1734   20333203.4214   20333201.8444
       254.000         240.000
 108205264.40248  84315774.78448  20590789.4914   20590792.1184   20590789.4514
       251.000         225.000
 121120913.81648  94379933.48548  23048541.7824   23048543.3754   23048541.8344
       227.000         179.000
 125381179.51348  97699612.15648  23859250.8294   23859253.4424   23859250.8394
       221.000         174.000
 126358728.05148  98461330.92548  24045278.4964   24045282.9924   24045278.5034
       218.000         164.000
 126073987.48648  98239460.96548  23991088.3644   23991091.0424   23991088.9534
       223.000         170.000
 120992941.41448  94280206.94948  23024196.1174   23024197.8124   23024196.1044
       231.000         186.000
 127385288.28048  99261243.10848  24240629.4364   24240632.6394   24240629.6734
       219.000         166.000
 09  1 19  0  6 30.0000000  0  9G 9G15G26G18G17G10G27G28G12
 112408326.10548  87590865.04948  21390625.8084   21390629.1034   21390626.3674
       240.000         207.000
 106845341.64248  83256106.85948  20331995.1734   20331996.5204   20331994.8334
       254.000         240.000
 108251242.29048  84351601.71148  20599538.7484   20599541.3374   20599538.7014
       251.000         225.000
 121056350.63248  94329624.50148  23036255.6514   23036257.1084   23036256.4094
       227.000         179.000
 125326745.13248  97657195.73548  23848893.5924   23848895.2074   23848893.4144
       221.000         176.000
 126469218.27048  98547427.19748  24066304.5144   24066308.1784   24066304.7564
       218.000         163.000
 126143408.38748  98293555.14248  24004298.3974   24004302.1854   24004298.3474
       224.000         170.000
 121068042.14748  94338727.01448  23038487.5944   23038489.0064   23038487.8374
       230.000         185.000
 127272944.55348  99173702.60148  24219251.7664   24219254.3324   24219251.8824
       222.000         170.000
 09  1 19  0  7  0.0000000  0 10G 9G15G26G18G17G10G 5G27G28G12
 112340045.74948  87537659.59648  21377632.7824   21377635.6284   21377632.7564
       240.000         208.000
 106839408.02848  83251483.26248  20330866.0004   20330867.3474   20330865.6814
       254.000         239.000
 108297611.57648  84387733.61948  20608362.5694   20608364.9954   20608362.4574
       251.000         225.000
 120992240.38848  94279668.47248  23024056.1994   23024057.9234   23024056.8714
       229.000         180.000
 125272669.72548  97615059.07448  23838602.1754   23838603.9734   23838602.1344
       216.000         173.000
 126579765.48548  98633567.85648  24087340.1504   24087344.0054   24087340.4994
       220.000         164.000
 133801419.51158 104260818.22658  25461586.3445   25461592.0035   25461584.9095
       197.000         142.000
 126212847.99448  98347663.90048  24017512.5654   24017515.7304   24017512.2694
       224.000         171.000
 121143448.06948  94397484.87548  23052836.3754   23052837.9584   23052837.2864
       230.000         185.000
 127160721.92448  99086256.40748  24197897.0034   24197899.1644   24197896.2864
       222.000         169.000
 09  1 19  0  7 30.0000000  0 10G 9G15G26G18G17G10G 5G27G28G12
 112272040.19448  87484668.28148  21364691.5814   21364694.7754   21364691.9224
       240.000         207.000
 106833885.10148  83247179.67848  20329814.9994   20329816.3254   20329814.7914
       254.000         240.000
 108344372.46948  84424170.67448  20617261.0794   20617263.5614   20617260.9714
       251.000         225.000
 120928586.07748  94230067.68648  23011942.9464   23011944.7904   23011944.1624
       227.000         181.000
 125218956.74748  97573204.80548  23828381.0054   23828382.8034   23828380.0284
       217.000         169.000
 126690367.05848  98719750.91948  24108387.2634   24108390.6444   24108387.3344
       220.000         161.000
 133684967.38848 104170076.32348  25439426.5584   25439431.7294   25439426.3114
       200.000         142.000
 126282306.69448  98401787.54848  24030729.9264   24030733.5194   24030729.8164
       223.000         168.000
 121219157.88048  94456479.52548  23067243.4654   23067245.3874   23067243.3834
       229.000         186.000
 127048623.37648  98998906.87348  24176565.1164   24176566.8224   24176565.4364
       221.000         166.000
 09  1 19  0  8  0.0000000  0 10G 9G15G26G18G17G10G 5G27G28G12
 112204309.68748  87431891.26648  21351802.9084   21351805.8694   21351803.1584
       241.000         207.000
 106828773.42648  83243196.54748  20328842.3794   20328843.6414   20328842.1814
       254.000         240.000
 108391524.38348  84460912.41448  20626233.6654   20626236.2874   20626233.6744
       252.000         225.000
 120865389.45648  94180823.58148  22999917.0534   22999919.1884   22999917.1474
       228.000         181.000
 125165608.13948  97531634.48648  23818229.6894   23818231.2704   23818230.5474
       219.000         171.000
 126801020.36348  98805974.28248  24129443.5494   24129447.0684   24129444.6904
       218.000         162.000
 133568541.96348 104079355.23048  25417271.9404   25417275.0514   25417272.1004
       202.000         143.000
 126351783.83048  98455925.54448  24043951.2804   24043954.4714   24043952.1324
       222.000         168.000
 121295168.88948  94515708.87048  23081707.8584   23081709.6034   23081707.9894
       230.000         185.000
 126936650.55248  98911655.34848  24155256.8824   24155258.5314   24155257.3444
       222.000         171.000
 09  1 19  0  8 30.0000000  0 10G 9G15G26G18G17G10G 5G27G28G12
 112136854.60248  87379328.87448  21338966.8364   21338969.5984   21338967.0204
       243.000         208.000
 106824074.02348  83239534.67048  20327948.1164   20327949.4704   20327947.8814
       254.000         240.000
 108439066.79048  84497958.43848  20635280.7254   20635283.2384   20635280.7494
       251.000         225.000
 120802652.24948  94131937.43348  22987979.0434   22987980.7334   22987979.5124
       228.000         182.000
 125112626.42648  97490350.01948  23808147.0014   23808148.5754   23808147.2364
       214.000         170.000
 126911722.50348  98892235.66348  24150508.6644   24150513.3264   24150509.9354
       217.000         162.000
 133452144.87348 103988656.20048  25395123.1794   25395124.9154   25395123.0104
       200.000         140.000
 126421278.89348  98510077.51648  24057175.2764   24057178.5984   24057176.0324
       221.000         166.000
 121371478.27148  94575170.72648  23096229.3094   23096230.9444   23096230.3814
       230.000         186.000
 126824805.58048  98824503.43048  24133973.6574   24133975.7994   24133973.4474
       221.000         169.000
 09  1 19  0  9  0.0000000  0 10G 9G15G26G18G17G10G 5G27G28G12
 112069675.62248  87326981.64248  21326182.6854   21326186.0054   21326183.0484
       242.000         208.000
 106819788.18248  83236195.05248  20327132.4774   20327133.9874   20327132.0704
       254.000         240.000
 108486999.78748  84535308.82248  20644401.9664   20644404.4704   20644401.8534
       251.000         224.000
 120740376.89148  94083411.18148  22976128.4864   22976130.3954   22976129.6854
       229.000         182.000
 125060014.55748  97449353.77648  23798135.2434   23798137.3054   23798134.7534
       215.000         171.000
 127022471.45548  98978533.52848  24171584.6954   24171588.5264   24171585.1374
       219.000         163.000
 133335778.66748 103897981.26748  25372979.1364   25372980.7854   25372978.5104
       202.000         141.000
 126490792.20948  98564243.71348  24070403.3854   24070407.2304   24070403.5304
       222.000         168.000
 121448084.60748  94634863.96148  23110806.8734   23110808.8284   23110806.8104
       230.000         185.000
 126713091.00348  98737453.12648  24112715.2224   24112717.6004   24112714.2784
       215.000         169.000
 09  1 19  0  9 30.0000000  0 10G 9G15G26G18G17G10G 5G27G28G12
 112002773.59148  87274850.19748  21313451.9764   21313455.0404   21313451.7774
       242.000         208.000
 106815917.16648  83233178.67248  20326395.8384   20326397.2994   20326395.6634
       254.000         240.000
 108535323.21648  84572963.43848  20653597.4094   20653600.0994   20653597.2334
       250.000         224.000
 120678565.61248  94035246.54848  22964366.0414   22964368.6524   22964366.8214
       229.000         184.000
 125007775.30548  97408647.87848  23788193.8894   23788197.1084   23788194.1594
       218.000         172.000
 127133264.85948  99064866.03548  24192668.1144   24192672.2454   24192668.3274
       218.000         164.000
 133219445.41848 103807332.00648  25350840.8094   25350843.9544   25350839.7824
       201.000         141.000
 126560323.66548  98618424.07348  24083635.0894   24083637.7524   24083635.0174
       221.000         165.000
 121524985.73148  94694786.91048  23125440.8174   23125442.3424   23125441.4674
       231.000         185.000
 126601509.44948  98650506.47848  24091481.6654   24091484.0484   24091479.7684
       219.000         171.000
 09  1 19  0 10  0.0000000  0 10G 9G15G26G18G17G10G 5G27G28G12
 111936149.10048  87222935.02048  21300773.5714   21300776.3464   21300773.4184
       241.000         207.000
 106812461.71048  83230486.10048  20325738.3444   20325739.7554   20325738.1774
       254.000         240.000
 108584036.70548  84610921.99448  20662867.4894   20662870.1614   20662867.2384
       251.000         224.000
 120617220.11348  93987444.84548  22952692.1724   22952694.0004   22952693.7424
       228.000         180.000
 124955910.89248  97368234.05248  23778325.2764   23778326.9824   23778325.7834
       218.000         172.000
 127244099.98548  99151231.03548  24213758.8584   24213763.2454   24213758.8374
       221.000         164.000
 133103147.07948 103716709.91748  25328708.6804   25328713.7324   25328712.1284
       201.000         140.000
 126629873.09348  98672618.40648  24096869.7764   24096872.9264   24096870.1294
       221.000         163.000
 121602179.07148  94754937.55148  23140130.5064   23140131.7374   23140131.4204
       231.000         185.000
 126490062.88048  98563665.06148  24070273.4354   24070276.3104   24070272.6334
       220.000         169.000
 09  1 19  0 10 30.0000000  0 10G 9G15G26G18G17G10G 5G27G28G12
 111869801.97548  87171235.96748  21288148.1634   21288150.9704   21288147.5604
       241.000         208.000
 106809422.89848  83228118.19048  20325160.1264   20325161.5124   20325159.9554
       254.000         240.000
 108633139.52948  84649183.92648  20672211.4764   20672214.0864   20672211.4404
       251.000         224.000
 120556342.45748  93940007.70248  22941107.6834   22941109.5874   22941108.8964
       229.000         184.000
 124904423.59848  97328114.08848  23768527.5284   23768529.6774   23768527.9914
       219.000         175.000
 127354973.77148  99237626.23048  24234858.5824   24234861.2484   24234859.5784
       223.000         161.000
 132986885.35348 103626116.38048  25306585.1074   25306591.0234   25306586.8724
       200.000         143.000
 126699439.94648  98726826.36148  24110107.6034   24110110.1074   24110108.2014
       218.000         161.000
 121679662.22848  94815314.04648  23154874.9014   23154876.4044   23154875.4694
       230.000         183.000
 126378753.83848  98476930.75148  24049092.3194   24049094.5564   24049091.7374
       219.000         169.000
 09  1 19  0 11  0.0000000  0 10G 9G15G26G18G17G10G 5G27G28G12
 111803733.08548  87119753.73648  21275575.8604   21275578.3784   21275576.2374
       243.000         208.000
 106806801.40948  83226075.47148  20324661.2334   20324662.6474   20324661.1174
       254.000         240.000
 108682631.41748  84687749.03248  20681629.2794   20681632.0384   20681629.1974
       250.000         224.000
 120495934.70348  93892936.71948  22929612.1594   22929614.1644   22929612.9174
       230.000         184.000
 124853316.25548  97288290.19148  23758802.0054   23758803.6224   23758801.2404
       222.000         177.000
 127465883.94948  99324049.77348  24255962.9984   24255966.3634   24255964.6314
       219.000         158.000
 132870662.15248 103535552.85448  25284468.7124   25284474.0914   25284468.7024
       200.000         143.000
 126769023.98148  98781047.68748  24123348.9024   24123352.0664   24123348.7874
       220.000         162.000
 121757433.11948  94875914.74348  23169674.2954   23169675.4124   23169674.5254
       230.000         184.000
 126267584.07348  98390304.95248  24027937.4764   24027939.8914   24027937.4414
       222.000         171.000
 09  1 19  0 11 30.0000000  0 10G 9G15G26G18G17G10G 5G27G28G12
 111737943.28848  87068488.96848  21263056.3774   21263058.7724   21263057.3104
       241.000         207.000
 106804598.63648  83224359.02448  20324241.7924   20324243.5074   20324241.4894
       253.000         240.000
 108732512.45548  84726617.36548  20691121.4724   20691124.1484   20691121.2294
       251.000         224.000
 120435999.04648  93846233.61548  22918207.1154   22918208.8594   22918207.2074
       230.000         185.000
 124802591.71248  97248764.57248  23749149.5744   23749151.6104   23749149.4504
       223.000         177.000
 127576828.19048  99410499.80948  24277075.0074   24277078.6244   24277076.3394
       220.000         161.000
 132754479.98948 103445021.28748  25262360.9454   25262364.7284   25262359.9714
       199.000         143.000
 126838625.45748  98835282.59148  24136593.6744   24136597.2754   24136594.4524
       218.000         163.000
 121835489.75148  94936738.09048  23184527.8174   23184529.1954   23184527.7624
       229.000         183.000
 126156556.06648  98303789.61548  24006809.7174   24006811.9954   24006810.2044
       220.000         170.000
 09  1 19  0 12  0.0000000  0 10G 9G15G26G18G17G10G 5G27G28G12
 111672432.67348  87017441.76048  21250589.8254   21250592.5994   21250590.0654
       243.000         208.000
 106802815.17148  83222969.30648  20323902.4644   20323904.1724   20323902.1684
       254.000         240.000
 108782781.60448  84765788.13248  20700687.3444   20700690.0474   20700687.2604
       251.000         224.000
 120376537.31948  93799899.80348  22906892.0134   22906893.7874   22906892.4514
       232.000         184.000
 124752251.46748  97209538.42548  23739570.2484   23739572.2144   23739570.5434
       220.000         178.000
 127687803.34548  99496973.95048  24298193.4544   24298196.4324   24298194.9144
       219.000         160.000
 132638340.12148 103354522.72148  25240259.7214   25240263.3014   25240260.3524
       197.000         143.000
 126908243.66248  98889530.51248  24149841.6204   24149844.9854   24149841.8114
       221.000         163.000
 121913829.30048  94997781.89948  23199435.1704   23199436.3154   23199435.8204
       230.000         182.000
 126045671.80348  98217386.28448  23985709.6744   23985711.4414   23985709.0724
       222.000         169.000
 09  1 19  0 12 30.0000000  0 10G 9G15G26G18G17G10G 5G27G28G12
 111607201.85448  86966612.56448  21238177.0644   21238179.7104   21238177.6144
       242.000         208.000
 106801452.30648  83221907.32648  20323643.2604   20323644.8414   20323643.1044
       254.000         240.000
 108833438.88048  84805261.33148  20710327.1484   20710329.8034   20710327.1104
       251.000         224.000
 120317551.59748  93753936.89448  22895667.2784   22895668.9944   22895667.6474
       231.000         185.000
 124702298.59948  97170614.10148  23730064.3264   23730066.6724   23730063.5254
       222.000         178.000
 127798807.36748  99583470.57948  24319316.5074   24319320.3084   24319318.1944
       215.000         159.000
 132522244.94248 103264058.95148  25218167.9634   25218171.9984   25218168.4994
       201.000         145.000
 126977878.76848  98943791.59348  24163093.0964   24163096.0684   24163093.8264
       221.000         163.000
 121992449.90548  95059044.70348  23214396.5214   23214397.5984   23214397.3644
       229.000         182.000
 125934933.85748  98131096.98248  23964636.9444   23964638.4114   23964636.6684
       224.000         172.000
 09  1 19  0 13  0.0000000  0 10G 9G15G26G18G17G10G 5G27G28G12
 111542251.83548  86916002.16748  21225817.1284   21225820.1294   21225817.0124
       242.000         208.000
 106800511.34848  83221174.11448  20323464.1854   20323465.7644   20323463.9304
       254.000         240.000
 108884484.28048  84845036.95948  20720040.8314   20720043.3184   20720040.7324
       251.000         224.000
 120259043.78748  93708346.39248  22884533.4244   22884535.5344   22884534.4124
       232.000         186.000
 124652735.90748  97131993.84048  23720633.1224   23720635.2014   23720633.1574
       223.000         175.000
 127909838.00748  99669987.94448  24340444.0684   24340448.7134   24340443.5144
       220.000         161.000
 132406196.57148 103173631.70848  25196083.3484   25196088.2024   25196085.0984
       201.000         144.000
 127047530.96448  98998065.98048  24176347.4044   24176350.6624   24176347.5154
       219.000         161.000
 122071349.63548  95120525.00948  23229410.4854   23229412.0164   23229410.7824
       229.000         180.000
 125824344.63248  98044923.55948  23943592.8634   23943593.8134   23943593.6134
       223.000         174.000
 09  1 19  0 13 30.0000000  0 10G 9G15G26G18G17G10G 5G27G28G12
 111477582.95748  86865610.83148  21213511.3664   21213513.9124   21213511.8224
       243.000         209.000
 106799992.80448  83220770.04948  20323365.5484   20323367.0264   20323365.3544
       254.000         240.000
 108935917.31548  84885114.64048  20729828.0854   20729830.8344   20729828.0564
       250.000         223.000
 120201016.10848  93663130.01948  22873491.3194   22873492.9854   22873491.3594
       232.000         186.000
 124603565.62148  97093679.31748  23711276.0454   23711277.6254   23711275.9264
       223.000         175.000
 128020892.21348  99756523.68448  24361577.5934   24361581.7294   24361578.1494
       220.000         160.000
 132290196.99848 103083242.43348  25174010.2414   25174014.0384   25174009.7004
       193.000         145.000
 127117199.91948  99052353.44348  24189605.0274   24189608.2744   24189604.3924
       217.000         159.000
 122150526.06748  95182220.93648  23244477.1364   23244478.4544   23244478.8274
       228.000         181.000
 125713906.19748  97958867.62248  23922576.9054   23922577.6764   23922575.6874
       220.000         172.000
 09  1 19  0 14  0.0000000  0 10G 9G15G26G18G17G10G 5G27G28G12
 111413195.91448  86815439.12248  21201258.9524   21201261.5894   21201259.3864
       243.000         209.000
 106799898.04148  83220696.20548  20323347.5734   20323348.9704   20323347.3984
       254.000         240.000
 108987737.81048  84925494.24748  20739689.2414   20739691.8464   20739689.1574
       250.000         223.000
 120143470.57648  93618289.35448  22862540.5454   22862542.2964   22862541.0694
       231.000         184.000
 124554790.52148  97055672.74148  23701994.7314   23701996.2494   23701994.4244
       223.000         176.000
 128131968.24048  99843076.44048  24382714.6634   24382719.3264   24382716.5904
       218.000         155.000
 132174248.51848 102992892.99648  25151944.4234   25151950.9424   25151942.5984
       200.000         146.000
 127186885.86048  99106654.18648  24202866.0384   24202868.4664   24202866.2434
       218.000         157.000
 122229977.06548  95244130.80948  23259596.0824   23259597.7914   23259596.4964
       230.000         183.000
 125603621.21448  97872931.27648  23901589.1904   23901591.1684   23901588.7824
       222.000         172.000
 09  1 19  0 14 30.0000000  0 10G 9G15G26G18G17G10G 5G27G28G12
 111349090.84348  86765487.12748  21189060.1474   21189062.7484   21189060.2604
       243.000         210.000
 106800227.71648  83220953.09548  20323410.4104   20323411.8194   20323410.2494
       254.000         241.000
 109039944.93448  84966175.11648  20749624.0024   20749626.3814   20749623.9974
       250.000         223.000
 120086408.96948  93573825.76048  22851682.3844   22851684.2264   22851682.5614
       231.000         185.000
 124506412.69348  97017975.73748  23692788.4544   23692790.4634   23692787.8094
       220.000         173.000
 128243063.19548  99929643.96248  24403855.3894   24403859.1224   24403856.3464
       216.000         153.000
 132058352.72148 102902584.56448  25129891.3284   25129896.4054   25129891.9594
       203.000         146.000
 127256588.28948  99160967.74148  24216130.5234   24216132.9884   24216131.6424
       217.000         158.000
 122309700.20148  95306252.73548  23274766.9224   23274769.0554   23274767.3964
       230.000         184.000
 125493491.81248  97787116.14448  23880632.4584   23880635.1314   23880631.9844
       222.000         175.000
 09  1 19  0 15  0.0000000  0 10G 9G15G26G18G17G10G 5G27G28G12
 111285268.44648  86715755.40348  21176915.1394   21176917.8164   21176915.6004
       242.000         210.000
 106800982.45648  83221541.19948  20323554.0284   20323555.3684   20323553.8794
       254.000         241.000
 109092537.98748  85007156.70348  20759632.1364   20759634.5984   20759631.9684
       250.000         223.000
 120029832.83548  93529740.45548  22840915.7404   22840917.8864   22840916.6884
       231.000         184.000
 124458434.19348  96980589.90148  23683658.8824   23683660.3284   23683658.4174
       223.000         175.000
 128354173.84748 100016223.64648  24424999.0924   24425002.8604   24425001.2234
       218.000         156.000
 131942511.29448 102812318.52548  25107847.7374   25107851.6114   25107846.9784
       198.000         145.000
 127326306.79748  99215293.85448  24229397.0384   24229400.0534   24229396.8734
       216.000         158.000
 122389692.83548  95368584.65448  23289989.0364   23289991.0704   23289990.2984
       229.000         182.000
 125383519.36448  97701423.33348  23859705.9234   23859708.6924   23859705.0694
       224.000         176.000
 09  1 19  0 15 30.0000000  0 10G 9G15G26G18G17G10G 5G27G28G12
 111221728.75848  86666243.96848  21164823.7244   21164826.5544   21164823.9044
       243.000         210.000
 106802162.80448  83222460.94348  20323778.6444   20323779.9264   20323778.3734
       254.000         240.000
 109145516.48448  85048438.64348  20769713.3834   20769716.3124   20769713.1994
       250.000         222.000
 119973743.90748  93486034.79948  22830242.6944   22830244.6494   22830243.4014
       231.000         184.000
 124410857.18948  96943516.90948  23674604.9514   23674607.0604   23674605.0804
       221.000         173.000
 128465297.70048 100102813.64948  24446145.8484   24446149.8364   24446146.9764
       220.000         162.000
 131826726.08548 102722096.32148  25085814.3784   25085819.6794   25085811.9834
       203.000         146.000
 127396041.02648  99269632.19648  24242666.4874   24242670.5644   24242666.1844
       210.000         158.000
 122469952.68948  95431124.79248  23305262.0574   23305264.0314   23305262.0244
       229.000         183.000
 125273706.21548  97615854.64848  23838809.6344   23838812.0454   23838811.3514
       225.000         176.000
 09  1 19  0 16  0.0000000  0 10G 9G15G26G18G17G10G 5G27G28G12
 111158472.53748  86616953.40448  21152786.7194   21152789.4304   21152786.7294
       243.000         211.000
 106803770.57148  83223713.75148  20324084.4214   20324085.9564   20324084.2094
       254.000         240.000
 109198880.29648  85090020.82748  20779868.2864   20779870.9544   20779868.2374
       250.000         222.000
 119918144.31948  93442710.45148  22819662.3324   22819663.9204   22819662.9864
       230.000         184.000
 124363684.66748  96906759.08148  23665628.5884   23665630.0134   23665628.0484
       223.000         174.000
 128576432.82648 100189412.44648  24467293.4194   24467298.2824   24467294.2434
       212.000         159.000
 131710999.50148 102631919.77548  25063792.0794   25063796.3844   25063793.2674
       206.000         145.000
 127465791.23948  99323983.00548  24255939.9974   24255943.5164   24255940.4134
       212.000         159.000
 122550478.01248  95493871.80448  23320585.8694   23320587.1144   23320585.8564
       229.000         183.000
 125164055.31548  97530412.40448  23817942.9004   23817945.9454   23817943.3034
       222.000         175.000
 09  1 19  0 16 30.0000000  0 10G 9G15G26G18G17G10G 5G27G28G12
 111095500.78748  86567884.51948  21140803.7644   21140806.2714   21140803.8244
       244.000         211.000
 106805806.30248  83225300.03048  20324471.7484   20324473.3114   20324471.4634
       254.000         240.000
 109252629.25948  85131903.13048  20790096.5224   20790099.0324   20790096.5624
       249.000         222.000
 119863036.44948  93399769.21748  22809175.7904   22809177.6164   22809176.1154
       230.000         185.000
 124316919.20648  96870318.47948  23656729.1644   23656730.3104   23656729.4914
       221.000         173.000
 128687576.37248 100276017.78448  24488443.2554   24488447.5904   24488443.4544
       211.000         153.000
 131595333.63548 102541790.53348  25041781.7454   25041786.4334   25041782.4784
       208.000         150.000
 127535557.48148  99378346.27848  24269215.7314   24269219.5504   24269217.1984
       211.000         157.000
 122631266.71048  95556824.03748  23335959.3914   23335960.4604   23335959.6294
       229.000         182.000
 125054568.85548  97445098.27748  23797108.5534   23797110.9964   23797108.1234
       223.000         176.000
 09  1 19  0 17  0.0000000  0 10G 9G15G26G18G17G10G 5G27G28G12
 111032813.77748  86519037.49848  21128874.6664   21128877.3364   21128875.1344
       244.000         212.000
 106808270.81448  83227220.42248  20324940.8024   20324942.2474   20324940.6234
       254.000         240.000
 109306762.62548  85174084.95648  20800397.7474   20800400.4044   20800397.5624
       249.000         222.000
 119808421.47648  93357212.10148  22798782.8104   22798784.9044   22798783.3454
       232.000         185.000
 124270562.96348  96834196.71048  23647907.7974   23647909.9484   23647907.0814
       221.000         176.000
 128798725.79148 100362627.70448  24509594.7544   24509598.1134   24509595.2434
       212.000         153.000
 131479730.26848 102451709.95748  25019784.1984   25019788.2584   25019782.8184
       208.000         152.000
 127605339.49248  99432721.84948  24282494.5034   24282498.6074   24282494.9564
       211.000         154.000
 122712316.19948  95619979.47848  23351382.5634   23351383.7754   23351383.1444
       229.000         182.000
 124945248.53048  97359913.60948  23776305.4494   23776307.8414   23776305.5714
       223.000         176.000
 09  1 19  0 17 30.0000000  0 10G 9G15G26G18G17G10G 5G27G28G12
 110970411.81448  86470412.60448  21116999.7784   21117002.7674   21116999.8624
       242.000         212.000
 106811165.40248  83229475.93948  20325491.7624   20325493.0324   20325491.5574
       254.000         240.000
 109361280.05348  85216566.05948  20810771.9894   20810774.5614   20810771.7114
       250.000         222.000
 119754301.77348  93315040.88248  22788484.6874   22788486.0364   22788484.4254
       234.000         188.000
 124224618.13448  96798395.58148  23639165.2384   23639166.4834   23639165.4454
       223.000         175.000
 128909878.71348 100449240.37748  24530747.0054   24530750.1854   24530748.6194
       215.000         156.000
 131364191.55948 102361679.79148  24997797.2624   24997801.7494   24997798.3114
       214.000         154.000
 127675137.20048  99487109.65948  24295776.9164   24295780.6934   24295776.1364
       211.000         154.000
 122793624.13248  95683336.30648  23366854.7264   23366856.1354   23366855.2074
       229.000         183.000
 124836097.03248  97274860.49748  23755534.7634   23755536.9784   23755535.0054
       220.000         176.000
 09  1 19  0 18  0.0000000  0 10G 9G15G26G18G17G10G 5G27G28G12
 110908295.46048  86422010.26748  21105179.1894   21105182.3864   21105178.8654
       242.000         211.000
 106814490.52948  83232066.94848  20326124.4294   20326125.8544   20326124.2124
       254.000         240.000
 109416180.90548  85259345.94948  20821219.3774   20821221.8934   20821219.4044
       250.000         222.000
 119700678.55048  93273256.56348  22778280.6454   22778282.2584   22778281.4594
       233.000         186.000
 124179086.86248  96762916.67848  23630500.4384   23630502.1974   23630500.4794
       222.000         176.000
 129021032.56548 100535853.76148  24551898.0594   24551902.6384   24551900.1464
       209.000         150.000
 131248719.25648 102271701.36348  24975824.7504   24975828.6464   24975827.9314
       214.000         157.000
 127744950.25548  99541509.41648  24309061.8364   24309065.8044   24309062.8164
       206.000         153.000
 122875188.15148  95746892.68548  23382376.0044   23382377.2894   23382375.7754
       228.000         184.000
 124727116.13148  97189940.34948  23734795.6754   23734798.9064   23734795.8964
       224.000         177.000
 09  1 19  0 18 30.0000000  0 10G 9G15G26G18G17G10G 5G27G28G12
 110846465.83848  86373831.34048  21093413.5494   21093416.3664   21093413.2484
       243.000         212.000
 106818247.65748  83234994.57748  20326839.3504   20326840.8144   20326839.1564
       254.000         240.000
 109471465.45648  85302424.81048  20831739.5184   20831742.3234   20831739.4014
       249.000         221.000
 119647554.81748  93231861.42648  22768171.4124   22768173.0264   22768171.6934
       233.000         187.000
 124133972.53848  96727762.65848  23621915.6564   23621917.6164   23621914.9994
       222.000         177.000
 129132185.48948 100622466.43148  24573049.1974   24573053.8414   24573049.1574
       208.000         151.000
 131133316.04648 102181776.80048  24953863.8174   24953867.7984   24953864.7704
       214.000         155.000
 127814779.59648  99595921.85948  24322349.8434   24322353.0684   24322349.1854
       211.000         153.000
 122957007.04848  95810647.66848  23397945.2474   23397947.0384   23397945.4334
       227.000         181.000
 124618308.97248  97105155.55248  23714091.3504   23714093.5794   23714090.8334
       225.000         178.000
 09  1 19  0 19  0.0000000  0 10G 9G15G26G18G17G10G 5G27G28G12
 110784922.86348  86325875.78348  21081702.5564   21081705.4244   21081702.8834
       244.000         213.000
 106822436.96348  83238258.96548  20327636.5404   20327637.9874   20327636.2804
       253.000         240.000
 109527132.58148  85345801.77748  20842332.6234   20842335.4194   20842332.5904
       248.000         221.000
 119594931.62848  93190856.34448  22758157.3444   22758159.5444   22758157.9604
       233.000         188.000
 124089276.87548  96692934.86848  23613410.2274   23613411.9694   23613410.1404
       221.000         175.000
 129243334.41548 100709076.00348  24594200.4824   24594204.2724   24594200.7004
       212.000         155.000
 131017983.54048 102091907.32948  24931917.5314   24931920.7264   24931918.1224
       212.000         155.000
 127884624.55648  99650346.49548  24335640.7984   24335644.4874   24335640.1554
       211.000         154.000
 123039077.80248  95874598.90948  23413562.5854   23413564.3094   23413562.7914
       227.000         179.000
 124509677.14848  97020507.35348  23693419.7694   23693421.5614   23693419.1694
       226.000         180.000
 09  1 19  0 19 30.0000000  0 10G 9G15G26G18G17G10G 5G27G28G12
 110723666.70848  86278143.72748  21070045.8154   21070048.4534   21070046.3574
       244.000         212.000
 106827058.92648  83241860.49248  20328516.1614   20328517.5344   20328515.8864
       254.000         240.000
 109583181.29448  85389476.08948  20852998.3584   20853001.0184   20852998.1344
       248.000         221.000
 119542810.14348  93150242.20348  22748239.0934   22748240.9254   22748239.6024
       232.000         187.000
 124045001.14548  96658434.31348  23604984.6294   23604986.3534   23604984.3984
       224.000         177.000
 129354476.21048 100795679.99348  24615350.4734   24615354.2114   24615351.6514
       211.000         154.000
 130902722.86648 102002093.84248  24909984.1484   24909987.2794   24909983.9484
       208.000         155.000
 127954483.92048  99704782.36648  24348935.4764   24348938.9024   24348935.2304
       207.000         153.000
 123121397.52448  95938744.15448  23429227.6894   23429229.4584   23429227.9234
       228.000         180.000
 124401222.27048  96935997.06348  23672781.7834   23672783.4094   23672782.1684
       229.000         180.000
 09  1 19  0 20  0.0000000  0 10G 9G15G26G18G17G10G 5G27G28G12
 110662696.11048  86230634.16848  21058443.6694   21058446.4944   21058444.0644
       245.000         214.000
 106832112.92048  83245798.66448  20329477.8724   20329479.2634   20329477.5884
       253.000         240.000
 109639609.57348  85433446.16848  20863736.3894   20863739.0084   20863736.1914
       249.000         221.000
 119491190.32548  93110018.97648  22738415.9534   22738417.7104   22738416.5324
       233.000         188.000
 124001146.12348  96624261.57048  23596639.3884   23596642.1214   23596639.9114
       224.000         178.000
 129465606.72948 100882275.12448  24636497.7054   24636502.4564   24636498.5604
       211.000         152.000
 130787534.66248 101912336.83048  24888063.5384   24888067.8814   24888065.1174
       211.000         154.000
 128024356.20148  99759228.29548  24362231.3824   24362234.7204   24362231.4944
       210.000         153.000
 123203962.44148  96003080.44948  23444939.4024   23444941.4664   23444940.1214
       227.000         181.000
 124292945.01848  96851625.15048  23652177.2334   23652179.0884   23652178.1564
       225.000         178.000
 09  1 19  0 20 30.0000000  0 10G 9G15G26G18G17G10G 5G27G28G12
 110602012.76648  86183348.45748  21046895.7854   21046898.8524   21046895.9224
       245.000         213.000
 106837601.05448  83250075.12848  20330522.0724   20330523.6204   20330521.7494
       254.000         240.000
 109696417.95348  85477712.43648  20874546.4894   20874549.3804   20874546.2574
       250.000         220.000
 119440075.40148  93070189.15348  22728689.3674   22728690.7574   22728689.8604
       234.000         187.000
 123957715.72048  96590419.70948  23588375.0024   23588377.1184   23588375.1754
       223.000         178.000
 129576725.11448 100968860.86748  24657643.1144   24657647.0854   24657644.8904
       216.000         151.000
 130672422.16248 101822638.78148  24866158.0524   24866161.5264   24866158.7514
       212.000         153.000
 128094242.88548  99813685.42048  24375530.5944   24375533.5424   24375531.3864
       205.000         151.000
 123286771.77948  96067607.21448  23460697.2754   23460699.5414   23460697.3854
       228.000         180.000
 124184848.89648  96767394.40448  23631606.0564   23631608.8864   23631605.1404
       222.000         177.000
 09  1 19  0 21  0.0000000  0 10G 9G15G26G18G17G10G 5G27G28G12
 110541619.71448  86136288.94948  21035403.4594   21035406.4194   21035403.5264
       245.000         214.000
 106843526.24648  83254692.15748  20331649.7324   20331651.1974   20331649.5474
       254.000         240.000
 109753608.46748  85522276.47348  20885429.6094   20885432.1594   20885429.5284
       249.000         220.000
 119389469.44548  93030755.96148  22719058.5714   22719060.9164   22719059.8624
       230.000         186.000
 123914714.10448  96556911.96548  23580191.8864   23580193.9564   23580191.9844
       225.000         178.000
 129687831.17348 101055437.09648  24678786.8314   24678788.1544   24678788.7044
       218.000         152.000
 130557389.64148 101733003.06548  24844267.9234   24844271.4704   24844269.4214
       215.000         153.000
 128164146.19048  99868155.53148  24388832.1594   24388835.7334   24388832.5904
       207.000         152.000
 123369825.37448  96132324.29948  23476501.8674   23476503.9914   23476502.9124
       228.000         178.000
 124076938.48048  96683308.37048  23611071.0484   23611074.0064   23611069.7604
       221.000         175.000
 09  1 19  0 21 30.0000000  0 10G 9G15G26G18G17G10G 5G27G28G12
 110481516.75248  86089455.48548  21023966.2324   21023969.0124   21023966.4774
       245.000         214.000
 106849888.60448  83259649.83148  20332860.4244   20332861.9044   20332860.2174
       254.000         240.000
 109811179.78148  85567137.22448  20896385.0214   20896387.7944   20896385.1174
       247.000         220.000
 119339373.64748  92991720.25248  22709526.1394   22709527.7324   22709526.1034
       233.000         187.000
 123872143.36048  96523739.93848  23572090.6684   23572093.5814   23572090.9164
       225.000         177.000
 129798921.65848 101142001.15748  24699925.8644   24699928.2464   24699926.5884
       212.000         150.000
 130442438.41948 101643430.69448  24822394.2584   24822396.2644   24822395.4674
       214.000         152.000
 128234065.36348  99922637.98448  24402138.5424   24402140.6064   24402138.2074
       209.000         154.000
 123453120.59548  96197229.66248  23492352.3844   23492354.3084   23492352.8814
       227.000         178.000
 123969215.13148  96599368.10348  23590571.7464   23590574.4294   23590571.3174
       226.000         178.000
 09  1 19  0 22  0.0000000  0 10G 9G15G26G18G17G10G 5G27G28G12
 110421703.54748  86042847.80748  21012584.1664   21012586.8194   21012584.4614
       244.000         213.000
 106856688.17148  83264948.18848  20334154.3294   20334155.7974   20334154.0424
       253.000         240.000
 109869130.74548  85612293.80348  20907412.7474   20907415.4734   20907412.3424
       248.000         220.000
 119289788.61748  92953082.57048  22700090.7064   22700092.1734   22700091.1584
       230.000         187.000
 123830004.36748  96490904.37148  23564072.4334   23564073.9594   23564072.2274
       223.000         178.000
 129909993.05848 101228550.24948  24721061.7004   24721065.8224   24721062.9574
       211.000         154.000
 130327569.74248 101553922.66048  24800536.2574   24800538.2964   24800537.1074
       213.000         154.000
 128303999.60148  99977132.18348  24415446.4214   24415449.1584   24415448.0134
       211.000         156.000
 123536654.44648  96262320.98448  23508248.2684   23508250.1964   23508249.1534
       228.000         177.000
 123861680.40448  96515574.81648  23570109.5184   23570111.1814   23570109.9314
       226.000         179.000
 09  1 19  0 22 30.0000000  0 10G 9G15G26G18G17G10G 5G27G28G12
 110362180.53748  85996466.25148  21001257.1744   21001259.8444   21001257.0844
       245.000         214.000
 106863925.49748  83270587.66048  20335531.4794   20335533.0254   20335531.1074
       253.000         240.000
 109927460.28948  85657745.38448  20918512.6704   20918515.1224   20918512.5364
       249.000         220.000
 119240715.77648  92914843.98548  22690752.2544   22690753.8124   22690752.2374
       233.000         187.000
 123788299.59148  96458407.14448  23556135.8854   23556137.7954   23556134.8194
       222.000         178.000
 130021042.78548 101315082.48048  24742194.6774   24742198.1754   24742195.9904
       215.000         156.000
 130212785.15948 101464480.14848  24778693.3534   24778696.2474   24778694.4264
       207.000         153.000
 128373948.34048 100031637.70048  24428756.1204   24428759.7854   24428755.5054
       208.000         155.000
 123620423.90648  96327595.88648  23524189.4644   23524190.9614   23524190.1894
       226.000         177.000
 123754336.14748  96431929.95848  23549682.6014   23549683.8114   23549682.6864
       227.000         179.000
 09  1 19  0 23  0.0000000  0 10G 9G15G26G18G17G10G 5G27G28G12
 110302949.36848  85950312.10148  20989985.9244   20989988.7934   20989986.4104
       245.000         214.000
 106871602.48148  83276569.71548  20336992.5574   20336993.9434   20336992.3594
       253.000         240.000
 109986169.32648  85703492.68748  20929684.5684   20929687.0864   20929684.5534
       249.000         220.000
 119192158.00648  92877006.77148  22681511.9804   22681513.5294   22681512.5714
       232.000         187.000
 123747032.11648  96426250.66748  23548283.2344   23548285.2474   23548282.6274
       221.000         177.000
 130132069.56548 101401596.86848  24763321.6854   24763325.3444   24763323.2154
       213.000         156.000
 130098088.03048 101375105.79348  24756866.3124   24756869.8654   24756867.2444
       208.000         153.000
 128443912.90348 100086155.52148  24442069.4304   24442074.2794   24442069.2134
       207.000         152.000
 123704427.93348  96393053.58148  23540174.5124   23540176.7434   23540174.1484
       227.000         179.000
 123647185.76948  96348436.18648  23529292.8834   23529293.9634   23529293.2524
       226.000         180.000
 09  1 19  0 23 30.0000000  0 10G 9G15G26G18G17G10G 5G27G28G12
 110244009.45548  85904384.91448  20978770.0274   20978772.5854   20978770.5924
       245.000         214.000
 106879719.01748  83282894.28948  20338537.0294   20338538.4794   20338536.8244
       253.000         240.000
 110045256.43748  85749534.58648  20940928.2524   20940931.0324   20940928.1064
       248.000         219.000
 119144116.25648  92839571.64848  22672369.8974   22672371.4254   22672370.3214
       233.000         187.000
 123706203.35848  96394436.05948  23540513.3584   23540515.4694   23540512.7174
       223.000         176.000
 130243070.14948 101488090.82048  24784444.0754   24784448.5184   24784444.7384
       210.000         151.000
 129983479.45648 101285800.45448  24735056.5744   24735060.3394   24735056.0714
       209.000         153.000
 128513892.57048 100140685.10548  24455385.3714   24455390.6304   24455384.9464
       209.000         154.000
 123788664.10448  96458692.14748  23556204.5194   23556206.3584   23556205.7294
       228.000         179.000
 123540230.53148  96265094.47648  23508940.0564   23508941.0574   23508940.2444
       225.000         181.000
 09  1 19  0 24  0.0000000  0 10G 9G15G26G18G17G10G 5G27G28G12
 110185361.16048  85858684.95748  20967609.6284   20967612.2514   20967610.1014
       246.000         214.000
 106888275.66948  83289561.80448  20340165.3334   20340166.7674   20340165.1024
       254.000         240.000
 110104720.38248  85795870.12048  20952243.9534   20952246.6694   20952243.8714
       248.000         219.000
 119096591.94048  92802539.70648  22663326.3264   22663328.0714   22663325.8634
       232.000         187.000
 123665814.88048  96362964.53148  23532828.0294   23532829.8534   23532827.3474
       224.000         178.000
 130354041.86148 101574562.24448  24805561.4074   24805565.0964   24805561.4344
       210.000         148.000
 129868961.15148 101196565.41848  24713264.3064   24713268.2554   24713264.7604
       211.000         153.000
 128583886.80048 100195226.03348  24468706.3584   24468710.2094   24468705.4834
       205.000         154.000
 123873129.59348  96524509.41648  23572277.5974   23572279.3824   23572278.6154
       227.000         179.000
 123433472.57048  96181906.47748  23488623.9774   23488626.4714   23488623.7354
       225.000         182.000
 09  1 19  0 24 30.0000000  0 10G 9G15G26G18G17G10G 5G27G28G12
 110127005.02848  85813212.66348  20956505.0714   20956507.4674   20956505.3454
       246.000         215.000
 106897273.27048  83296572.91448  20341877.5834   20341878.9024   20341877.3114
       254.000         240.000
 110164561.02948  85842499.18948  20963631.2704   20963634.0524   20963631.0824
       248.000         219.000
 119049586.37648  92765912.00248  22654381.2664   22654382.8894   22654381.8304
       230.000         186.000
 123625869.47448  96331838.22548  23525226.9314   23525228.3834   23525226.8044
       222.000         177.000
 130464982.31748 101661009.38748  24826673.3314   24826674.7544   24826674.8384
       212.000         145.000
 129754535.21348 101107402.39348  24691490.1034   24691493.0554   24691490.9144
       213.000         153.000
 128653895.54848 100249778.30148  24482028.3854   24482031.8694   24482028.2564
       209.000         154.000
 123957822.37248  96590503.76548  23588393.8324   23588396.2494   23588394.5874
       226.000         179.000
 123326914.01548  96098873.85948  23468347.0204   23468349.2724   23468346.6794
       224.000         181.000
 09  1 19  0 25  0.0000000  0 10G 9G15G26G18G17G10G 5G27G28G12
 110068941.20048  85767968.13348  20945455.7124   20945458.2194   20945456.0674
       246.000         215.000
 106906712.30148  83303927.99948  20343673.6814   20343675.0974   20343673.5094
       253.000         239.000
 110224777.37548  85889421.00648  20975090.1624   20975092.8144   20975090.0184
       248.000         219.000
 119003101.21548  92729689.80248  22645535.7864   22645537.4634   22645536.3354
       232.000         186.000
 123586368.71748  96301058.42748  23517709.6074   23517711.2224   23517709.0484
       223.000         177.000
 130575889.10948 101747430.26748  24847778.5774   24847781.0164   24847780.2324
       212.000         152.000
