     2.11           OBSERVATION DATA    G (GPS)             RINEX VERSION / TYPE
teqc  2008Oct2      gpsops              20090129 00:05:47UTCPGM / RUN BY / DATE
    30.0000                                                 INTERVAL
     1     1                                                WAVELENGTH FACT L1/2
     7    L1    L2    P1    P2    C1    S1    S2            # / TYPES OF OBSERV
Linux 2.4.20-8|Pentium IV|gcc -static|Linux|486/DX+         COMMENT
     2.10           OBSERVATION DATA    GPS                 COMMENT
soc2rnx ver 1.20    gpsops              29-Jan-2009 00:05:44COMMENT
S1, if present, is the SNR for the C/A data stream on L1.   COMMENT
 SNR is mapped to RINEX snr flag value [1,4-9]              COMMENT
    SNR:   >316  >100  >31.6  >10  >3.2    >0 bad=0         COMMENT
L1 & L2:      9     8     7     6     5     4     1         COMMENT
                                                            COMMENT
This data is provided as a public service by NASA/JPL.      COMMENT
No warranty is expressed or implied regarding suitability   COMMENT
for use.  For further information, contact:                 COMMENT
Dave Stowers, NASA/JPL m/s 238-600                          COMMENT
4800 Oak Grove Drive, Pasadena CA 91109 USA                 COMMENT
                                                            COMMENT
Forced Modulo Decimation to 30 seconds                      COMMENT
  2009     1    28     0     0    0.0000000     GPS         TIME OF FIRST OBS
DSN                 JPL                                     OBSERVER / AGENCY
451-U               AOAD/M_T        NONE                    ANT # / TYPE
  4849202.3940  -360328.9929  4114913.1862                  APPROX POSITION XYZ
        0.0254        0.0000        0.0000                  ANTENNA: DELTA H/E/N
LP03574             ASHTECH Z-XII3      CC00                REC # / TYPE / VERS
MADR                                                        MARKER NAME
13407S012                                                   MARKER NUMBER
                                                            END OF HEADER
 09  1 28  0  0  0.0000000  0 10G 5G 9G26G18G10G15G17G12G27G28
 126950527.41748  98922473.37148  24157893.2534   24157896.2434   24157893.1514
       218.000         164.000
 108759048.39248  84747293.86548  20696172.2394   20696174.3804   20696172.6314
       247.000         218.000
 111786661.82948  87106477.86748  21272303.4994   21272305.8914   21272303.0814
       247.000         215.000
 118150570.09348  92065375.22948  22483308.4504   22483310.0004   22483309.2784
       236.000         193.000
 133001641.35348 103637628.09348  25309378.2614   25309384.6674   25309378.6424
       199.000         142.000
 107316647.25648  83623353.09248  20421685.8144   20421687.2894   20421685.5334
       251.000         236.000
 122806804.21248  95693605.42448  23369364.8854   23369366.5904   23369364.5024
       229.000         186.000
 120886891.98448  94197573.74848  23004013.4394   23004015.4344   23004013.2914
       230.000         188.000
 127601365.06548  99429620.43848  24281741.6434   24281745.7384   24281739.7404
       209.000         156.000
 126175720.35548  98318740.78048  24010443.1724   24010444.1494   24010444.3844
       223.000         166.000
 09  1 28  0  0 30.0000000  0 10G 5G 9G26G18G10G15G17G12G27G28
 126839200.21648  98835724.91048  24136708.8734   24136711.3644   24136709.2734
       221.000         168.000
 108708423.38448  84707845.80448  20686538.5944   20686540.8694   20686538.8924
       247.000         218.000
 111856091.20248  87160578.66348  21285515.4764   21285517.9804   21285515.3654
       248.000         215.000
 118116730.23848  92039006.50748  22476869.1354   22476870.7674   22476869.4684
       235.000         193.000
 133111037.50148 103722871.85548  25330198.1034   25330202.0294   25330196.9284
       202.000         143.000
 107338040.33648  83640023.01948  20425756.7034   20425758.2214   20425756.4424
       251.000         236.000
 122779180.95548  95672080.78348  23364108.1484   23364109.9374   23364108.0534
       229.000         186.000
 120785919.05648  94118893.55748  22984798.6024   22984800.6124   22984798.6474
       230.000         188.000
 127669637.05648  99482819.37648  24294733.5974   24294738.2674   24294732.9554
       207.000         157.000
 126265553.22248  98388740.40548  24027537.5874   24027539.1794   24027538.3874
       222.000         167.000
 09  1 28  0  1  0.0000000  0 10G 5G 9G26G18G10G15G17G12G27G28
 126728018.50348  98749089.82948  24115551.8764   24115554.0104   24115552.3194
       219.000         168.000
 108658102.95848  84668635.08648  20676962.8364   20676965.1714   20676962.6754
       248.000         218.000
 111925877.17948  87214957.34348  21298795.3844   21298797.8024   21298795.5134
       247.000         215.000
 118083442.77448  92013068.22648  22470534.9584   22470536.0734   22470535.6954
       237.000         193.000
 133220341.77148 103808044.01648  25350997.9094   25351002.7324   25350998.4454
       204.000         138.000
 107359888.25548  83657047.36748  20429914.2364   20429915.5734   20429914.0304
       251.000         236.000
 122752051.41448  95650940.90648  23358945.7824   23358947.2994   23358945.7824
       229.000         187.000
 120685199.06948  94040410.47148  22965632.3594   22965634.1794   22965632.2194
       231.000         189.000
 127737938.36648  99536041.17148  24307732.2674   24307735.2074   24307732.0364
       213.000         160.000
 126355553.65948  98458870.60248  24044664.1764   24044666.1384   24044664.6164
       222.000         166.000
 09  1 28  0  1 30.0000000  0 10G 5G 9G26G18G10G15G17G12G27G28
 126616984.38248  98662569.76448  24094422.2634   24094424.9754   24094422.1884
       220.000         168.000
 108608088.00248  84629662.39948  20667445.1384   20667447.7064   20667445.3924
       248.000         218.000
 111996019.20248  87269613.46048  21312142.7844   21312145.5054   21312142.6324
       247.000         215.000
 118050709.35448  91987561.65648  22464306.1144   22464307.0594   22464306.8424
       238.000         193.000
 133329552.43948 103893143.27448  25371780.0904   25371783.2504   25371779.8234
       205.000         139.000
 107382191.50348  83674426.51148  20434158.3654   20434159.7874   20434158.2264
       251.000         236.000
 122725417.68948  95630187.34948  23353877.1154   23353878.8354   23353876.8044
       229.000         187.000
 120584734.48048  93962126.38248  22946514.8944   22946516.2434   22946514.8544
       232.000         190.000
 127806269.59548  99589286.26248  24320734.8594   24320737.8984   24320736.1084
       213.000         158.000
 126445719.43948  98529129.63948  24061822.0104   24061824.3534   24061822.3244
       220.000         166.000
 09  1 28  0  2  0.0000000  0 10G 5G 9G26G18G10G15G17G12G27G28
 126506099.82348  98576166.22848  24073321.4114   24073324.7184   24073322.0094
       220.000         168.000
 108558378.94748  84590928.06848  20657986.1144   20657988.4114   20657986.4714
       249.000         218.000
 112066516.22048  87324546.19048  21325558.1534   21325560.6674   21325558.0724
       248.000         214.000
 118018530.44848  91962487.18148  22458182.6144   22458183.5564   22458183.2574
       236.000         194.000
 133438667.04848 103978167.66748  25392544.4704   25392547.9794   25392545.0894
       203.000         138.000
 107404950.16148  83692160.52948  20438489.1844   20438490.7714   20438488.9664
       251.000         236.000
 122699281.15348  95609821.21348  23348903.8564   23348905.2694   23348903.7504
       232.000         188.000
 120484527.24048  93884042.83848  22927445.9764   22927447.5174   22927446.2684
       231.000         190.000
 127874630.50948  99642554.50048  24333743.4364   24333746.5054   24333743.9054
       212.000         159.000
 126536048.02748  98599515.54748  24079011.0184   24079013.1104   24079011.1114
       221.000         165.000
 09  1 28  0  2 30.0000000  0 10G 5G 9G26G18G10G15G17G12G27G28
 126395366.85148  98489880.79348  24052250.0344   24052252.8724   24052251.0344
       220.000         169.000
 108508976.57948  84552432.72748  20648584.9724   20648587.3954   20648585.6684
       247.000         219.000
 112137367.69448  87379755.12748  21339040.6094   21339043.0164   21339040.7364
       246.000         213.000
 117986907.86348  91937846.19648  22452164.9054   22452166.1964   22452165.4584
       237.000         193.000
 133547682.93748 104063115.13148  25413289.6674   25413292.8054   25413291.2864
       204.000         139.000
 107428165.10748  83710250.08248  20442906.9244   20442908.4364   20442906.7574
       251.000         236.000
 122673643.70048  95589843.96848  23344025.4164   23344027.0504   23344025.6884
       232.000         189.000
 120384579.38848  93806161.39848  22908426.7614   22908427.9854   22908425.9364
       231.000         189.000
 127943021.19448  99695845.92148  24346757.4634   24346761.2534   24346757.3014
       209.000         157.000
 126626537.78048  98670027.01348  24096230.8894   24096233.2894   24096232.2704
       220.000         164.000
 09  1 28  0  3  0.0000000  0 10G 5G 9G26G18G10G15G17G12G27G28
 126284786.50048  98403714.29048  24031207.4444   24031210.1724   24031207.7984
       219.000         169.000
 108459880.19348  84514175.80348  20639242.4164   20639244.6784   20639242.5144
       247.000         219.000
 112208571.62948  87435238.70348  21352590.3454   21352592.7544   21352590.4564
       248.000         214.000
 117955841.59548  91913638.71748  22446252.8304   22446254.1654   22446253.7934
       236.000         193.000
 133656597.17748 104147983.35048  25434015.3584   25434018.3364   25434017.3494
       205.000         139.000
 107451835.39748  83728694.45248  20447411.2124   20447412.6544   20447411.0064
       251.000         235.000
 122648505.96848  95570256.12148  23339241.6584   23339243.4674   23339241.7384
       231.000         189.000
 120284892.06548  93728482.98948  22889456.3384   22889458.5864   22889456.2644
       231.000         189.000
 128011440.89848  99749159.95248  24359776.8274   24359781.0334   24359776.6204
       211.000         158.000
 126717185.87748  98740661.88448  24113480.1754   24113482.6894   24113480.6064
       218.000         163.000
 09  1 28  0  3 30.0000000  0 11G 5G 9G26G18G10G15G17G12G27G22G28
 126174360.74548  98317668.27148  24010193.7584   24010197.0864   24010194.3164
       222.000         172.000
 108411090.63548  84476157.96748  20629957.8604   20629960.3594   20629957.7394
       247.000         219.000
 112280127.36648  87490996.41348  21366207.1204   21366209.4684   21366207.3684
       246.000         213.000
 117925332.40648  91889865.32148  22440447.1924   22440448.4424   22440447.2924
       237.000         193.000
 133765407.49448 104232770.58048  25454721.1484   25454724.0534   25454722.1064
       207.000         140.000
 107475961.33648  83747493.87448  20452002.1774   20452003.6824   20452001.8434
       251.000         235.000
 122623869.52148  95551058.91048  23334553.2904   23334555.1234   23334553.0254
       230.000         188.000
 120185467.23048  93651009.11448  22870536.4264   22870538.4674   22870536.4394
       232.000         191.000
 128079889.65948  99802496.65148  24372803.3554   24372806.1204   24372802.8074
       213.000         158.000
 138252989.70558  89937398.74458  24405730.0325   24405729.2505   24405730.6445
       218.000         161.000
 126807989.92548  98811418.29148  24130759.1244   24130762.0504   24130759.0284
       220.000         163.000
 09  1 28  0  4  0.0000000  0 11G 5G 9G26G18G10G15G17G12G27G22G28
 126064092.16448  98231744.70048  23989210.3554   23989213.6624   23989211.4544
       222.000         171.000
 108362608.77548  84438379.89548  20620732.2174   20620734.6244   20620732.5374
       248.000         219.000
 112352034.72648  87547028.11548  21379890.3264   21379893.0484   21379890.1254
       246.000         213.000
 117895382.17848  91866527.46948  22434748.1524   22434749.4734   22434749.0044
       236.000         194.000
 133874112.12848 104317475.48548  25475405.4164   25475409.0004   25475406.6894
       203.000         140.000
 107500544.45848  83766649.54048  20456680.3154   20456681.6314   20456680.0824
       251.000         235.000
 122599736.62748  95532254.04248  23329961.1034   23329962.9444   23329960.9734
       231.000         189.000
 120086307.49548  93573741.79948  22851667.2074   22851668.8674   22851667.1624
       231.000         191.000
 128148368.19248  99855856.54448  24385834.1274   24385837.4504   24385833.9114
       210.000         160.000
 138179592.77848  89880206.27748  24391762.6144   24391761.9274   24391763.8324
       223.000         162.000
 126898948.72548  98882295.26348  24148068.7844   24148070.8254   24148069.0534
       221.000         164.000
 09  1 28  0  4 30.0000000  0 11G 5G 9G26G18G10G15G17G12G27G22G28
 125953982.89348  98145945.26748  23968257.1884   23968260.4224   23968258.5424
       220.000         170.000
 108314435.35448  84400842.17348  20611564.9624   20611567.7034   20611565.4544
       247.000         220.000
 112424292.79948  87603333.09748  21393640.7184   21393643.0984   21393640.8424
       245.000         212.000
 117865991.87648  91843625.93348  22429154.8304   22429156.5424   22429154.9284
       236.000         193.000
 133982709.12448 104402096.46248  25496071.9154   25496075.8144   25496072.4234
       202.000         137.000
 107525584.67248  83786161.38948  20461445.1274   20461446.6844   20461444.7724
       251.000         235.000
 122576108.93448  95513842.87148  23325465.0574   23325466.7754   23325464.8484
       232.000         188.000
 119987415.20448  93496682.88748  22832848.5854   22832850.1134   22832848.5024
       233.000         192.000
 128216876.77648  99909239.84248  24398870.5494   24398873.8094   24398869.2894
       213.000         160.000
 138106576.35148  89823310.33848  24377867.1534   24377867.7164   24377867.1714
       215.000         166.000
 126990060.17148  98953291.15448  24165406.8024   24165408.8794   24165408.2074
       218.000         163.000
 09  1 28  0  5  0.0000000  0 11G 5G 9G26G18G10G15G17G12G27G22G28
 125844035.57148  98060272.04148  23947334.8494   23947338.2694   23947335.1044
       222.000         170.000
 108266571.48648  84363545.64848  20602456.9904   20602459.3414   20602457.0264
       247.000         220.000
 112496901.42048  87659911.23748  21407457.4414   21407460.0394   21407457.1794
       245.000         212.000
 117837163.52648  91821162.27348  22423669.0624   22423670.5474   22423669.8054
       234.000         192.000
 134091197.11348 104486632.51448  25516717.1354   25516720.1054   25516717.8974
       201.000         136.000
 107551083.24648  83806030.39248  20466297.5334   20466298.9964   20466297.2544
       251.000         235.000
 122552988.64348  95495827.06148  23321065.0374   23321066.8394   23321065.0394
       230.000         188.000
 119888792.92448  93419834.37348  22814081.3394   22814083.1814   22814081.0834
       233.000         193.000
 128285416.35048  99962647.29448  24411913.3274   24411916.9264   24411913.7794
       213.000         158.000
 138033943.63248  89766713.46948  24364045.1924   24364046.3874   24364043.2924
       218.000         163.000
 127081322.93648  99024404.99048  24182773.4034   24182775.5344   24182773.3624
       221.000         165.000
 09  1 28  0  5 30.0000000  0 11G 5G 9G26G18G10G15G17G12G27G22G28
 125734251.58548  97974726.09048  23926443.3544   23926446.9714   23926444.6614
       219.000         170.000
 108219016.87548  84326490.11448  20593407.5914   20593410.1554   20593407.8834
       248.000         220.000
 112569859.40748  87716761.60148  21421341.1134   21421343.6114   21421341.1754
       245.000         212.000
 117808897.09548  91799136.48148  22418290.2294   22418291.9254   22418290.3834
       235.000         193.000
 134199573.58048 104571081.69948  25537339.6244   25537343.5344   25537342.1874
       200.000         135.000
 107577039.67548  83826256.17048  20471236.8304   20471238.2204   20471236.6564
       251.000         234.000
 122530376.64048  95478207.32648  23316762.2854   23316764.0714   23316761.5564
       231.000         189.000
 119790442.40748  93343197.60448  22795366.0764   22795367.9964   22795365.9084
       233.000         194.000
 128353986.20748 100016078.33048  24424962.2294   24424964.4024   24424962.0324
       211.000         158.000
 137961696.24548  89710416.71848  24350297.8504   24350298.6054   24350297.7724
       221.000         163.000
 127172734.41248  99095634.68848  24200168.5434   24200170.8394   24200169.5874
       218.000         164.000
 09  1 28  0  6  0.0000000  0 11G 5G 9G26G18G10G15G17G12G27G22G28
 125624632.49148  97889308.61548  23905584.0374   23905587.3774   23905583.7554
       224.000         172.000
 108171771.88348  84289675.82748  20584417.0904   20584419.5464   20584417.3264
       248.000         220.000
 112643165.13348  87773882.93748  21435290.8014   21435293.2464   21435290.8194
       245.000         212.000
 117781193.10748  91777548.95348  22413018.2784   22413020.0214   22413018.9874
       234.000         193.000
 134307835.65148 104655441.72448  25557940.2474   25557946.3414   25557941.9324
       195.000         134.000
 107603453.68648  83846838.50348  20476263.1714   20476264.6644   20476262.8944
       251.000         235.000
 122508274.16648  95460984.60248  23312556.2784   23312558.1544   23312556.0284
       230.000         188.000
 119692365.18448  93266773.80448  22776702.5564   22776704.3404   22776702.3014
       232.000         193.000
 128422586.01348 100069532.68848  24438016.3464   24438018.7444   24438015.9814
       211.000         159.000
 137889835.66248  89654421.47348  24336623.6844   24336622.6354   24336623.3074
       220.000         165.000
 127264291.93548  99166978.19748  24217591.6774   24217593.3764   24217590.8984
       216.000         162.000
 09  1 28  0  6 30.0000000  0 11G 5G 9G26G18G10G15G17G12G27G22G28
 125515180.02348  97804020.96148  23884756.3784   23884759.2644   23884757.6634
       224.000         173.000
 108124836.86948  84253103.09148  20575485.5324   20575488.0784   20575485.9294
       247.000         220.000
 112716817.75148  87831274.58648  21449306.2994   21449308.8464   21449306.1014
       245.000         211.000
 117754052.34848  91756400.30648  22407853.5264   22407854.8344   22407853.5824
       234.000         192.000
 134415980.46748 104739710.40748  25578520.5464   25578525.6584   25578520.4964
       202.000         137.000
 107630325.57748  83867777.61848  20481376.8554   20481378.2704   20481376.5204
       251.000         234.000
 122486682.26248  95444159.75848  23308447.7624   23308448.8704   23308447.1934
       233.000         190.000
 119594562.81948  93190564.19448  22758091.3684   22758093.2194   22758091.6724
       233.000         194.000
 128491215.54148 100123010.26048  24451075.9364   24451078.3524   24451076.1754
       210.000         156.000
 137818364.15748  89598729.38048  24323022.8904   24323023.0614   24323023.2274
       213.000         162.000
 127355993.28348  99238433.77748  24235041.3724   24235043.6614   24235041.4334
       218.000         161.000
 09  1 28  0  7  0.0000000  0 10G 5G 9G26G18G15G17G12G27G22G28
 125405895.66048  97718864.33848  23863959.8044   23863963.2864   23863960.4194
       219.000         172.000
 108078211.85948  84216771.93048  20566613.0034   20566615.7204   20566613.1454
       248.000         220.000
 112790815.76648  87888935.37648  21463387.5234   21463390.2514   21463387.4944
       244.000         211.000
 117727475.37348  91735690.97448  22402795.8094   22402797.5314   22402795.9934
       235.000         192.000
 107657655.41248  83889073.58848  20486577.4974   20486579.0164   20486577.2434
       251.000         235.000
 122465602.27448  95427733.79048  23304436.1334   23304437.9724   23304436.2994
       233.000         190.000
 119497037.03848  93114570.10548  22739532.9564   22739534.7234   22739532.9444
       233.000         195.000
 128559874.83648 100176510.99548  24464140.4764   24464143.8864   24464140.4684
       210.000         156.000
 137747283.46648  89543341.87248  24309496.6144   24309497.2564   24309495.8804
       218.000         171.000
 127447836.25348  99309999.69748  24252518.8924   24252520.7664   24252520.7024
       217.000         161.000
 09  1 28  0  7 30.0000000  0 10G 5G 9G26G18G15G17G12G27G22G28
 125296782.37748  97633841.01648  23843195.8054   23843199.5204   23843195.6084
       223.000         174.000
 108031898.33048  84180683.46748  20557800.0004   20557802.4374   20557800.1464
       248.000         221.000
 112865159.47748  87946865.53048  21477534.6624   21477537.3344   21477534.3084
       244.000         210.000
 117701463.83448  91715422.22648  22397846.4334   22397847.7474   22397846.9164
       234.000         193.000
 107685443.84648  83910726.90248  20491865.5764   20491867.0254   20491865.3374
       252.000         234.000
 122445036.38948  95411708.42948  23300522.4564   23300524.5234   23300522.2484
       234.000         191.000
 119399790.97048  93038793.95248  22721028.1074   22721029.3034   22721027.7554
       235.000         195.000
 128628564.81648 100230035.62548  24477212.3874   24477214.8314   24477212.4624
       212.000         159.000
 137676596.57048  89488261.20348  24296045.1604   24296045.8934   24296044.6194
       222.000         165.000
 127539819.42248  99381674.90148  24270022.3284   24270024.2684   24270024.0614
       218.000         160.000
 09  1 28  0  8  0.0000000  0 10G 5G 9G26G18G15G17G12G27G22G28
 125187841.31748  97548951.89148  23822465.6014   23822468.4854   23822465.9404
       222.000         174.000
 107985895.92248  84144837.44548  20549046.1924   20549048.5174   20549046.2444
       248.000         221.000
 112939847.02648  88005063.61948  21491747.1954   21491749.9264   21491747.0484
       244.000         211.000
 117676017.90948  91695594.23948  22393003.9624   22393005.5754   22393004.4024
       235.000         194.000
 107713690.48748  83932737.26848  20497240.7814   20497242.1074   20497240.6594
       251.000         235.000
 122424985.39748  95396084.29248  23296706.9644   23296708.8284   23296707.3084
       232.000         191.000
 119302825.65748  92963236.57948  22702575.8504   22702577.2944   22702576.3824
       233.000         195.000
 128697284.70648 100283583.57248  24490289.8624   24490292.2874   24490289.9784
       216.000         162.000
 137606305.12148  89433488.63248  24282669.5644   24282668.7634   24282670.8154
       219.000         164.000
 127631940.32848  99453457.38248  24287552.3104   24287554.4104   24287553.0804
       214.000         159.000
 09  1 28  0  8 30.0000000  0 10G 5G 9G26G18G15G17G12G27G22G28
 125079074.51448  97464198.54548  23801767.8134   23801770.9784   23801767.7034
       224.000         175.000
 107940205.11048  84109234.21848  20540351.5374   20540353.8684   20540351.5754
       248.000         221.000
 113014877.53148  88063528.93648  21506025.1054   21506027.8824   21506024.9444
       244.000         210.000
 117651138.50548  91676207.69648  22388270.1484   22388271.3584   22388270.3844
       237.000         194.000
 107742396.12848  83955105.29348  20502703.2004   20502704.5964   20502703.0664
       251.000         234.000
 122405450.52048  95380862.31148  23292989.8754   23292991.4544   23292989.5374
       234.000         192.000
 119206142.94448  92887899.41748  22684177.1574   22684179.0644   22684176.3504
       232.000         194.000
 128766034.78948 100337155.05548  24503372.4074   24503375.7004   24503372.7364
       216.000         163.000
 137536411.41748  89379025.91248  24269368.4774   24269368.6934   24269366.9584
       215.000         165.000
 127724196.92248  99525345.62348  24305107.8404   24305110.2184   24305107.7634
       213.000         158.000
 09  1 28  0  9  0.0000000  0 10G 5G 9G26G18G15G17G12G27G22G28
 124970484.60648  97379583.02748  23781103.9484   23781107.2994   23781105.2694
       223.000         176.000
 107894827.15248  84073874.77848  20531716.2954   20531718.6274   20531716.5204
       248.000         221.000
 113090250.91948  88122261.44548  21520368.2384   21520370.8924   21520368.2284
       243.000         210.000
 117626827.09948  91657263.73448  22383643.4984   22383645.1244   22383644.3524
       234.000         192.000
 107771561.20648  83977831.31748  20508253.1274   20508254.5574   20508252.9214
       251.000         234.000
 122386434.12748  95366044.35148  23289370.9444   23289372.8074   23289370.9574
       232.000         192.000
 119109745.73948  92812784.73348  22665833.3874   22665835.4704   22665833.2684
       233.000         195.000
 128834815.77748 100390750.64748  24516461.3954   24516463.7674   24516461.2314
       215.000         162.000
 137466918.20148  89324875.35948  24256144.5874   24256145.2634   24256145.5154
       223.000         165.000
 127816587.81348  99597338.48348  24322689.5694   24322691.8624   24322689.9074
       215.000         157.000
 09  1 28  0  9 30.0000000  0 10G 5G 9G26G18G15G17G12G27G22G28
 124862071.48048  97295105.26648  23760473.5084   23760476.8514   23760474.8264
       225.000         176.000
 107849760.39748  84038757.83148  20523140.4254   20523142.6794   20523140.6404
       248.000         221.000
 113165963.91448  88181258.57848  21534775.9274   21534778.5314   21534775.7494
       244.000         210.000
 117603082.21448  91638761.22548  22379124.8874   22379126.2344   22379125.3544
       235.000         192.000
 107801183.59548  84000913.68948  20513890.0184   20513891.5354   20513889.6804
       250.000         234.000
 122367935.43548  95351629.79048  23285850.4784   23285852.7314   23285850.4594
       233.000         193.000
 119013633.87448  92737892.38648  22647544.2714   22647545.8324   22647544.1434
       235.000         196.000
 128903625.74848 100444368.78548  24529554.4574   24529557.8634   24529555.1604
       216.000         162.000
 137397825.63948  89271037.02748  24242996.4304   24242997.3914   24242998.5104
       215.000         167.000
 127909109.08648  99669432.95948  24340296.0404   24340297.7144   24340298.5334
       211.000         152.000
 09  1 28  0 10  0.0000000  0 10G 5G 9G26G18G15G17G12G27G22G28
 124753838.72348  97210768.05548  23739877.6204   23739880.7284   23739878.1434
       222.000         175.000
 107805007.01948  84003885.07548  20514624.0844   20514626.3964   20514624.1454
       249.000         221.000
 113242017.44948  88240521.06948  21549248.2854   21549251.0284   21549248.0534
       243.000         209.000
 117579906.28848  91620702.05448  22374714.6494   22374716.2074   22374715.4914
       235.000         193.000
 107831265.47748  84024354.11148  20519614.3944   20519616.0154   20519614.1254
       250.000         234.000
 122349957.20948  95337620.78748  23282429.5604   23282431.4504   23282429.8624
       233.000         192.000
 118917811.18948  92663225.37248  22629309.9594   22629311.4354   22629309.9904
       235.000         197.000
 128972466.57348 100498010.98048  24542654.5664   24542658.5394   24542655.2194
       214.000         163.000
 137329137.74048  89217513.97048  24229926.0854   24229925.7844   24229923.9664
       214.000         165.000
 128001759.84548  99741628.34448  24357926.5434   24357928.0944   24357925.9504
       206.000         151.000
 09  1 28  0 10 30.0000000  0 10G 5G 9G26G18G15G17G12G27G22G28
 124645788.05648  97126572.74448  23719315.7704   23719318.9794   23719315.9414
       225.000         174.000
 107760567.53848  83969256.90948  20506167.6124   20506169.9704   20506168.1744
       248.000         222.000
 113318410.37248  88300048.01448  21563785.3924   21563788.2424   21563785.1384
       243.000         209.000
 117557299.81448  91603086.61248  22370413.1264   22370414.5824   22370413.6054
       236.000         194.000
 107861806.48748  84048152.29148  20525426.2914   20525427.7544   20525426.1104
       251.000         234.000
 122332500.67948  95324018.29648  23279107.7434   23279109.8824   23279107.6994
       231.000         192.000
 118822279.21548  92588784.88448  22611130.7084   22611132.4874   22611130.3954
       235.000         196.000
 129041338.17448 100551677.14948  24555760.7994   24555764.2984   24555760.9454
       217.000         163.000
 137260855.85848  89164307.31548  24216931.7804   24216933.0314   24216934.1964
       219.000         169.000
 128094538.54648  99813923.39848  24375581.1764   24375583.7774   24375581.1294
       208.000         151.000
 09  1 28  0 11  0.0000000  0 10G 5G 9G26G18G15G17G12G27G22G28
 124537921.25348  97042520.67648  23698789.7664   23698792.5734   23698790.6184
       224.000         176.000
 107716442.23748  83934873.56048  20497770.7524   20497773.2284   20497770.8794
       249.000         222.000
 113395141.25448  88359838.30548  21578386.9784   21578389.7504   21578386.7294
       244.000         209.000
 117535263.18048  91585915.21048  22366219.6534   22366220.7304   22366220.2394
       236.000         193.000
 107892807.21248  84072308.70048  20531325.3774   20531326.9324   20531325.2034
       250.000         233.000
 122315567.32648  95310823.48248  23275885.3654   23275887.2394   23275884.7384
       233.000         192.000
 118727039.85548  92514572.40848  22593006.9944   22593008.8494   22593006.7394
       234.000         196.000
 129110240.46648 100605367.23648  24568871.9904   24568875.5384   24568871.5394
       218.000         163.000
 137192982.41148  89111418.90448  24204016.3354   24204017.6954   24204017.2864
       220.000         171.000
 128187442.62448  99886316.13648  24393261.7234   24393263.5964   24393261.7854
       213.000         153.000
 09  1 28  0 11 30.0000000  0 10G 5G 9G26G18G15G17G12G27G22G28
 124430239.52248  96958612.84348  23678298.5914   23678301.4014   23678298.9124
       226.000         177.000
 107672630.96648  83900734.91548  20489433.6624   20489436.1894   20489434.2134
       248.000         222.000
 113472208.93448  88419891.03848  21593052.4584   21593055.2054   21593052.5074
       243.000         209.000
 117513796.88348  91569188.22348  22362134.7084   22362135.9644   22362135.1284
       236.000         193.000
 107924266.77348  84096822.63648  20537311.9614   20537313.5204   20537311.6124
       250.000         233.000
 122299157.36148  95298036.49848  23272762.7004   23272764.4574   23272763.0254
       233.000         191.000
 118632094.12048  92440588.72148  22574939.2514   22574941.2884   22574938.7984
       235.000         196.000
 129179172.92248 100659080.82648  24581990.0834   24581993.2904   24581989.6564
       218.000         163.000
 137125518.74848  89058849.82048  24191178.7164   24191179.0954   24191178.7694
       220.000         169.000
 128280469.56848  99958804.66548  24410964.3334   24410966.0354   24410966.2634
       216.000         155.000
 09  1 28  0 12  0.0000000  0 10G 5G 9G26G18G15G17G12G27G22G28
 124322745.40448  96874851.19948  23657843.2984   23657846.0504   23657844.0814
       226.000         177.000
 107629134.72048  83866841.74348  20481156.6894   20481159.1504   20481156.8004
       249.000         222.000
 113549612.65248  88480205.61948  21607781.8434   21607784.4604   21607781.7454
       243.000         209.000
 117492901.86948  91552906.37948  22358158.5974   22358160.1084   22358158.6924
       236.000         194.000
 107956185.57248  84121694.41948  20543385.9654   20543387.3464   20543385.7294
       250.000         233.000
 122283272.62648  95285658.77848  23269739.8964   23269741.8414   23269740.2624
       233.000         192.000
 118537444.56648  92366835.82748  22556927.9054   22556929.7674   22556927.9024
       234.000         196.000
 129248136.21148 100712818.45548  24595112.9634   24595115.6414   24595113.4524
       217.000         163.000
 137058467.51948  89006602.15448  24178419.1564   24178419.3744   24178420.2844
       222.000         169.000
 128373617.80848 100031387.70848  24428689.9674   24428691.3224   24428691.1404
       214.000         155.000
 09  1 28  0 12 30.0000000  0 10G 5G 9G26G18G15G17G12G27G22G28
 124215439.84648  96791236.49748  23637423.5124   23637426.2454   23637423.9724
       224.000         175.000
 107585952.94348  83833193.60648  20472939.3314   20472941.8994   20472939.3874
       249.000         222.000
 113627350.56848  88540780.61148  21622574.8974   21622577.5064   21622574.6634
       244.000         208.000
 117472577.75948  91537069.40848  22354291.1784   22354292.4524   22354291.8074
       236.000         194.000
 107988563.12048  84146923.67248  20549547.1034   20549548.7164   20549546.7674
       250.000         233.000
 122267913.28948  95273690.46848  23266817.0284   23266819.0764   23266816.7224
       232.000         192.000
 118443092.59648  92293314.81148  22538973.5424   22538975.3934   22538973.0144
       236.000         197.000
 129317129.59148 100766579.52348  24608242.0044   24608245.2424   24608242.7014
       215.000         162.000
 136991829.64248  88954676.48948  24165738.8064   24165739.2844   24165738.9194
       225.000         172.000
 128466884.53748 100104063.04648  24446437.4944   24446440.0574   24446437.4334
       216.000         155.000
 09  1 28  0 13  0.0000000  0 10G 5G 9G26G18G15G17G12G27G22G28
 124108326.20248  96707771.30848  23617040.3994   23617043.3864   23617040.9854
       225.000         178.000
 107543087.52848  83799791.98948  20464782.2824   20464784.8824   20464782.4494
       248.000         222.000
 113705423.23348  88601616.44748  21637431.7894   21637434.1444   21637431.8244
       243.000         208.000
 117452826.76548  91521679.01748  22350532.5264   22350534.1024   22350533.2294
       236.000         194.000
 108021400.72348  84172511.40848  20555796.0454   20555797.5324   20555795.7394
       251.000         233.000
 122253082.38948  95262133.91948  23263994.7644   23263996.4834   23263994.2484
       232.000         192.000
 118349041.17948  92220028.00548  22521076.1344   22521077.8324   22521076.3784
       236.000         198.000
 129386154.52148 100820365.17648  24621376.7294   24621379.6274   24621377.0984
       216.000         161.000
 136925608.91648  88903075.93048  24153137.6374   24153137.3454   24153139.3014
       222.000         169.000
 128560269.21248 100176830.28348  24464208.5594   24464210.4724   24464209.0174
       215.000         156.000
 09  1 28  0 13 30.0000000  0 10G 5G 9G26G18G15G17G12G27G22G28
 124001404.57348  96624455.74448  23596693.9634   23596696.7364   23596694.3664
       224.000         177.000
 107500537.35748  83766636.01048  20456685.5014   20456688.0284   20456685.6394
       250.000         223.000
 113783827.61048  88662710.76448  21652351.5834   21652354.0624   21652351.4014
       243.000         208.000
 117433647.56448  91506734.17348  22346882.7624   22346884.7084   22346883.2014
       235.000         195.000
 108054696.56148  84198456.20448  20562132.0894   20562133.4644   20562131.9074
       250.000         233.000
 122238778.92348  95250988.35448  23261273.0724   23261274.8194   23261272.7424
       232.000         193.000
 118255290.60648  92146975.61048  22503236.4384   22503237.9794   22503236.1944
       236.000         199.000
 129455209.48848 100874174.20648  24634518.2534   24634520.8154   24634518.7124
       216.000         161.000
 136859805.29748  88851800.38048  24140614.7454   24140614.7234   24140616.2354
       216.000         161.000
 128653768.01348 100249686.47748  24482000.7504   24482002.2184   24482002.0574
       214.000         153.000
 09  1 28  0 14  0.0000000  0 10G 5G 9G26G18G15G17G12G27G22G28
 123894678.51948  96541292.59648  23576384.5104   23576387.6124   23576385.1244
       224.000         177.000
 107458304.59148  83733727.35948  20448648.7844   20448651.1474   20448649.1334
       249.000         223.000
 113862564.52048  88724064.19048  21667335.0134   21667337.4044   21667335.2554
       244.000         208.000
 117415042.19948  91492236.47748  22343342.4614   22343344.2104   22343342.9514
       236.000         195.000
 108088452.34748  84224759.40348  20568555.6614   20568556.9984   20568555.3684
       250.000         233.000
 122225005.88548  95240256.12148  23258651.9104   23258654.0564   23258651.8834
       231.000         193.000
 118161844.31048  92074160.32648  22485454.1194   22485455.6424   22485454.0654
       235.000         199.000
 129524296.34348 100928008.11048  24647664.4104   24647667.3094   24647664.3874
       218.000         162.000
 136794423.24148  88800853.34248  24128172.7044   24128173.0564   24128172.8444
       219.000         163.000
 128747380.70748 100322631.40048  24499814.9254   24499815.8824   24499816.0524
       213.000         154.000
 09  1 28  0 14 30.0000000  0 10G 5G 9G26G18G15G17G12G27G22G28
 123788148.70048  96458282.36148  23556112.7094   23556115.6704   23556112.8654
       225.000         179.000
 107416388.19548  83701065.23148  20440672.5524   20440674.7584   20440672.5014
       249.000         223.000
 113941631.74348  88785675.00748  21682380.5534   21682383.4794   21682380.3914
       243.000         207.000
 117397010.17148  91478185.55348  22339910.9204   22339912.6824   22339911.7274
       235.000         195.000
 108122666.99648  84251420.16448  20575066.3764   20575067.8684   20575066.1754
       250.000         232.000
 122211763.28748  95229937.22648  23256132.0444   23256134.2044   23256131.9994
       231.000         193.000
 118068703.08248  92001582.76148  22467729.4904   22467731.5224   22467729.0664
       236.000         198.000
 129593413.92448 100981865.96248  24660817.4424   24660820.8504   24660817.8824
       217.000         165.000
 136729462.70648  88750234.72448  24115811.7974   24115811.2784   24115813.0134
       221.000         165.000
 128841104.31348 100395662.77648  24517649.9504   24517651.3144   24517651.1044
       214.000         153.000
 09  1 28  0 15  0.0000000  0 10G 5G 9G26G18G15G17G12G27G22G28
 123681817.95548  96375427.25548  23535878.5194   23535881.8154   23535879.4104
       225.000         179.000
 107374789.79748  83668650.89648  20432756.4454   20432758.7254   20432756.6294
       249.000         223.000
 114021028.92448  88847542.93548  21697489.2974   21697491.9904   21697489.3654
       242.000         207.000
 117379552.92848  91464582.49848  22336588.9204   22336590.7494   22336588.7494
       236.000         195.000
 108157341.41148  84278439.17748  20581664.6514   20581666.1214   20581664.4724
       249.000         232.000
 122199052.91548  95220033.02948  23253713.7294   23253715.4054   23253713.2454
       233.000         194.000
 117975869.37348  91929244.81148  22450063.7894   22450065.3794   22450063.8254
       237.000         198.000
 129662563.22548 101035748.51548  24673975.4924   24673980.4164   24673976.1834
       216.000         166.000
 136664926.39048  88699946.67948  24103530.4994   24103531.0634   24103529.5874
       215.000         164.000
 128934937.18348 100468779.29048  24535505.2254   24535506.7214   24535504.8964
       210.000         149.000
 09  1 28  0 15 30.0000000  0 10G 5G 9G26G18G15G17G12G27G22G28
 123575687.49448  96292728.20748  23515682.6284   23515685.6944   23515682.7604
       225.000         179.000
 107333509.29548  83636484.27848  20424900.9024   20424903.3714   20424901.1464
       249.000         223.000
 114100754.55448  88909666.79848  21712660.7524   21712663.0854   21712660.7254
       243.000         207.000
 117362670.14448  91451427.07248  22333376.3064   22333377.9144   22333376.8334
       237.000         195.000
 108192475.01348  84305816.00048  20588350.0984   20588351.8374   20588349.6814
       249.000         232.000
 122186875.34448  95210544.03348  23251396.1144   23251397.9214   23251395.9304
       233.000         193.000
 117883344.72648  91857147.69748  22432456.8654   22432458.4174   22432457.1404
       237.000         200.000
 129731743.72248 101089655.41748  24687140.0774   24687144.5344   24687140.9414
       215.000         163.000
 136600816.87048  88649991.16248  24091330.8354   24091331.4894   24091330.5104
       220.000         169.000
 129028877.08348 100541979.23248  24553381.3084   24553382.2394   24553381.4104
       212.000         149.000
 09  1 28  0 16  0.0000000  0 10G 5G 9G26G18G15G17G12G27G22G28
 123469759.29748  96210186.75348  23495525.0314   23495528.0684   23495525.0914
       226.000         178.000
 107292547.01648  83604565.61248  20417106.0534   20417108.5724   20417106.1794
       248.000         223.000
 114180807.52848  88972045.73348  21727894.5724   21727896.9324   21727894.5844
       243.000         207.000
 117346362.11248  91438719.51448  22330272.8314   22330274.7014   22330273.1184
       236.000         195.000
 108228067.70948  84333550.56048  20595123.3464   20595124.8804   20595123.0474
       250.000         232.000
 122175231.61448  95201470.99048  23249180.3984   23249182.1124   23249179.5464
       233.000         192.000
 117791130.81148  91785292.70148  22414909.4174   22414910.8874   22414908.8944
       238.000         201.000
 129800955.54348 101143586.63948  24700311.1384   24700315.2034   24700311.2914
       215.000         163.000
 136537135.41048  88600369.31848  24079213.4854   24079213.5514   24079214.4814
       221.000         172.000
 129122922.08148 100615261.04748  24571277.1814   24571278.3814   24571276.8474
       208.000         146.000
 09  1 28  0 16 30.0000000  0 10G 5G 9G26G18G15G17G12G27G22G28
 123364035.38748  96127804.49248  23475406.5314   23475409.4634   23475407.3594
       224.000         177.000
 107251903.82548  83572895.59048  20409371.9834   20409374.4474   20409372.1254
       249.000         223.000
 114261187.17248  89034679.20748  21743190.1194   21743192.6674   21743190.2074
       243.000         206.000
 117330629.71148  91426460.49548  22327279.2894   22327280.8274   22327280.0834
       236.000         194.000
 108264119.81048  84361643.09948  20601983.9034   20601985.3894   20601983.7724
       250.000         232.000
 122164123.26148  95192815.14048  23247066.7914   23247068.1924   23247066.7624
       233.000         192.000
 117699229.79348  91713681.53448  22397421.0134   22397422.6654   22397420.8934
       237.000         200.000
 129870199.26948 101197542.77248  24713487.1944   24713491.0374   24713486.2144
       216.000         165.000
 136473884.19348  88551082.63948  24067177.0604   24067176.5964   24067176.2884
       216.000         167.000
 129217070.60848 100688623.52648  24589192.7784   24589193.9004   24589193.1844
       208.000         145.000
 09  1 28  0 17  0.0000000  0 10G 5G 9G26G18G15G17G12G27G22G28
 123258516.96348  96045582.36248  23455327.0774   23455330.1364   23455327.8324
       226.000         179.000
 107211579.66448  83541474.16548  20401698.6664   20401701.0634   20401699.0144
       249.000         223.000
 114341891.58648  89097565.75748  21758547.6084   21758550.2134   21758547.3444
       242.000         206.000
 117315472.51448  91414649.69148  22324394.6404   22324396.3974   22324395.1034
       237.000         194.000
 108300630.35348  84390092.86748  20608931.6844   20608933.2354   20608931.3594
       250.000         232.000
 122153550.29248  95184576.45948  23245054.6374   23245056.5374   23245054.2424
       234.000         192.000
 117607643.08548  91642315.28548  22379992.7874   22379994.3874   22379992.7734
       237.000         200.000
 129939474.13548 101251523.18748  24726669.7484   24726673.2024   24726669.3554
       214.000         164.000
 136411064.75748  88502132.43348  24055222.1554   24055222.8064   24055221.7674
       219.000         170.000
 129311319.69248 100762064.37348  24607127.9214   24607128.8304   24607127.3474
       206.000         148.000
 09  1 28  0 17 30.0000000  0 10G 5G 9G26G18G15G17G12G27G22G28
 123153206.16048  95963521.99748  23435287.4104   23435289.7794   23435288.3474
       227.000         180.000
 107171574.86548  83510301.59748  20394085.9094   20394088.2734   20394086.1314
       249.000         223.000
 114422920.00548  89160704.77248  21773966.8304   21773969.4294   21773966.6564
       242.000         206.000
 117300891.20648  91403287.61848  22321620.1444   22321621.4844   22321620.4184
       236.000         194.000
 108337599.51948  84418900.00348  20615966.8554   20615968.2424   20615966.7314
       250.000         232.000
 122143514.00048  95176755.97348  23243144.9024   23243146.6544   23243144.7684
       234.000         193.000
 117516372.71348  91571195.51648  22362624.4944   22362626.2994   22362624.4034
       237.000         201.000
 130008780.85648 101305528.41748  24739859.1264   24739861.6924   24739858.6944
       220.000         164.000
 136348679.56348  88453520.59448  24043351.1954   24043351.7914   24043351.9064
       224.000         174.000
 129405667.99448 100835582.52648  24625081.2074   24625083.4754   24625080.8254
       205.000         146.000
 09  1 28  0 18  0.0000000  0 10G 5G 9G26G18G15G17G12G27G22G28
 123048104.02548  95881624.23248  23415287.1554   23415289.6224   23415287.6434
       227.000         181.000
 107131889.15348  83479377.66648  20386533.9634   20386536.4334   20386534.0924
       248.000         223.000
 114504270.41048  89224094.70148  21789447.3944   21789449.6974   21789447.3584
       242.000         205.000
 117286885.42948  91392374.02148  22318954.8784   22318956.2624   22318955.6464
       236.000         194.000
 108375026.62348  84448063.97348  20623088.8594   20623090.3464   20623088.5464
       250.000         231.000
 122134014.69848  95169353.92848  23241337.1604   23241338.8764   23241336.8604
       232.000         193.000
 117425419.23048  91500322.69548  22345316.7164   22345318.2844   22345316.6334
       239.000         202.000
 130078118.76748 101359557.94048  24753053.7344   24753056.5344   24753054.7554
       220.000         164.000
 136286729.41248  88405247.76448  24031562.5594   24031562.6454   24031563.1024
       221.000         170.000
 129500112.60348 100909175.69048  24643053.7204   24643056.1674   24643055.1954
       209.000         147.000
 09  1 28  0 18 30.0000000  0 10G 5G 9G26G18G15G17G12G27G22G28
 122943212.36748  95799890.49848  23395326.8474   23395329.8724   23395328.1754
       226.000         180.000
 107092523.35848  83448703.01748  20379042.8514   20379045.2954   20379042.8134
       249.000         223.000
 114585941.75548  89287734.70248  21804988.6844   21804991.3464   21804988.6144
       242.000         205.000
 117273455.20348  91381908.91048  22316399.0884   22316400.7014   22316400.3274
       235.000         194.000
 108412911.40848  84477584.57748  20630297.9444   20630299.5274   20630297.6544
       250.000         231.000
 122125053.05048  95162370.83348  23239632.0814   23239633.5304   23239632.0754
       233.000         193.000
 117334784.74748  91429698.43148  22328069.9134   22328070.9934   22328069.7994
       240.000         203.000
 130147487.82248 101413611.75848  24766253.9114   24766257.3984   24766254.9424
       217.000         163.000
 136225216.13248  88357315.34648  24019856.5514   24019856.4534   24019856.2684
       222.000         170.000
 129594651.41448 100982842.30748  24661044.6754   24661045.8904   24661044.2924
       205.000         147.000
 09  1 28  0 19  0.0000000  0 10G 5G 9G26G18G15G17G12G27G22G28
 122838534.04548  95718322.98648  23375406.7714   23375409.8834   23375407.1814
       224.000         179.000
 107053478.68548  83418278.60348  20371612.9474   20371615.4704   20371613.2654
       250.000         224.000
 114667933.98548  89351624.74748  21820591.5604   21820593.9964   21820591.6314
       242.000         204.000
 117260602.23748  91371893.59248  22313953.0864   22313954.8784   22313953.3224
       236.000         194.000
 108451255.05048  84507462.73148  20637594.4494   20637596.0974   20637594.2944
       249.000         231.000
 122116630.88448  95155808.10148  23238029.3694   23238030.7724   23238028.9674
       234.000         193.000
 117244471.99148  91359324.85748  22310883.9664   22310884.9404   22310883.8304
       240.000         203.000
 130216889.19148 101467690.71848  24779460.0394   24779463.9674   24779460.5414
       218.000         164.000
 136164142.87348  88309725.79248  24008235.9254   24008234.9894   24008236.6454
       220.000         170.000
 129689283.68848 101056581.74448  24679051.5344   24679054.9274   24679050.8954
       206.000         148.000
 09  1 28  0 19 30.0000000  0 10G 5G 9G26G18G15G17G12G27G22G28
 122734071.06048  95636923.27548  23355527.7184   23355531.2624   23355528.1804
       224.000         179.000
 107014755.55748  83388104.73348  20364244.2404   20364246.5544   20364244.5614
       249.000         224.000
 114750246.09348  89415764.04848  21836254.7734   21836257.4724   21836254.8904
       240.000         204.000
 117248327.10748  91362328.55448  22311617.4154   22311618.9874   22311618.0214
       236.000         194.000
 108490057.23548  84537698.19448  20644978.2024   20644980.0854   20644977.8644
       249.000         231.000
 122108749.69448  95149666.92448  23236529.3644   23236531.1324   23236528.7904
       234.000         193.000
 117154482.74348  91289203.37748  22293759.1284   22293760.6894   22293759.1614
       239.000         202.000
 130286323.12248 101521795.04648  24792673.8134   24792676.9064   24792673.4684
       215.000         163.000
 136103511.17648  88262480.33248  23996696.6214   23996697.7504   23996697.9514
       221.000         164.000
 129784007.63248 101130392.55148  24697077.5894   24697080.3124   24697078.4904
       209.000         148.000
 09  1 28  0 20  0.0000000  0 10G 5G 9G26G18G15G17G12G27G22G28
 122629824.51248  95555692.20648  23335690.6454   23335693.8154   23335691.0424
       227.000         180.000
 106976354.15748  83358181.56448  20356936.8034   20356939.0994   20356936.8504
       249.000         224.000
 114832876.04248  89480151.00648  21851978.9234   21851981.5994   21851978.6324
       241.000         205.000
 117236628.75248  91353212.95248  22309391.4864   22309392.6534   22309392.1684
       236.000         194.000
 108529317.15348  84568290.33248  20652449.2954   20652450.8934   20652448.9334
       249.000         231.000
 122101409.37048  95143947.18948  23235132.6914   23235134.3644   23235132.2874
       232.000         194.000
 117064818.14448  91219334.88048  22276696.2024   22276698.3704   22276695.9164
       239.000         202.000
 130355789.20248 101575924.43448  24805892.1064   24805895.8394   24805892.5954
       213.000         163.000
 136043322.88048  88215580.29448  23985242.6504   23985243.5294   23985242.9914
       219.000         167.000
 129878820.55848 101204272.73348  24715119.8744   24715122.2114   24715122.4784
       207.000         150.000
 09  1 28  0 21  0.0000000  0 10G 5G 9G26G18G15G17G12G27G22G28
 122421988.67448  95393742.22548  23296140.6784   23296143.8824   23296141.5244
       226.000         179.000
 106900518.01548  83299088.47248  20342505.5354   20342507.8614   20342505.7804
       249.000         224.000
 114999086.13248  89609665.35748  21883607.6504   21883610.3114   21883607.3854
       241.000         204.000
 117214964.95648  91336332.05748  22305268.7834   22305270.2054   22305269.6324
       236.000         194.000
 108609210.59648  84630544.95148  20667652.6154   20667654.1794   20667652.3294
       250.000         231.000
 122088355.54548  95133775.37648  23232648.8454   23232650.3314   23232648.9214
       234.000         194.000
 116886470.80048  91080362.95448  22242758.3834   22242760.0284   22242758.2054
       240.000         205.000
 130494818.64848 101684259.01148  24832348.6754   24832352.6734   24832348.6314
       218.000         162.000
 135924283.65748  88122822.47848  23962591.0924   23962591.8644   23962590.7224
       216.000         168.000
 130068706.78548 101352236.03448  24751254.5084   24751256.7984   24751254.4654
       207.000         151.000
 09  1 28  0 21 30.0000000  0 10G 5G 9G26G18G15G17G12G27G22G28
 122318402.72248  95313025.92148  23276428.6504   23276432.1394   23276428.9754
       224.000         178.000
 106863084.13748  83269919.21548  20335382.1334   20335384.5824   20335382.1374
       249.000         224.000
 115082663.62648  89674790.66848  21899511.9804   21899514.5254   21899512.1594
       241.000         203.000
 117204999.13048  91328566.47148  22303372.5594   22303373.9604   22303372.8104
       238.000         196.000
 108649843.04348  84662206.59348  20675384.7204   20675386.2044   20675384.3974
       249.000         230.000
 122082643.28548  95129324.26248  23231561.5704   23231563.2674   23231561.4904
       231.000         192.000
 116797791.33648  91011262.07948  22225883.4664   22225884.6164   22225883.2614
       240.000         205.000
 130564382.23548 101738464.38548  24845586.4004   24845589.4324   24845587.2214
       215.000         162.000
 135865436.14948  88076967.27948  23951392.5154   23951393.3014   23951393.2954
       219.000         169.000
 130163775.96748 101426315.87248  24769344.9144   24769348.1714   24769346.3284
       207.000         152.000
 09  1 28  0 22  0.0000000  0 10G 5G 9G26G18G15G17G12G27G22G28
 122215039.82648  95232483.41148  23256759.8744   23256762.8344   23256759.5264
       228.000         180.000
 106825973.01148  83241001.46148  20328319.9844   20328322.4984   20328320.3224
       249.000         224.000
 115166553.91148  89740159.71948  21915475.6924   21915477.9154   21915475.5614
       242.000         202.000
 117195610.29648  91321250.49648  22301586.3064   22301587.2044   22301586.9994
       237.000         195.000
 108690931.74148  84694223.75648  20683203.5164   20683205.0874   20683203.2304
       250.000         230.000
 122077474.47048  95125296.61848  23230577.8684   23230579.8454   23230578.4774
       231.000         194.000
 116709442.87648  90942419.13848  22209071.1964   22209072.5144   22209071.1514
       239.000         205.000
 130633977.97748 101792694.83948  24858830.1964   24858833.5194   24858830.3024
       214.000         159.000
 135807038.27148  88031462.48848  23940280.6674   23940279.9304   23940281.7224
       220.000         170.000
 130258925.91448 101500458.67648  24787451.7474   24787454.4644   24787452.2684
       209.000         154.000
 09  1 28  0 22 30.0000000  0 10G 5G 9G26G18G15G17G12G27G22G28
 122111902.75248  95152116.88848  23237133.3544   23237136.8024   23237134.8784
       228.000         181.000
 106789185.74348  83212336.05848  20321319.6444   20321322.0174   20321319.7504
       251.000         224.000
 115250756.62548  89805772.22048  21931498.9964   21931501.1904   21931499.0854
       241.000         203.000
 117186799.49948  91314384.93648  22299909.2154   22299910.4184   22299909.5834
       236.000         195.000
 108732477.40348  84726596.99548  20691109.4324   20691111.0574   20691109.1044
       250.000         230.000
 122072850.73348  95121693.71948  23229698.0224   23229700.1424   23229698.2524
       229.000         192.000
 116621428.19148  90873836.28148  22192322.1324   22192323.8584   22192321.8384
       240.000         204.000
 130703606.79748 101846951.04548  24872080.0364   24872082.4924   24872080.1184
       213.000         159.000
 135749093.05848  87986310.36848  23929253.6504   23929254.1634   23929253.0704
       220.000         173.000
 130354155.44948 101574663.49748  24805573.1644   24805576.2194   24805573.3474
       204.000         153.000
 09  1 28  0 23  0.0000000  0 10G 5G 9G26G18G15G17G12G27G22G28
 122008993.26248  95071927.66948  23217550.4774   23217553.6194   23217550.9624
       226.000         181.000
 106752723.19948  83183923.68248  20314381.1514   20314383.5234   20314381.4644
       251.000         225.000
 115335270.73148  89871627.35348  21947581.4874   21947583.9314   21947581.5054
       242.000         203.000
 117178567.06748  91307970.04348  22298342.6024   22298344.2534   22298343.0134
       236.000         195.000
 108774479.58848  84759325.96248  20699102.1204   20699103.9374   20699101.8544
       249.000         230.000
 122068773.04448  95118516.30348  23228921.8334   23228923.7924   23228921.4824
       232.000         191.000
 116533749.00848  90805514.85848  22175636.9964   22175639.0414   22175636.9154
       240.000         204.000
 130773268.88448 101901233.19848  24885336.9924   24885339.3334   24885336.7304
       214.000         159.000
 135691602.37248  87941512.42148  23918313.4224   23918313.6964   23918312.2634
       224.000         174.000
 130449463.24248 101648929.25448  24823709.2264   24823712.9104   24823707.5224
       202.000         154.000
 09  1 28  0 23 30.0000000  0 10G 5G 9G26G18G15G17G12G27G22G28
 121906312.33748  94991916.59548  23198010.6354   23198014.4174   23198010.8794
       228.000         182.000
 106716584.91948  83155763.99448  20307504.0744   20307506.5484   20307504.4494
       251.000         225.000
 115420094.08148  89937723.47448  21963723.0184   21963725.2614   21963723.1494
       241.000         203.000
 117170911.98648  91302005.04448  22296886.1044   22296887.7894   22296886.7274
       236.000         196.000
 108816937.84548  84792410.31248  20707181.7154   20707183.4424   20707181.5554
       248.000         230.000
 122065241.05748  95115764.11348  23228250.1544   23228251.5084   23228250.3464
       233.000         193.000
 116446405.73648  90737455.16748  22159016.5934   22159018.0724   22159016.3034
       239.000         205.000
 130842963.66548 101955540.80748  24898598.6204   24898602.4404   24898598.5704
       213.000         160.000
 135634566.96848  87897069.27148  23907460.3464   23907459.7944   23907462.2454
       225.000         173.000
 130544846.19748 101723253.62648  24841860.0884   24841863.3004   24841858.8704
       205.000         156.000
 09  1 28  0 24  0.0000000  0 10G 5G 9G26G18G15G17G12G27G22G28
 121803862.07448  94912085.23348  23178515.3094   23178518.6994   23178515.6714
       230.000         183.000
 106680771.38748  83127857.33948  20300689.0764   20300691.5794   20300689.0084
       252.000         225.000
 115505225.78048  90004059.85548  21979923.0924   21979925.5124   21979923.2534
       241.000         203.000
 117163834.58048  91296490.17648  22295539.2614   22295540.6874   22295539.4634
       236.000         196.000
 108859851.88448  84825849.82148  20715347.8684   20715349.6434   20715347.4724
       248.000         229.000
 122062255.98348  95113438.07548  23227681.9094   23227683.6184   23227682.1864
       231.000         192.000
 116359400.92748  90669659.22548  22142460.2644   22142461.6294   22142459.9824
       241.000         206.000
 130912691.52448 102009874.20048  24911867.8334   24911870.8894   24911867.7244
       218.000         162.000
 135577989.11248  87852982.61748  23896693.8854   23896693.6984   23896696.1044
       222.000         173.000
 130640302.86148 101797635.39948  24860024.7374   24860028.4254   24860024.2524
       208.000         157.000
 09  1 28  0 24 30.0000000  0 10G 5G 9G26G18G15G17G12G27G22G28
 121701644.59548  94832435.25748  23159063.9864   23159067.1804   23159064.9614
       227.000         182.000
 106645283.65648  83100204.55948  20293936.0224   20293938.5184   20293936.4584
       251.000         225.000
 115590665.04948  90070635.90048  21996181.5974   21996184.0594   21996181.6054
       241.000         202.000
 117157335.28448  91291425.78248  22294302.5794   22294304.0644   22294303.1014
       236.000         195.000
 108903221.65148  84859644.44148  20723600.8714   20723602.5064   20723600.5494
       248.000         229.000
 122059818.61248  95111538.82948  23227217.7944   23227219.8914   23227217.2354
       231.000         192.000
