     2.11           OBSERVATION DATA    G (GPS)             RINEX VERSION / TYPE
teqc  2008Oct2      gpsops              20090112 00:05:44UTCPGM / RUN BY / DATE
    30.0000                                                 INTERVAL
     1     1                                                WAVELENGTH FACT L1/2
     7    L1    L2    P1    P2    C1    S1    S2            # / TYPES OF OBSERV
Linux 2.4.20-8|Pentium IV|gcc -static|Linux|486/DX+         COMMENT
     2.10           OBSERVATION DATA    GPS                 COMMENT
soc2rnx ver 1.20    gpsops              12-Jan-2009 00:05:42COMMENT
S1, if present, is the SNR for the C/A data stream on L1.   COMMENT
 SNR is mapped to RINEX snr flag value [1,4-9]              COMMENT
    SNR:   >316  >100  >31.6  >10  >3.2    >0 bad=0         COMMENT
L1 & L2:      9     8     7     6     5     4     1         COMMENT
                                                            COMMENT
This data is provided as a public service by NASA/JPL.      COMMENT
No warranty is expressed or implied regarding suitability   COMMENT
for use.  For further information, contact:                 COMMENT
Dave Stowers, NASA/JPL m/s 238-600                          COMMENT
4800 Oak Grove Drive, Pasadena CA 91109 USA                 COMMENT
                                                            COMMENT
Forced Modulo Decimation to 30 seconds                      COMMENT
  2009     1    11     0     0    0.0000000     GPS         TIME OF FIRST OBS
DSN                 JPL                                     OBSERVER / AGENCY
451-U               AOAD/M_T        NONE                    ANT # / TYPE
  4849202.3940  -360328.9929  4114913.1862                  APPROX POSITION XYZ
        0.0254        0.0000        0.0000                  ANTENNA: DELTA H/E/N
LP03574             ASHTECH Z-XII3      CC00                REC # / TYPE / VERS
MADR                                                        MARKER NAME
13407S012                                                   MARKER NUMBER
                                                            END OF HEADER
 09  1 11  0  0  0.0000000  0 11G 9G26G15G24G 8G18G21G27G17G10G28
 118601233.51848  92416535.37548  22569072.3414   22569075.4414   22569072.4234
       233.000         190.000
 105841021.73048  82473511.85748  20140885.2224   20140887.7994   20140885.0314
       251.000         228.000
 108551587.14948  84585655.29248  20656677.2264   20656678.5614   20656677.0444
       252.000         233.000
 131065895.88048 102129249.48248  24941026.6594   24941030.6674   24941028.7164
       211.000         145.000
 125605693.42248  97874553.30348  23901977.7754   23901981.9064   23901980.2984
       213.000         158.000
 127186561.83748  99106409.66948  24202799.7174   24202801.6114   24202802.4214
       219.000         166.000
 129447902.55548 100868500.78648  24633112.4304   24633114.0184   24633111.2804
       211.000         155.000
 123007934.91348  95850325.46948  23407641.5284   23407644.4934   23407642.4124
       231.000         188.000
 130475923.34548 101669544.51848  24828747.1714   24828748.9104   24828748.0974
       218.000         164.000
 118306409.47048  92186799.64348  22512971.4964   22512974.9614   22512971.9974
       236.000         197.000
 116233894.19848  90571860.00548  22118579.4124   22118580.5784   22118579.9244
       243.000         207.000
 09  1 11  0  0 30.0000000  0 11G 9G26G15G24G 8G18G21G27G17G10G28
 118513264.37048  92347988.00348  22552332.0304   22552335.0394   22552332.5524
       230.000         190.000
 105856318.10448  82485431.11948  20143796.1674   20143798.6134   20143796.0904
       251.000         229.000
 108516546.95748  84558351.24548  20650009.1924   20650010.6694   20650008.9594
       252.000         233.000
 131140382.77048 102187291.25048  24955200.3474   24955204.1244   24955201.3814
       209.000         138.000
 125695460.76848  97944501.83848  23919061.7164   23919064.3294   23919062.7744
       216.000         159.000
 127094219.31148  99034454.44648  24185227.5274   24185229.2694   24185227.6844
       212.000         161.000
 129478849.43948 100892615.18248  24639001.4894   24639003.8114   24639002.4284
       212.000         153.000
 123078307.01248  95905160.85248  23421033.1304   23421036.1504   23421032.9434
       231.000         188.000
 130402044.81448 101611976.85848  24814688.3144   24814689.5704   24814687.7824
       218.000         162.000
 118404906.68548  92263550.70848  22531714.6054   22531718.1104   22531715.2594
       236.000         196.000
 116278726.27248  90606794.09048  22127110.5004   22127111.9624   22127110.6784
       242.000         207.000
 09  1 11  0  1  0.0000000  0 11G 9G26G15G24G 8G18G21G27G17G10G28
 118425518.05448  92279614.29048  22535633.7844   22535637.5674   22535633.3824
       230.000         189.000
 105872001.69948  82497652.10248  20146780.7174   20146783.0724   20146780.5554
       252.000         229.000
 108481815.03048  84531287.41048  20643399.7394   20643401.4244   20643399.3824
       252.000         233.000
 131214943.61348 102245390.65248  24969389.4904   24969393.3664   24969389.4804
       202.000         134.000
 125785270.60448  98014483.54348  23936151.3584   23936154.5024   23936151.8174
       211.000         160.000
 127002144.93948  98962708.21348  24167705.9274   24167708.1344   24167706.1554
       215.000         162.000
 129510205.26748 100917048.32248  24644967.2134   24644970.1554   24644968.2434
       215.000         155.000
 123148712.08348  95960021.95448  23434430.7314   23434433.6434   23434430.9974
       230.000         188.000
 130328302.95648 101554515.62648  24800656.2994   24800657.3164   24800655.8254
       218.000         167.000
 118503659.85948  92340501.23348  22550506.5744   22550510.2004   22550507.6144
       236.000         195.000
 116324020.25048  90642088.09848  22135729.4144   22135731.1594   22135729.7164
       244.000         206.000
 09  1 11  0  1 30.0000000  0 11G 9G26G15G24G 8G18G21G27G17G10G28
 118337995.91648  92211415.24548  22518978.8494   22518982.5274   22518979.0014
       231.000         189.000
 105888073.95748  82510175.93748  20149839.2204   20149841.5334   20149839.1014
       252.000         229.000
 108447394.12648  84504465.92948  20636849.6364   20636851.3794   20636849.3394
       252.000         233.000
 131289576.45748 102303546.08948  24983591.1914   24983594.9414   24983594.1144
       204.000         137.000
 125875122.87648  98084498.29148  23953249.8294   23953252.4954   23953250.1034
       215.000         159.000
 126910341.86048  98891173.33248  24150236.8274   24150238.2364   24150236.5584
       218.000         161.000
 129541969.07748 100941799.34348  24651012.9884   24651014.9494   24651013.0174
       214.000         151.000
 123219150.48748  96014909.01548  23447834.8254   23447837.5654   23447834.9634
       231.000         189.000
 130254701.83848 101497164.09948  24786649.2014   24786652.2574   24786649.2284
       214.000         162.000
 118602667.17048  92417649.77748  22569346.8674   22569350.6024   22569347.9514
       235.000         194.000
 116369775.60348  90677741.62148  22144436.4794   22144438.3324   22144437.2874
       241.000         207.000
 09  1 11  0  2  0.0000000  0 11G 9G26G15G24G 8G18G21G27G17G10G28
 118250697.48148  92143390.50748  22502366.7404   22502369.7084   22502367.2984
       231.000         187.000
 105904533.66548  82523001.67848  20152971.3294   20152973.6954   20152971.2604
       251.000         228.000
 108413284.06448  84477886.65648  20630358.8374   20630360.4644   20630358.5774
       252.000         234.000
 131364276.98848 102361754.28948  24997807.3454   24997809.8464   24997807.9404
       210.000         143.000
 125965015.25648  98154544.26548  23970355.4244   23970358.6654   23970355.5244
       211.000         160.000
 126818811.42748  98819850.90748  24132818.8594   24132820.3204   24132820.7344
       216.000         160.000
 129574137.63148 100966865.74748  24657134.3774   24657136.6554   24657135.2504
       203.000         146.000
 123289620.13348  96069820.44448  23461245.5854   23461247.5344   23461245.8884
       232.000         188.000
 130181243.11248 101439923.56848  24772670.3974   24772672.8944   24772670.2374
       217.000         164.000
 118701924.84848  92494993.41048  22588234.9324   22588238.7674   22588235.3414
       234.000         194.000
 116415989.11648  90713752.15348  22153230.4824   22153232.6024   22153230.5464
       243.000         207.000
 09  1 11  0  2 30.0000000  0 11G 9G26G15G24G 8G18G21G27G17G10G28
 118163624.44348  92075541.40248  22485797.4244   22485800.3814   22485797.5764
       232.000         188.000
 105921381.74348  82536130.04148  20156177.3264   20156179.7634   20156177.1454
       251.000         228.000
 108379486.93448  84451551.24048  20623927.4054   20623928.9484   20623927.2234
       253.000         234.000
 131439042.69948 102420013.28748  25012035.7494   25012038.4124   25012035.7594
       207.000         144.000
 126054947.22748  98224621.11148  23987468.8714   23987472.0284   23987469.3994
       213.000         160.000
 126727556.91548  98748743.50348  24115453.8864   24115455.3294   24115454.5504
       217.000         163.000
 129606709.65848 100992246.43048  24663332.6044   24663335.1704   24663331.9674
       202.000         144.000
 123360121.20348  96124756.32048  23474660.3174   23474663.4154   23474660.6664
       229.000         187.000
 130107930.53748 101382796.83648  24758719.9244   24758721.3974   24758719.7194
       218.000         163.000
 118801431.24948  92572530.86148  22607170.6724   22607174.1874   22607171.0624
       236.000         194.000
 116462659.65748  90750118.80748  22162111.7084   22162113.4884   22162112.3224
       241.000         206.000
 09  1 11  0  3  0.0000000  0 11G 9G26G15G24G 8G18G21G27G17G10G28
 118076777.13848  92007868.18948  22469271.1274   22469273.6334   22469271.1184
       233.000         188.000
 105938618.70648  82549561.42548  20159457.4534   20159459.8944   20159457.3134
       251.000         228.000
 108346003.86448  84425460.53948  20617555.8504   20617557.3824   20617555.5854
       252.000         234.000
 131513870.69348 102478320.81048  25026273.9294   25026277.1694   25026274.1454
       210.000         146.000
 126144917.66248  98294727.92148  24004589.2014   24004593.3594   24004589.5444
       204.000         158.000
 126636580.71248  98677852.97848  24098141.5884   24098142.5584   24098141.8734
       214.000         161.000
 129639682.85948 101017939.75248  24669607.3684   24669608.9794   24669608.3104
       208.000         148.000
 123430652.79048  96179716.00348  23488082.9784   23488085.3764   23488082.8134
       235.000         190.000
 130034767.08848 101325786.36348  24744797.5354   24744799.2114   24744798.0824
       209.000         162.000
 118901183.50848  92650259.88048  22626152.8294   22626156.3344   22626154.1034
       235.000         194.000
 116509785.55848  90786840.28648  22171079.3594   22171081.0864   22171079.2324
       242.000         206.000
 09  1 11  0  3 30.0000000  0 11G 9G26G15G24G 8G18G21G27G17G10G28
 117990156.27548  91940371.42948  22452787.5104   22452790.0414   22452787.7854
       232.000         189.000
 105956244.37748  82563295.70448  20162811.4804   20162813.9994   20162811.5424
       251.000         228.000
 108312836.16148  84399615.57848  20611244.2184   20611245.7044   20611243.9794
       251.000         234.000
 131588758.13948 102536674.64448  25040524.5384   25040528.2644   25040525.1984
       212.000         152.000
 126234925.50748  98364863.89248  24021717.6214   24021721.0294   24021717.7064
       207.000         157.000
 126545885.27748  98607181.21248  24080882.7394   24080883.8914   24080883.0374
       217.000         162.000
 129673054.80948 101043943.84348  24675957.8404   24675959.3864   24675959.7544
       210.000         149.000
 123501214.21548  96234698.94448  23501510.2494   23501512.7934   23501511.4794
       228.000         186.000
 129961755.23548 101268894.04348  24730904.0924   24730906.2604   24730903.3794
       218.000         169.000
 119001178.81748  92728178.29148  22645180.9054   22645184.8344   22645181.7604
       234.000         193.000
 116557364.99048  90823915.16048  22180133.5874   22180135.1764   22180134.2354
       242.000         205.000
 09  1 11  0  4  0.0000000  0 11G 9G26G15G24G 8G18G21G27G17G10G28
 117903762.75548  91873051.83848  22436347.3294   22436350.4394   22436347.7754
       233.000         192.000
 105974259.52448  82577333.48648  20166239.7034   20166242.0974   20166239.6724
       252.000         228.000
 108279985.44648  84374017.62248  20604993.1524   20604994.4454   20604992.9094
       251.000         234.000
 131663702.40248 102595072.75548  25054786.4774   25054789.5704   25054787.0834
       206.000         151.000
 126324969.76048  98435028.19748  24038851.3684   24038856.2114   24038850.4244
       207.000         159.000
 126455473.32648  98536730.35048  24063677.3194   24063679.5404   24063677.7994
       214.000         163.000
 129706824.10348 101070257.56948  24682383.2464   24682385.8044   24682384.0844
       205.000         145.000
 123571805.05548  96289704.76348  23514941.9384   23514945.7414   23514941.7664
       229.000         187.000
 129888898.05048 101212122.19548  24717039.5364   24717041.1424   24717039.2604
       212.000         162.000
 119101414.45948  92806283.98548  22664255.3824   22664259.0054   22664255.7624
       234.000         192.000
 116605396.40648  90861342.23948  22189273.8194   22189275.2494   22189274.3044
       243.000         205.000
 09  1 11  0  4 30.0000000  0 11G 9G26G15G24G 8G18G21G27G17G10G28
 117817597.93548  91805910.44948  22419950.8464   22419954.0434   22419951.0324
       233.000         193.000
 105992664.87648  82591675.30548  20169742.1694   20169744.5084   20169742.1314
       251.000         228.000
 108247453.88648  84348668.35348  20598802.5524   20598804.0194   20598802.4034
       251.000         234.000
 131738701.51648 102653513.60248  25069058.4544   25069061.6304   25069057.5304
       205.000         145.000
 126415050.03448  98505220.62548  24055993.8304   24055997.3924   24055993.4744
       212.000         159.000
 126365348.41548  98466503.15348  24046527.3464   24046530.0254   24046526.8434
       216.000         162.000
 129740988.85648 101096879.37148  24688885.3694   24688886.7414   24688884.7844
       202.000         141.000
 123642425.32848  96344733.56548  23528381.7144   23528384.6254   23528382.1814
       232.000         189.000
 129816199.38648 101155473.90748  24703205.1294   24703207.2154   24703204.6894
       217.000         167.000
 119201888.84548  92884575.70648  22683375.0694   22683378.5154   22683375.5944
       236.000         192.000
 116653878.90248  90899120.81148  22198499.3294   22198501.0684   22198499.9854
       240.000         203.000
 09  1 11  0  5  0.0000000  0 11G 9G26G15G24G 8G18G21G27G17G10G28
 117731661.00748  91738946.64548  22403597.2584   22403600.6004   22403597.2114
       235.000         193.000
 106011459.29448  82606320.30448  20173318.7034   20173320.9544   20173318.6624
       252.000         228.000
 108215241.31048  84323567.64548  20592672.5994   20592674.0564   20592672.5804
       251.000         234.000
 131813751.03048 102711993.70248  25083338.1884   25083343.6034   25083338.9354
       201.000         141.000
 126505163.64448  98575439.01548  24073141.8164   24073145.0344   24073142.6234
       212.000         157.000
 126275510.94348  98396499.95048  24029431.4654   24029434.1624   24029434.2154
       218.000         162.000
 129775545.39948 101123806.56148  24695460.3194   24695463.5334   24695461.8794
       202.000         137.000
 123713073.00048  96399783.69548  23541824.7484   23541828.4974   23541825.7434
       228.000         186.000
 129743660.75848 101098950.31048  24689401.8204   24689403.8244   24689402.2814
       214.000         163.000
 119302597.78248  92963050.20048  22702539.6494   22702542.8004   22702540.6894
       235.000         192.000
 116702808.63648  90937247.87148  22207810.3494   22207812.1364   22207810.9534
       241.000         203.000
 09  1 11  0  5 30.0000000  0 11G 9G26G15G24G 8G18G21G27G17G10G28
 117645953.52048  91672161.61848  22387288.2054   22387290.8034   22387288.5974
       234.000         192.000
 106030643.34948  82621268.91348  20176969.2514   20176971.5954   20176969.2644
       251.000         228.000
 108183349.18548  84298716.63748  20586603.7044   20586605.2534   20586603.5234
       251.000         235.000
 131888848.11848 102770510.86748  25097628.9444   25097633.8534   25097629.1994
       202.000         137.000
 126595309.52548  98645682.53748  24090295.9224   24090299.8514   24090296.9294
       209.000         155.000
 126185963.97848  98326723.11848  24012391.5714   24012393.4104   24012393.4534
       221.000         161.000
 129810492.12548 101151037.73248  24702111.2754   24702111.7464   24702110.9194
       207.000         141.000
 123783747.62448  96454854.82548  23555273.7524   23555277.2504   23555273.5934
       231.000         187.000
 129671285.17448 101042553.74048  24675628.8494   24675631.4274   24675629.0854
       217.000         168.000
 119403538.81948  93041705.54648  22721747.8504   22721751.1804   22721748.8584
       233.000         191.000
 116752184.41448  90975722.50748  22217206.3314   22217208.2174   22217207.0524
       241.000         202.000
 09  1 11  0  6  0.0000000  0 11G 9G26G15G24G 8G18G21G27G17G10G28
 117560475.94348  91605555.74048  22371021.8204   22371024.6334   22371022.4874
       234.000         190.000
 106050217.25248  82636521.31448  20180694.0314   20180696.3934   20180693.9484
       252.000         228.000
 108151779.06648  84274116.54948  20580595.9764   20580597.6404   20580595.7544
       251.000         235.000
 131963989.97248 102829062.98148  25111927.6204   25111931.6024   25111926.4594
       206.000         132.000
 126685486.88048  98715950.62448  24107456.3534   24107460.1274   24107457.8684
       210.000         158.000
 126096710.05048  98257174.56448  23995407.8264   23995409.0604   23995410.0124
       216.000         161.000
 129845826.74948 101178571.22648  24708835.3204   24708837.8274   24708835.7314
       210.000         149.000
 123854448.52748  96509946.44348  23568728.0694   23568731.3114   23568728.8564
       229.000         187.000
 129599075.73248 100986286.66148  24661888.7234   24661890.4714   24661889.1034
       220.000         171.000
 119504709.40748  93120539.76148  22740999.9894   22741003.3554   22741000.3884
       233.000         191.000
 116802004.68348  91014543.49948  22226686.8054   22226688.5434   22226687.1324
       240.000         202.000
 09  1 11  0  6 30.0000000  0 11G 9G26G15G24G 8G18G21G27G17G10G28
 117475229.04748  91539129.60548  22354799.8734   22354802.8594   22354800.3354
       236.000         194.000
 106070181.96448  82652078.22848  20184493.1084   20184495.4664   20184493.0474
       251.000         228.000
 108120532.66048  84249768.69548  20574650.0354   20574651.6674   20574649.8304
       250.000         235.000
 132039174.58948 102887648.50348  25126235.4774   25126239.4444   25126236.5594
       205.000         136.000
 126775695.74648  98786243.18448  24124622.5254   24124626.3964   24124623.4354
       213.000         159.000
 126007752.48548  98187856.99548  23978478.6974   23978481.0554   23978480.3174
       217.000         160.000
 129881547.84048 101206405.77448  24715633.4774   24715635.4514   24715632.8604
       214.000         156.000
 123925175.96448  96565058.72848  23582187.0194   23582190.3544   23582186.7634
       230.000         187.000
 129527036.09448 100930151.87548  24648179.3014   24648181.8614   24648180.0144
       217.000         168.000
 119606108.09648  93199551.72048  22760295.7924   22760299.1194   22760296.4984
       234.000         191.000
 116852268.33748  91053709.98548  22236251.6774   22236253.2984   22236251.7034
       242.000         202.000
 09  1 11  0  7  0.0000000  0 11G 9G26G15G24G 8G18G21G27G17G10G28
 117390214.04048  91472884.15348  22338622.5214   22338625.3964   22338623.0914
       236.000         194.000
 106090537.91748  82667940.01248  20188366.6294   20188369.0744   20188366.5244
       251.000         228.000
 108089611.64148  84225674.39048  20568765.9174   20568767.4894   20568765.4364
       251.000         235.000
 132114399.10648 102946264.95748  25140550.6824   25140555.6514   25140550.8534
       208.000         137.000
 126865934.88148  98856559.41748  24141794.5114   24141798.8254   24141796.6014
       211.000         160.000
 125919093.90948  98118772.41348  23961607.5024   23961610.3344   23961607.8414
       216.000         164.000
 129917653.09748 101234539.68848  24722504.1824   24722505.7394   24722505.6804
       218.000         160.000
 123995929.48848  96620191.33148  23595650.9284   23595654.2894   23595651.2264
       230.000         187.000
 129455169.31448 100874151.78848  24634503.5624   24634505.8924   24634503.8474
       219.000         168.000
 119707731.75048  93278738.96748  22779633.7824   22779637.3254   22779634.9614
       233.000         190.000
 116902973.45848  91093220.46448  22245900.6794   22245901.9554   22245901.5764
       242.000         202.000
 09  1 11  0  7 30.0000000  0 11G 9G26G15G24G 8G18G21G27G17G10G28
 117305432.22448  91406820.41848  22322488.6384   22322492.1144   22322488.5784
       233.000         193.000
 106111285.62248  82684107.05248  20192314.8984   20192317.3044   20192314.8304
       251.000         228.000
 108059018.01348  84201835.19348  20562944.3474   20562945.7184   20562944.1224
       251.000         235.000
 132189661.48448 103004911.01448  25154872.8854   25154876.1494   25154872.8454
       206.000         140.000
 126956203.62748  98926898.67748  24158972.9434   24158975.7344   24158972.3284
       214.000         159.000
 125830737.38548  98049923.19048  23944794.4514   23944797.0404   23944793.9364
       219.000         165.000
 129954140.78748 101262971.62848  24729446.2904   24729449.2384   24729446.4504
       213.000         157.000
 124066709.07648  96675344.24348  23609120.2354   23609122.9794   23609120.2354
       232.000         187.000
 129383478.75448 100818289.02248  24620861.6404   24620863.0554   24620861.8234
       215.000         168.000
 119809578.55948  93358100.10948  22799014.5834   22799018.4164   22799015.0804
       233.000         191.000
 116954118.74148  91133073.93948  22255632.9884   22255635.0294   22255633.2734
       240.000         202.000
 09  1 11  0  8  0.0000000  0 11G 9G26G15G24G 8G18G21G27G17G10G28
 117220883.17848  91340938.08448  22306399.5984   22306402.9454   22306399.9794
       232.000         193.000
 106132424.53448  82700578.92248  20196337.5864   20196339.9074   20196337.4824
       252.000         228.000
 108028752.12548  84178251.37948  20557184.8504   20557186.3454   20557184.5534
       251.000         235.000
 132264957.73548 103063583.37048  25169201.4754   25169204.8804   25169201.7204
       202.000         144.000
 127046500.14548  98997259.60248  24176155.0104   24176158.4174   24176158.1584
       208.000         158.000
 125742684.45848  97981310.54248  23928038.6404   23928040.0714   23928039.2524
       220.000         165.000
 129991007.72048 101291699.07048  24736462.0014   24736464.4664   24736461.2884
       210.000         150.000
 124137513.07648  96730516.19548  23622593.5574   23622596.3384   23622594.0644
       229.000         184.000
 129311966.34748 100762565.08748  24607253.3504   24607255.1974   24607252.8574
       215.000         167.000
 119911644.95048  93437632.35248  22818437.5104   22818441.1184   22818438.3884
       234.000         191.000
 117005701.59248  91173268.37448  22265449.2394   22265451.0834   22265449.6414
       241.000         202.000
 09  1 11  0  8 30.0000000  0 11G 9G26G15G24G 8G18G21G27G17G10G28
 117136568.54448  91275238.39548  22290354.9364   22290358.2564   22290354.7584
       233.000         193.000
 106153955.72648  82717356.46548  20200434.7804   20200437.0114   20200434.8434
       252.000         228.000
 107998816.15848  84154924.64448  20551488.3094   20551489.7604   20551488.2164
       252.000         236.000
 132340285.56748 103122280.31948  25183535.0094   25183540.6364   25183535.3924
       206.000         147.000
 127136824.50548  99067642.19148  24193343.5574   24193346.9574   24193343.7794
       210.000         158.000
 125654938.15248  97912936.82948  23911341.0394   23911342.1474   23911340.5664
       219.000         163.000
 130028253.21148 101320721.52248  24743549.9134   24743552.4624   24743550.8054
       209.000         147.000
 124208341.75348  96785707.34948  23636071.4444   23636074.5604   23636071.7114
       229.000         184.000
 129240635.91348 100706982.91948  24593679.2564   24593680.8394   24593678.2624
       213.000         166.000
 120013929.21448  93517334.37948  22837901.5884   22837904.8954   22837902.4154
       232.000         189.000
 117057721.77448  91213803.58248  22275348.1594   22275349.8294   22275348.5694
       239.000         201.000
 09  1 11  0  9  0.0000000  0 11G 9G26G15G24G 8G18G21G27G17G10G28
 117052489.00048  91209721.89448  22274354.9644   22274357.9564   22274355.1084
       235.000         191.000
 106175879.51248  82734439.92548  20204606.6844   20204609.0044   20204606.5034
       251.000         228.000
 107969211.40448  84131856.00448  20545854.6404   20545856.1174   20545854.4404
       252.000         236.000
 132415642.37248 103180999.88348  25197875.5884   25197879.8764   25197876.3784
       209.000         149.000
 127227175.82648  99138045.82148  24210536.8514   24210540.1944   24210537.3364
       212.000         158.000
 125567501.34548  97844804.22148  23894702.3764   23894703.3494   23894701.6964
       220.000         164.000
 130065874.42548 101350036.70648  24750708.9054   24750711.5614   24750710.2224
       205.000         145.000
 124279194.34148  96840917.15348  23649554.4844   23649557.0934   23649554.6744
       230.000         184.000
 129169490.32048 100651544.83848  24580140.6414   24580142.7834   24580139.8264
       220.000         170.000
 120116428.53948  93597203.97448  22857406.3214   22857409.6564   22857406.6154
       232.000         188.000
 117110175.65448  91254676.72948  22285329.7934   22285331.1254   22285329.9224
       243.000         201.000
 09  1 11  0  9 30.0000000  0 11G 9G26G15G24G 8G18G21G27G17G10G28
 116968644.10648  91144388.22748  22258399.9814   22258402.7874   22258400.3264
       236.000         194.000
 106198194.70648  82751828.38748  20208853.2374   20208855.4804   20208853.1084
       250.000         227.000
 107939937.60648  84109045.25148  20540284.0034   20540285.4124   20540283.7814
       252.000         236.000
 132491023.90448 103239738.70348  25212220.8134   25212224.1734   25212220.7914
       212.000         148.000
 127317551.49648  99208468.43548  24227734.7014   24227737.7514   24227735.1354
       210.000         160.000
 125480375.15448  97776913.71048  23878122.5904   23878124.6824   23878123.9164
       222.000         165.000
 130103867.94848 101379642.00948  24757939.4954   24757941.4214   24757940.1774
       206.000         149.000
 124350069.50248  96896144.53748  23663041.3624   23663044.3734   23663041.4744
       229.000         183.000
 129098531.33148 100596252.10648  24566637.5064   24566639.2764   24566637.1624
       210.000         163.000
 120219138.77448  93677237.91348  22876951.6364   22876954.7714   22876952.8044
       230.000         188.000
 117163060.76148  91295885.90348  22295393.5644   22295394.9074   22295394.4804
       239.000         202.000
 09  1 11  0 10  0.0000000  0 11G 9G26G15G24G 8G18G21G27G17G10G28
 116885035.53948  91079238.70748  22242489.7114   22242492.7034   22242489.7244
       237.000         195.000
 106220902.53848  82769522.79348  20213174.3494   20213176.7144   20213174.1844
       251.000         228.000
 107910997.62848  84086494.61748  20534776.9314   20534778.4194   20534776.7794
       251.000         236.000
 132566428.38148 103298495.41048  25226569.7504   25226573.3414   25226570.3534
       200.000         139.000
 127407951.85748  99278910.24148  24244937.6434   24244940.9784   24244937.5334
       216.000         162.000
 125393563.19948  97709267.98348  23861603.6094   23861604.5984   23861603.6754
       221.000         164.000
 130142232.37648 101409536.30148  24765239.9374   24765241.7094   24765239.5484
       206.000         150.000
 124420967.61048  96951389.80648  23676533.0564   23676535.9294   23676533.3054
       229.000         185.000
 129027762.90848 100541107.88948  24553170.9604   24553173.2524   24553169.5254
       218.000         169.000
 120322058.76148  93757435.29048  22896536.0834   22896539.8054   22896536.8864
       229.000         186.000
 117216376.72048  91337430.80648  22305539.1444   22305541.3204   22305539.3474
       240.000         202.000
 09  1 11  0 10 30.0000000  0 11G 9G26G15G24G 8G18G21G27G17G10G28
 116801663.30748  91014273.33848  22226624.7794   22226627.6494   22226624.7724
       237.000         195.000
 106244002.43548  82787522.71448  20217570.0824   20217572.5164   20217570.0234
       251.000         227.000
 107882392.12748  84064204.61448  20529333.3364   20529334.8674   20529333.0654
       251.000         236.000
 132641852.72648 103357267.62248  25240923.3294   25240925.8324   25240922.7074
       199.000         129.000
 127498375.18248  99349369.95348  24262144.6694   24262148.4454   24262145.9964
       209.000         161.000
 125307067.31848  97641868.63348  23845143.8824   23845145.1664   23845144.8594
       221.000         166.000
 130180964.73248 101439717.35448  24772609.4554   24772612.9784   24772611.0584
       210.000         151.000
 124491887.26048  97006651.86248  23690028.7114   23690031.3794   23690028.9834
       228.000         183.000
 128957187.41448 100486113.98948  24539741.9074   24539743.2144   24539741.7504
       216.000         168.000
 120425185.33148  93837793.64548  22916160.8584   22916164.4484   22916161.5724
       233.000         189.000
 117270120.90348  91379309.39948  22315766.2974   22315768.5104   22315766.6134
       241.000         201.000
 09  1 11  0 11  0.0000000  0 10G 9G26G15G 8G18G21G27G17G10G28
 116718528.54848  90949493.03448  22210804.2244   22210807.7204   22210804.4804
       234.000         194.000
 106267495.35148  82805828.88048  20222040.7024   20222042.9834   20222040.5494
       251.000         228.000
 107854122.86048  84042176.61348  20523954.0354   20523955.4194   20523953.8104
       251.000         236.000
 127588820.75748  99419847.00848  24279355.4774   24279358.9664   24279356.4554
       211.000         161.000
 125220890.79848  97574718.08748  23828744.7954   23828745.9874   23828744.5534
       223.000         168.000
 130220063.39948 101470183.80348  24780050.2994   24780053.3094   24780051.0494
       205.000         147.000
 124562828.58148  97061930.80148  23703528.6784   23703531.3904   23703529.0384
       226.000         182.000
 128886808.08748 100431272.95748  24526347.9274   24526349.9534   24526347.2334
       216.000         166.000
 120528516.07848  93918311.09948  22935824.0324   22935827.4204   22935824.8904
       232.000         189.000
 117324291.73648  91421520.43948  22326074.8194   22326076.4754   22326075.1894
       241.000         202.000
 09  1 11  0 11 30.0000000  0 10G 9G26G15G 8G18G21G27G17G10G28
 116635632.11248  90884898.43348  22195029.7124   22195033.1914   22195030.0614
       236.000         197.000
 106291381.65248  82824441.58148  20226586.2884   20226588.4534   20226586.4094
       251.000         228.000
 107826191.77848  84020412.13048  20518638.9094   20518640.3154   20518638.5404
       251.000         236.000
 127679288.24948  99490341.13248  24296571.1254   24296573.7724   24296571.0484
       214.000         160.000
 125135036.40048  97507818.55648  23812406.6214   23812408.3314   23812408.8874
       222.000         166.000
 130259526.15848 101500933.99248  24787559.2264   24787561.4864   24787560.1594
       201.000         141.000
 124633791.16848  97117226.31548  23717031.7544   23717034.6924   23717031.6434
       226.000         179.000
 128816628.17448 100376587.27448  24512993.3544   24512994.8524   24512993.3044
       212.000         163.000
 120632048.54748  93998985.74948  22955525.7594   22955529.1344   22955526.4784
       231.000         187.000
 117378887.55948  91464062.63448  22336464.0564   22336465.5484   22336464.7554
       240.000         201.000
 09  1 11  0 12  0.0000000  0 10G 9G26G15G 8G18G21G27G17G10G28
 116552974.69848  90820490.05248  22179301.0884   22179303.8594   22179301.1094
       238.000         198.000
 106315661.24448  82843360.72448  20231206.4314   20231208.6264   20231206.3154
       251.000         227.000
 107798599.50148  83998911.65348  20513388.2744   20513389.6724   20513387.8904
       251.000         236.000
 127769776.46748  99560851.45448  24313790.1274   24313793.2334   24313791.1604
       213.000         161.000
 125049505.86748  97441171.41248  23796130.9074   23796132.6234   23796131.5634
       223.000         169.000
 130299350.71648 101531966.13648  24795138.1964   24795140.5004   24795139.7604
       187.000         130.000
 124704774.59048  97172538.04548  23730539.5174   23730542.5014   23730539.9804
       227.000         180.000
 128746650.67048 100322059.41048  24499675.8054   24499679.6734   24499675.1964
       217.000         167.000
 120735780.35448  94079815.71948  22975265.0664   22975268.5234   22975266.2154
       231.000         186.000
 117433906.82048  91506934.78448  22346933.8904   22346935.4794   22346934.4604
       241.000         202.000
 09  1 11  0 12 30.0000000  0 10G 9G26G15G 8G18G21G27G17G10G28
 116470556.95948  90756268.44948  22163617.4694   22163620.4154   22163617.7474
       235.000         197.000
 106340334.36048  82862586.52548  20235901.4174   20235903.7834   20235901.2664
       251.000         227.000
 107771347.16448  83977676.07048  20508202.3624   20508203.6534   20508202.1494
       252.000         236.000
 127860284.39348  99631377.09248  24331013.3484   24331016.5564   24331013.6584
       215.000         160.000
 124964302.04248  97374778.79048  23779917.5514   23779919.4074   23779917.3974
       221.000         169.000
 130339534.59948 101563278.17148  24802783.4634   24802786.5944   24802784.5904
       195.000         125.000
 124775778.12748  97227865.47748  23744051.2384   23744054.1684   23744051.5804
       227.000         180.000
 128676878.43148 100267691.39448  24486400.3634   24486402.3384   24486400.1854
       218.000         169.000
 120839708.42948  94160798.62748  22995042.1504   22995045.1044   22995043.4914
       232.000         185.000
 117489346.82448  91550134.79048  22357483.8494   22357485.9204   22357484.6124
       242.000         202.000
 09  1 11  0 13  0.0000000  0 10G 9G26G15G 8G18G21G27G17G10G28
 116388379.32848  90692233.96448  22147979.1164   22147982.2614   22147979.6954
       235.000         195.000
 106365400.90248  82882118.88448  20240671.5194   20240673.8704   20240671.3464
       252.000         227.000
 107744436.63348  83956706.83048  20503081.4614   20503082.7024   20503081.1584
       252.000         236.000
 127950810.80948  99701917.15248  24348240.3964   24348243.1494   24348241.3284
       211.000         162.000
 124879426.92148  97308642.35848  23763765.5754   23763768.1274   23763765.7084
       220.000         166.000
 140380111.22458  91594906.27558  24810499.5375   24810496.0945   24810497.0815
       189.000         124.000
 124846801.08448  97283208.02048  23757566.1394   23757569.4334   23757565.7674
       226.000         180.000
 128607314.06748 100213485.39748  24473162.4064   24473164.0264   24473162.4154
       216.000         167.000
 120943830.08248  94241932.38748  23014855.7754   23014858.7494   23014857.3264
       230.000         184.000
 117545206.19248  91593661.57148  22368113.3864   22368115.4614   22368114.1784
       241.000         201.000
 09  1 11  0 13 30.0000000  0  9G 9G26G15G 8G18G27G17G10G28
 116306443.29248  90628387.72548  22132387.3374   22132390.3304   22132387.8434
       235.000         197.000
 106390861.97948  82901958.68248  20245516.7074   20245518.9354   20245516.6394
       251.000         227.000
 107717869.93648  83936005.50348  20498026.0554   20498027.3374   20498025.7494
       252.000         237.000
 128041355.62348  99772471.54648  24365469.6804   24365473.4304   24365469.1054
       214.000         162.000
 124794884.17548  97242764.87148  23747677.8264   23747679.3764   23747677.5494
       224.000         167.000
 124917843.83348  97338565.97648  23771085.3874   23771088.5174   23771086.0454
       227.000         179.000
 128537961.11448 100159444.13748  24459964.9414   24459966.3944   24459965.3304
       213.000         164.000
 121048143.50648  94323215.56648  23034705.8594   23034709.3354   23034706.4894
       230.000         185.000
 117601483.01548  91637513.64448  22378822.6074   22378824.1784   22378823.1144
       240.000         202.000
 09  1 11  0 14  0.0000000  0  9G 9G26G15G 8G18G27G17G10G28
 116224748.99848  90564729.85748  22116841.3994   22116844.5844   22116841.4354
       235.000         197.000
 106416717.04448  82922105.47848  20250436.8224   20250438.8944   20250436.8614
       251.000         227.000
 107691647.63348  83915572.54048  20493035.9504   20493037.4834   20493035.7544
       252.000         237.000
 128131917.37248  99843039.11448  24382703.3714   24382706.7644   24382704.1164
       214.000         164.000
 124710676.30148  97177148.33648  23731654.3954   23731655.3944   23731655.6124
       221.000         170.000
 124988905.36848  97393938.57448  23784608.0224   23784611.1344   23784608.2914
       227.000         180.000
 128468822.05148 100105569.55448  24446807.7384   24446809.9404   24446807.3394
       217.000         167.000
 121152645.25548  94404645.48748  23054592.0664   23054595.6294   23054592.7804
       230.000         186.000
 117658175.21948  91681689.37948  22389610.7364   22389612.3004   22389611.3944
       241.000         201.000
 09  1 11  0 14 30.0000000  0  9G 9G26G15G 8G18G27G17G10G28
 116143297.68348  90501261.30848  22101341.5554   22101344.4544   22101340.9664
       236.000         197.000
 106442966.76248  82942559.80948  20255431.9594   20255434.0124   20255431.8284
       251.000         227.000
 107665771.41648  83895409.25148  20488111.9524   20488113.4194   20488111.6754
       251.000         237.000
 128222495.72948  99913619.66148  24399939.2824   24399943.6694   24399940.1464
       215.000         164.000
 124626805.29448  97111794.32448  23715693.6964   23715695.5864   23715693.3054
       221.000         169.000
 125059985.58848  97449325.74048  23798133.7924   23798137.3264   23798133.9984
       226.000         179.000
 128399900.12948 100051864.15248  24433692.6654   24433694.8244   24433692.1094
       216.000         170.000
 121257333.48148  94486220.71848  23074513.9304   23074517.1574   23074514.9754
       230.000         186.000
 117715281.09948  91726187.46648  22400477.4834   22400479.4764   22400478.1054
       240.000         201.000
 09  1 11  0 15  0.0000000  0  9G 9G26G15G 8G18G27G17G10G28
 116062089.35748  90437982.10448  22085888.2494   22085891.1244   22085888.5514
       235.000         198.000
 106469610.93848  82963321.50148  20260502.0154   20260504.3064   20260501.8764
       251.000         227.000
 107640242.50948  83875516.58948  20483253.9694   20483255.5034   20483253.6784
       252.000         237.000
 128313089.87048  99984212.46948  24417179.6674   24417182.9404   24417179.1614
       218.000         166.000
 124543273.49048  97046704.60248  23699797.7104   23699800.3134   23699797.4674
       222.000         170.000
 125131083.73648  97504726.87348  23811663.1214   23811666.8954   23811663.4864
       223.000         177.000
 128331198.16248  99998330.14548  24420619.5514   24420620.5714   24420618.8014
       221.000         173.000
 121362205.24948  94567938.97148  23094470.1254   23094473.6334   23094471.0484
       228.000         185.000
 117772798.63348  91771006.32148  22411422.8054   22411425.3654   22411423.3354
       240.000         201.000
 09  1 11  0 15 30.0000000  0  9G 9G26G15G 8G18G27G17G10G28
 115981124.85948  90374892.90348  22070481.0874   22070484.2434   22070481.6374
       236.000         197.000
 106496649.40448  82984390.42748  20265647.2654   20265649.6604   20265647.0904
       252.000         227.000
 107615061.74748  83855895.20948  20478462.2994   20478463.7074   20478462.1534
       253.000         238.000
 128403698.38748 100054816.49848  24434421.5504   24434425.4764   24434422.0184
       218.000         166.000
 124460083.60848  96981881.31248  23683967.6734   23683969.4714   23683968.1794
       221.000         170.000
 125202199.05248  97560141.38648  23825195.7734   23825199.4414   23825196.1724
       223.000         177.000
 128262719.03448  99944969.80648  24407587.7184   24407590.5344   24407587.5964
       217.000         170.000
 121467257.86048  94649798.12948  23114460.6174   23114464.7124   23114461.2264
       228.000         184.000
 117830725.62348  91816144.23548  22422446.0154   22422448.4084   22422446.2094
       240.000         201.000
 09  1 11  0 16  0.0000000  0  9G 9G26G15G 8G18G27G17G10G28
 115900404.70048  90311994.07848  22055120.7104   22055123.6714   22055121.2174
       236.000         197.000
 106524082.36448  83005766.76048  20270867.6404   20270870.0134   20270867.5814
       251.000         227.000
 107590230.51248  83836546.19548  20473737.2084   20473738.5414   20473737.0394
       253.000         238.000
 128494319.80148 100125430.59048  24451666.1804   24451670.1084   24451667.6414
       214.000         165.000
 124377237.76148  96917326.10548  23668203.2884   23668204.3684   23668202.8184
       221.000         172.000
 125273331.14448  97615568.97948  23838732.1214   23838735.4214   23838732.8044
       223.000         176.000
 128194465.45148  99891785.19348  24394599.8594   24394601.9244   24394598.4524
       217.000         171.000
 121572488.36048  94731795.92248  23134485.2484   23134489.2444   23134485.9844
       228.000         183.000
 117889059.87848  91861599.48748  22433546.6064   22433548.3524   22433547.4114
       239.000         199.000
 09  1 11  0 16 30.0000000  0  9G 9G26G15G 8G18G27G17G10G28
 115819929.65848  90249286.26848  22039806.7994   22039809.7004   22039807.2244
       237.000         198.000
 106551910.29148  83027450.86148  20276163.1844   20276165.4464   20276163.0984
       252.000         227.000
 107565750.91848  83817471.18448  20469078.9544   20469080.2244   20469078.8524
       253.000         238.000
 128584954.12748 100196054.69748  24468914.0494   24468917.0834   24468913.8424
       217.000         166.000
 124294738.79648  96853041.23548  23652503.5954   23652505.5254   23652504.0594
       221.000         172.000
 125344479.85348  97671009.51148  23852271.5394   23852275.0754   23852270.9944
       225.000         177.000
 128126440.63448  99838778.87548  24381654.4304   24381656.8634   24381654.7954
       218.000         173.000
 121677894.21348  94813930.34448  23154543.0884   23154547.3214   23154543.3284
       227.000         184.000
 117947799.81548  91907370.87148  22444724.1634   22444725.8064   22444724.7704
       239.000         199.000
 09  1 11  0 17  0.0000000  0  9G 9G26G15G 8G18G27G17G10G28
 115739700.09848  90186769.74548  22024539.6654   22024542.6254   22024540.0424
       237.000         199.000
 106580132.98148  83049442.56748  20281533.7444   20281535.9964   20281533.6274
       252.000         227.000
 107541623.67448  83798670.73448  20464487.5804   20464489.0064   20464487.3094
       253.000         238.000
 128675599.94448 100266687.81048  24486162.7584   24486165.8234   24486163.1574
       215.000         165.000
 124212589.19448  96789028.56448  23636871.1264   23636873.2554   23636872.0944
       223.000         173.000
 125415644.66648  97726462.59048  23865813.7144   23865817.0774   23865813.8404
       226.000         177.000
 128058647.32048  99785952.90148  24368755.2014   24368756.7504   24368755.0234
       220.000         171.000
 121783472.96148  94896199.50548  23174633.9334   23174638.2044   23174634.9874
       228.000         181.000
 118006943.05648  91953456.51348  22455978.9764   22455980.6624   22455978.9914
       240.000         200.000
 09  1 11  0 17 30.0000000  0  9G 9G26G15G 8G18G27G17G10G28
 115659716.97748  90124445.25048  22009319.5084   22009322.1464   22009319.5104
       237.000         199.000
 106608750.50148  83071741.92648  20286979.4284   20286981.6374   20286979.4354
       251.000         227.000
 107517850.26548  83780146.00448  20459963.5964   20459965.0074   20459963.3294
       253.000         238.000
 128766256.81148 100337329.50448  24503414.4114   24503417.5884   24503415.0674
       219.000         167.000
 124130791.16648  96725289.85048  23621304.8234   23621306.9974   23621305.5444
       223.000         171.000
 125486824.86748  97781927.65448  23879359.6354   23879362.5844   23879360.2954
       227.000         177.000
 127991088.27948  99733309.48948  24355898.1244   24355900.2104   24355898.3384
       216.000         171.000
 121889221.57548  94978601.01348  23194757.1154   23194761.6404   23194758.0954
       227.000         181.000
 118066487.66648  91999854.90248  22467309.9234   22467312.0574   22467310.8364
       239.000         199.000
 09  1 11  0 18  0.0000000  0  9G 9G26G15G 8G18G27G17G10G28
 115579981.02048  90062313.35348  21994146.0724   21994149.0914   21994146.1474
       237.000         199.000
 106637763.39348  83094349.37548  20292500.5124   20292502.6594   20292500.4164
       252.000         227.000
 107494432.01448  83761898.02148  20455507.3034   20455508.6264   20455507.1234
       253.000         238.000
 128856924.12448 100407979.33748  24520668.7914   24520671.4314   24520670.4114
       215.000         165.000
 124049347.51848  96661827.25148  23605807.4514   23605808.3444   23605807.9034
       225.000         172.000
 125558020.42048  97837404.69548  23892907.2314   23892910.2244   23892907.9214
       223.000         174.000
 127923766.63148  99680851.10348  24343087.7124   24343089.2454   24343087.5564
       215.000         172.000
 121995137.86848  95061133.18948  23214912.7624   23214916.5444   23214913.1624
       227.000         181.000
 118126432.06048  92046564.82248  22478717.0614   22478719.1554   22478717.7844
       239.000         198.000
 09  1 11  0 18 30.0000000  0  9G 9G26G15G 8G18G27G17G10G28
 115500492.91448  90000374.58648  21979019.8554   21979022.5874   21979020.2964
       237.000         199.000
 106667171.66948  83117264.90648  20298096.7744   20298098.9634   20298096.6914
       252.000         227.000
 107471370.14648  83743927.74348  20451118.7484   20451120.1954   20451118.5594
       252.000         238.000
 128947600.75248 100478636.40648  24537923.1904   24537926.7784   24537923.2334
       215.000         166.000
 123968260.75048  96598642.76048  23590377.5584   23590378.1244   23590378.2144
       224.000         174.000
 125629230.89048  97892893.35148  23906457.8954   23906461.0124   23906457.7454
       224.000         174.000
 127856685.48648  99628580.06348  24330322.4354   24330323.8504   24330321.8224
       216.000         170.000
 122101219.20348  95143793.96448  23235099.1304   23235102.9504   23235099.8774
       226.000         179.000
 118186773.97048  92093584.48948  22490199.5614   22490201.1664   22490199.6164
       239.000         198.000
 09  1 11  0 19  0.0000000  0  9G 9G26G15G 8G18G27G17G10G28
 115421253.65048  89938629.72448  21963941.1034   21963944.1934   21963941.0464
       237.000         201.000
 106696975.70948  83140488.82448  20303768.3824   20303770.4934   20303768.3814
       253.000         227.000
 107448666.85748  83726236.86348  20446798.4494   20446799.8754   20446798.1154
       252.000         238.000
 129038286.63248 100549300.72248  24555179.9664   24555183.8604   24555180.0954
       215.000         165.000
 123887533.78248  96535738.64348  23575015.0944   23575016.6184   23575015.6044
       224.000         173.000
 125700456.27648  97948393.62848  23920011.5934   23920014.7064   23920012.0984
       223.000         175.000
 127789847.86748  99576498.83548  24317603.3254   24317605.8584   24317603.1954
       220.000         171.000
 122207463.44048  95226581.66348  23255316.4884   23255320.5074   23255317.4714
       224.000         178.000
 118247512.07248  92140912.87948  22501757.7704   22501758.2574   22501757.7394
       239.000         196.000
 09  1 11  0 19 30.0000000  0  9G 9G26G15G 8G18G27G17G10G28
 115342264.06648  89877079.41648  21948909.8414   21948913.1994   21948910.3134
       238.000         201.000
 106727175.42948  83164021.06248  20309515.2354   20309517.2974   20309515.2704
       252.000         227.000
 107426323.14048  83708826.17048  20442546.5524   20442548.0464   20442546.2614
       252.000         238.000
 129128980.40048 100619971.16948  24572437.9304   24572442.1714   24572438.5814
       217.000         166.000
 123807168.62748  96473116.45148  23559722.4704   23559724.3054   23559722.5864
       226.000         175.000
 125771696.01348  98003905.10548  23933568.2144   23933571.1584   23933568.2374
       224.000         174.000
 127723256.66748  99524609.55348  24304932.1444   24304932.7274   24304932.4024
       221.000         171.000
 122313867.77448  95309494.12248  23275565.1434   23275568.7244   23275565.2294
       225.000         180.000
 118308643.78348  92188547.96448  22513390.8454   22513391.1154   22513390.9524
       239.000         198.000
 09  1 11  0 20  0.0000000  0  9G 9G26G15G 8G18G27G17G10G28
 115263524.10648  89815723.62148  21933926.2394   21933929.4644   21933926.4974
       239.000         201.000
 106757770.57748  83187861.42048  20315337.1924   20315339.3224   20315337.0904
       252.000         227.000
 107404339.55548  83691696.10748  20438363.1984   20438364.6134   20438362.9984
       252.000         238.000
 129219681.02848 100690646.93148  24589698.0544   24589701.8964   24589698.8734
       215.000         163.000
 123727167.43548  96410777.86048  23544498.7264   23544499.8594   23544499.6724
       224.000         174.000
 125842949.38748  98059427.19448  23947127.2924   23947130.2874   23947127.9094
       222.000         172.000
 127656914.26548  99472914.19948  24292306.3644   24292309.0744   24292306.1284
       216.000         173.000
 122420429.11448  95392528.93648  23295843.0634   23295846.9064   23295843.5524
       227.000         180.000
 118370166.74148  92236487.92148  22525098.3524   22525099.3714   22525099.3964
       240.000         199.000
 09  1 11  0 20 30.0000000  0  8G 9G26G15G 8G18G27G17G28
 115185034.48948  89754562.89648  21918990.3974   21918993.1354   21918990.8584
       238.000         200.000
 106788761.15248  83212009.90848  20321234.4884   20321236.6624   20321234.4484
       252.000         227.000
 107382717.56048  83674847.79648  20434248.6624   20434250.1514   20434248.4724
       252.000         238.000
 129310387.69548 100761327.43448  24606958.5494   24606962.4334   24606958.4694
       213.000         161.000
 123647532.60648  96348724.75548  23529344.5284   23529346.4574   23529344.9094
       224.000         177.000
 125914215.94148  98114959.55748  23960689.0054   23960691.8864   23960689.2944
       224.000         173.000
 127590823.78148  99421415.14048  24279730.7884   24279732.6394   24279730.0664
       217.000         168.000
 118432079.05148  92284731.28448  22536879.7204   22536881.8574   22536880.8184
       238.000         200.000
 09  1 11  0 21  0.0000000  0 10G 9G26G15G 8G18G27G17G12G10G28
 115106796.27748  89693598.07048  21904102.1074   21904104.6204   21904102.1424
       239.000         201.000
 106820147.53948  83236466.82548  20327207.1404   20327209.4254   20327207.0794
       252.000         227.000
 107361458.93548  83658282.63548  20430203.2274   20430204.7494   20430202.9424
       253.000         238.000
 129401100.11348 100832012.40948  24624220.2024   24624223.9334   24624220.8794
       213.000         161.000
 123568267.26148  96286959.55648  23514261.0604   23514262.7664   23514260.4114
       225.000         177.000
 125985495.72348  98170502.22148  23974253.3374   23974256.4384   23974253.7894
       226.000         175.000
 127524988.31648  99370114.79848  24267202.5614   24267204.5304   24267202.1784
       216.000         168.000
 141310700.67458  92320007.01858  24987609.8595   24987614.7705   24987608.3145
       208.000         152.000
 122634012.23248  95558957.30448  23336486.5664   23336490.5124   23336487.3584
       226.000         181.000
 118494379.03048  92333276.73248  22548734.7974   22548738.0534   22548734.7744
       239.000         200.000
 09  1 11  0 21 30.0000000  0 10G 9G26G15G 8G18G27G17G12G10G28
 115028809.81948  89632829.42548  21889261.7694   21889264.4034   21889262.2424
       238.000         201.000
 106851929.93548  83261232.31948  20333255.0454   20333257.3864   20333254.9614
       252.000         227.000
 107340565.23948  83642001.82448  20426227.4214   20426228.7694   20426227.2734
       252.000         238.000
 129491817.23848 100902701.03448  24641484.1024   24641486.7844   24641484.0804
       218.000         160.000
 123489373.69448  96225484.04248  23499247.8844   23499249.7464   23499247.1504
       225.000         177.000
 126056788.19348  98226054.78248  23987819.4764   23987823.4664   23987820.1234
       223.000         175.000
 127459410.76248  99319015.38048  24254723.4384   24254724.4814   24254723.0734
       218.000         166.000
 141195538.82948  92230270.55048  24965696.9104   24965699.7974   24965696.9324
       213.000         155.000
 122741029.23548  95642347.16848  23356851.4134   23356855.1744   23356852.0554
       226.000         180.000
 118557064.62348  92382122.65648  22560663.6714   22560666.7874   22560664.3384
       239.000         200.000
 09  1 11  0 22  0.0000000  0 10G 9G26G15G 8G18G27G17G12G10G28
 114951075.75248  89572257.44548  21874469.2464   21874471.9624   21874469.0424
       238.000         201.000
 106884108.44448  83286306.47248  20339378.3404   20339380.7204   20339378.3694
       251.000         226.000
 107320037.49048  83626006.17248  20422321.0434   20422322.4574   20422320.7704
       253.000         238.000
 129582538.31048 100973392.76048  24658748.0064   24658750.8904   24658749.1694
       217.000         164.000
 123410854.28548  96164300.08248  23484306.4104   23484308.1064   23484305.4874
       227.000         177.000
 126128092.87348  98281616.86848  24001388.4694   24001391.8924   24001388.8104
       226.000         176.000
 127394093.89648  99268119.12548  24242293.7404   24242295.4014   24242294.3174
       217.000         167.000
 141080419.82748  92140567.48448  24943791.8594   24943792.6904   24943792.2474
       212.000         155.000
 122848193.09248  95725851.47048  23377243.8064   23377247.2914   23377244.4974
       225.000         177.000
 118620133.81148  92431267.48248  22572665.3854   22572668.4904   22572665.7374
       238.000         199.000
 09  1 11  0 22 30.0000000  0 10G 9G26G15G 8G18G27G17G12G10G28
 114873594.98748  89511882.81248  21859725.1994   21859727.4704   21859725.4444
       238.000         200.000
 106916682.78348  83311689.06848  20345577.0094   20345579.3154   20345576.9644
       252.000         226.000
 107299876.98448  83610296.68348  20418484.6714   20418486.0104   20418484.4414
       253.000         239.000
 129673262.51948 101044086.92148  24676012.1224   24676015.4154   24676011.9274
       216.000         164.000
 123332711.35548  96103409.47448  23469436.4934   23469437.9724   23469437.2104
       226.000         178.000
 126199409.56248  98337188.29948  24014959.6464   24014962.8834   24014959.8064
       227.000         175.000
 127329040.51648  99217428.17948  24229914.6534   24229916.5134   24229914.4854
       218.000         167.000
 140965345.56648  92050899.30748  24921893.2714   24921894.5524   24921893.3724
       210.000         153.000
 122955500.91248  95809467.93248  23397663.5264   23397667.9244   23397664.3474
       224.000         178.000
 118683584.26848  92480709.40648  22584739.6774   22584742.3554   22584739.9544
       238.000         198.000
 09  1 11  0 23  0.0000000  0 10G 9G26G15G 8G18G27G17G12G10G28
 114796367.80548  89451705.82048  21845029.2054   21845032.2874   21845029.3894
       238.000         202.000
 106949652.71148  83337379.91148  20351850.9244   20351853.2764   20351850.9084
       251.000         226.000
 107280084.58648  83594874.03148  20414718.3334   20414719.5974   20414718.1894
       253.000         239.000
 129763988.87448 101114782.73748  24693276.6704   24693280.0194   24693276.4074
       215.000         163.000
 123254947.07048  96042813.93048  23454638.0444   23454639.8984   23454637.9574
       224.000         175.000
 126270737.71048  98392768.63848  24028533.0264   24028536.4624   24028533.5104
       222.000         172.000
 127264253.28748  99166944.63048  24217586.1894   24217587.5294   24217585.7874
       215.000         168.000
 140850317.93148  91961267.43048  24900004.3274   24900004.4124   24900004.5104
       207.000         150.000
 123062949.77548  95893194.30248  23418111.0344   23418114.4494   23418111.9484
       225.000         178.000
 118747413.47848  92530446.44848  22596886.0964   22596888.4004   22596886.8114
       237.000         195.000
 09  1 11  0 23 30.0000000  0 10G 9G26G15G 8G18G27G17G12G10G28
 114719394.83648  89391726.89948  21830381.9874   21830384.9234   21830382.3544
       239.000         203.000
 106983018.55248  83363379.25948  20358200.4054   20358202.5934   20358200.1714
       252.000         227.000
 107260661.78548  83579739.37148  20411022.2624   20411023.5854   20411021.9874
       253.000         239.000
 129854716.81448 101185479.78148  24710541.9074   24710544.8354   24710542.1354
       217.000         161.000
 123177564.20448  95982515.57548  23439912.8004   23439913.8964   23439914.4434
       224.000         176.000
 126342077.04648  98448357.71848  24042108.2464   24042111.3764   24042108.3694
       224.000         171.000
 127199735.26348  99116670.85748  24205307.7074   24205310.0344   24205307.3954
       213.000         166.000
 140735339.56548  91871673.95448  24878124.6894   24878124.8194   24878125.9384
       209.000         148.000
 123170537.48948  95977028.88448  23438584.0394   23438587.4604   23438584.8354
       226.000         178.000
 118811619.83348  92580477.36948  22609103.9234   22609105.5524   22609104.6584
       238.000         194.000
 09  1 11  0 24  0.0000000  0 10G 9G26G15G 8G18G27G17G12G10G28
 114642677.00148  89331946.77948  21815783.0404   21815786.0394   21815782.8374
       239.000         203.000
 107016780.21348  83389687.04448  20364625.0974   20364627.3854   20364625.0114
       251.000         227.000
 107241609.80548  83564893.66748  20407396.7874   20407398.1274   20407396.5594
       253.000         239.000
 129945445.38848 101256177.34548  24727806.6604   24727810.1074   24727807.5814
       216.000         160.000
 123100564.82448  95922516.05648  23425260.1034   23425261.7934   23425260.4364
       227.000         178.000
 126413427.08548  98503955.13648  24055685.9524   24055688.5584   24055686.8324
       221.000         171.000
 127135489.34548  99066609.07948  24193083.5084   24193085.0594   24193082.3084
       216.000         169.000
