     2.11           OBSERVATION DATA    G (GPS)             RINEX VERSION / TYPE
teqc  2008Oct2      gpsops              20090106 00:05:40UTCPGM / RUN BY / DATE
    30.0000                                                 INTERVAL
     1     1                                                WAVELENGTH FACT L1/2
     7    L1    L2    P1    P2    C1    S1    S2            # / TYPES OF OBSERV
Linux 2.4.20-8|Pentium IV|gcc -static|Linux|486/DX+         COMMENT
     2.10           OBSERVATION DATA    GPS                 COMMENT
soc2rnx ver 1.20    gpsops               6-Jan-2009 00:05:38COMMENT
S1, if present, is the SNR for the C/A data stream on L1.   COMMENT
 SNR is mapped to RINEX snr flag value [1,4-9]              COMMENT
    SNR:   >316  >100  >31.6  >10  >3.2    >0 bad=0         COMMENT
L1 & L2:      9     8     7     6     5     4     1         COMMENT
                                                            COMMENT
This data is provided as a public service by NASA/JPL.      COMMENT
No warranty is expressed or implied regarding suitability   COMMENT
for use.  For further information, contact:                 COMMENT
Dave Stowers, NASA/JPL m/s 238-600                          COMMENT
4800 Oak Grove Drive, Pasadena CA 91109 USA                 COMMENT
                                                            COMMENT
Forced Modulo Decimation to 30 seconds                      COMMENT
  2009     1     5     0     0    0.0000000     GPS         TIME OF FIRST OBS
DSN                 JPL                                     OBSERVER / AGENCY
451-U               AOAD/M_T        NONE                    ANT # / TYPE
  4849202.3940  -360328.9929  4114913.1862                  APPROX POSITION XYZ
        0.0254        0.0000        0.0000                  ANTENNA: DELTA H/E/N
LP03574             ASHTECH Z-XII3      CC00                REC # / TYPE / VERS
MADR                                                        MARKER NAME
13407S012                                                   MARKER NUMBER
                                                            END OF HEADER
 09  1  5  0  0  0.0000000  0  9G24G26G 9G28G21G10G15G 8G27
 127563283.64448  99399942.37348  24274500.8434   24274506.0754   24274501.1754
       215.000         160.000
 105564785.96548  82258257.26348  20088325.4144   20088327.7684   20088325.4994
       251.000         229.000
 123191396.07448  95993265.10348  23442569.2714   23442571.8754   23442569.9404
       225.000         172.000
 114609979.96348  89306471.66048  21809558.8654   21809560.9024   21809560.0964
       242.000         209.000
 128469807.61048 100106366.99448  24446973.0104   24446974.6354   24446972.9854
       215.000         158.000
 113917821.95648  88767117.48348  21677853.5164   21677857.2944   21677854.1234
       243.000         209.000
 110609711.05748  86189376.74248  21048334.9484   21048336.3764   21048334.4554
       250.000         228.000
 121305426.30748  94523699.98048  23083662.6474   23083665.3964   23083662.3694
       228.000         183.000
 121244348.35248  94476094.78048  23072049.7614   23072052.2614   23072050.6104
       233.000         193.000
 09  1  5  0  0 30.0000000  0  9G24G26G 9G28G21G10G15G 8G27
 127630612.07348  99452406.07448  24287313.5754   24287317.6944   24287313.5904
       214.000         161.000
 105561474.48048  82255676.88548  20087695.2934   20087697.6844   20087695.1084
       252.000         229.000
 123093524.09348  95917001.24348  23423945.1794   23423948.4444   23423945.2984
       225.000         172.000
 114630248.72048  89322265.51048  21813415.6804   21813417.7844   21813416.0704
       241.000         210.000
 128478498.05948 100113138.74348  24448626.6164   24448628.3474   24448627.0874
       216.000         159.000
 114001109.67248  88832016.98948  21693702.8614   21693706.4424   21693703.2154
       241.000         209.000
 110561333.38048  86151679.84948  21039128.7504   21039130.5074   21039128.3364
       249.000         228.000
 121391679.45348  94590910.22048  23100075.6104   23100079.2324   23100076.5014
       227.000         183.000
 121315215.10248  94531315.62248  23085535.3974   23085537.8984   23085535.6974
       233.000         194.000
 09  1  5  0  1  0.0000000  0  9G24G26G 9G28G21G10G15G 8G27
 127698154.48148  99505036.52448  24300166.1954   24300170.2894   24300166.3494
       215.000         161.000
 105558525.77048  82253379.17948  20087134.2454   20087136.5314   20087134.2854
       251.000         228.000
 122995831.11948  95840876.86048  23405355.0704   23405358.1154   23405355.3274
       226.000         172.000
 114651039.80448  89338466.35848  21817372.1494   21817374.2334   21817372.8714
       241.000         209.000
 128487673.44348 100120288.36048  24450373.0004   24450374.5334   24450373.8944
       210.000         156.000
 114084767.49848  88897204.88948  21709622.4164   21709625.9724   21709623.0374
       243.000         209.000
 110513196.87948  86114170.88648  21029968.6384   21029970.6594   21029968.1674
       250.000         228.000
 121478036.36048  94658201.30048  23116509.0584   23116512.5374   23116509.2634
       227.000         183.000
 121386135.71048  94586578.42848  23099031.1934   23099033.8804   23099031.8584
       232.000         193.000
 09  1  5  0  1 30.0000000  0  9G24G26G 9G28G21G10G15G 8G27
 127765909.59048  99557832.69148  24313059.7934   24313063.1184   24313059.8644
       217.000         159.000
 105555941.57048  82251365.50748  20086642.4354   20086644.7534   20086642.3284
       251.000         228.000
 122898319.49048  95764893.78848  23386798.8854   23386802.0334   23386799.2474
       226.000         172.000
 114672353.57248  89355074.49148  21821428.2834   21821430.1984   21821428.6074
       242.000         210.000
 128497334.27648 100127816.26148  24452210.5554   24452212.2894   24452210.7604
       210.000         153.000
 114168794.61848  88962680.55948  21725612.0244   21725615.7974   21725613.1164
       241.000         208.000
 110465303.98348  86076851.75148  21020855.0684   21020856.7084   21020854.8254
       250.000         228.000
 121564496.99448  94725573.22648  23132962.1004   23132965.1754   23132962.9544
       227.000         183.000
 121457110.55848  94641883.49248  23112537.1504   23112540.1304   23112537.0744
       234.000         192.000
 09  1  5  0  2  0.0000000  0  9G24G26G 9G28G21G10G15G 8G27
 127833874.13348  99610792.06548  24325992.8704   24325996.8294   24325993.2194
       217.000         159.000
 105553722.50548  82249636.36048  20086220.2594   20086222.4584   20086220.0644
       251.000         228.000
 122800989.89248  95689052.55348  23368278.3734   23368280.3284   23368278.8224
       228.000         173.000
 114694188.89248  89372089.03048  21825583.1964   21825585.3744   21825583.8474
       241.000         209.000
 128507479.31348 100135721.46048  24454141.4214   24454142.9834   24454140.2004
       211.000         155.000
 114253188.74848  89028442.20248  21741671.6594   21741675.4864   21741672.2884
       241.000         208.000
 110417655.83448  86039723.33148  21011787.9654   21011789.5324   21011787.8124
       250.000         229.000
 121651059.63548  94793024.62148  23149434.3674   23149437.7344   23149434.2044
       227.000         184.000
 121528138.67148  94697230.06248  23126053.3374   23126056.2154   23126053.7854
       231.000         192.000
 09  1  5  0  2 30.0000000  0  9G24G26G 9G28G21G10G15G 8G27
 127902045.01948  99663912.22648  24338965.3324   24338969.1484   24338965.0174
       215.000         157.000
 105551869.11848  82248192.15648  20085867.5734   20085869.8634   20085867.5114
       251.000         228.000
 122703843.63348  95613354.16748  23349792.0144   23349793.9744   23349791.8744
       229.000         172.000
 114716544.86648  89389509.26748  21829837.6094   21829839.5154   21829837.9184
       242.000         209.000
 128518107.06748 100144002.81348  24456164.6564   24456165.5384   24456163.8774
       210.000         154.000
 114337947.85648  89094488.25348  21757800.9634   21757804.7354   21757801.5344
       241.000         207.000
 110370253.86848  86002786.73348  21002767.7444   21002769.3674   21002767.5054
       250.000         229.000
 121737723.09848  94860554.57748  23165925.9684   23165929.4254   23165927.1144
       228.000         183.000
 121599218.93848  94752617.29148  23139579.4694   23139582.0454   23139580.0894
       231.000         191.000
 09  1  5  0  3  0.0000000  0  9G24G26G 9G28G21G10G15G 8G27
 127970419.24248  99717190.81548  24351976.2154   24351980.4844   24351976.9634
       209.000         153.000
 105550381.78948  82247033.20848  20085584.6004   20085586.8754   20085584.5364
       252.000         229.000
 122606881.39348  95537799.20048  23331340.7214   23331343.0124   23331341.3294
       228.000         176.000
 114739420.69848  89407334.59848  21834190.6584   21834192.5734   21834191.2874
       240.000         209.000
 128529216.49748 100152659.51848  24458277.8914   24458280.0354   24458278.1874
       210.000         154.000
 114423069.14048  89160816.51248  21773998.8524   21774002.5364   21773999.2004
       241.000         207.000
 110323098.91948  85966042.61948  20993794.3534   20993796.1824   20993793.9434
       250.000         229.000
 121824485.42448  94928161.57448  23182436.3304   23182439.5504   23182436.5794
       228.000         182.000
 121670350.12648  94808044.18448  23153115.2874   23153117.9064   23153115.5664
       232.000         191.000
 09  1  5  0  3 30.0000000  0  9G24G26G 9G28G21G10G15G 8G27
 128038994.02748  99770625.68348  24365025.3954   24365029.4384   24365024.9774
       215.000         154.000
 105549260.88348  82246159.77548  20085371.3064   20085373.6434   20085371.4794
       251.000         229.000
 122510103.76448  95462388.10148  23312924.1454   23312927.4024   23312924.1804
       227.000         176.000
 114762815.19748  89425564.08248  21838642.3034   21838644.3454   21838642.8334
       241.000         209.000
 128540806.59448 100161690.75248  24460484.1854   24460485.8304   24460485.5294
       210.000         156.000
 114508550.33848  89227425.21748  21790265.3814   21790269.0104   21790266.2684
       241.000         206.000
 110276192.44848  85929492.11948  20984868.2624   20984869.9904   20984867.9534
       250.000         229.000
 121911345.23948  94995844.54148  23198965.0114   23198967.8604   23198965.5744
       228.000         180.000
 121741531.65648  94863510.29148  23166660.4894   23166663.6564   23166660.8564
       229.000         191.000
 09  1  5  0  4  0.0000000  0  9G24G26G 9G28G21G10G15G 8G27
 128107766.29348  99824214.44948  24378113.1334   24378116.6704   24378113.7094
       213.000         154.000
 105548506.74648  82245572.12548  20085227.7544   20085230.0924   20085227.7694
       251.000         228.000
 122413511.28048  95387121.23148  23294543.3034   23294546.4124   23294543.4384
       228.000         175.000
 114786727.47948  89444197.02848  21843192.7914   21843194.6284   21843193.0644
       242.000         209.000
 128552875.27648 100171094.86648  24462780.5864   24462781.8974   24462781.6614
       218.000         160.000
 114594388.67048  89294312.21748  21806599.7294   21806603.5414   21806600.9504
       241.000         207.000
 110229535.29648  85893135.90048  20975989.7444   20975991.3334   20975989.5284
       250.000         229.000
 121998300.67848  95063602.02548  23215511.8444   23215515.0744   23215512.6764
       227.000         180.000
 121812762.36548  94919014.73948  23180214.9254   23180218.2294   23180215.1364
       229.000         189.000
 09  1  5  0  4 30.0000000  0  9G24G26G 9G28G21G10G15G 8G27
 128176733.63948  99877955.21348  24391237.9644   24391240.9704   24391237.8894
       212.000         156.000
 105548120.17948  82245270.90148  20085154.1164   20085156.4274   20085154.0114
       251.000         229.000
 122317105.29548  95311999.71648  23276197.6684   23276201.0654   23276198.0864
       226.000         176.000
 114811157.07948  89463233.09248  21847841.6684   21847843.5184   21847842.0834
       241.000         209.000
 128565421.83648 100180871.40648  24465168.1844   24465169.6054   24465171.0764
       214.000         161.000
 114680582.41448  89361476.16048  21823002.2244   21823005.6734   21823003.0934
       241.000         207.000
 110183129.11948  85856975.24448  20967159.0814   20967160.6254   20967158.8304
       250.000         229.000
 122085350.50748  95131433.03748  23232077.1354   23232080.6224   23232077.4674
       229.000         180.000
 121884041.37848  94974556.81548  23193779.0964   23193782.0524   23193779.0344
       231.000         189.000
 09  1  5  0  5  0.0000000  0  9G24G26G 9G28G21G10G15G 8G27
 128245893.56248  99931846.03348  24404397.7484   24404401.4874   24404397.6314
       210.000         152.000
 105548102.30048  82245256.95748  20085150.8264   20085153.0714   20085150.7714
       251.000         228.000
 122220887.32848  95237024.68648  23257887.8274   23257891.3534   23257887.8944
       227.000         176.000
 114836102.61248  89482671.16848  21852588.7614   21852590.5834   21852589.1364
       244.000         209.000
 128578445.41448 100191019.65048  24467645.6044   24467647.2464   24467643.9354
       202.000         149.000
 114767129.56948  89428915.49448  21839471.6214   21839474.9894   21839472.3704
       241.000         206.000
 110136975.67348  85821011.51148  20958376.4174   20958377.8884   20958376.0914
       250.000         229.000
 122172493.99748  95199337.04148  23248659.8944   23248663.9854   23248660.4464
       226.000         178.000
 121955368.21348  95030136.16048  23207351.8154   23207355.3114   23207352.1744
       229.000         189.000
 09  1  5  0  5 30.0000000  0  9G24G26G 9G28G21G10G15G 8G27
 128315243.63548  99985885.07648  24417594.9994   24417598.1304   24417595.0044
       210.000         155.000
 105548454.03448  82245531.04548  20085217.5134   20085219.9204   20085217.4194
       251.000         229.000
 122124858.84748  95162197.30448  23239614.5654   23239617.4634   23239614.6734
       228.000         176.000
 114861564.27248  89502511.42748  21857433.9264   21857435.3754   21857434.5714
       242.000         208.000
 128591945.71248 100201539.32248  24470214.5364   24470217.2334   24470213.8694
       206.000         151.000
 114854028.70148  89496629.09248  21856007.8304   21856011.3714   21856008.6134
       240.000         206.000
 110091077.24948  85785246.51048  20949642.1334   20949643.7964   20949642.0974
       249.000         229.000
 122259730.39348  95267313.46148  23265260.4544   23265263.8614   23265260.3044
       228.000         177.000
 122026742.55948  95085752.52448  23220933.9894   23220937.5594   23220934.4264
       228.000         189.000
 09  1  5  0  6  0.0000000  0  9G24G26G 9G28G21G10G15G 8G27
 128384779.39648 100040068.77148  24430826.8794   24430830.2824   24430826.3924
       213.000         152.000
 105549174.58848  82246092.50748  20085354.6584   20085357.1134   20085354.5854
       251.000         229.000
 122029019.29048  95087517.13648  23221377.2094   23221380.1524   23221378.3814
       226.000         176.000
 114887539.57148  89522751.92448  21862376.6004   21862378.5154   21862377.0864
       241.000         208.000
 128605919.58848 100212428.02948  24472874.0174   24472876.0664   24472874.9214
       212.000         155.000
 114941275.94348  89564613.94348  21872610.2064   21872613.9574   21872611.0404
       240.000         205.000
 110045433.19148  85749679.72148  20940956.2224   20940958.1104   20940956.0744
       249.000         230.000
 122347056.52748  95335359.77448  23281878.0714   23281881.2204   23281878.7854
       226.000         176.000
 122098162.07748  95141404.08648  23234524.9394   23234528.0744   23234525.1054
       229.000         189.000
 09  1  5  0  6 30.0000000  0  9G24G26G 9G28G21G10G15G 8G27
 128454498.64548 100094395.42048  24444093.3344   24444098.2794   24444093.6834
       207.000         151.000
 105550264.76648  82246941.99448  20085562.1364   20085564.6414   20085562.1064
       251.000         229.000
 121933369.64748  95012984.96548  23203175.6864   23203178.3844   23203176.1874
       227.000         176.000
 114914027.56048  89543391.93048  21867416.7954   21867418.9454   21867417.2994
       241.000         207.000
 128620366.32148 100223685.20848  24475623.4844   24475625.0794   24475624.4264
       214.000         157.000
 115028869.67248  89632868.78148  21889278.9614   21889282.4774   21889279.7524
       241.000         205.000
 110000045.36548  85714312.58348  20932319.3394   20932321.0204   20932318.9684
       250.000         230.000
 122434471.47048  95403475.30248  23298512.7234   23298515.9294   23298512.5344
       227.000         175.000
 122169626.22948  95197090.43348  23248124.3994   23248127.1104   23248124.3834
       230.000         188.000
 09  1  5  0  7  0.0000000  0  9G24G26G 9G28G21G10G15G 8G27
 128524398.55748 100148862.88848  24457394.5974   24457399.1554   24457394.9404
       207.000         149.000
 105551725.47748  82248080.20548  20085840.2814   20085842.6274   20085840.1984
       251.000         229.000
 121837911.57748  94938602.06048  23185010.4604   23185013.4224   23185010.7934
       225.000         177.000
 114941027.81548  89564431.09448  21872555.0594   21872557.1264   21872555.7414
       241.000         208.000
 128635284.98848 100235310.16748  24478462.4344   24478464.0274   24478461.1354
       214.000         157.000
 115116807.20948  89701391.52848  21906012.8594   21906016.6454   21906013.6884
       240.000         205.000
 109954915.46448  85679146.42848  20923731.3534   20923733.0804   20923731.1004
       249.000         230.000
 122521974.44348  95471659.43348  23315164.2134   23315167.4054   23315164.7624
       228.000         176.000
 122241134.71548  95252811.31548  23261731.8254   23261734.7854   23261732.3094
       227.000         187.000
 09  1  5  0  7 30.0000000  0  9G24G26G 9G28G21G10G15G 8G27
 128594476.21848 100203468.81648  24470729.6294   24470734.7884   24470729.5214
       208.000         151.000
 105553556.83448  82249507.23848  20086188.6704   20086191.0894   20086188.4504
       252.000         229.000
 121742645.52048  94864368.81048  23166881.1694   23166884.8214   23166881.0974
       222.000         177.000
 114968539.00648  89585868.38648  21877790.2664   21877791.9884   21877790.9524
       242.000         208.000
 128650673.83048 100247301.46248  24481390.9394   24481391.9674   24481392.0094
       216.000         156.000
 115205086.45048  89770180.53648  21922812.0344   21922815.8384   21922812.6154
       240.000         205.000
 109910044.41848  85644181.97948  20915192.6684   20915194.3414   20915192.3534
       250.000         230.000
 122609563.96548  95539911.02048  23331832.0654   23331834.9504   23331832.8024
       228.000         173.000
 122312686.42748  95308565.87448  23275347.3834   23275350.5734   23275347.2574
       226.000         187.000
 09  1  5  0  8  0.0000000  0  9G24G26G 9G28G21G10G15G 8G27
 128664728.55948 100258210.90448  24484099.0574   24484104.1974   24484099.1694
       214.000         153.000
 105555759.37748  82251223.50248  20086607.7404   20086610.2944   20086607.6314
       251.000         229.000
 121647572.00648  94790285.60048  23148788.7284   23148793.1014   23148788.8424
       225.000         177.000
 114996560.04648  89607702.97048  21883122.8984   21883124.2054   21883123.3444
       242.000         209.000
 128666531.16548 100259657.84448  24484408.0164   24484409.4784   24484410.2804
       211.000         153.000
 115293704.59948  89839233.63548  21939675.6594   21939679.1254   21939676.4164
       241.000         204.000
 109865433.30748  85609420.07948  20906703.4884   20906705.1794   20906703.2724
       250.000         230.000
 122697238.12048  95608228.53148  23348515.5534   23348518.7744   23348516.0814
       225.000         172.000
 122384280.16348  95364353.20548  23288971.4074   23288974.2964   23288971.8404
       229.000         188.000
 09  1  5  0  8 30.0000000  0  9G24G26G 9G28G21G10G15G 8G27
 128735153.04848 100313087.11248  24497500.4784   24497505.1004   24497500.9464
       210.000         152.000
 105558333.94448  82253229.65448  20087097.7164   20087100.1554   20087097.5774
       251.000         229.000
 121552692.74348  94716353.72048  23130734.4814   23130737.3394   23130734.5994
       227.000         178.000
 115025090.16748  89629934.23548  21888551.9814   21888553.3544   21888552.3774
       244.000         209.000
 128682856.37748 100272378.76748  24487514.8684   24487516.7104   24487514.4314
       213.000         156.000
 115382660.24748  89908549.70648  21956603.4024   21956606.6014   21956604.3514
       241.000         204.000
 109821084.23848  85574862.36548  20898264.0564   20898265.7514   20898263.7214
       250.000         230.000
 122784995.79248  95676611.11348  23365214.8264   23365218.8774   23365214.9964
       225.000         172.000
 122455915.51948  95420172.96148  23302603.1524   23302605.8724   23302603.0784
       229.000         188.000
 09  1  5  0  9  0.0000000  0  9G24G26G 9G28G21G10G15G 8G27
 128805746.93848 100368095.33948  24510934.3074   24510938.7074   24510934.5914
       214.000         154.000
 105561281.33048  82255526.30948  20087658.6044   20087661.0154   20087658.5434
       251.000         229.000
 121458008.50948  94642573.81748  23112717.3384   23112720.0064   23112717.3914
       228.000         180.000
 115054128.19848  89652561.27748  21894077.9984   21894079.2854   21894078.7814
       241.000         209.000
 128699648.10648 100285463.21848  24490710.2914   24490712.1224   24490711.1534
       211.000         152.000
 115471950.83748  89978126.78748  21973594.8914   21973598.1274   21973595.8414
       241.000         204.000
 109776998.56648  85540509.89348  20889874.8874   20889876.5774   20889874.5934
       250.000         230.000
 122872835.98248  95745057.99948  23381930.4894   23381934.6284   23381931.2034
       227.000         173.000
 122527591.76848  95476024.57248  23316242.8964   23316245.6774   23316243.0574
       228.000         189.000
 09  1  5  0  9 30.0000000  0  9G24G26G 9G28G21G10G15G 8G27
 128876506.73448 100423232.82848  24524399.2174   24524403.7084   24524399.4324
       214.000         153.000
 105564601.32148  82258113.30848  20088290.3914   20088292.7044   20088290.2204
       251.000         229.000
 121363519.67948  94568946.18048  23094736.5034   23094739.3844   23094736.4554
       228.000         180.000
 115083672.45048  89675582.77448  21899699.7284   21899701.4414   21899700.1974
       241.000         209.000
 128716904.11748 100298909.44348  24493993.8174   24493995.9884   24493994.7564
       207.000         150.000
 115561573.17448  90047962.35848  21990649.5354   21990652.9494   21990650.5944
       240.000         204.000
 109733177.06548  85506363.27148  20881535.8934   20881537.5834   20881535.6974
       250.000         230.000
 122960756.84448  95813567.74748  23398661.5354   23398665.1184   23398661.6764
       228.000         172.000
 122599307.62748  95531907.06548  23329890.1294   23329892.8394   23329890.0954
       228.000         188.000
 09  1  5  0 10  0.0000000  0  9G24G26G 9G28G21G10G15G 8G27
 128947429.91548 100478497.63148  24537895.4534   24537899.9384   24537895.5474
       215.000         156.000
 105568295.06148  82260991.54448  20088993.2014   20088995.6744   20088993.1654
       251.000         229.000
 121269227.38948  94495471.68048  23076793.4714   23076796.2914   23076793.5394
       229.000         181.000
 115113722.41548  89698998.33148  21905417.8094   21905419.6254   21905418.4654
       240.000         208.000
 128734623.80648 100312716.99148  24497365.3214   24497368.3074   24497364.7504
       211.000         148.000
 115651525.56148  90118055.11948  22007766.7644   22007770.2854   22007767.4854
       240.000         203.000
 109689621.46748  85472423.84048  20873247.6464   20873249.1974   20873247.3914
       250.000         231.000
 123048757.28148  95882139.52748  23415407.7474   23415410.2294   23415408.4224
       228.000         170.000
 122671062.71748  95587820.09948  23343544.2364   23343547.3104   23343544.4354
       226.000         185.000
 09  1  5  0 10 30.0000000  0  9G24G26G 9G28G21G10G15G 8G27
 129018513.42148 100533887.38348  24551422.6274   24551426.4284   24551422.7804
       215.000         158.000
 105572362.62948  82264161.06448  20089767.2504   20089769.7944   20089767.1274
       251.000         229.000
 121175132.20748  94422150.78248  23058887.8314   23058890.7004   23058888.5794
       227.000         182.000
 115144276.83448  89722806.97848  21911231.8624   21911233.9044   21911232.3034
       241.000         208.000
 128752805.33148 100326884.44748  24500825.8384   24500826.4964   24500827.8724
       208.000         147.000
 115741805.48948  90188403.09948  22024946.4144   22024949.9104   22024947.0064
       239.000         203.000
 109646332.60648  85438692.25748  20865010.0844   20865011.6244   20865009.8204
       251.000         231.000
 123136835.93548  95950772.23348  23432168.3644   23432170.8944   23432169.0794
       226.000         169.000
 122742855.96048  95643762.87748  23357205.5894   23357209.2804   23357205.6634
       226.000         186.000
 09  1  5  0 11  0.0000000  0  9G24G26G 9G28G21G10G15G 8G27
 129089754.67448 100589400.02748  24564979.0974   24564983.3764   24564979.5344
       217.000         158.000
 105576804.94648  82267622.60248  20090612.5904   20090615.1934   20090612.3194
       251.000         229.000
 121081235.63648  94348984.64948  23041019.0554   23041022.4274   23041019.1264
       224.000         180.000
 115175334.76548  89747007.96748  21917142.1144   21917144.1534   21917142.9574
       241.000         208.000
 128771447.24748 100341410.56248  24504373.9594   24504374.4564   24504372.5504
       212.000         148.000
 115832410.76648  90259004.60048  22042187.9214   22042191.4894   22042188.8434
       239.000         201.000
 109603312.58448  85405170.16448  20856823.5824   20856825.1704   20856823.2894
       251.000         231.000
 123224991.76748  96019465.07948  23448943.5904   23448947.3854   23448944.0724
       225.000         171.000
 122814686.97048  95699735.05148  23370875.1024   23370878.4244   23370875.1884
       229.000         187.000
 09  1  5  0 11 30.0000000  0  9G24G26G 9G28G21G10G15G 8G27
 129161150.89748 100645033.43948  24578565.7714   24578569.9404   24578565.7484
       213.000         160.000
 105581622.38248  82271376.44148  20091529.3634   20091531.8754   20091529.2404
       252.000         229.000
 120987538.74648  94275974.11248  23023189.0474   23023192.8144   23023188.5474
       226.000         179.000
 115206894.82348  89771600.22748  21923147.8894   21923149.7034   21923148.0614
       241.000         207.000
 128790548.05148 100356294.32748  24508008.5724   24508008.7644   24508010.4414
       211.000         148.000
 115923338.81248  90329857.61348  22059490.6934   22059494.4024   22059491.6334
       238.000         201.000
 109560562.72948  85371858.58648  20848688.5454   20848690.0834   20848688.2974
       251.000         231.000
 123313223.55348  96088217.07548  23465733.7704   23465737.4154   23465734.0324
       228.000         172.000
 122886554.77548  95755735.95048  23384551.7734   23384554.0504   23384552.2764
       230.000         188.000
 09  1  5  0 12  0.0000000  0 10G24G26G 9G28G21G10G15G 8G17G27
 129232698.41848 100700784.74348  24592179.8944   24592184.7144   24592181.0064
       210.000         156.000
 105586814.78548  82275422.45448  20092517.5154   20092519.9344   20092517.4744
       251.000         229.000
 120894041.44248  94203119.08348  23005397.1144   23005400.7064   23005397.5604
       226.000         181.000
 115238955.14248  89796582.29548  21929248.8264   21929250.6634   21929249.5404
       241.000         208.000
 128810105.81748 100371534.10748  24511729.3134   24511729.9914   24511732.1414
       210.000         143.000
 116014587.04248  90400960.12248  22076854.8874   22076858.4504   22076855.4774
       240.000         202.000
 109518083.50048  85338757.88348  20840605.0954   20840606.6064   20840604.7394
       250.000         231.000
 123401528.74348  96157026.30348  23482538.5414   23482540.4634   23482539.1474
       228.000         170.000
 142381535.50758  93154429.51758  25191378.5615   25191380.4825   25191377.8945
       217.000         157.000
 122958457.84048  95811764.31448  23398234.2654   23398236.6734   23398234.8054
       229.000         186.000
 09  1  5  0 12 30.0000000  0 10G24G26G 9G28G21G10G15G 8G17G27
 129304395.42348 100756652.51748  24605823.5114   24605827.8604   24605823.0714
       214.000         154.000
 105592383.76348  82279761.91248  20093577.2734   20093579.6394   20093577.1814
       251.000         229.000
 120800745.55148  94130421.02548  22987643.6394   22987647.1284   22987643.5714
       225.000         181.000
 115271515.57448  89821954.06948  21935444.6404   21935446.8254   21935445.3854
       241.000         208.000
 128830120.12248 100387129.61448  24515537.4504   24515539.4804   24515536.3864
       202.000         146.000
 116106153.85848  90472310.88048  22094279.8004   22094283.1594   22094280.8174
       240.000         201.000
 109475877.33248  85305869.96048  20832573.5064   20832575.0704   20832573.2284
       251.000         231.000
 123489907.38648  96225892.78748  23499356.1864   23499358.1874   23499357.1914
       227.000         170.000
 142305108.34148  93094875.88148  25176834.5494   25176836.7444   25176833.5724
       216.000         162.000
 123030396.54748  95867820.42948  23411923.1284   23411926.5694   23411923.0344
       227.000         185.000
 09  1  5  0 13  0.0000000  0 10G24G26G 9G28G21G10G15G 8G17G27
 129376239.38648 100812634.79748  24619495.0094   24619499.4454   24619494.9964
       215.000         156.000
 105598329.73848  82284395.13348  20094708.7854   20094711.1704   20094708.6524
       252.000         229.000
 120707652.26448  94057880.84248  22969928.8014   22969931.7974   22969929.1604
       228.000         180.000
 115304574.89748  89847714.58948  21941735.8194   21941737.6834   21941736.4804
       242.000         208.000
 128850589.63548 100403079.87848  24519432.7474   24519434.5954   24519433.0214
       211.000         149.000
 116198036.74748  90543907.92548  22111764.3054   22111767.8924   22111764.9594
       239.000         202.000
 109433945.61248  85273195.88548  20824594.3424   20824595.6714   20824594.1964
       251.000         231.000
 123578358.59848  96294815.80948  23516187.6354   23516190.0344   23516188.6754
       224.000         165.000
 142228743.05848  93035370.51748  25162303.2934   25162305.1104   25162302.2614
       217.000         162.000
 123102370.44048  95923903.94848  23425619.0024   23425622.9414   23425619.4234
       228.000         187.000
 09  1  5  0 13 30.0000000  0 10G24G26G 9G28G21G10G15G 8G17G27
 129448225.44048 100868727.82548  24633193.0174   24633198.1984   24633194.2584
       209.000         155.000
 105604651.59148  82289321.24448  20095911.7994   20095914.1794   20095911.8794
       251.000         229.000
 120614760.49648  93985497.66148  22952252.3274   22952255.1324   22952252.6554
       227.000         182.000
 115338130.39348  89873861.72248  21948121.2454   21948123.2214   21948121.7744
       242.000         208.000
 128871510.61548 100419381.94248  24523414.4394   24523415.8384   24523417.4824
       210.000         146.000
 116290231.83648  90615748.23748  22129308.3614   22129312.4254   22129308.8654
       237.000         201.000
 109392288.14848  85240735.51848  20816667.1294   20816668.5904   20816666.7594
       251.000         231.000
 123666879.25848  96363792.91948  23533032.2634   23533034.7504   23533032.6384
       223.000         166.000
 142152440.98748  92975914.35948  25147783.2064   25147785.2614   25147782.8494
       216.000         160.000
 123174376.83248  95980012.81948  23439322.1464   23439325.0974   23439321.9694
       231.000         189.000
 09  1  5  0 14  0.0000000  0 11G24G26G 9G28G18G21G10G15G 8G17G27
 129520354.18848 100924932.01948  24646918.7394   24646923.7134   24646918.2204
       210.000         156.000
 105611353.42648  82294543.44248  20097187.1634   20097189.4974   20097187.0704
       251.000         229.000
 120522074.87248  93913275.12648  22934614.6474   22934617.4794   22934614.7664
       228.000         181.000
 115372184.21248  89900397.17448  21954601.5514   21954603.4094   21954602.0784
       241.000         208.000
 139089124.95458  90588924.57558  24564847.2615   24564848.2145   24564848.3595
       212.000         153.000
 128892885.23948 100436037.49948  24527481.5674   24527483.8164   24527479.9134
       212.000         149.000
 116382740.24248  90687832.68548  22146912.2044   22146916.0824   22146913.0464
       239.000         201.000
 109350909.89848  85208492.72648  20808793.0454   20808794.5604   20808792.7384
       251.000         231.000
 123755471.71548  96432826.01648  23549890.7724   23549893.3054   23549891.1454
       225.000         167.000
 142076208.56148  92916512.46448  25133276.7844   25133278.2554   25133276.1404
       215.000         160.000
 123246418.51848  96036149.19948  23453031.6604   23453033.9884   23453032.2414
       230.000         188.000
 09  1  5  0 14 30.0000000  0 11G24G26G 9G28G18G21G10G15G 8G17G27
 129592618.98848 100981242.25248  24660671.3104   24660675.1494   24660672.2604
       210.000         155.000
 105618431.71848  82300058.99248  20098534.1794   20098536.4734   20098534.1154
       252.000         229.000
 120429592.25048  93841210.76248  22917015.5544   22917018.8964   22917015.6274
       231.000         184.000
 115406731.42348  89927317.08048  21961175.4064   21961177.3424   21961176.0644
       241.000         207.000
 138991881.23448  90513150.23548  24546341.9704   24546343.0254   24546343.8714
       219.000         154.000
 128914708.04948 100453042.24348  24531635.2914   24531636.5814   24531635.6374
       208.000         147.000
 116475555.43248  90760156.19248  22164574.4674   22164578.1184   22164575.5534
       238.000         201.000
 109309808.06948  85176465.32648  20800971.5094   20800973.0754   20800971.2204
       250.000         231.000
 123844130.79848  96501910.99948  23566762.6594   23566765.0984   23566762.8174
       224.000         167.000
 142000044.83248  92857164.10348  25118782.8694   25118784.4324   25118782.7794
       212.000         156.000
 123318490.92548  96092309.50748  23466745.9954   23466748.9934   23466746.5174
       227.000         185.000
 09  1  5  0 15  0.0000000  0 11G24G26G 9G28G18G21G10G15G 8G17G27
 129665017.60248 101037656.78048  24674447.7314   24674452.6524   24674447.5424
       207.000         154.000
 105625887.83948  82305868.95448  20099952.9654   20099955.3654   20099953.0674
       251.000         229.000
 120337313.89248  93769305.56848  22899455.5284   22899458.8744   22899456.2184
       229.000         182.000
 115441771.31148  89954620.89148  21967843.3564   21967845.5064   21967843.7624
       242.000         207.000
 138894852.47148  90437543.32148  24527878.4614   24527879.1914   24527878.8204
       217.000         159.000
 128936978.33748 100470395.69248  24535872.2334   24535874.4714   24535873.6294
       198.000         145.000
 116568675.86848  90832717.56348  22182295.1484   22182298.1554   22182295.1594
       240.000         201.000
 109268985.13048  85144655.24548  20793203.2294   20793204.8154   20793202.8344
       250.000         231.000
 123932855.78048  96571047.33548  23583646.3344   23583649.1894   23583646.8534
       224.000         166.000
 141923953.85948  92797872.43448  25104303.4144   25104304.5094   25104303.7904
       217.000         163.000
 123390594.08148  96148493.75648  23480466.0514   23480469.8654   23480465.7854
       227.000         184.000
 09  1  5  0 15 30.0000000  0 11G24G26G 9G28G18G21G10G15G 8G17G27
 129737548.65248 101094174.45848  24688250.3334   24688254.6144   24688250.0704
       213.000         156.000
 105633723.49148  82311974.64848  20101443.9984   20101446.4034   20101443.9594
       251.000         229.000
 120245242.49848  93697561.62648  22881934.7514   22881937.9994   22881934.3874
       232.000         182.000
 115477303.84548  89982308.58148  21974605.1774   21974606.9524   21974605.5014
       242.000         207.000
 138798042.55848  90362107.10248  24509455.6064   24509456.2054   24509457.7224
       213.000         158.000
 128959695.88448 100488097.64248  24540194.8514   24540196.5424   24540194.0354
       202.000         142.000
 116662100.22248  90905515.75648  22200073.1294   22200076.2594   22200074.0574
       240.000         201.000
 109228443.67048  85113064.50248  20785488.3904   20785489.9124   20785488.1254
       250.000         231.000
 124021646.98048  96640235.26748  23600541.9244   23600545.6814   23600543.2364
       221.000         166.000
 141847939.63148  92738640.59648  25089838.3424   25089840.6574   25089838.9334
       218.000         164.000
 123462728.64348  96204702.47948  23494193.4144   23494196.4534   23494193.0894
       230.000         188.000
 09  1  5  0 16  0.0000000  0 11G24G26G 9G28G18G21G10G15G 8G17G27
 129810208.07248 101150792.21448  24702077.2964   24702081.3064   24702078.8684
       211.000         154.000
 105641938.03348  82318375.58748  20103007.0824   20103009.4504   20103006.9154
       252.000         229.000
 120153377.69648  93625978.67548  22864453.8554   22864456.8744   22864454.3594
       232.000         184.000
 115513327.04648  90010378.61348  21981460.1744   21981461.9514   21981460.7924
       240.000         207.000
 138701453.26948  90286842.72448  24491074.8934   24491077.1934   24491075.5504
       215.000         157.000
 128982857.59948 100506145.71248  24544602.8134   24544604.3624   24544602.1634
       210.000         147.000
 116755825.76948  90978548.63748  22217908.5474   22217911.7514   22217909.5624
       239.000         201.000
 109188183.92348  85081693.26548  20777827.3014   20777828.6474   20777826.9124
       250.000         231.000
 124110502.24548  96709473.10148  23617449.9854   23617454.1704   23617450.1104
       221.000         164.000
 141772003.85648  92679469.85748  25075388.1504   25075390.3624   25075388.3394
       209.000         161.000
 123534892.72048  96260934.23448  23507926.8334   23507928.8214   23507927.3804
       231.000         189.000
 09  1  5  0 16 30.0000000  0 11G24G26G 9G28G18G21G10G15G 8G17G27
 129882993.51748 101207508.18648  24715927.0744   24715932.1214   24715926.9294
       209.000         152.000
 105650532.31548  82325072.42748  20104642.4644   20104644.9054   20104642.4184
       251.000         229.000
 120061720.89648  93554557.81848  22847012.3154   22847015.2114   22847012.9644
       232.000         184.000
 115549839.47648  90038829.85948  21988408.0914   21988409.8334   21988408.4704
       241.000         206.000
 138605087.34548  90211752.38448  24472736.7184   24472739.5804   24472737.4854
       209.000         158.000
 129006462.24348 100524538.94548  24549094.7114   24549095.9924   24549097.2584
       210.000         148.000
 116849849.79248  91051814.09848  22235800.5984   22235804.0234   22235801.6954
       239.000         200.000
 109148207.83448  85050543.06448  20770220.0424   20770221.4664   20770219.7114
       250.000         231.000
 124199420.78348  96778760.26448  23634372.1444   23634374.4114   23634371.7984
       226.000         168.000
 141696150.01148  92620362.99648  25060952.7114   25060955.6844   25060952.5294
       214.000         163.000
 123607086.12548  96317188.82248  23521663.9674   23521667.2104   23521664.3024
       230.000         186.000
 09  1  5  0 17  0.0000000  0 11G24G26G 9G28G18G21G10G15G 8G17G27
 129955902.26048 101264320.17248  24729801.8994   24729806.0344   24729801.9504
       208.000         148.000
 105659507.11648  82332065.77148  20106350.5144   20106352.8184   20106350.4224
       252.000         229.000
 119970272.93948  93483299.69748  22829610.2374   22829612.6454   22829610.5224
       230.000         182.000
 115586840.10748  90067661.52548  21995449.1404   21995450.9124   21995449.6524
       240.000         206.000
 138508947.49848  90136838.28048  24454442.0384   24454444.7264   24454441.6874
       214.000         162.000
 129030508.52148 100543276.23848  24553670.9884   24553672.7194   24553671.7354
       206.000         153.000
 116944169.98348  91125310.33548  22253748.8044   22253752.4924   22253749.3574
       238.000         200.000
 109108517.02948  85019615.15948  20762667.2094   20762668.5274   20762667.0474
       251.000         231.000
 124288401.35648  96848095.80348  23651305.1384   23651307.1824   23651306.1684
       225.000         167.000
 141620381.06348  92561322.25948  25046535.3824   25046537.8924   25046535.4994
       216.000         165.000
 123679308.43848  96373465.92848  23535406.9094   23535410.6774   23535406.7534
       227.000         186.000
 09  1  5  0 17 30.0000000  0 11G24G26G 9G28G18G21G10G15G 8G17G27
 130028931.13348 101321225.79248  24743697.6564   24743702.9404   24743698.3754
       204.000         146.000
 105668862.62848  82339355.78448  20108130.8284   20108133.1634   20108130.6694
       253.000         229.000
 119879034.62648  93412204.94048  22812247.7754   22812250.8724   22812247.7234
       229.000         182.000
 115624327.12348  90096872.18648  22002582.6494   22002584.5524   22002582.8584
       242.000         206.000
 138413036.45848  90062102.39548  24436191.3974   24436193.2084   24436191.4574
       217.000         155.000
 129054994.43148 100562356.15048  24558330.5594   24558332.0824   24558329.7044
       216.000         156.000
 117038784.14448  91199035.63948  22271753.5554   22271756.9404   22271754.2564
       238.000         200.000
 109069112.72948  84988910.51048  20755168.7684   20755170.1984   20755168.6764
       251.000         231.000
 124377442.67648  96917478.63248  23668247.2664   23668250.8844   23668248.3684
       217.000         161.000
 141544700.26948  92502350.21148  25032133.9534   25032135.6784   25032133.8404
       207.000         160.000
 123751558.77548  96429764.86448  23549156.1234   23549159.1564   23549156.2534
       228.000         185.000
 09  1  5  0 18  0.0000000  0 11G24G26G 9G28G18G21G10G15G 8G17G27
 130102078.00048 101378223.32148  24757616.9174   24757622.4474   24757615.5524
       208.000         149.000
 105678599.90048  82346943.25748  20109983.8164   20109986.0994   20109983.7724
       252.000         229.000
 119788007.25048  93341274.52948  22794926.0274   22794928.7354   22794926.3964
       230.000         183.000
 115662299.98248  90126461.42748  22009808.8424   22009810.2734   22009809.4494
       240.000         206.000
 138317357.31148  89987547.16048  24417983.9584   24417984.7414   24417984.1784
       215.000         153.000
 129079918.80848 100581777.74448  24563074.3634   24563075.5314   24563077.3764
       212.000         158.000
 117133690.17548  91272988.39548  22289813.6504   22289816.7984   22289814.6444
       238.000         199.000
 109029996.43148  84958430.27748  20747725.1644   20747726.5744   20747724.9364
       250.000         231.000
 124466543.72048  96986907.97548  23685202.9184   23685206.7214   23685202.6654
       221.000         165.000
 141469110.73648  92443449.31548  25017748.5904   25017750.9954   25017748.3554
       205.000         156.000
 123823836.70648  96486085.31948  23562910.4484   23562913.0874   23562910.9314
       231.000         187.000
 09  1  5  0 18 30.0000000  0 11G24G26G 9G28G18G21G10G15G 8G17G27
 130175339.29748 101435310.07948  24771559.4314   24771563.0214   24771560.7764
       208.000         147.000
 105688718.64648  82354827.99348  20111909.2294   20111911.6114   20111909.2424
       251.000         229.000
 119697190.91448  93270508.58348  22777644.0194   22777647.1154   22777644.0944
       231.000         184.000
 115700756.63548  90156427.65148  22017126.7404   22017128.5574   22017127.2134
       241.000         205.000
 138221911.66548  89913173.93548  24399821.5304   24399821.5654   24399821.0064
       218.000         156.000
 129105279.81848 100601539.53648  24567899.5774   24567901.7274   24567898.2564
       209.000         153.000
 117228884.81748  91347166.03248  22307928.4744   22307931.9144   22307929.0224
       238.000         198.000
 108991169.13248  84928175.23748  20740336.5584   20740338.0954   20740336.3734
       250.000         231.000
 124555702.97548  97056382.73948  23702170.7374   23702172.8304   23702171.3634
       222.000         165.000
 141393614.80348  92384621.27648  25003383.1774   25003385.0504   25003382.8624
       215.000         165.000
 123896140.99348  96542426.32348  23576669.8924   23576672.2464   23576670.2924
       230.000         185.000
 09  1  5  0 19  0.0000000  0 11G24G26G 9G28G18G21G10G15G 8G17G27
 130248711.17548 101492482.97448  24785521.3744   24785525.3274   24785522.5394
       207.000         150.000
 105699218.29948  82363009.53848  20113907.0424   20113909.5564   20113906.8934
       252.000         229.000
 119606585.65948  93199907.10248  22760402.4814   22760405.3674   22760402.7764
       231.000         185.000
 115739694.60148  90186768.93048  22024536.1044   22024537.9824   22024536.7914
       239.000         205.000
 138126701.12248  89838983.90948  24381703.8064   24381704.2004   24381703.3904
       211.000         152.000
 129131074.10648 100621638.99348  24572808.0554   24572809.4324   24572808.9294
       212.000         156.000
 117324364.58648  91421565.83748  22326097.4814   22326101.1494   22326098.5404
       237.000         198.000
 108952631.46948  84898145.88048  20733003.1664   20733004.5564   20733002.9954
       250.000         232.000
 124644918.61148  97125901.38048  23719146.6424   23719150.4144   23719147.5484
       217.000         163.000
 141318214.70148  92325867.95248  24989035.3114   24989036.9664   24989035.2994
       211.000         163.000
 123968470.19548  96598786.71248  23590432.3144   23590436.2414   23590432.5324
       227.000         184.000
 09  1  5  0 19 30.0000000  0 11G24G26G 9G28G18G21G10G15G 8G17G27
 130322192.48548 101549741.10548  24799503.5054   24799508.7054   24799503.3584
       206.000         147.000
 105710101.05748  82371489.60548  20115978.0914   20115980.5224   20115978.0254
       252.000         229.000
 119516193.83748  93129471.92848  22743201.6044   22743204.7114   22743202.0884
       231.000         186.000
 115779114.31148  90217485.59248  22032037.0724   22032039.5334   22032037.3754
       240.000         205.000
 138031730.06748  89764980.51548  24363630.9344   24363632.5914   24363630.7024
       214.000         159.000
 129157301.45448 100642075.86548  24577799.2484   24577800.5924   24577799.5594
       214.000         153.000
 117420128.77048  91496187.27648  22344320.7814   22344324.4024   22344321.6734
       238.000         198.000
 108914386.22648  84868344.38948  20725725.2304   20725726.8164   20725724.9194
       250.000         232.000
 124734190.57148  97195463.90248  23736134.4654   23736138.4664   23736134.7824
       221.000         165.000
 141242914.96748  92267192.88448  24974706.2304   24974708.4564   24974706.2414
       205.000         160.000
 124040825.26248  96655167.25748  23604202.1304   23604204.9784   23604202.0104
       232.000         186.000
 09  1  5  0 20  0.0000000  0 11G24G26G 9G28G18G21G10G15G 8G17G27
 130395781.94548 101607083.52348  24813507.5074   24813511.9494   24813508.2484
       208.000         145.000
 105721369.26148  82380270.01548  20118122.5254   20118124.8544   20118122.4854
       252.000         229.000
 119426018.22248  93059205.24648  22726041.8964   22726044.8804   22726042.4984
       230.000         184.000
 115819016.07548  90248577.87748  22039630.4224   22039632.6434   22039631.2344
       239.000         205.000
 137937002.89048  89691167.12448  24345605.2794   24345606.8354   24345605.6014
       212.000         159.000
 129183962.14248 100662850.38248  24582872.5524   24582873.4334   24582874.0874
       208.000         151.000
 117516176.90148  91571029.96248  22362597.9684   22362601.8874   22362598.5954
       236.000         197.000
 108876436.83248  84838773.43048  20718503.7844   20718505.2854   20718503.4834
       250.000         232.000
 124823519.77248  97265071.08848  23753134.5104   23753136.7814   23753135.3134
       221.000         164.000
 141167720.58648  92208599.86548  24960396.5664   24960399.5524   24960396.3474
       213.000         161.000
 124113207.46548  96711568.97648  23617976.1244   23617978.9054   23617976.9164
       229.000         183.000
 09  1  5  0 20 30.0000000  0 11G24G26G 9G28G18G21G10G15G 8G17G27
 130469474.70348 101664506.45648  24827530.6244   24827533.9754   24827531.8114
       206.000         144.000
 105733021.10648  82389349.37248  20120339.7014   20120342.0674   20120339.5884
       252.000         229.000
 119336057.81248  92989106.24548  22708922.8344   22708925.9034   22708922.9854
       231.000         187.000
 115859396.35748  90280043.02748  22047314.8204   22047316.8404   22047315.2724
       241.000         206.000
 137842519.96148  89617544.07848  24327625.4364   24327627.4564   24327624.3584
       214.000         158.000
 129211052.37048 100683959.66048  24588027.0814   24588028.4524   24588025.8874
       208.000         152.000
 117612504.04648  91646090.06248  22380928.7314   22380932.1994   22380929.2224
       237.000         197.000
 108838782.41848  84809432.32648  20711338.3894   20711340.0014   20711338.2334
       251.000         232.000
 124912902.91448  97334720.28148  23770142.3684   23770145.7874   23770142.5544
       216.000         161.000
 141092632.09548  92150089.37448  24946107.6884   24946110.3594   24946108.0164
       214.000         163.000
 124185613.97448  96767989.57848  23631753.4764   23631757.1594   23631753.5374
       228.000         183.000
 09  1  5  0 21  0.0000000  0 11G24G26G 9G28G18G21G10G15G 8G17G27
 130543266.32648 101722006.43448  24841573.6394   24841577.3054   24841574.6574
       207.000         145.000
 105745055.39848  82398726.73248  20122629.7804   20122632.1444   20122629.6364
       251.000         228.000
 119246311.55948  92919174.13448  22691844.9344   22691847.6274   22691845.3764
       229.000         186.000
 115900252.07548  90311878.65148  22055089.4444   22055091.3844   22055090.2334
       240.000         205.000
 137748282.20848  89544112.07748  24309692.7974   24309694.3874   24309693.4714
       218.000         160.000
 129238568.38748 100705400.65548  24593263.4504   24593265.4094   24593264.6594
       204.000         151.000
 117709106.48248  91721364.68948  22399311.5284   22399315.1904   22399312.5034
       238.000         197.000
 108801422.86448  84780320.98048  20704228.9904   20704230.7134   20704228.7034
       250.000         232.000
 125002337.29948  97404409.36648  23787160.9134   23787164.8954   23787160.6784
       216.000         160.000
 141017651.02548  92091662.55748  24931840.2554   24931842.0194   24931839.7674
       213.000         163.000
 124258042.33948  96824427.27848  23645537.7004   23645539.7504   23645537.8714
       233.000         185.000
 09  1  5  0 21 30.0000000  0 11G24G26G 9G28G18G21G10G15G 8G17G27
 130617154.12348 101779581.31948  24855633.8994   24855638.0494   24855633.2814
       213.000         149.000
 105757472.56948  82408402.45048  20124992.7144   20124995.0414   20124992.5214
       252.000         229.000
 119156779.90548  92849409.24248  22674806.8774   22674810.1804   22674807.3694
       229.000         186.000
 115941581.10848  90344083.09348  22062954.1674   22062955.9414   22062954.7764
       241.000         206.000
 137654292.42348  89470873.28348  24291807.1054   24291808.7244   24291807.4974
       217.000         160.000
 129266508.66548 100727172.23148  24598579.8814   24598582.4054   24598580.1314
       210.000         154.000
 117805981.77948  91796851.91948  22417746.0754   22417750.0184   22417746.8084
       235.000         197.000
 108764359.32048  84751440.29248  20697176.0474   20697177.7394   20697175.7984
       250.000         232.000
 125091821.59148  97474137.39948  23804189.8354   23804193.4794   23804189.9794
       219.000         161.000
 140942780.16048  92033321.61848  24917592.3544   24917594.5594   24917592.4444
       214.000         164.000
 124330492.37448  96880881.83948  23659323.9314   23659326.5524   23659324.4104
       229.000         182.000
 09  1  5  0 22  0.0000000  0 11G24G26G 9G28G18G21G10G15G 8G17G27
 130691136.15948 101837229.65048  24869712.4384   24869717.2334   24869713.1784
       209.000         151.000
 105770274.04648  82418377.61448  20127428.7894   20127431.1744   20127428.8194
       250.000         228.000
 119067464.86048  92779813.12848  22657810.9024   22657813.7244   22657811.0514
       231.000         187.000
 115983383.77548  90376656.60448  22070908.7844   22070910.8294   22070909.1044
       241.000         206.000
 137560553.91448  89397830.28048  24273969.1334   24273971.2424   24273968.3774
       216.000         155.000
 129294872.30648 100749273.77348  24603977.7944   24603979.9744   24603978.0384
       212.000         152.000
 117903128.02848  91872550.28948  22436232.5814   22436236.5804   22436233.1684
       237.000         197.000
 108727594.66448  84722792.50748  20690180.0234   20690181.7924   20690179.7184
       251.000         233.000
 125181356.02448  97543904.47648  23821228.1584   23821231.1694   23821228.7984
       220.000         161.000
 140868023.44748  91975069.63148  24903366.0154   24903368.5654   24903365.9424
       216.000         162.000
 124402964.43348  96937353.55248  23673114.3264   23673117.5724   23673114.5544
       229.000         183.000
 09  1  5  0 22 30.0000000  0 11G24G26G 9G28G18G21G10G15G 8G17G27
 130765209.11548 101894948.81548  24883807.7534   24883812.7794   24883806.7014
       206.000         148.000
 105783459.88748  82428652.29148  20129937.9474   20129940.3094   20129937.8324
       252.000         228.000
 118978367.42448  92710386.58448  22640856.3834   22640858.9244   22640856.6584
       232.000         186.000
 116025657.89548  90409597.48848  22078953.4274   22078955.1854   22078953.8344
       240.000         205.000
 137467069.36548  89324985.16948  24256179.5084   24256181.6074   24256180.7794
       217.000         156.000
 129323657.09248 100771703.47748  24609455.3144   24609457.3294   24609455.4624
       211.000         154.000
 118000542.62848  91948457.75448  22454770.0384   22454773.9564   22454770.8344
       236.000         196.000
 108691129.65948  84694378.21848  20683241.0224   20683242.6084   20683240.7894
       250.000         233.000
 125270938.81548  97613709.24348  23838275.3254   23838278.1774   23838275.3214
       218.000         161.000
 140793383.67548  91916908.77448  24889162.3214   24889165.0144   24889163.4044
       213.000         161.000
 124475457.44048  96993841.59548  23686909.8174   23686912.6344   23686909.9584
       229.000         184.000
 09  1  5  0 23  0.0000000  0 11G24G26G 9G28G18G21G10G15G 8G17G27
 130839370.17448 101952736.64648  24897919.4584   24897924.7014   24897920.0824
       210.000         150.000
 105797030.63248  82439226.89848  20132520.3564   20132522.7224   20132520.4074
       251.000         228.000
 118889487.95048  92641129.87648  22623943.3084   22623945.9804   22623943.5974
       232.000         188.000
 116068402.12948  90442904.68248  22087087.4414   22087089.2394   22087087.5284
       241.000         205.000
 137373841.33448  89252339.93248  24238439.0424   24238440.7964   24238439.5714
       214.000         159.000
 129352861.25848 100794459.93248  24615012.5924   24615014.1174   24615014.6874
       213.000         154.000
 118098223.33048  92024572.57948  22473358.0294   22473361.9374   22473359.0474
       236.000         196.000
 108654965.79548  84666198.57848  20676359.3614   20676360.8424   20676359.1324
       250.000         233.000
 125360569.25548  97683551.13348  23855330.7914   23855334.4294   23855331.2944
       216.000         159.000
 140718864.27248  91858841.71648  24874982.2654   24874984.8264   24874981.1834
       218.000         166.000
 124547970.96248  97050345.62748  23700708.5634   23700711.5324   23700709.1364
       228.000         182.000
 09  1  5  0 23 30.0000000  0 11G24G26G 9G28G18G21G10G15G 8G17G27
 130913616.78848 102010591.14548  24912048.0464   24912053.8194   24912048.4984
       203.000         150.000
 105810986.93248  82450101.92548  20135176.1554   20135178.6054   20135176.0914
       251.000         228.000
 118800827.72948  92572044.02148  22607072.1044   22607074.5154   22607072.2174
       233.000         188.000
 116111615.26048  90476577.24848  22095310.5254   22095312.1954   22095311.1194
       240.000         204.000
 137280872.28348  89179896.52248  24220748.0354   24220749.5324   24220747.6514
       218.000         162.000
 129382483.23648 100817541.96748  24620649.8134   24620651.9304   24620649.5104
       209.000         151.000
 118196167.30748  92100892.55048  22491996.3244   22492000.0504   22491997.1934
       236.000         196.000
 108619104.89648  84638255.01348  20669535.2574   20669536.6044   20669534.9594
       251.000         233.000
 125450246.39648  97753429.38548  23872396.5334   23872399.6584   23872396.1494
       221.000         161.000
 140644468.20148  91800870.77048  24860824.9704   24860827.6994   24860824.9354
       216.000         163.000
 124620504.53648  97106865.26948  23714510.6864   23714514.2044   23714510.6374
       227.000         182.000
 09  1  5  0 24  0.0000000  0 11G24G26G 9G28G18G21G10G15G 8G17G27
 130987946.21248 102068510.15148  24926193.2634   24926197.8134   24926192.6064
       208.000         148.000
 105825329.05248  82461277.60048  20137905.3494   20137907.8014   20137905.3284
       251.000         228.000
 118712387.39848  92503129.49548  22590242.4034   22590244.9504   22590242.6034
       233.000         188.000
 116155295.39648  90510613.72148  22103622.5634   22103624.3964   22103622.7714
       239.000         204.000
 137188164.70448  89107656.86948  24203106.6604   24203107.8384   24203108.9134
       220.000         165.000
 129412520.70548 100840947.75548  24626366.1394   24626366.8804   24626366.5794
       211.000         152.000
 118294372.49648  92177416.07548  22510684.4054   22510687.7704   22510685.0844
       236.000         196.000
 108583548.10448  84610548.41748  20662769.1654   20662770.5324   20662769.0944
       250.000         233.000
 125539968.85348  97823342.97948  23889469.9944   23889473.1234   23889470.6814
       211.000         160.000
 140570198.35948  91742998.17148  24846692.4394   24846694.0054   24846691.6854
       220.000         161.000
 124693057.50748  97163400.03748  23728317.5594   23728320.4764   23728317.4644
       228.000         182.000
 09  1  5  0 24 30.0000000  0 11G24G26G 9G28G18G21G10G15G 8G17G27
 131062355.13948 102126491.12348  24940351.9744   24940357.2524   24940352.3944
       207.000         146.000
 105840057.04248  82472753.94948  20140707.9864   20140710.3994   20140707.9654
       251.000         228.000
 118624167.40348  92434386.66848  22573454.4454   22573457.4254   22573454.9614
       232.000         189.000
 116199441.17748  90545013.03248  22112023.3834   22112025.1294   22112023.8344
       240.000         204.000
 137095721.63448  89035623.29648  24185515.3404   24185516.1464   24185516.0664
       215.000         161.000
 129442971.52648 100864675.64948  24632160.1394   24632162.0254   24632160.9634
       207.000         155.000
