     2.11           OBSERVATION DATA    G (GPS)             RINEX VERSION / TYPE
teqc  2008Oct2      gpsops              20090118 00:05:43UTCPGM / RUN BY / DATE
    30.0000                                                 INTERVAL
     1     1                                                WAVELENGTH FACT L1/2
     7    L1    L2    P1    P2    C1    S1    S2            # / TYPES OF OBSERV
Linux 2.4.20-8|Pentium IV|gcc -static|Linux|486/DX+         COMMENT
     2.10           OBSERVATION DATA    GPS                 COMMENT
soc2rnx ver 1.20    gpsops              18-Jan-2009 00:05:41COMMENT
S1, if present, is the SNR for the C/A data stream on L1.   COMMENT
 SNR is mapped to RINEX snr flag value [1,4-9]              COMMENT
    SNR:   >316  >100  >31.6  >10  >3.2    >0 bad=0         COMMENT
L1 & L2:      9     8     7     6     5     4     1         COMMENT
                                                            COMMENT
This data is provided as a public service by NASA/JPL.      COMMENT
No warranty is expressed or implied regarding suitability   COMMENT
for use.  For further information, contact:                 COMMENT
Dave Stowers, NASA/JPL m/s 238-600                          COMMENT
4800 Oak Grove Drive, Pasadena CA 91109 USA                 COMMENT
                                                            COMMENT
Forced Modulo Decimation to 30 seconds                      COMMENT
  2009     1    17     0     0    0.0000000     GPS         TIME OF FIRST OBS
DSN                 JPL                                     OBSERVER / AGENCY
451-U               AOAD/M_T        NONE                    ANT # / TYPE
  4849202.3940  -360328.9929  4114913.1862                  APPROX POSITION XYZ
        0.0254        0.0000        0.0000                  ANTENNA: DELTA H/E/N
LP03574             ASHTECH Z-XII3      CC00                REC # / TYPE / VERS
MADR                                                        MARKER NAME
13407S012                                                   MARKER NUMBER
                                                            END OF HEADER
 09  1 17  0  0  0.0000000  0 10G 9G18G26G17G 8G15G27G12G10G28
 114540347.34548  89252198.63248  21796318.9194   21796321.8774   21796319.6054
       241.000         203.000
 123104021.00048  95925207.26348  23425918.9604   23425920.3164   23425920.3874
       227.000         176.000
 107063696.32248  83426247.44448  20373549.3494   20373551.7054   20373549.2104
       253.000         226.000
 127064004.82348  99010906.64348  24179480.4584   24179482.7684   24179480.3324
       218.000         169.000
 130016728.22848 101311732.43848  24741364.1594   24741367.4934   24741366.1434
       219.000         160.000
 107203620.63548  83535282.79948  20400175.4004   20400176.9054   20400175.3104
       255.000         239.000
 124697808.42948  97167106.98848  23729216.6474   23729219.3264   23729216.5464
       225.000         179.000
 130587725.54848 101756657.81548  24850026.5224   24850029.1004   24850026.3264
       206.000         151.000
 123293114.48748  96072538.10348  23461914.2084   23461918.0184   23461914.9654
       225.000         176.000
 118984043.76148  92714831.48648  22641917.4564   22641916.3094   22641917.4574
       235.000         190.000
 09  1 17  0  0 30.0000000  0 10G 9G18G26G17G 8G15G27G12G10G28
 114464244.71848  89192897.90248  21781836.7994   21781839.8614   21781837.2164
       238.000         203.000
 123027602.73548  95865660.56948  23411376.7844   23411378.6764   23411378.5604
       227.000         176.000
 107098431.75648  83453314.00548  20380159.2994   20380161.6514   20380159.3104
       253.000         226.000
 127000445.61248  98961379.99948  24167386.2684   24167387.1944   24167386.5114
       221.000         172.000
 130107419.01648 101382400.57448  24758622.1424   24758625.0034   24758623.3114
       217.000         160.000
 107185941.88948  83521507.15048  20396811.3174   20396812.7404   20396811.1764
       254.000         239.000
 124767288.40848  97221247.20648  23742438.2204   23742441.3924   23742438.3814
       225.000         179.000
 130472892.54548 101667177.55948  24828174.3664   24828176.5524   24828172.9304
       205.000         151.000
 123400948.63848  96156564.71448  23482433.7564   23482437.8124   23482434.2794
       223.000         175.000
 119049510.13748  92765844.24248  22654375.0724   22654374.3744   22654375.4074
       236.000         189.000
 09  1 17  0  1  0.0000000  0 10G 9G18G26G17G 8G15G27G12G10G28
 114388399.99548  89133798.13448  21767404.0484   21767406.8754   21767403.9924
       239.000         203.000
 122951575.21948  95806418.34748  23396908.8984   23396910.9014   23396910.1694
       228.000         178.000
 107133563.67948  83480689.52048  20386844.5884   20386846.8184   20386844.4814
       253.000         226.000
 126937169.52248  98912073.93348  24155344.6684   24155346.5044   24155345.2224
       219.000         171.000
 130198109.95948 101453068.80948  24775879.4104   24775882.9904   24775879.9334
       218.000         164.000
 107168639.81448  83508025.01048  20393518.7934   20393520.2664   20393518.7324
       254.000         239.000
 124836792.25448  97275406.03948  23755664.4974   23755667.4724   23755664.4014
       227.000         180.000
 130358117.55748 101577742.51548  24806333.4384   24806335.7334   24806331.9044
       207.000         151.000
 123508913.79248  96240693.38648  23502979.1514   23502982.9504   23502979.6544
       225.000         173.000
 119115345.15148  92817144.24448  22666902.8094   22666902.5694   22666903.2384
       233.000         189.000
 09  1 17  0  1 30.0000000  0 10G 9G18G26G17G 8G15G27G12G10G28
 114312812.84148  89074899.06148  21753020.2584   21753023.1104   21753020.7614
       239.000         203.000
 122875939.34448  95747481.29848  23382516.4634   23382518.1054   23382517.0974
       228.000         178.000
 107169090.92848  83508373.08448  20393605.1004   20393607.3474   20393605.0804
       252.000         225.000
 126874177.39648  98862989.15648  24143358.3974   24143359.2054   24143358.5224
       220.000         173.000
 130288799.08348 101523735.65748  24793137.3674   24793140.7424   24793137.9254
       219.000         162.000
 107151714.63548  83494836.55548  20390298.0954   20390299.4894   20390297.7614
       254.000         239.000
 124906318.24648  97329582.11748  23768894.8034   23768897.8214   23768894.8254
       225.000         180.000
 130243401.78248 101488353.66548  24784503.4104   24784507.4534   24784503.6714
       211.000         154.000
 123617006.44948  96324921.41348  23523548.2864   23523551.9624   23523549.5084
       224.000         172.000
 119181545.36648  92868728.82248  22679500.1784   22679500.9084   22679499.9614
       235.000         190.000
 09  1 17  0  2  0.0000000  0 10G 9G18G26G17G 8G15G27G12G10G28
 114237484.52948  89016201.69448  21738685.7784   21738688.7564   21738685.4874
       238.000         203.000
 122800697.81548  95688851.52448  23368198.2024   23368199.9254   23368199.0304
       228.000         178.000
 107205013.90448  83536365.00848  20400441.0924   20400443.3864   20400440.9664
       253.000         226.000
 126811472.88848  98814128.49448  24131425.2714   24131427.1374   24131425.9624
       219.000         172.000
 130379486.13448 101594400.89948  24810394.4474   24810397.3554   24810394.5224
       219.000         160.000
 107135168.00048  83481943.07248  20387149.4274   20387150.7094   20387149.2474
       254.000         239.000
 124975866.65348  97383775.65448  23782129.3734   23782132.7894   23782129.4094
       222.000         180.000
 130128747.71048 101399012.83248  24762686.7104   24762689.5884   24762686.6704
       212.000         158.000
 123725224.17048  96409246.92548  23544142.0074   23544144.9764   23544142.7324
       225.000         173.000
 119248109.31148  92920596.82348  22692167.0094   22692168.5164   22692167.2814
       234.000         191.000
 09  1 17  0  2 30.0000000  0 10G 9G18G26G17G 8G15G27G12G10G28
 114162415.21848  88957706.14048  21724400.5524   21724403.3204   21724400.8184
       238.000         202.000
 122725852.75848  95630530.69948  23353955.9734   23353957.0734   23353956.5744
       226.000         177.000
 107241332.65248  83564665.32248  20407352.2154   20407354.7084   20407352.1824
       253.000         226.000
 126749059.05648  98765494.32648  24119548.6024   24119550.2094   24119548.6524
       216.000         172.000
 130470170.08548 101665063.68848  24827651.1794   24827653.9034   24827651.8904
       218.000         159.000
 107119000.99148  83469345.40348  20384072.8544   20384074.1924   20384072.6414
       254.000         239.000
 125045436.89048  97437986.19948  23795368.0604   23795371.5954   23795368.1384
       224.000         180.000
 130014157.57748 101309721.83248  24740881.2324   24740882.9864   24740880.0014
       213.000         156.000
 123833564.22248  96493667.73548  23564758.7504   23564761.4124   23564759.6764
       227.000         174.000
 119315034.78148  92972746.54148  22704902.3784   22704904.6424   22704902.4674
       234.000         192.000
 09  1 17  0  3  0.0000000  0 10G 9G18G26G17G 8G15G27G12G10G28
 114087605.11848  88899412.56648  21710164.5594   21710167.6374   21710164.8374
       238.000         203.000
 122651406.39448  95572520.53948  23339789.4714   23339790.2664   23339789.1314
       228.000         178.000
 107278046.30348  83593273.34548  20414338.6564   20414341.1244   20414338.5174
       253.000         225.000
 126686937.35648  98717087.82348  24107726.5904   24107728.1384   24107726.8614
       216.000         169.000
 130560849.88948 101735723.26848  24844906.9554   24844909.5834   24844908.1484
       220.000         164.000
 107103214.25848  83457044.05148  20381068.7354   20381070.1614   20381068.5574
       254.000         239.000
 125115028.14148  97492213.12548  23808610.6874   23808614.5844   23808611.2594
       223.000         179.000
 129899633.83448 101220482.55948  24719087.7404   24719089.4254   24719088.0214
       214.000         154.000
 123942023.63148  96578181.56248  23585398.0604   23585401.0384   23585399.2404
       226.000         175.000
 119382319.03648  93025175.84048  22717706.2364   22717708.6484   22717706.2104
       236.000         193.000
 09  1 17  0  3 30.0000000  0 10G 9G18G26G17G 8G15G27G12G10G28
 114013052.21148  88841319.40048  21695977.8344   21695980.6634   21695977.7514
       239.000         203.000
 122577358.53848  95514820.92348  23325698.4884   23325699.9134   23325699.4314
       227.000         178.000
 107315152.45048  83622187.21248  20421399.8044   20421402.2014   20421399.8244
       253.000         225.000
 126625108.86348  98668909.77848  24095961.5044   24095963.2544   24095961.5654
       217.000         171.000
 130651522.19048 101806376.97448  24862161.1944   24862164.1704   24862161.8534
       218.000         162.000
 107087806.43748  83445037.94948  20378136.8224   20378138.2864   20378136.5704
       255.000         239.000
 125184637.39048  97546454.08048  23821857.2364   23821860.6864   23821857.2144
       226.000         178.000
 129785175.19148 101131294.03548  24697306.7424   24697308.2034   24697308.0484
       209.000         156.000
 124050597.01548  96662784.18948  23606058.9014   23606061.7894   23606059.9314
       227.000         173.000
 119449957.46148  93077881.10448  22730577.4704   22730580.1414   22730578.0254
       235.000         193.000
 09  1 17  0  4  0.0000000  0 10G 9G18G26G17G 8G15G27G12G10G28
 113938761.50048  88783430.54348  21681840.5104   21681843.4584   21681840.4324
       239.000         203.000
 122503715.97648  95457437.10548  23311684.4904   23311685.8934   23311683.8694
       228.000         177.000
 107352655.58748  83651410.43548  20428536.2114   20428538.7644   20428536.2144
       253.000         225.000
 126563580.67048  98620965.75648  24084252.3104   24084254.4734   24084252.9154
       217.000         169.000
 130742190.70148 101877027.79548  24879414.9134   24879418.0484   24879414.8654
       220.000         164.000
 107072783.22648  83433331.55148  20375278.0354   20375279.4274   20375277.8624
       254.000         240.000
 125254269.00348  97600712.46248  23835107.5734   23835111.0584   23835108.0254
       225.000         177.000
 129670788.75748 101042161.79648  24675539.0044   24675540.1684   24675538.9954
       210.000         156.000
 124159286.49548  96747477.28748  23626741.4144   23626744.9104   23626742.0794
       224.000         175.000
 119517952.41048  93130864.18448  22743516.4704   22743519.1054   22743517.2354
       235.000         193.000
 09  1 17  0  4 30.0000000  0 10G 9G18G26G17G 8G15G27G12G10G28
 113864733.55248  88725746.43248  21667753.5934   21667756.2874   21667753.6424
       239.000         204.000
 122430480.67048  95400370.64048  23297748.0684   23297749.9854   23297748.4704
       228.000         179.000
 107390555.38948  83680942.74448  20435748.3904   20435751.0214   20435748.3564
       252.000         225.000
 126502355.40248  98573257.76248  24072601.7094   24072603.8484   24072601.6304
       218.000         171.000
 130832854.73748 101947675.06148  24896667.7364   24896670.9134   24896668.6794
       219.000         165.000
 107058146.20348  83421926.07448  20372492.6594   20372494.0574   20372492.3714
       253.000         240.000
 125323922.58548  97654987.97348  23848362.2764   23848365.5244   23848363.0644
       223.000         176.000
 129556476.71248 100953087.47848  24653786.2364   24653786.8624   24653786.5664
       212.000         158.000
 124268089.34848  96832258.72148  23647445.7454   23647449.4644   23647445.7764
       227.000         174.000
 119586301.43648  93184123.16848  22756522.9864   22756525.5744   22756524.0204
       235.000         195.000
 09  1 17  0  5  0.0000000  0 10G 9G18G26G17G 8G15G27G12G10G28
 113790967.40948  88668266.33548  21653716.3484   21653719.0724   21653716.3134
       240.000         203.000
 122357653.74648  95343622.37048  23283889.8224   23283891.6144   23283890.6104
       226.000         181.000
 107428850.31548  83710782.94248  20443035.7424   20443038.1884   20443035.6694
       252.000         225.000
 126441434.26148  98525786.74248  24061009.4124   24061011.1484   24061009.7964
       213.000         168.000
 130923512.02648 102018317.13048  24913919.3554   24913922.6934   24913920.0284
       221.000         164.000
 107043894.57048  83410820.90148  20369780.6474   20369782.0974   20369780.4064
       253.000         240.000
 125393596.12248  97709279.01048  23861620.8724   23861624.3634   23861621.0144
       223.000         178.000
 129442239.88848 100864071.78548  24632047.6754   24632049.0124   24632045.8434
       213.000         159.000
 124377001.18048  96917125.07648  23668171.3374   23668174.8074   23668172.4344
       226.000         174.000
 119655001.02048  93237655.31748  22769595.9934   22769598.9044   22769596.8354
       236.000         194.000
 09  1 17  0  5 30.0000000  0 10G 9G18G26G17G 8G15G27G12G10G28
 113717464.59348  88610991.43048  21639728.9874   21639731.8074   21639729.2224
       236.000         203.000
 122285238.47048  95287194.88448  23270109.5194   23270111.4284   23270109.2074
       230.000         181.000
 107467541.19348  83740931.67148  20450398.2524   20450400.7354   20450398.1714
       252.000         225.000
 126380820.86748  98478555.52348  24049474.1004   24049476.9654   24049473.6214
       218.000         171.000
 131014163.08848 102088954.33248  24931169.6494   24931172.8984   24931170.7184
       218.000         165.000
 107030030.74348  83400017.91448  20367142.5004   20367143.9214   20367142.2984
       253.000         240.000
 125463290.24948  97763586.10348  23874882.9094   23874886.7264   23874882.8474
       222.000         177.000
 129328081.49848 100775117.21448  24610323.7614   24610325.4154   24610322.1064
       212.000         157.000
 124486020.47648  97002075.15648  23688916.9014   23688920.1564   23688918.0604
       224.000         172.000
 119724049.97048  93291459.69548  22782735.8324   22782738.3534   22782736.6324
       235.000         194.000
 09  1 17  0  6  0.0000000  0 10G 9G18G26G17G 8G15G27G12G10G28
 113644224.96448  88553921.60848  21625791.9534   21625794.7704   21625791.7794
       238.000         204.000
 122213236.46448  95231089.41948  23256408.4914   23256409.6844   23256409.5824
       228.000         179.000
 107506627.35048  83771388.41948  20457836.1574   20457838.7754   20457835.9244
       253.000         225.000
 126320517.53448  98431565.90948  24037999.9084   24038001.4914   24037999.8294
       220.000         172.000
 131104806.29248 102159585.36048  24948418.2434   24948421.4924   24948419.1264
       221.000         170.000
 107016555.19148  83389517.48148  20364578.1724   20364579.5754   20364578.0144
       252.000         240.000
 125533004.23748  97817908.65448  23888148.9614   23888152.5264   23888148.8294
       223.000         177.000
 129214003.02348 100686224.86448  24588615.4544   24588616.6604   24588613.9704
       216.000         159.000
 124595144.08648  97087106.52448  23709682.2504   23709685.2744   23709682.9394
       223.000         169.000
 119793445.55448  93345534.16948  22795941.5254   22795943.8074   22795942.3894
       234.000         194.000
 09  1 17  0  6 30.0000000  0 10G 9G18G26G17G 8G15G27G12G10G28
 113571249.11648  88497057.31148  21611905.5424   21611907.8664   21611905.5984
       239.000         204.000
 122141649.62048  95175307.48248  23242785.4404   23242787.2264   23242786.8864
       227.000         179.000
 107546108.37448  83802152.84348  20465349.2164   20465351.8014   20465349.2074
       252.000         225.000
 126260526.78148  98384819.87448  24026583.8964   24026585.5534   24026584.0214
       218.000         172.000
 131195441.07948 102230209.87748  24965665.3154   24965669.0554   24965665.5124
       220.000         166.000
 107003468.93148  83379320.39348  20362087.8984   20362089.2984   20362087.4414
       254.000         240.000
 125602737.61048  97872246.34448  23901419.2324   23901422.5754   23901419.3164
       224.000         176.000
 129100006.84648 100597396.68248  24566923.2064   24566924.3064   24566921.9944
       215.000         162.000
 124704368.63248  97172216.56548  23730467.0844   23730470.4124   23730467.9614
       222.000         171.000
 119863185.30548  93399876.82748  22809212.3594   22809214.5524   22809212.7694
       234.000         193.000
 09  1 17  0  7  0.0000000  0 10G 9G18G26G17G 8G15G27G12G10G28
 113498537.83148  88440399.17848  21598068.7314   21598071.4374   21598068.6964
       238.000         204.000
 122070480.43948  95119850.97348  23229242.4504   23229243.8104   23229243.0734
       228.000         178.000
 107585984.17048  83833224.88148  20472937.1614   20472939.7664   20472937.0974
       252.000         225.000
 126200851.14548  98338319.37548  24015228.2674   24015230.4904   24015227.9784
       217.000         172.000
 131286067.05848 102300827.53148  24982910.5974   24982914.4114   24982911.8094
       217.000         158.000
 106990773.10148  83369427.53648  20359672.0554   20359673.4774   20359671.9484
       254.000         240.000
 125672489.94448  97926598.79348  23914692.5334   23914696.2024   23914693.1124
       223.000         174.000
 128986095.21748 100508634.38448  24545246.9584   24545248.7744   24545246.6864
       220.000         167.000
 124813692.18248  97257403.72648  23751270.5104   23751274.4864   23751270.6804
       222.000         169.000
 119933267.15848  93454486.05248  22822548.1944   22822550.3064   22822548.6134
       232.000         192.000
 09  1 17  0  7 30.0000000  0 10G 9G18G26G17G 8G15G27G12G10G28
 113426091.58548  88383947.57248  21584282.5734   21584285.6134   21584282.5574
       239.000         205.000
 121999731.17548  95064721.68448  23215779.2294   23215780.6814   23215781.0114
       227.000         179.000
 107626254.80748  83864604.59348  20480600.6134   20480602.9864   20480600.3384
       253.000         225.000
 126141493.76648  98292066.89548  24003932.2734   24003934.3094   24003931.6764
       217.000         170.000
 131376683.10248 102371437.40648  25000154.7024   25000157.7384   25000155.3184
       208.000         147.000
 106978468.96748  83359839.89948  20357330.5944   20357332.2014   20357330.3494
       254.000         240.000
 125742260.66348  97980965.55948  23927969.9014   23927972.7724   23927970.0594
       224.000         174.000
 128872270.10248 100419939.49248  24523586.5714   24523588.5834   24523587.0694
       218.000         168.000
 124923111.90948  97342665.85848  23772092.2404   23772096.0154   23772093.4424
       222.000         169.000
 120003688.92648  93509360.15748  22835949.1294   22835950.8264   22835949.0934
       234.000         192.000
 09  1 17  0  8  0.0000000  0 10G 9G18G26G17G 8G15G27G12G10G28
 113353911.08848  88327703.04148  21570547.3034   21570549.9334   21570547.4074
       240.000         206.000
 121929404.09948  95009921.36048  23202396.3404   23202397.8694   23202397.3594
       228.000         178.000
 107666920.01048  83896291.75348  20488338.8794   20488341.4304   20488338.8954
       253.000         225.000
 126082457.32448  98246064.47048  23992698.1984   23992699.8654   23992697.9004
       219.000         171.000
 131467289.03748 102442039.43448  25017396.4934   25017399.9584   25017395.7744
       198.000         130.000
 106966557.82748  83350558.48348  20355064.0644   20355065.5604   20355063.9334
       254.000         240.000
 125812049.79848  98035346.70748  23941249.9934   23941253.0104   23941250.5054
       225.000         175.000
 128758534.47348 100331314.34848  24501943.2134   24501945.3864   24501942.0104
       218.000         169.000
 125032625.36648  97428000.99348  23792931.6614   23792935.9174   23792932.0784
       222.000         170.000
 120074448.36248  93564497.37648  22849414.4354   22849415.9934   22849415.2574
       234.000         192.000
 09  1 17  0  8 30.0000000  0 10G 9G18G26G17G 8G15G27G12G10G28
 113281996.93848  88271666.04748  21556862.7014   21556864.9874   21556862.5954
       240.000         205.000
 121859501.80948  94955452.05248  23189094.1004   23189095.9824   23189094.6754
       227.000         179.000
 107707979.97448  83928286.52648  20496152.3334   20496154.8914   20496152.2424
       253.000         225.000
 126023744.78548  98200314.44748  23981526.3384   23981527.7754   23981526.4394
       217.000         169.000
 141557887.22458  92512633.11758  25034636.0455   25034640.5375   25034636.2295
       185.000         124.000
 106955040.95048  83341584.28948  20352872.5344   20352873.8634   20352872.1304
       254.000         240.000
 125881857.45948  98089742.27748  23954534.2074   23954537.3754   23954534.8374
       224.000         175.000
 128644890.21448 100242760.38448  24480317.7194   24480319.9754   24480316.3644
       216.000         167.000
 125142229.87848  97513407.10948  23813789.4174   23813793.3114   23813790.6324
       225.000         171.000
 120145543.26548  93619895.99048  22862943.1754   22862944.7134   22862943.3504
       232.000         191.000
 09  1 17  0  9  0.0000000  0  9G 9G18G26G17G15G27G12G10G28
 113210349.80348  88215837.13748  21543228.3044   21543231.0724   21543228.5664
       240.000         205.000
 121790026.87748  94901315.70148  23175874.0044   23175875.3974   23175874.3534
       226.000         180.000
 107749434.47448  83960588.71648  20504041.0134   20504043.3724   20504040.9654
       253.000         225.000
 125965358.88548  98154818.93348  23970415.0374   23970416.3364   23970414.7904
       218.000         168.000
 106943919.67048  83332918.34648  20350756.2034   20350757.4874   20350755.9714
       254.000         240.000
 125951683.20048  98144151.92148  23967821.1424   23967824.2724   23967821.0894
       223.000         173.000
 128531339.88748 100154279.63348  24458709.3594   24458712.2064   24458708.5814
       219.000         170.000
 125251922.78948  97598882.09948  23834663.1474   23834666.4894   23834664.4804
       223.000         169.000
 120216971.85548  93675554.62348  22876536.1054   22876537.4744   22876536.5664
       234.000         192.000
 09  1 17  0  9 30.0000000  0  9G 9G18G26G17G15G27G12G10G28
 113138970.16548  88160216.65348  21529645.0644   21529648.0964   21529644.7444
       239.000         205.000
 121720981.00248  94847513.73548  23162734.6154   23162736.8924   23162734.9164
       229.000         181.000
 107791283.28448  83993198.16848  20512004.2904   20512006.9314   20512004.1544
       252.000         225.000
 125907301.90348  98109579.74248  23959367.0594   23959369.0534   23959367.1534
       217.000         171.000
 106933194.92048  83324561.39648  20348715.3294   20348716.6004   20348715.0464
       254.000         240.000
 126021526.66448  98198575.37548  23981112.4274   23981114.6534   23981112.4564
       224.000         173.000
 128417885.69948 100065873.76648  24437119.8314   24437122.2374   24437119.4314
       217.000         165.000
 125361701.55348  97684424.00248  23855553.3094   23855556.4064   23855553.5124
       223.000         169.000
 120288731.78348  93731471.43948  22890191.1454   22890192.8674   22890191.4014
       232.000         190.000
 09  1 17  0 10  0.0000000  0  9G 9G18G26G17G15G27G12G10G28
 113067858.57248  88104805.03048  21516113.2744   21516115.9594   21516113.2324
       240.000         206.000
 121652366.53048  94794047.89248  23149677.9584   23149679.9874   23149679.0814
       227.000         182.000
 107833526.10748  84026114.65348  20520043.3624   20520045.4114   20520043.1914
       254.000         225.000
 125849576.84548  98064599.19448  23948381.8934   23948384.1664   23948381.9204
       215.000         169.000
 106922867.96848  83316514.41748  20346750.0834   20346751.4784   20346749.8844
       253.000         240.000
 126091387.63548  98253012.46348  23994406.3694   23994408.8974   23994406.7924
       223.000         173.000
 128304529.94648  99977544.60848  24415548.1514   24415550.3604   24415548.0504
       217.000         164.000
 125471563.89048  97770031.00148  23876459.2384   23876463.5394   23876460.6014
       224.000         169.000
 120360820.94248  93787644.80448  22903908.8484   22903910.8034   22903908.6904
       231.000         190.000
 09  1 17  0 10 30.0000000  0  9G 9G18G26G17G15G27G12G10G28
 112997015.37048  88049602.56648  21502631.9774   21502635.0924   21502632.1804
       240.000         206.000
 121584185.28248  94740919.65248  23136703.1944   23136705.2254   23136704.4554
       228.000         179.000
 107876162.62848  84059337.89848  20528156.1904   20528158.8314   20528156.2274
       253.000         225.000
 125792186.29248  98019879.26948  23937461.2334   23937463.0644   23937461.0854
       217.000         171.000
 106912939.44848  83308777.90548  20344860.5854   20344862.0824   20344860.2594
       254.000         240.000
 126161265.36748  98307462.64348  24007703.7854   24007706.2304   24007704.2264
       224.000         171.000
 128191274.40548  99889293.54448  24393996.5414   24393997.7934   24393996.4524
       220.000         167.000
 125581506.56148  97855700.58848  23897380.7304   23897385.6834   23897382.3234
       222.000         171.000
 120433236.57448  93844072.56148  22917689.1534   22917691.1374   22917689.2214
       234.000         189.000
 09  1 17  0 11  0.0000000  0  9G 9G18G26G17G15G27G12G10G28
 112926440.83548  87994609.43248  21489202.3104   21489205.1184   21489202.3354
       242.000         207.000
 121516439.40148  94688130.65348  23123812.0934   23123813.7694   23123813.0614
       228.000         180.000
 107919192.54948  84092867.71548  20536345.0844   20536347.2094   20536344.9374
       253.000         225.000
 125735132.38348  97975421.69648  23926604.3174   23926606.4264   23926604.3034
       217.000         172.000
 106903410.61348  83301352.82848  20343047.5334   20343048.8044   20343047.1314
       254.000         240.000
 126231159.70448  98361925.75448  24021003.8534   24021006.5874   24021004.3954
       222.000         170.000
 128078121.47248  99801122.42048  24372464.8134   24372465.4054   24372465.6054
       217.000         163.000
 125691526.52848  97941430.42548  23918316.9924   23918321.0344   23918317.2944
       221.000         169.000
 120505976.22948  93900752.80448  22931531.2654   22931532.8434   22931531.8644
       231.000         189.000
 09  1 17  0 11 30.0000000  0  9G 9G18G26G17G15G27G12G10G28
 112856135.98148  87939826.44048  21475823.6904   21475826.5694   21475823.6524
       240.000         206.000
 121449131.47548  94635682.93748  23111003.0174   23111005.3374   23111004.6804
       226.000         179.000
 107962615.76148  84126703.96548  20544607.7314   20544610.5444   20544607.5384
       253.000         225.000
 125678418.22848  97931228.87848  23915811.3254   23915813.8994   23915812.0134
       220.000         170.000
 106894282.57248  83294240.06748  20341310.5824   20341311.9024   20341310.5414
       254.000         240.000
 126301070.65348  98416401.80048  24034307.4264   24034310.5074   24034308.1824
       222.000         170.000
 127965073.44748  99713033.08348  24350952.7864   24350953.5944   24350953.2494
       216.000         162.000
 125801622.13148  98027219.18948  23939267.4204   23939270.9594   23939268.2454
       221.000         165.000
 120579038.23248  93957684.23348  22945434.7284   22945435.9254   22945435.2644
       233.000         188.000
 09  1 17  0 12  0.0000000  0  9G 9G18G26G17G15G27G12G10G28
 112786101.43048  87885254.08148  21462496.7604   21462499.2834   21462497.1124
       241.000         207.000
 121382263.83648  94583578.29648  23098278.8424   23098280.8154   23098279.8424
       228.000         180.000
 108006432.27848  84160846.70948  20552946.2684   20552948.5224   20552946.3234
       253.000         225.000
 125622046.61448  97887302.95548  23905084.4674   23905086.4584   23905084.9434
       218.000         172.000
 106885556.56148  83287440.57848  20339650.0444   20339651.3964   20339649.6604
       254.000         240.000
 126370998.11748  98470890.73448  24047614.4394   24047616.9874   24047614.7414
       221.000         168.000
 127852132.55948  99625027.19248  24329460.9434   24329461.8914   24329461.1174
       218.000         165.000
 125911790.25248  98113064.49448  23960232.7124   23960235.1114   23960232.8594
       223.000         166.000
 120652420.18248  94014864.96248  22959398.5354   22959399.9674   22959399.3404
       231.000         187.000
 09  1 17  0 12 30.0000000  0  9G 9G18G26G17G15G27G12G10G28
 112716337.71748  87830892.76048  21449221.0894   21449223.9474   21449220.8914
       241.000         207.000
 121315838.58548  94531818.34848  23085639.0034   23085640.3904   23085640.1154
       226.000         179.000
 108050641.72048  84195295.61348  20561358.6434   20561361.2844   20561358.4274
       253.000         225.000
 125566020.13748  97843645.97348  23894423.7304   23894425.2194   23894424.0304
       217.000         171.000
 106877233.96648  83280955.43348  20338066.1384   20338067.5374   20338065.9104
       254.000         240.000
 126440941.63448  98525392.15648  24060923.9404   24060927.3284   24060924.4324
       221.000         169.000
 127739301.43248  99537106.81348  24307989.9524   24307991.2164   24307989.7944
       217.000         164.000
 126022028.74548  98198964.60448  23981210.4534   23981212.8674   23981212.1314
       224.000         167.000
 120726120.11248  94072293.46548  22973423.1344   22973424.7344   22973423.8244
       231.000         186.000
 09  1 17  0 13  0.0000000  0  9G 9G18G26G17G15G27G12G10G28
 112646845.28348  87776742.83548  21435996.9574   21436000.0214   21435996.9874
       239.000         207.000
 121249857.61448  94480404.61648  23073082.3404   23073085.1004   23073082.7734
       227.000         181.000
 108095243.95748  84230050.59648  20569846.4404   20569848.9124   20569846.4564
       253.000         225.000
 125510341.49548  97800259.98548  23883827.9694   23883829.9934   23883827.3754
       216.000         173.000
 106869315.65948  83274785.32048  20336559.3794   20336560.7704   20336559.0914
       254.000         240.000
 126510900.95248  98579905.88548  24074236.8854   24074240.1984   24074237.3584
       223.000         170.000
 127626582.07448  99449273.54848  24286540.0624   24286541.1374   24286541.0564
       219.000         165.000
 126132334.84448  98284917.40848  24002200.6514   24002203.1234   24002201.9054
       221.000         167.000
 120800135.73648  94129967.98048  22987508.0074   22987509.4814   22987508.1984
       231.000         187.000
 09  1 17  0 13 30.0000000  0  9G 9G18G26G17G15G27G12G10G28
 112577625.22948  87722805.15948  21422824.7504   21422827.8054   21422824.8874
       241.000         208.000
 121184323.89248  94429339.35948  23060612.4054   23060613.9414   23060612.6184
       227.000         180.000
 108140239.28848  84265111.88448  20578408.8254   20578411.1764   20578408.6444
       254.000         225.000
 125455013.63248  97757147.35848  23873299.0374   23873301.0904   23873299.1974
       217.000         173.000
 106861803.39248  83268931.59748  20335129.7974   20335131.3424   20335129.5164
       254.000         241.000
 126580876.59448  98634432.34248  24087553.0004   24087556.6154   24087553.4014
       221.000         168.000
 127513977.65648  99361529.85548  24265111.4814   24265113.5744   24265113.3074
       219.000         167.000
 126242706.46348  98370921.24848  24023203.1044   24023207.4394   24023203.6444
       219.000         167.000
 120874465.42548  94187887.22148  23001652.4464   23001654.1924   23001652.6174
       231.000         185.000
 09  1 17  0 14  0.0000000  0  9G 9G18G26G17G15G27G12G10G28
 112508678.44448  87669080.40448  21409704.9074   21409707.4194   21409705.1434
       242.000         208.000
 121119239.53748  94378624.27948  23048227.4184   23048228.7254   23048227.4144
       227.000         181.000
 108185627.49048  84300479.31348  20587046.0184   20587048.1904   20587046.0854
       254.000         225.000
 125400039.15648  97714310.13548  23862838.0804   23862840.6064   23862838.0504
       219.000         173.000
 106854698.08648  83263394.99148  20333777.8034   20333779.2144   20333777.5144
       254.000         241.000
 126650868.29148  98688971.30448  24100872.2064   24100875.7004   24100872.6734
       222.000         169.000
 127401490.11948  99273877.26348  24243705.2874   24243707.9624   24243705.1554
       218.000         166.000
 126353140.79948  98456973.97248  24044218.4014   24044222.8174   24044218.4154
       219.000         165.000
 120949106.53848  94246049.11748  23015855.9914   23015858.0974   23015855.8564
       231.000         186.000
 09  1 17  0 14 30.0000000  0  9G 9G18G26G17G15G27G12G10G28
 112440004.91748  87615568.58748  21396636.4104   21396639.3914   21396636.9814
       240.000         207.000
 121054605.89648  94328260.39848  23035927.9014   23035929.2874   23035928.7724
       228.000         181.000
 108231407.86448  84336152.32448  20595757.5984   20595760.0794   20595757.6574
       253.000         225.000
 125345420.61648  97671750.22348  23852444.7534   23852446.9744   23852444.6204
       220.000         175.000
 106848000.60948  83258176.17348  20332503.4144   20332504.6784   20332503.1334
       254.000         241.000
 126720875.50648  98743522.38348  24114193.7774   24114197.1884   24114194.4344
       221.000         167.000
 127289121.18648  99186317.06948  24222323.1494   24222325.0854   24222322.6054
       219.000         170.000
 126463635.23548  98543073.52648  24065244.6444   24065248.0034   24065245.2484
       218.000         164.000
 121024056.80848  94304451.92048  23030118.8164   23030120.5054   23030119.0284
       232.000         187.000
 09  1 17  0 15  0.0000000  0  9G 9G18G26G17G15G27G12G10G28
 112371604.52248  87562269.58948  21383620.2804   21383623.1934   21383620.2634
       241.000         208.000
 120990425.30248  94278249.55548  23023714.7934   23023716.3904   23023715.5394
       229.000         181.000
 108277579.49248  84372130.20748  20604543.6314   20604546.0364   20604543.4814
       253.000         225.000
 125291159.97548  97629469.21948  23842119.6374   23842120.9144   23842120.0204
       218.000         170.000
 106841711.40348  83253275.49048  20331306.5874   20331307.8994   20331306.2964
       254.000         240.000
 126790897.26748  98798084.76348  24127518.3424   24127522.6544   24127519.3254
       220.000         166.000
 127176872.64048  99098850.67348  24200963.5384   24200964.9204   24200963.1324
       220.000         169.000
 126574186.00848  98629216.96448  24086281.7384   24086284.8854   24086282.1304
       220.000         165.000
 121099313.54348  94363093.53248  23044439.5314   23044441.1954   23044440.0824
       230.000         184.000
 09  1 17  0 15 30.0000000  0  9G 9G18G26G17G15G27G12G10G28
 112303478.54148  87509184.42348  21370656.2744   21370659.2534   21370656.4424
       241.000         208.000
 120926700.33748  94228593.71848  23011588.3664   23011589.9574   23011589.3024
       229.000         182.000
 108324143.22748  84408413.62948  20613404.6384   20613406.8544   20613404.6274
       253.000         225.000
 125237260.76148  97587469.83348  23831861.5864   23831864.0434   23831859.8714
       219.000         172.000
 106835832.07648  83248694.19048  20330187.7824   20330189.0244   20330187.4894
       254.000         240.000
 126860934.29248  98852659.07248  24140845.9604   24140849.5014   24140845.8174
       219.000         164.000
 127064747.94148  99011480.75648  24179626.2344   24179627.6784   24179626.6304
       220.000         167.000
 126684791.83448  98715403.34148  24107329.5904   24107332.3574   24107330.7974
       220.000         161.000
 121174875.39348  94421972.88448  23058818.3284   23058820.1434   23058818.8294
       230.000         186.000
 09  1 17  0 16  0.0000000  0  9G 9G18G26G17G15G27G12G10G28
 112235626.94548  87456313.06648  21357744.4304   21357747.4354   21357745.0104
       241.000         208.000
 120863432.13848  94179293.84848  22999548.3984   22999550.5944   22999548.7604
       229.000         182.000
 108371097.75148  84445001.56748  20622339.7434   20622342.1464   20622339.7134
       253.000         225.000
 125183724.74248  97545753.43248  23821674.7934   23821676.2444   23821674.5574
       218.000         170.000
 106830363.61048  83244433.04448  20329147.1984   20329148.3984   20329147.0294
       254.000         241.000
 126930985.89748  98907244.72248  24154176.7184   24154180.0244   24154176.2734
       218.000         164.000
 126952748.56648  98924208.51648  24158313.6384   24158314.6534   24158314.2454
       221.000         169.000
 126795449.63548  98801630.21248  24128386.5174   24128389.6584   24128388.2614
       218.000         162.000
 121250739.32348  94481087.63048  23073254.7004   23073256.5454   23073254.6104
       229.000         186.000
 09  1 17  0 16 30.0000000  0  9G 9G18G26G17G15G27G12G10G28
 112168051.02748  87403656.51048  21344885.3924   21344888.0734   21344885.5404
       241.000         208.000
 120800623.70248  94130352.19548  22987596.9964   22987598.3384   22987597.5964
       228.000         183.000
 108418443.92348  84481894.68648  20631349.4534   20631351.7314   20631349.5164
       253.000         225.000
 125130555.40848  97504322.80648  23811557.3254   23811559.1524   23811557.7384
       219.000         169.000
 106825307.50248  83240493.20748  20328185.2284   20328186.2894   20328184.9684
       254.000         241.000
 127001052.23248  98961841.88948  24167509.5854   24167513.4264   24167509.1174
       217.000         162.000
 126840877.24648  98837036.04548  24137025.3654   24137027.0074   24137025.1464
       219.000         170.000
 126906157.37348  98887895.94648  24149453.4184   24149457.3394   24149454.5434
       218.000         164.000
 121326903.65248  94540436.44448  23087748.4034   23087750.0904   23087748.9364
       229.000         186.000
 09  1 17  0 17  0.0000000  0  9G 9G18G26G17G15G27G12G10G28
 112100750.64848  87351214.67448  21332078.3884   21332081.3164   21332078.8694
       241.000         209.000
 120738276.38048  94081769.85348  22975732.7654   22975734.4304   22975733.9554
       230.000         183.000
 108466180.41648  84519091.93848  20640433.3454   20640435.6734   20640433.2404
       253.000         224.000
 125077754.10848  97463178.94348  23801508.8514   23801511.1214   23801508.1484
       219.000         172.000
 106820664.12848  83236874.98948  20327301.5544   20327302.8024   20327301.3794
       255.000         241.000
 127071132.50748  99016449.84848  24180846.3064   24180848.6074   24180846.4634
       219.000         163.000
 126729135.84648  98749964.81148  24115761.7704   24115763.2464   24115761.7054
       217.000         169.000
 127016911.75948  98974198.04248  24170529.7034   24170533.7424   24170530.2624
       216.000         163.000
 121403365.48748  94600017.08948  23102298.6394   23102300.5694   23102299.3544
       229.000         186.000
 09  1 17  0 17 30.0000000  0  9G 9G18G26G17G15G27G12G10G28
 112033726.76048  87298988.28548  21319324.0814   21319327.2364   21319323.8474
       242.000         209.000
 120676392.89748  94033548.97248  22963956.4664   22963958.7844   22963957.6214
       231.000         185.000
 108514307.41048  84556593.49048  20649591.4434   20649593.8394   20649591.3484
       252.000         224.000
 125025323.92548  97422324.24148  23791531.9814   23791534.4204   23791531.8934
       217.000         173.000
 106816434.49748  83233579.17148  20326496.6264   20326497.9654   20326496.3734
       255.000         241.000
 127141227.05348  99071068.96148  24194184.5104   24194187.3234   24194185.0284
       220.000         164.000
 126617526.53248  98662996.54348  24094522.8864   24094524.4784   24094522.3674
       220.000         170.000
 127127710.59048  99060534.76048  24191613.4144   24191617.8834   24191614.2094
       216.000         163.000
 121480122.85248  94659828.00848  23116904.9974   23116906.8684   23116905.2274
       231.000         185.000
 09  1 17  0 18  0.0000000  0  9G 9G18G26G17G15G27G12G10G28
 111966979.73748  87246977.62948  21306622.8114   21306625.4244   21306622.7884
       242.000         209.000
 120614974.91248  93985690.79748  22952268.8454   22952270.5924   22952270.6684
       229.000         182.000
 108562824.31048  84594398.86048  20658823.9224   20658826.4604   20658823.6464
       253.000         225.000
 124973267.73848  97381761.00348  23781625.4644   23781628.5674   23781625.5774
       220.000         173.000
 106812619.95248  83230606.79048  20325770.7674   20325772.0174   20325770.5714
       254.000         241.000
 127211335.67148  99125699.02048  24207525.6914   24207528.4914   24207525.8444
       219.000         162.000
 126506051.90848  98576133.23848  24073309.3564   24073311.3274   24073309.2064
       219.000         169.000
 127238551.30448  99146904.11748  24212706.0004   24212709.9714   24212706.1924
       220.000         164.000
 121557173.85348  94719867.74448  23131567.5634   23131568.9624   23131568.3634
       232.000         185.000
 09  1 17  0 18 30.0000000  0  9G 9G18G26G17G15G27G12G10G28
 111900509.91048  87195182.96548  21293973.7924   21293976.3864   21293973.3654
       240.000         209.000
 120554024.63848  93938197.05948  22940670.5514   22940672.2764   22940671.7644
       231.000         184.000
 108611731.02448  84632507.97448  20668130.7984   20668133.1534   20668130.6164
       253.000         225.000
 124921587.46348  97341490.65948  23771791.6194   23771793.4014   23771791.7934
       220.000         176.000
 106809221.20248  83227958.40748  20325124.0844   20325125.2794   20325123.8554
       254.000         241.000
 127281457.93148  99180339.71848  24220869.1444   24220872.8994   24220868.7744
       220.000         160.000
 126394714.22548  98489376.60948  24052122.7834   24052124.2444   24052122.7254
       221.000         170.000
 127349430.87348  99233303.82448  24233806.0614   24233809.1924   24233807.1834
       221.000         161.000
 121634515.86248  94780134.23648  23146285.4054   23146286.7434   23146286.4084
       229.000         184.000
 09  1 17  0 19  0.0000000  0  9G 9G18G26G17G15G27G12G10G28
 111834318.61948  87143605.35148  21281378.2184   21281380.7564   21281377.8554
       243.000         210.000
 120493544.54648  93891069.71048  22929161.2244   22929163.1884   22929161.9454
       229.000         185.000
 108661027.42548  84670920.74648  20677511.4734   20677513.8784   20677511.3834
       253.000         224.000
 124870286.43148  97301515.82848  23762029.3864   23762031.3944   23762029.0544
       220.000         174.000
 106806239.92848  83225635.33648  20324556.7764   20324557.9894   20324556.6184
       255.000         241.000
 127351594.42748  99234991.52748  24234215.9214   24234218.7074   24234216.3384
       216.000         159.000
 126283515.81148  98402728.48748  24030962.1744   24030963.9704   24030961.5144
       222.000         170.000
 127460347.46648  99319732.34548  24254912.0714   24254915.0254   24254913.0044
       218.000         158.000
 121712147.11148  94840626.11348  23161057.9384   23161059.3534   23161058.0714
       230.000         184.000
 09  1 17  0 19 30.0000000  0  9G 9G18G26G17G15G27G12G10G28
 111768405.70648  87092244.64748  21268835.6244   21268837.7764   21268836.6004
       242.000         209.000
 120433536.16048  93844309.93248  22917742.2424   22917743.9984   22917742.4244
       231.000         185.000
 108710712.83948  84709636.64948  20686966.2864   20686968.7814   20686966.2174
       252.000         224.000
 124819366.66048  97261838.11548  23752339.4754   23752341.7934   23752339.3494
       223.000         176.000
 106803676.55948  83223637.90248  20324068.8404   20324070.2564   20324068.6044
       254.000         241.000
 127421744.12848  99289653.61948  24247565.0874   24247567.7364   24247565.9824
       216.000         160.000
 126172458.98148  98316190.68848  24009828.6904   24009830.8604   24009828.7514
       221.000         169.000
 127571298.30748  99406187.52948  24276025.6224   24276028.6954   24276027.0384
       219.000         161.000
 121790064.95848  94901341.32248  23175885.4594   23175886.7314   23175885.5354
       230.000         185.000
 09  1 17  0 20  0.0000000  0  9G 9G18G26G17G15G27G12G10G28
 111702771.47448  87041101.10948  21256345.5974   21256347.9674   21256345.9604
       242.000         209.000
 120374000.80348  93797918.74448  22906413.2914   22906414.8974   22906413.8924
       229.000         184.000
 108760786.64048  84748655.18748  20696495.0554   20696497.5314   20696494.8214
       252.000         224.000
 124768830.19048  97222459.03948  23742723.2364   23742724.6234   23742723.4194
       221.000         176.000
 106801532.09548  83221966.89248  20323660.5814   20323662.1964   20323660.3274
       254.000         241.000
 127491906.87148  99344325.88248  24260916.8264   24260919.7224   24260916.8214
       213.000         161.000
 126061544.99148  98229764.19348  23988723.0934   23988724.7114   23988722.4194
       221.000         170.000
 127682280.26648  99492666.98048  24297145.2034   24297148.3454   24297146.8444
       219.000         160.000
 121868266.71848  94962277.74648  23190766.4864   23190767.8644   23190767.0914
       229.000         182.000
 09  1 17  0 20 30.0000000  0  9G 9G18G26G17G15G27G12G10G28
 111637417.24848  86990175.74548  21243908.9504   21243911.6524   21243909.6934
       242.000         210.000
 120314941.26248  93751898.30348  22895174.6474   22895176.1644   22895174.8244
       231.000         186.000
 108811249.24348  84787976.68748  20706097.7234   20706100.2034   20706097.6414
       253.000         224.000
 124718680.26048  97183381.20248  23733179.0034   23733182.0514   23733178.8414
       222.000         176.000
 106799807.84548  83220623.31248  20323332.6044   20323334.1624   20323332.2554
       254.000         241.000
 127562083.20548  99399008.73448  24274270.7174   24274274.1184   24274270.2984
       211.000         159.000
 125950777.23548  98143451.65948  23967644.7534   23967646.1154   23967643.9384
       224.000         171.000
 127793291.46948  99579169.18848  24318269.4244   24318273.0944   24318270.5754
       214.000         160.000
 121946750.79848  95023434.16248  23205701.7954   23205702.5774   23205702.7084
       230.000         183.000
 09  1 17  0 21  0.0000000  0  9G 9G18G26G17G15G27G12G10G28
 111572343.71448  86939469.10948  21231525.7814   21231528.5264   21231525.9734
       242.000         209.000
 120256359.78048  93706250.39348  22884026.7634   22884028.4664   22884027.7364
       231.000         186.000
 108862100.05448  84827600.69448  20715774.4194   20715776.6714   20715774.5034
       253.000         224.000
 124668919.68448  97144606.70748  23723711.1984   23723712.9294   23723710.1734
       223.000         177.000
 106798505.11248  83219608.19248  20323084.7784   20323086.2434   20323084.6774
       254.000         241.000
 127632272.82148  99453701.90648  24287626.8274   24287630.4684   24287626.7784
       210.000         158.000
 125840157.96748  98057254.82948  23946595.0364   23946595.6774   23946595.5654
       225.000         173.000
 127904329.48748  99665692.30748  24339398.6034   24339403.2274   24339398.1014
       213.000         161.000
 122025515.36248  95084809.15248  23220690.2004   23220691.5664   23220690.7394
       227.000         181.000
 09  1 17  0 21 30.0000000  0  9G 9G18G26G17G15G27G12G10G28
 111507550.35648  86888980.77148  21219196.0454   21219198.6314   21219196.2274
       243.000         210.000
 120198257.71348  93660976.05448  22872970.6664   22872971.8884   22872970.6434
       232.000         187.000
 108913338.39048  84867526.65348  20725524.7054   20725527.0594   20725524.6384
       252.000         224.000
 124619549.98048  97106136.81248  23714316.0074   23714317.4934   23714315.9484
       222.000         174.000
 106797623.66048  83218921.34248  20322916.9994   20322918.4414   20322916.7734
       254.000         241.000
 127702475.13048  99508405.00848  24300986.0604   24300989.2544   24300987.0554
       210.000         157.000
 125729688.73948  97971174.90148  23925572.8494   23925573.7744   23925572.7524
       222.000         172.000
 128015391.31748  99752233.98748  24360533.6644   24360538.1294   24360534.4494
       218.000         160.000
 122104557.45248  95146400.36748  23235731.1644   23235732.6564   23235731.4924
       229.000         181.000
 09  1 17  0 22  0.0000000  0  9G 9G18G26G17G15G27G12G10G28
 111443038.19848  86838711.57448  21206919.9274   21206922.5594   21206920.5744
       243.000         210.000
 120140637.34648  93616077.07248  22862005.4994   22862007.0484   22862006.0064
       231.000         186.000
 108964963.89948  84907754.31348  20735348.6844   20735351.1824   20735348.5504
       252.000         224.000
 124570573.99148  97067973.71048  23704996.1234   23704997.7364   23704995.9934
       222.000         174.000
 106797165.60748  83218564.41448  20322829.8914   20322831.1924   20322829.6364
       255.000         241.000
 127772690.35948  99563118.12448  24314347.5864   24314350.8444   24314347.7924
       211.000         156.000
 125619372.30348  97885214.05948  23904579.1524   23904581.3784   23904579.2894
       221.000         173.000
 128126474.53548  99838792.33248  24381672.1044   24381675.9974   24381672.7034
       217.000         155.000
 122183875.01848  95208206.27948  23250824.7314   23250826.1804   23250825.9174
       229.000         183.000
 09  1 17  0 22 30.0000000  0  9G 9G18G26G17G15G27G12G10G28
 111378807.99948  86788662.08648  21194697.3694   21194699.8714   21194697.5104
       243.000         210.000
 120083500.83348  93571555.11348  22851132.9494   22851134.6624   22851133.2844
       231.000         186.000
 109016976.63748  84948283.71748  20745246.5614   20745248.7294   20745246.4574
       253.000         223.000
 124521994.37948  97030119.47348  23695752.1404   23695753.6364   23695751.7454
       224.000         176.000
 106797131.55148  83218537.87148  20322823.3824   20322824.7104   20322823.2284
       255.000         241.000
 127842918.71848  99617841.54048  24327712.1314   24327714.8464   24327712.2604
       210.000         154.000
 125509210.90448  97799374.01348  23883616.3134   23883619.0904   23883616.4424
       223.000         175.000
 128237576.98148  99925365.68448  24402814.2074   24402817.8404   24402815.7204
       212.000         153.000
 122263465.85148  95270225.10548  23265970.3644   23265972.2224   23265970.8864
       230.000         183.000
 09  1 17  0 23  0.0000000  0  9G 9G18G26G17G15G27G12G10G28
 111314859.95848  86738832.45748  21182528.4184   21182530.9334   21182528.5974
       244.000         210.000
 120026849.34648  93527411.08648  22840352.3054   22840353.9094   22840352.8614
       231.000         185.000
 109069375.54548  84989114.02948  20755217.6364   20755219.8454   20755217.7134
       252.000         223.000
 124473812.84048  96992575.42148  23686582.9914   23686584.9034   23686583.0634
       223.000         176.000
 106797522.21348  83218842.28148  20322897.8604   20322899.1514   20322897.7124
       255.000         241.000
 127913159.39248  99672574.50048  24341077.9654   24341081.6804   24341077.6054
       208.000         153.000
 125399206.40648  97713656.24048  23862683.5564   23862686.4424   23862683.0344
       222.000         175.000
 128348695.50348 100011951.50748  24423959.5824   24423963.0264   24423959.9974
       212.000         157.000
 122343327.55848  95332454.99748  23281167.6774   23281169.5874   23281168.8704
       229.000         182.000
 09  1 17  0 23 30.0000000  0 10G 9G 5G18G26G17G15G27G12G10G28
 111251194.97948  86689223.39748  21170413.1274   21170415.9884   21170413.4284
       243.000         210.000
 141877183.91258  92761421.21958  25095409.6805   25095414.3795   25095406.9915
       205.000         146.000
 119970685.45848  93483647.02048  22829664.5424   22829666.5384   22829665.1074
       230.000         185.000
 109122160.80048  85030245.38148  20765262.2694   20765264.8354   20765262.0544
       251.000         223.000
 124426032.47048  96955343.98948  23677491.2914   23677492.9204   23677491.7124
       224.000         176.000
 106798338.61748  83219478.43348  20323053.2584   20323054.3994   20323053.1284
       254.000         241.000
 127983412.64048  99727317.27848  24354446.3524   24354450.3514   24354445.1844
       208.000         153.000
 125289361.81348  97628063.06648  23841781.4124   23841784.0974   23841782.3564
       226.000         176.000
 128459828.13448 100098548.34448  24445107.4934   24445111.3944   24445107.1074
       216.000         162.000
 122423458.14748  95394894.40248  23296416.0664   23296418.0274   23296417.0024
       229.000         183.000
 09  1 17  0 24  0.0000000  0 10G 9G 5G18G26G17G15G27G12G10G28
 111187813.07748  86639834.90648  21158351.9334   21158354.6494   21158352.1844
       243.000         211.000
 141761428.12348  92671221.90348  25073382.0854   25073386.2404   25073383.0654
       206.000         147.000
 119915010.52648  93440263.95948  22819070.1484   22819071.6154   22819070.8834
       230.000         185.000
 109175331.47248  85071677.06648  20775380.2114   20775383.0444   20775380.1154
       251.000         223.000
 124378655.40548  96918426.78648  23668475.2674   23668477.1974   23668474.6384
       223.000         176.000
 106799581.47848  83220446.88948  20323289.6644   20323290.8804   20323289.4064
       255.000         241.000
 128053678.15748  99782069.62248  24367816.9784   24367821.6644   24367816.5954
       207.000         154.000
 125179678.23748  97542595.35648  23820908.9714   23820911.5804   23820909.8254
       222.000         176.000
 128570971.72248 100185153.72548  24466257.5084   24466261.4254   24466258.2254
       215.000         159.000
 122503855.11648  95457541.38548  23311715.3464   23311716.6514   23311714.9374
       230.000         182.000
 09  1 17  0 24 30.0000000  0 10G 9G 5G18G26G17G15G27G12G10G28
 111124715.17248  86590667.70848  21146345.2674   21146347.6034   21146345.0874
       244.000         211.000
 141645731.96548  92581069.04648  25051365.5054   25051369.5564   25051367.0744
       204.000         149.000
 119859826.88948  93397263.69748  22808569.1584   22808570.7344   22808569.2804
       230.000         186.000
 109228887.32748  85113408.89648  20785571.7264   20785574.1704   20785571.7544
       252.000         223.000
 124331684.18948  96881825.83748  23659537.3224   23659538.4794   23659537.0694
       224.000         174.000
 106801252.15248  83221748.70748  20323607.4514   20323608.8544   20323607.2954
       254.000         241.000
 128123955.97748  99836831.54848  24381191.0144   24381195.0034   24381192.3834
       201.000         154.000
 125070158.44648  97457255.25648  23800068.1824   23800070.5624   23800067.2764
       223.000         176.000
 128682124.55048 100271766.31448  24487409.3774   24487412.0664   24487410.6774
       213.000         155.000
 122584516.49448  95520394.39648  23327064.6214   23327065.8964   23327064.6454
       230.000         182.000
 09  1 17  0 25  0.0000000  0 10G 9G 5G18G26G17G15G27G12G10G28
 111061901.43548  86541721.94748  21134391.9434   21134394.5794   21134392.2774
       244.000         212.000
 141530096.93548  92490963.80648  25029361.5784   25029365.8104   25029360.7394
       209.000         153.000
 119805135.67448  93354647.17748  22798161.5374   22798163.6174   22798162.4234
       230.000         186.000
 109282827.58348  85155440.26048  20795836.2024   20795838.6844   20795836.0574
       252.000         223.000
 124285120.53648  96845542.48448  23650676.3744   23650677.5934   23650676.6124
       222.000         175.000
 106803351.04048  83223384.19948  20324006.8884   20324008.1934   20324006.6914
       254.000         241.000
 128194245.61448  99891602.65048  24394567.6754   24394570.8594   24394567.3584
       204.000         151.000
 124960804.34448  97372044.27348  23779258.6034   23779260.7374   23779258.7894
       224.000         176.000
 128793282.80648 100358383.10448  24508562.4644   24508565.7014   24508562.4634
       212.000         154.000
 122665439.30648  95583451.12948  23342463.9514   23342464.8024   23342464.3254
       230.000         182.000
 09  1 17  0 25 30.0000000  0 10G 9G 5G18G26G17G15G27G12G10G28
 110999372.82948  86492998.36048  21122493.2654   21122495.8254   21122493.6474
       243.000         212.000
 141414525.50048  92400908.11748  25007369.3124   25007372.8894   25007369.4094
       212.000         155.000
 119750939.40448  93312416.29648  22787848.8564   22787849.8734   22787848.5724
       233.000         188.000
 109337152.30348  85197771.20748  20806173.7594   20806176.3644   20806173.5464
       252.000         223.000
 124238967.48648  96809579.08348  23641893.5434   23641895.6154   23641893.0014
       223.000         176.000
 106805879.29248  83225354.25648  20324488.0314   20324489.3044   20324487.8704
       254.000         241.000
 128264547.47348  99946383.30148  24407944.3264   24407948.4764   24407943.2934
       204.000         151.000
 124851618.61048  97286964.48548  23758481.3194   23758483.5634   23758481.3194
       223.000         177.000
 128904445.22448 100445003.17648  24529715.6254   24529719.7074   24529715.9574
       213.000         157.000
 122746622.01548  95646710.37148  23357912.2984   23357913.5274   23357912.9854
       229.000         182.000
 09  1 17  0 26  0.0000000  0 10G 9G 5G18G26G17G15G27G12G10G28
 110937129.64148  86444497.19548  21110648.2974   21110651.5724   21110648.0764
       243.000         212.000
