     2.11           OBSERVATION DATA    G (GPS)             RINEX VERSION / TYPE
teqc  2008Oct2      gpsops              20090114 00:17:22UTCPGM / RUN BY / DATE
    30.0000                                                 INTERVAL
     1     1                                                WAVELENGTH FACT L1/2
     7    L1    L2    P1    P2    C1    S1    S2            # / TYPES OF OBSERV
Linux 2.4.20-8|Pentium IV|gcc -static|Linux|486/DX+         COMMENT
     2.10           OBSERVATION DATA    GPS                 COMMENT
soc2rnx ver 1.20    gpsops              14-Jan-2009 00:17:20COMMENT
S1, if present, is the SNR for the C/A data stream on L1.   COMMENT
 SNR is mapped to RINEX snr flag value [1,4-9]              COMMENT
    SNR:   >316  >100  >31.6  >10  >3.2    >0 bad=0         COMMENT
L1 & L2:      9     8     7     6     5     4     1         COMMENT
                                                            COMMENT
This data is provided as a public service by NASA/JPL.      COMMENT
No warranty is expressed or implied regarding suitability   COMMENT
for use.  For further information, contact:                 COMMENT
Dave Stowers, NASA/JPL m/s 238-600                          COMMENT
4800 Oak Grove Drive, Pasadena CA 91109 USA                 COMMENT
                                                            COMMENT
Forced Modulo Decimation to 30 seconds                      COMMENT
  2009     1    13     0     0    0.0000000     GPS         TIME OF FIRST OBS
DSN                 JPL                                     OBSERVER / AGENCY
451-U               AOAD/M_T        NONE                    ANT # / TYPE
  4849202.3940  -360328.9929  4114913.1862                  APPROX POSITION XYZ
        0.0254        0.0000        0.0000                  ANTENNA: DELTA H/E/N
LP03574             ASHTECH Z-XII3      CC00                REC # / TYPE / VERS
MADR                                                        MARKER NAME
13407S012                                                   MARKER NUMBER
                                                            END OF HEADER
 09  1 13  0  0  0.0000000  0 11G24G28G 8G26G 9G27G15G18G17G21G10
 132295364.27748 103087279.32448  25174983.4294   25174989.8834   25174983.6314
       202.000         144.000
 117034634.67948  91195811.30048  22270956.9174   22270958.3754   22270957.4924
       240.000         201.000
 127068481.28148  99014388.39948  24180337.5294   24180340.4134   24180335.5194
       210.000         157.000
 106143099.85948  82708885.37048  20198379.4664   20198381.5684   20198379.5034
       251.000         228.000
 117184619.72648  91312671.62248  22299507.9434   22299510.7014   22299507.6244
       233.000         193.000
 123579396.27048  96295611.38948  23516394.4454   23516397.8174   23516395.1034
       231.000         186.000
 108006227.31648  84160691.22248  20552905.8894   20552907.2274   20552905.5884
       251.000         235.000
 125743689.50748  97982084.10948  23928238.9794   23928238.6864   23928237.9004
       220.000         165.000
 129283693.49948 100740536.71648  24601873.1844   24601873.2774   24601872.0804
       215.000         167.000
 130006804.40448 101304001.48548  24739477.3354   24739478.4054   24739478.7074
       212.000         150.000
 119914439.13348  93439808.04348  22818969.9584   22818972.9224   22818971.0494
       234.000         190.000
 09  1 13  0  0 30.0000000  0 11G24G28G 8G26G 9G27G15G18G17G21G10
 132370702.99548 103145984.77348  25189320.0974   25189325.9364   25189320.4554
       205.000         145.000
 117086850.47648  91236498.93148  22280893.1124   22280894.7744   22280893.3444
       239.000         201.000
 127158804.96348  99084770.47748  24197525.4834   24197528.5434   24197525.7974
       210.000         157.000
 106164816.51148  82725807.42848  20202511.9034   20202514.1234   20202511.8704
       251.000         228.000
 117100408.04048  91247052.15248  22283482.6674   22283485.4864   22283482.6044
       232.000         192.000
 123649495.35348  96350234.02648  23529734.0224   23529736.8654   23529734.3784
       231.000         186.000
 107976596.94148  84137602.62248  20547267.3604   20547268.7174   20547267.1814
       251.000         235.000
 125655990.67948  97913747.38048  23911549.6954   23911550.4754   23911549.3304
       220.000         163.000
 129212447.86348 100685020.68048  24588314.2034   24588315.9524   24588313.7114
       217.000         168.000
 130044231.09048 101333165.07848  24746599.1574   24746601.1404   24746600.1734
       207.000         147.000
 120016718.37348  93519506.15148  22838432.6684   22838436.0684   22838433.5784
       231.000         188.000
 09  1 13  0  1  0.0000000  0 11G24G28G 8G26G 9G27G15G18G17G21G10
 132446069.07848 103204711.54048  25203662.7594   25203666.8324   25203663.0374
       207.000         148.000
 117139499.50148  91277524.13948  22290912.1034   22290913.2804   22290912.7104
       240.000         201.000
 127249154.85348  99155172.97348  24214718.2484   24214721.0624   24214718.4414
       213.000         158.000
 106186925.09348  82743034.88048  20206718.9994   20206721.3514   20206718.8284
       250.000         228.000
 117016431.39048  91181615.80848  22267502.5444   22267505.0404   22267503.3394
       234.000         192.000
 123719623.07048  96404878.98548  23543078.7434   23543081.8474   23543079.3764
       227.000         186.000
 107947298.40848  84114772.59648  20541692.0744   20541693.3214   20541691.9524
       252.000         235.000
 125568601.00248  97845651.49448  23894919.9944   23894920.6164   23894919.5594
       221.000         165.000
 129141388.15948 100629649.47748  24574792.6544   24574793.9874   24574792.2134
       213.000         166.000
 130082031.95648 101362620.26648  24753793.0154   24753794.2164   24753793.7194
       206.000         145.000
 120119212.48248  93599371.68648  22857936.4814   22857939.8134   22857937.2874
       232.000         187.000
 09  1 13  0  1 30.0000000  0 11G24G28G 8G26G 9G27G15G18G17G21G10
 132521459.13948 103263457.03448  25218009.6454   25218012.1674   25218009.8924
       206.000         142.000
 117192579.59248  91318885.26148  22301012.8124   22301014.4304   22301013.2404
       239.000         202.000
 127339529.76548  99225594.94948  24231915.6584   24231918.7784   24231915.9764
       210.000         161.000
 106209425.62448  82760567.76048  20211000.7614   20211003.0924   20211000.6094
       251.000         228.000
 116932689.92548  91116362.73048  22251567.0414   22251569.9354   22251567.1004
       234.000         193.000
 123789778.26748  96459545.35148  23556429.1954   23556432.3714   23556429.1114
       230.000         187.000
 107918332.44348  84092201.71248  20536180.0594   20536181.3304   20536179.9234
       251.000         236.000
 125481522.84048  97777798.41248  23878349.5674   23878351.2654   23878350.9104
       221.000         166.000
 129070516.97748 100574425.15448  24561305.0004   24561307.2844   24561303.4914
       217.000         166.000
 130120204.29948 101392364.86848  24761057.3664   24761058.3344   24761056.2284
       205.000         149.000
 120221918.10248  93679402.03948  22877480.6714   22877484.0964   22877481.8554
       230.000         186.000
 09  1 13  0  2  0.0000000  0 11G24G28G 8G26G 9G27G15G18G17G21G10
 132596870.61848 103322219.22548  25232359.7254   25232362.8584   25232359.8094
       199.000         135.000
 117246089.28948  91360581.13248  22311195.3554   22311197.7014   22311195.7924
       239.000         202.000
 127429928.79548  99296035.73448  24249118.2384   24249121.5864   24249119.9344
       213.000         160.000
 106232318.39848  82778406.27948  20215357.1024   20215359.5624   20215357.0504
       250.000         228.000
 116849184.51448  91051293.59048  22235676.6464   22235679.1634   22235676.5264
       235.000         195.000
 123859960.54048  96514232.82948  23569784.9974   23569787.3284   23569785.2814
       233.000         187.000
 107889700.48448  84069891.09848  20530731.4154   20530732.8584   20530731.2244
       252.000         236.000
 125394758.59848  97710189.84948  23861839.3984   23861840.1714   23861839.1974
       218.000         164.000
 128999837.55048 100519350.27548  24547856.9404   24547857.9444   24547856.4314
       221.000         171.000
 130158746.24048 101422397.54948  24768390.3664   24768392.9884   24768391.3414
       205.000         151.000
 120324832.87748  93759595.35248  22897064.5824   22897067.9874   22897065.0704
       229.000         186.000
 09  1 13  0  2 30.0000000  0 11G24G28G 8G26G 9G27G15G18G17G21G10
 132672301.02248 103380996.15348  25246712.8694   25246716.3184   25246714.5364
       189.000         126.000
 117300026.56448  91402610.18048  22321459.2164   22321461.1734   22321459.5034
       240.000         202.000
 127520351.17848  99366494.67048  24266324.9554   24266328.8414   24266325.0054
       212.000         159.000
 106255603.80948  82796550.75348  20219788.1204   20219790.5564   20219787.9324
       252.000         228.000
 116765916.24748  90986409.23948  22219831.1224   22219833.9394   22219831.5604
       232.000         195.000
 123930169.41448  96568941.02548  23583144.9694   23583147.5854   23583145.3704
       230.000         185.000
 107861404.31848  84047842.13648  20525346.9234   20525348.2314   20525346.6234
       251.000         236.000
 125308311.10448  97642828.21648  23845388.6844   23845389.9294   23845389.3434
       221.000         168.000
 128929352.77148 100464427.09348  24534443.1634   24534445.0854   24534442.9244
       215.000         166.000
 130197655.27448 101452716.21948  24775794.8754   24775797.5564   24775795.7114
       205.000         149.000
 120427954.27448  93839949.67448  22916688.3424   22916691.6694   22916688.7784
       232.000         188.000
 09  1 13  0  3  0.0000000  0 10G28G 8G26G 9G27G15G18G17G21G10
 117354389.99248  91444971.29348  22331804.4834   22331805.9784   22331804.9594
       240.000         202.000
 127610796.04148  99436971.16748  24283535.1684   24283539.3244   24283535.9634
       209.000         157.000
 106279282.56648  82815001.72148  20224294.2764   20224296.4434   20224294.2924
       251.000         228.000
 116682885.89248  90921710.28248  22204030.6774   22204033.8524   22204030.8444
       233.000         195.000
 124000405.00348  96623670.03048  23596510.2864   23596512.6714   23596510.6134
       230.000         184.000
 107833445.53248  84026056.06048  20520026.5184   20520027.8754   20520026.1484
       251.000         236.000
 125222183.52748  97575715.79048  23828999.1914   23829000.4454   23828999.0124
       222.000         169.000
 128859066.16348 100409658.24948  24521068.1904   24521069.4754   24521067.9824
       218.000         166.000
 130236929.83248 101483319.73448  24783268.5174   24783270.3294   24783268.2994
       201.000         142.000
 120531280.35748  93920463.49248  22936350.8164   22936353.9904   22936351.9814
       232.000         189.000
 09  1 13  0  3 30.0000000  0 10G28G 8G26G 9G27G15G18G17G21G10
 117409177.32748  91487662.72348  22342230.0934   22342231.4534   22342230.7224
       241.000         201.000
 127701262.02848  99507464.13148  24300751.3094   24300754.0184   24300752.1984
       211.000         158.000
 106303354.06148  82833758.72648  20228874.8714   20228877.0764   20228874.8564
       251.000         227.000
 116600093.80448  90857196.96648  22188276.2804   22188279.2684   22188276.4164
       237.000         198.000
 124070665.93948  96678418.80448  23609880.4934   23609882.8924   23609881.1394
       228.000         184.000
 107805825.00848  84004533.57448  20514770.4614   20514771.8324   20514770.0174
       251.000         236.000
 125136377.72748  97508854.14048  23812670.4344   23812671.7504   23812672.3854
       221.000         166.000
 128788979.58348 100355045.37548  24507730.0814   24507732.8224   24507729.8474
       216.000         165.000
 130276567.02948 101514205.85848  24790811.0894   24790812.8834   24790812.9984
       198.000         135.000
 120634807.81248  94001134.23148  22956051.4744   22956054.5304   22956052.1464
       231.000         186.000
 09  1 13  0  4  0.0000000  0 10G28G 8G26G 9G27G15G18G17G21G10
 117464386.42248  91530682.80648  22352736.0874   22352737.7424   22352736.6244
       241.000         202.000
 127791748.24748  99577972.84548  24317969.4014   24317973.4304   24317970.2924
       212.000         160.000
 106327818.44948  82852821.88248  20233530.1404   20233532.4764   20233530.0304
       250.000         227.000
 116517540.78348  90792869.93548  22172567.3974   22172569.6894   22172567.5354
       236.000         198.000
 124140951.82748  96733186.99648  23623255.4024   23623258.0224   23623255.6984
       230.000         183.000
 107778543.92448  83983275.58648  20509579.1094   20509580.3624   20509578.7854
       251.000         236.000
 125050896.28648  97442245.24748  23796403.9994   23796405.6584   23796404.3314
       221.000         168.000
 128719096.74148 100300591.16248  24494433.2974   24494435.0404   24494432.8264
       218.000         170.000
 130316564.56848 101545372.71848  24798425.0794   24798423.0074   24798422.1294
       190.000         128.000
 120738533.49048  94081959.42048  22975789.8024   22975792.6584   22975790.7154
       232.000         185.000
 09  1 13  0  4 30.0000000  0 10G28G 8G26G 9G27G15G18G17G21G10
 117520015.88248  91574030.43548  22363322.0384   22363324.1434   22363323.1174
       240.000         202.000
 127882254.02548  99648496.79748  24335193.0744   24335196.4124   24335193.6774
       215.000         160.000
 106352676.63348  82872191.88648  20238260.5024   20238262.9194   20238260.2444
       252.000         227.000
 116435227.76148  90728729.93548  22156903.2034   22156906.0464   22156903.3534
       235.000         195.000
 124211262.51648  96787974.52948  23636635.1204   23636637.5584   23636635.4464
       229.000         184.000
 107751604.06548  83962283.48348  20504452.6184   20504453.8464   20504452.3574
       251.000         236.000
 124965741.85448  97375891.11248  23780199.9394   23780201.5054   23780199.8484
       219.000         168.000
 128649420.63548 100246298.09748  24481173.9504   24481175.9894   24481174.1524
       217.000         166.000
 130356920.15148 101576818.57948  24806102.5694   24806104.3474   24806103.9184
       191.000         125.000
 120842455.28948  94162937.43548  22995565.5734   22995568.2124   22995566.5644
       231.000         185.000
 09  1 13  0  5  0.0000000  0  9G28G 8G26G 9G27G15G18G17G10
 117576063.93148  91617704.23548  22373987.6644   22373989.3984   22373988.2274
       240.000         201.000
 127972778.76348  99719035.52648  24352418.8534   24352422.7664   24352418.6934
       208.000         159.000
 106377928.87448  82891868.94848  20243066.0164   20243068.2594   20243065.8474
       251.000         227.000
 116353155.70348  90664777.69348  22141285.4194   22141288.0094   22141286.0644
       236.000         195.000
 124281597.84948  96842781.27648  23650019.3944   23650022.2144   23650019.5034
       229.000         183.000
 107725007.08048  83941558.55648  20499391.4344   20499392.6754   20499391.0964
       252.000         236.000
 124880917.08148  97309793.90148  23764057.5434   23764059.8424   23764057.3244
       218.000         165.000
 128579954.50148 100192168.64048  24467955.2704   24467956.3544   24467955.7054
       216.000         163.000
 120946571.32048  94244066.81648  23015378.1624   23015380.8174   23015379.3474
       231.000         184.000
 09  1 13  0  5 30.0000000  0  9G28G 8G26G 9G27G15G18G17G10
 117632528.52948  91661702.63248  22384732.3744   22384734.0054   22384732.5774
       240.000         201.000
 128063321.55948  99789588.31048  24369648.5564   24369652.5834   24369648.0454
       212.000         161.000
 106403575.27848  82911853.14848  20247946.4424   20247948.5744   20247946.3974
       252.000         227.000
 116271325.02948  90601013.53648  22125713.7424   22125716.4784   22125714.0184
       235.000         197.000
 124351957.28648  96897606.78848  23663408.5444   23663411.4464   23663409.2114
       227.000         181.000
 107698754.64348  83921102.11348  20494395.5904   20494397.1014   20494395.4114
       251.000         237.000
 124796425.09748  97243955.97948  23747979.4844   23747980.9834   23747979.1094
       222.000         167.000
 128510701.17848 100138205.01448  24454775.3594   24454777.6624   24454775.5624
       215.000         166.000
 121050878.89148  94325345.42748  23035227.0224   23035230.3774   23035227.5334
       230.000         185.000
 09  1 13  0  6  0.0000000  0  9G28G 8G26G 9G27G15G18G17G10
 117689407.75648  91706024.10148  22395556.1064   22395557.7414   22395557.0604
       238.000         201.000
 128153881.36148  99860154.34148  24386881.9444   24386885.6704   24386882.4264
       213.000         163.000
 106429615.98248  82932144.60748  20252901.7454   20252903.8204   20252901.6464
       251.000         227.000
 116189736.70148  90537438.23448  22110187.7414   22110190.3384   22110187.4244
       235.000         196.000
 124422340.52248  96952450.85448  23676801.3774   23676804.8474   23676801.2264
       227.000         181.000
 107672847.62848  83900914.82548  20489465.8004   20489467.1814   20489465.5394
       251.000         237.000
 124712267.78748  97178378.85248  23731965.5464   23731966.5504   23731966.9164
       221.000         169.000
 128441663.39548 100084409.33048  24441638.8034   24441640.1364   24441638.1204
       215.000         168.000
 121155375.27948  94406771.17548  23055112.1484   23055115.3714   23055112.9404
       229.000         185.000
 09  1 13  0  6 30.0000000  0  9G28G 8G26G 9G27G15G18G17G10
 117746699.62048  91750667.11348  22406458.3214   22406460.4944   22406458.7804
       240.000         201.000
 128244457.23048  99930732.91548  24404117.5724   24404121.6374   24404117.5724
       213.000         163.000
 106456050.89448  82952743.23648  20257932.1614   20257934.2114   20257932.1444
       252.000         227.000
 116108390.93948  90474051.93948  22094708.0604   22094710.5534   22094707.8734
       236.000         197.000
 124492746.70248  97007312.79848  23690199.6944   23690202.9794   23690200.1744
       226.000         181.000
 107647287.21248  83880997.61848  20484601.7854   20484603.2624   20484601.4974
       252.000         237.000
 124628447.71848  97113064.53048  23716014.7224   23716016.4164   23716014.0894
       221.000         169.000
 128372844.19448 100030783.96648  24428542.8214   24428544.8274   24428542.6184
       216.000         168.000
 121260057.50448  94488341.72148  23075033.0434   23075035.8564   23075033.7994
       230.000         186.000
 09  1 13  0  7  0.0000000  0  9G28G 8G26G 9G27G15G18G17G10
 117804401.96648  91795629.98048  22417438.9694   22417441.2454   22417439.2264
       238.000         202.000
 128335048.22048 100001323.28248  24421357.0174   24421360.6844   24421357.5704
       215.000         165.000
 106482880.01548  82973649.02948  20263037.4314   20263039.7094   20263037.2274
       251.000         227.000
 116027288.59648  90410855.30548  22079274.9164   22079277.7104   22079274.8764
       236.000         197.000
 124563175.13948  97062192.07848  23703601.5064   23703604.8654   23703601.4964
       227.000         181.000
 107622074.59848  83861351.41648  20479804.0794   20479805.3754   20479803.9614
       252.000         237.000
 124544966.98748  97048014.58848  23700128.5404   23700130.6144   23700128.5444
       221.000         170.000
 128304246.13348  99977330.92048  24415489.5434   24415491.0844   24415489.8594
       215.000         172.000
 121364922.84748  94570054.96248  23094988.1254   23094991.0654   23094989.3724
       229.000         185.000
 09  1 13  0  7 30.0000000  0  9G28G 8G26G 9G27G15G18G17G10
 117862511.78948  91840910.36448  22428496.6954   22428498.8124   22428497.0134
       239.000         200.000
 128425652.43148 100071923.92948  24438598.1894   24438601.9904   24438598.9464
       217.000         164.000
 106510102.57248  82994861.40948  20268217.7754   20268220.1034   20268217.8324
       251.000         227.000
 115946429.37648  90347848.14348  22063887.7594   22063890.7044   22063888.5724
       238.000         197.000
 124633624.44148  97117087.63148  23717007.1624   23717011.0834   23717007.2124
       224.000         182.000
 107597210.19048  83841976.55448  20475072.6594   20475073.9524   20475072.4614
       253.000         238.000
 124461827.59348  96983230.63648  23684308.1874   23684309.3354   23684308.5034
       222.000         170.000
 128235871.34248  99924051.85548  24402477.8744   24402479.7074   24402477.3034
       216.000         170.000
 121469967.57748  94651907.98348  23114976.9484   23114980.5644   23114978.3414
       227.000         184.000
 09  1 13  0  8  0.0000000  0  9G28G 8G26G 9G27G15G18G17G10
 117921028.95248  91886508.14148  22439632.0444   22439633.5814   22439632.8684
       237.000         199.000
 128516270.78348 100142535.57148  24455842.3034   24455846.1064   24455843.1574
       215.000         165.000
 106537720.42748  83016381.80248  20273473.3254   20273475.6244   20273473.1974
       251.000         227.000
 115865815.43748  90285032.07748  22048547.6684   22048550.2524   22048548.1784
       236.000         198.000
 124704095.73748  97172000.31048  23730417.5264   23730421.4844   23730417.3954
       225.000         181.000
 107572697.28448  83822875.58148  20470408.1324   20470409.3034   20470408.0454
       252.000         238.000
 124379033.56948  96918715.78948  23668553.5864   23668554.2194   23668552.8054
       221.000         172.000
 128167723.69648  99870949.80448  24389509.8644   24389511.8144   24389509.6764
       218.000         171.000
 121575191.21548  94733900.42048  23135000.1404   23135003.7404   23135000.8854
       227.000         183.000
 09  1 13  0  8 30.0000000  0  9G28G 8G26G 9G27G15G18G17G10
 117979950.85048  91932421.30548  22450844.4144   22450845.9464   22450844.6004
       238.000         199.000
 128606901.72348 100213157.06848  24473089.2134   24473092.5544   24473088.8834
       217.000         165.000
 106565733.34348  83038210.04648  20278804.0024   20278806.2154   20278803.8484
       251.000         227.000
 115785446.97348  90222407.32648  22033253.9344   22033256.6854   22033254.5244
       238.000         199.000
 124774588.32248  97226929.57348  23743832.2324   23743835.4024   23743832.3244
       224.000         180.000
 107548536.65048  83804049.10948  20465810.3584   20465811.7154   20465810.0824
       252.000         238.000
 124296586.49948  96854471.35248  23652863.5464   23652865.4384   23652864.0544
       223.000         171.000
 128099807.02448  99818027.70848  24376586.1984   24376587.9264   24376586.1604
       221.000         173.000
 121680590.09348  94816029.41048  23155056.5624   23155060.6734   23155057.1444
       226.000         182.000
 09  1 13  0  9  0.0000000  0  9G28G 8G26G 9G27G15G18G17G10
 118039274.95448  91978647.88448  22462133.6254   22462135.3244   22462133.9574
       240.000         199.000
 128697544.19248 100283787.57048  24490337.4504   24490340.9094   24490337.9784
       217.000         165.000
 106594140.74648  83060345.66948  20284209.7224   20284211.8964   20284209.6604
       251.000         227.000
 115705324.18648  90159973.98648  22018007.2324   22018009.9014   22018007.3544
       239.000         200.000
 124845101.09748  97281874.57248  23757250.3314   23757253.6044   23757250.5574
       225.000         180.000
 107524728.95948  83785497.65948  20461279.8274   20461281.1524   20461279.6034
       252.000         238.000
 124214488.84348  96790499.14748  23637241.3834   23637243.1284   23637242.5784
       222.000         173.000
 128032123.11048  99765286.97648  24363706.5694   24363707.6524   24363707.1764
       219.000         173.000
 121786161.62748  94898292.94148  23175146.2174   23175150.0534   23175147.0034
       227.000         180.000
 09  1 13  0  9 30.0000000  0  9G28G 8G26G 9G27G15G18G17G10
 118098999.74748  92025186.68448  22473498.8314   22473500.9834   22473499.8984
       238.000         199.000
 128788197.61448 100354426.55148  24507589.3564   24507592.0944   24507590.4104
       222.000         167.000
 106622943.04148  83082789.01648  20289690.7104   20289692.8224   20289690.6234
       252.000         227.000
 115625448.06748  90097732.86548  22002807.3654   22002809.9164   22002807.5424
       237.000         200.000
 124915634.20448  97336835.40948  23770672.6514   23770675.8484   23770672.8274
       226.000         181.000
 107501275.97648  83767222.60448  20456816.9134   20456818.1874   20456816.7254
       252.000         238.000
 124132743.25948  96726801.29048  23621684.5314   23621686.6704   23621685.6084
       222.000         170.000
 127964675.28148  99712730.24148  24350871.3234   24350873.0814   24350870.6174
       220.000         174.000
 121891903.03548  94980688.83048  23195268.0774   23195272.3564   23195269.2924
       227.000         180.000
 09  1 13  0 10  0.0000000  0  9G28G 8G26G 9G27G15G18G17G10
 118159123.36248  92072036.26148  22484939.8534   22484941.8534   22484940.1474
       237.000         198.000
 128878861.13348 100425073.43448  24524841.8964   24524844.7284   24524843.1674
       216.000         165.000
 106652140.78048  83105540.49148  20295246.8234   20295249.0854   20295246.7624
       252.000         227.000
 115545819.61948  90035684.74348  21987654.4384   21987657.0404   21987654.7014
       237.000         199.000
 124986187.25948  97391811.79848  23784098.5664   23784101.5144   23784098.7314
       223.000         180.000
 107478179.20148  83749225.11948  20452421.7874   20452423.1264   20452421.6214
       253.000         238.000
 124051352.41048  96663379.82048  23606197.4734   23606198.1194   23606198.0924
       226.000         172.000
 127897466.41148  99660359.71348  24338081.5174   24338083.5814   24338080.8704
       218.000         171.000
 121997812.23548  95063215.47948  23215422.1554   23215426.1134   23215422.9134
       229.000         180.000
 09  1 13  0 10 30.0000000  0  9G28G 8G26G 9G27G15G18G17G10
 118219645.13348  92119196.07748  22496456.8634   22496457.9564   22496456.8324
       237.000         197.000
 128969535.78148 100495728.96548  24542096.0564   24542099.6914   24542096.1864
       218.000         165.000
 106681735.18048  83128601.05548  20300878.6224   20300880.7164   20300878.5754
       252.000         227.000
 115466440.78848  89973831.10948  21972549.0334   21972551.5974   21972549.1024
       237.000         200.000
 125056761.28248  97446804.53248  23797528.2004   23797531.3804   23797528.6964
       223.000         178.000
 107455441.15948  83731507.15748  20448094.8684   20448096.1714   20448094.5934
       252.000         238.000
 123970320.11448  96600237.75648  23590777.7144   23590778.1864   23590778.6524
       223.000         172.000
 127830500.77848  99608178.70848  24325338.5724   24325340.3394   24325338.9164
       218.000         172.000
 122103887.64048  95145871.63548  23235607.7204   23235611.4784   23235608.9204
       226.000         179.000
 09  1 13  0 11  0.0000000  0  9G28G 8G26G 9G27G15G18G17G10
 118280561.28048  92166663.19448  22508048.7494   22508049.1414   22508048.5574
       239.000         196.000
 129060218.46248 100566390.77548  24559352.2714   24559356.3894   24559352.9264
       218.000         164.000
 106711724.58848  83151969.41748  20306585.4104   20306587.4804   20306585.3674
       252.000         227.000
 115387310.38748  89912171.07348  21957490.9124   21957494.1984   21957491.0194
       237.000         201.000
 125127353.57348  97501811.49448  23810961.2224   23810964.6184   23810961.3614
       224.000         178.000
 107433061.44748  83714068.41748  20443836.1104   20443837.5164   20443835.8134
       252.000         238.000
 123889647.00348  96537375.60248  23575425.6124   23575427.1474   23575426.1694
       223.000         173.000
 127763779.35248  99556187.94748  24312641.6724   24312643.5844   24312641.2494
       218.000         167.000
 122210125.01448  95228653.99748  23255823.6374   23255827.3734   23255824.6084
       224.000         178.000
 09  1 13  0 11 30.0000000  0  9G28G 8G26G 9G27G15G18G17G10
 118341869.68948  92214435.97848  22519715.6564   22519715.9964   22519716.1314
       239.000         198.000
 129150908.52948 100637058.34348  24576609.7884   24576613.7844   24576610.4634
       219.000         164.000
 106742109.10048  83175645.65848  20312367.3724   20312369.4694   20312367.4264
       252.000         227.000
 115308429.13348  89850705.17548  21942480.4394   21942483.3874   21942481.2384
       237.000         201.000
 125197963.97448  97556832.56248  23824398.0994   23824401.5664   23824398.8874
       224.000         178.000
 107411041.57248  83696910.07248  20439645.8594   20439647.1924   20439645.6304
       252.000         238.000
 123809335.68548  96474795.35348  23560143.3754   23560144.9194   23560143.3624
       225.000         175.000
 127697305.28048  99504390.00648  24299991.8784   24299993.8914   24299992.3484
       213.000         169.000
 122316521.96848  95311560.70348  23276070.4614   23276074.2554   23276070.3084
       226.000         180.000
 09  1 13  0 12  0.0000000  0 10G28G 8G26G 9G27G15G18G17G12G10
 118403568.53748  92262512.99248  22531456.5234   22531457.8144   22531457.9924
       237.000         199.000
 129241605.29848 100707731.12448  24593868.8944   24593872.7664   24593869.4974
       212.000         160.000
 106772888.98948  83199629.97648  20318224.5004   20318226.6754   20318224.4414
       251.000         227.000
 115229797.65348  89789433.89748  21927517.6614   21927520.2334   21927517.5334
       239.000         201.000
 125268592.16548  97611867.50548  23837838.6734   23837841.6364   23837838.8284
       225.000         177.000
 107389382.85648  83680033.14748  20435524.2804   20435525.7194   20435524.0824
       252.000         238.000
 123729388.56548  96412498.89548  23544929.8134   23544930.8224   23544930.7284
       224.000         173.000
 127631081.70248  99452787.21248  24287389.5594   24287392.7364   24287388.1854
       219.000         172.000
 131533842.40458 102493888.68458  25030069.3605   25030073.2315   25030070.2705
       209.000         151.000
 122423075.40548  95394589.33948  23296347.4784   23296351.1364   23296348.1124
       227.000         181.000
 09  1 13  0 12 30.0000000  0 10G28G 8G26G 9G27G15G18G17G12G10
 118465655.60148  92310892.53048  22543271.0484   22543273.8054   22543271.4654
       237.000         200.000
 129332307.92448 100778408.49048  24611128.5974   24611132.2604   24611128.3214
       213.000         159.000
 106804064.08048  83223922.24548  20324156.9304   20324159.2374   20324156.8174
       252.000         227.000
 115151416.73148  89728357.86248  21912602.0414   21912604.4454   21912602.5574
       239.000         200.000
 125339237.69648  97666915.94948  23851281.8254   23851284.8224   23851282.3074
       224.000         176.000
 107368086.43148  83663438.53048  20431471.7364   20431473.1574   20431471.4834
       253.000         238.000
 123649808.05548  96350488.11848  23529785.8284   23529787.6914   23529786.3404
       226.000         176.000
 127565110.82548  99401381.32948  24274836.3784   24274837.8684   24274836.0954
       217.000         168.000
 131418611.04848 102404097.90148  25008140.9834   25008145.3044   25008142.5774
       208.000         153.000
 122529782.69248  95477737.86248  23316653.1514   23316656.4294   23316654.3554
       228.000         180.000
 09  1 13  0 13  0.0000000  0 10G28G 8G26G 9G27G15G18G17G12G10
 118528129.68648  92359573.64748  22555159.5234   22555162.5384   22555159.8684
       238.000         200.000
 129423016.05648 100849090.11248  24628389.8624   24628393.3974   24628390.5044
       215.000         160.000
 106835635.44848  83248523.30348  20330164.8414   20330167.1444   20330164.8234
       252.000         227.000
 115073287.59348  89667478.02548  21897734.7584   21897736.9864   21897734.7464
       240.000         201.000
 125409901.19148  97721978.39348  23864728.4514   23864732.0134   23864729.0174
       222.000         178.000
 107347154.53248  83647127.95648  20427488.6094   20427489.9224   20427488.4214
       252.000         238.000
 123570597.54248  96288765.63648  23514713.0164   23514714.6854   23514712.1404
       224.000         177.000
 127499396.87148  99350175.63848  24262331.1294   24262333.5124   24262330.7434
       215.000         165.000
 131303418.10848 102314337.00148  24986221.3454   24986224.9714   24986221.0324
       214.000         157.000
 122636642.35348  95561005.12148  23336988.0794   23336991.4174   23336988.6464
       227.000         180.000
 09  1 13  0 13 30.0000000  0 10G28G 8G26G 9G27G15G18G17G12G10
 118590988.30448  92408554.39548  22567121.2904   22567124.4054   22567121.8794
       237.000         200.000
 129513728.96648 100919775.49248  24645652.7224   24645655.3004   24645653.7804
       214.000         161.000
 106867602.29448  83273432.52648  20336247.8104   20336250.2114   20336247.7514
       252.000         227.000
 114995410.45348  89606794.55048  21882915.0894   21882917.4684   21882915.3704
       238.000         200.000
 125480581.67648  97777054.07248  23878178.6504   23878181.7954   23878179.2464
       221.000         176.000
 107326587.76348  83631101.89548  20423574.7924   20423576.2094   20423574.5044
       253.000         238.000
 123491758.84048  96227332.87748  23499710.4324   23499712.0204   23499709.7094
       224.000         177.000
 127433942.26148  99299172.05148  24249875.5404   24249876.8744   24249875.5564
       215.000         165.000
 131188265.44448 102224607.51248  24964310.0274   24964311.5644   24964310.1824
       210.000         155.000
 122743651.19948  95644388.62148  23357350.7764   23357354.6524   23357351.3824
       227.000         180.000
 09  1 13  0 14  0.0000000  0 10G28G 8G26G 9G27G15G18G17G12G10
 118654229.36848  92457833.14948  22579155.8534   22579158.5574   22579155.9704
       238.000         199.000
 129604445.85548 100990463.95148  24662915.6144   24662919.1554   24662916.4064
       213.000         163.000
 106899965.29948  83298650.44348  20342406.2154   20342408.6054   20342406.2364
       251.000         226.000
 114917786.09748  89546308.04648  21868143.5714   21868145.7754   21868143.4524
       238.000         199.000
 125551279.06948  97832142.92748  23891631.6234   23891635.0774   23891631.7234
       225.000         176.000
 107306387.88548  83615361.72748  20419730.9424   20419732.2294   20419730.7614
       253.000         238.000
 123413294.85648  96166192.11748  23484779.5304   23484780.8534   23484778.5544
       227.000         177.000
 127368749.96348  99248372.85948  24237469.9074   24237472.2184   24237469.4254
       217.000         165.000
 131073156.05048 102134911.73848  24942405.9564   24942406.6464   24942404.2864
       210.000         153.000
 122850806.61548  95727886.35948  23377741.9734   23377745.0374   23377742.8874
       227.000         178.000
 09  1 13  0 14 30.0000000  0 10G28G 8G26G 9G27G15G18G17G12G10
 118717849.91948  92507407.60448  22591262.3204   22591264.9424   22591262.7944
       238.000         197.000
 129695164.85548 101061154.04948  24680178.7564   24680182.0234   24680177.9824
       214.000         163.000
 106932723.49348  83324176.30448  20348639.8654   20348642.1934   20348639.8024
       252.000         226.000
 114840414.35348  89486018.38848  21853420.0954   21853422.3854   21853420.4104
       237.000         201.000
 125621992.15548  97887244.01848  23905088.4134   23905091.4754   23905088.4744
       226.000         175.000
 107286555.31648  83599907.77548  20415956.9344   20415958.1934   20415956.6194
       253.000         239.000
 123335206.97348  96105344.41048  23469920.0714   23469921.4404   23469920.8994
       226.000         179.000
 127303821.93048  99197779.58748  24225114.4974   24225116.1574   24225114.4234
       215.000         165.000
 130958090.67148 102045250.36248  24920508.4864   24920509.8364   24920508.6054
       211.000         153.000
 122958105.75348  95811496.05848  23398159.9284   23398164.1514   23398161.2254
       224.000         178.000
 09  1 13  0 15  0.0000000  0 10G28G 8G26G 9G27G15G18G17G12G10
 118781848.61748  92557276.72848  22603440.8864   22603443.0094   22603441.5514
       238.000         194.000
 129785886.19948 101131845.96648  24697442.1934   24697445.5164   24697442.0234
       218.000         162.000
 106965877.28748  83350010.42148  20354948.8234   20354951.0974   20354948.8014
       251.000         226.000
 114763296.70648  89425926.72748  21838745.3054   21838748.0844   21838745.4374
       238.000         202.000
 125692720.83648  97942357.26348  23918547.4624   23918550.7014   23918548.2884
       225.000         174.000
 107267091.28348  83584740.99448  20412253.0914   20412254.3674   20412252.8744
       253.000         239.000
 123257498.04448  96044792.00248  23455132.0664   23455133.8294   23455132.7024
       226.000         177.000
 127239161.43648  99147394.82648  24212809.7634   24212812.4034   24212809.6114
       217.000         164.000
 130843072.71248 101955625.87548  24898622.9654   24898622.6144   24898622.8054
       211.000         151.000
 123065545.57548  95895215.37448  23418605.1844   23418609.1124   23418606.0794
       225.000         177.000
 09  1 13  0 15 30.0000000  0 10G28G 8G26G 9G27G15G18G17G12G10
 118846223.27948  92607438.80248  22615690.9084   22615692.2474   22615691.6894
       239.000         194.000
 129876608.51548 101202538.67948  24714706.7984   24714709.4604   24714707.7604
       215.000         158.000
 106999426.52448  83376152.67648  20361333.2364   20361335.3744   20361333.1444
       252.000         226.000
 114686433.21748  89366033.10148  21824118.7844   21824121.4104   21824118.8924
       238.000         202.000
 125763464.51648  97997482.18348  23932009.3884   23932012.6124   23932009.2274
       221.000         173.000
 107247997.53648  83569862.74448  20408619.6874   20408621.0114   20408619.4784
       253.000         239.000
 123180170.36448  95984536.66148  23440417.1804   23440418.2104   23440419.3064
       225.000         176.000
 127174771.27648  99097220.63748  24200556.4474   24200559.0584   24200556.4454
       217.000         167.000
 130728103.88348 101866039.76348  24876744.6694   24876744.2724   24876745.2974
       210.000         149.000
 123173123.56248  95979042.38048  23439077.0294   23439079.8564   23439078.1954
       226.000         177.000
 09  1 13  0 16  0.0000000  0 10G28G 8G26G 9G27G15G18G17G12G10
 118910972.25048  92657892.52748  22628012.1144   22628012.7454   22628013.2614
       237.000         191.000
 129967332.07448 101273232.36548  24731970.3104   24731974.1294   24731970.7314
       215.000         159.000
 107033371.87748  83402603.59948  20367792.7344   20367795.1194   20367792.5994
       251.000         226.000
 114609825.24148  89306338.57948  21809540.7164   21809543.4974   21809540.5294
       239.000         203.000
 125834223.42948  98052619.00248  23945474.3434   23945477.7554   23945474.4284
       222.000         174.000
 107229276.04148  83555274.56348  20405057.0584   20405058.3704   20405056.9084
       253.000         239.000
 123103226.94648  95924580.75348  23425775.1964   23425776.6134   23425775.6794
       226.000         178.000
 127110655.05748  99047259.97248  24188356.9864   24188358.0704   24188356.5414
       220.000         169.000
 130613187.33348 101776494.39748  24854876.2104   24854877.1084   24854877.8744
       210.000         149.000
 123280837.96648  96062975.66948  23459574.1674   23459577.6384   23459575.2814
       226.000         177.000
 09  1 13  0 16 30.0000000  0 10G28G 8G26G 9G27G15G18G17G12G10
 118976092.96748  92708635.92948  22640404.2314   22640403.6064   22640404.8234
       236.000         189.000
 130058055.47948 101343925.92048  24749235.0544   24749238.4814   24749235.7854
       220.000         165.000
 107067713.00148  83429362.90848  20374327.6444   20374330.1394   20374327.5484
       252.000         226.000
 114533473.10348  89246843.40848  21795011.3914   21795013.9524   21795011.9454
       240.000         203.000
 125904996.94148  98107767.18748  23958942.4564   23958945.2474   23958943.2754
       223.000         176.000
 107210927.47048  83540976.97048  20401565.4324   20401566.7814   20401565.2804
       252.000         239.000
 123026669.76648  95864925.82048  23411207.0504   23411208.5874   23411208.6934
       226.000         177.000
 127046815.15248  98997514.57348  24176207.9224   24176210.1014   24176208.0514
       218.000         171.000
 130498324.76448 101686991.15948  24833018.4854   24833019.4874   24833018.4564
       208.000         152.000
 123388685.50148  96147012.70348  23480096.4514   23480100.0824   23480097.0904
       224.000         176.000
 09  1 13  0 17  0.0000000  0 10G28G 8G26G 9G27G15G18G17G12G10
 119041583.97048  92759667.87148  22652866.8004   22652865.9644   22652867.0484
       237.000         189.000
 130148778.90748 101414619.50248  24766498.7884   24766501.8574   24766499.7534
       219.000         163.000
 107102450.43348  83456431.03048  20380938.1604   20380940.4014   20380938.2944
       252.000         226.000
 114457377.98448  89187548.51048  21780530.7054   21780533.5664   21780530.7904
       238.000         203.000
 125975785.55748  98162927.11848  23972412.9504   23972415.7114   23972413.1104
       223.000         174.000
 107192953.62648  83526971.37148  20398145.1504   20398146.4704   20398145.0334
       252.000         239.000
 122950502.05848  95805574.36248  23396712.2564   23396714.3004   23396713.3244
       226.000         179.000
 126983254.75948  98947987.02548  24164113.5434   24164115.1964   24164113.2754
       222.000         173.000
 130383519.34448 101597532.44148  24811171.1524   24811173.1864   24811170.4734
       203.000         152.000
 123496664.51048  96231152.17048  23500643.9364   23500647.9964   23500645.0394
       223.000         174.000
 09  1 13  0 17 30.0000000  0 10G28G 8G26G 9G27G15G18G17G12G10
 119107442.68348  92810986.33548  22665399.0314   22665398.8684   22665399.6284
       234.000         189.000
 130239500.96148 101485311.99048  24783762.7214   24783766.2664   24783762.8674
       218.000         163.000
 107137583.76148  83483807.64248  20387623.6774   20387625.8624   20387623.5744
       251.000         226.000
 114381539.76648  89128453.79148  21766099.3374   21766101.8144   21766099.1354
       239.000         202.000
 126046588.39048  98218098.13348  23985886.2044   23985888.5424   23985886.7904
       223.000         173.000
 107175355.43148  83513258.48848  20394796.3634   20394797.6044   20394796.2014
       253.000         239.000
 122874725.42848  95746527.61448  23382293.3054   23382294.6034   23382293.8724
       228.000         179.000
 126919976.44048  98898679.23048  24152071.4314   24152073.1594   24152072.5184
       219.000         171.000
 130268772.28348 101508119.25248  24789335.0684   24789337.7514   24789333.7574
       208.000         152.000
 123604771.54348  96315391.40948  23521216.8684   23521219.8394   23521217.7264
       224.000         173.000
 09  1 13  0 18  0.0000000  0 10G28G 8G26G 9G27G15G18G17G12G10
 119173666.92048  92862589.63348  22678001.0634   22678001.8584   22678001.1334
       237.000         191.000
 130330220.57348 101556002.58948  24801026.2394   24801029.2084   24801026.1944
       218.000         160.000
 107173112.74648  83511492.55948  20394384.4914   20394386.8124   20394384.3264
       251.000         226.000
 114305959.10848  89069559.77748  21751716.7804   21751719.2584   21751717.2294
       239.000         202.000
 126117405.06548  98273279.95548  23999362.3084   23999364.6874   23999362.7954
       223.000         172.000
 107158133.84648  83499839.07148  20391519.1184   20391520.4654   20391518.8974
       253.000         239.000
 122799342.32748  95687787.53248  23367947.7784   23367949.4424   23367949.1594
       226.000         179.000
 126856983.14748  98849593.54148  24140084.4574   24140085.8754   24140084.1374
       221.000         174.000
 130154085.92348 101418753.35148  24767511.7734   24767514.5744   24767510.8824
       210.000         157.000
 123713004.00048  96399728.39348  23541812.7924   23541815.2404   23541813.4894
       224.000         172.000
 09  1 13  0 18 30.0000000  0 10G28G 8G26G 9G27G15G18G17G12G10
 119240255.01348  92914476.45448  22690672.3994   22690674.0324   22690672.7704
       236.000         192.000
 130420937.74848 101626691.28548  24818288.5314   24818291.5614   24818288.8284
       219.000         162.000
 107209037.78448  83539486.09548  20401220.8944   20401223.2234   20401220.8324
       252.000         226.000
 114230637.22348  89010867.40348  21737383.5194   21737386.1064   21737383.2694
       238.000         203.000
 126188235.53648  98328472.51748  24012840.8484   24012843.3754   24012840.7234
       223.000         173.000
 107141290.70448  83486714.54248  20388314.0094   20388315.2584   20388313.7734
       253.000         239.000
 122724355.53848  95629356.26948  23353678.5784   23353679.6254   23353678.7774
       228.000         177.000
 126794277.85348  98800732.28548  24128151.9644   24128153.8434   24128152.1004
       220.000         173.000
 130039463.33748 101329437.16848  24745700.0434   24745702.1744   24745700.0434
       208.000         155.000
 123821359.78748  96484161.44448  23562432.0184   23562435.3654   23562431.9684
       224.000         174.000
 09  1 13  0 19  0.0000000  0 10G28G 8G26G 9G27G15G18G17G12G10
 119307204.87848  92966645.18848  22703412.5564   22703414.7594   22703412.7954
       235.000         192.000
 130511651.97248 101697377.65648  24835551.2984   24835554.2574   24835552.1834
       221.000         159.000
 107245359.06948  83567788.39248  20408132.5654   20408134.9744   20408132.5254
       251.000         226.000
 114155574.86348  88952377.26748  21723099.5544   21723102.0564   21723099.8054
       238.000         202.000
 126259079.52548  98383675.62448  24026321.8584   24026325.0764   24026322.3744
       225.000         173.000
 107124827.33048  83473885.93748  20385181.1394   20385182.3784   20385180.8794
       253.000         239.000
 122649767.31648  95571235.56248  23339485.0284   23339485.6514   23339484.7414
       228.000         177.000
 126731863.50348  98752097.72648  24116274.8774   24116276.6684   24116274.7434
       217.000         172.000
 129924906.66648 101240172.35548  24723900.6874   24723902.3444   24723899.1034
       209.000         157.000
 123929836.00348  96568688.37848  23583074.5184   23583077.6704   23583074.9534
       224.000         174.000
 09  1 13  0 19 30.0000000  0 10G28G 8G26G 9G27G15G18G17G12G10
 119374511.55748  93019091.96048  22716220.5324   22716223.0064   22716220.7854
       238.000         194.000
 130602359.54348 101768058.89248  24852812.5804   24852814.8714   24852813.0284
       221.000         163.000
 107282073.74648  83596397.22248  20415119.1774   20415121.5724   20415119.0534
       251.000         226.000
 114080769.71348  88894087.54748  21708864.5054   21708867.2504   21708864.8304
       239.000         203.000
 126329933.90948  98438886.81648  24039805.2314   24039808.1524   24039806.0484
       222.000         174.000
 107108742.16348  83461352.03648  20382120.2124   20382121.4744   20382119.8284
       253.000         239.000
 122575577.64548  95513425.43748  23325366.8194   23325368.4724   23325367.8014
       227.000         179.000
 126669740.20948  98703689.98848  24104452.9974   24104454.1924   24104453.5354
       217.000         170.000
 129810415.46748 101150958.57748  24702113.0004   24702115.0214   24702113.4764
       211.000         155.000
 124038427.48348  96653305.11248  23603738.4874   23603741.7434   23603739.3264
       224.000         173.000
 09  1 13  0 20  0.0000000  0 10G28G 8G26G 9G27G15G18G17G12G10
 119442176.24148  93071817.68948  22729096.7724   22729099.4304   22729097.5814
       237.000         194.000
 130693063.14248 101838737.03248  24870072.4994   24870075.9824   24870073.2984
       218.000         162.000
 107319184.98848  83625315.07348  20422181.1804   20422183.5544   20422181.1714
       251.000         225.000
 114006225.84248  88836001.41648  21694679.4964   21694682.0064   21694679.5844
       239.000         203.000
 126400801.75548  98494108.51048  24053290.3624   24053294.0464   24053290.1254
       220.000         172.000
 107093039.61548  83449116.28048  20379132.1054   20379133.4824   20379131.9574
       253.000         239.000
 122501792.07348  95455930.18548  23311326.0914   23311327.1664   23311325.6724
       228.000         178.000
 126607914.04848  98655513.76148  24092687.6114   24092689.6154   24092687.2664
       216.000         171.000
 129695995.28148 101061800.16148  24680338.9334   24680341.2584   24680340.5344
       214.000         155.000
 124147134.58448  96738011.93748  23624425.3494   23624428.0884   23624426.3104
       226.000         174.000
 09  1 13  0 20 30.0000000  0 10G28G 8G26G 9G27G15G18G17G12G10
 119510196.69548  93124820.64048  22742040.7334   22742043.3394   22742041.2524
       237.000         194.000
 130783761.79948 101909411.30748  24887332.1814   24887335.5434   24887332.4654
       216.000         164.000
 107356692.60448  83654541.78748  20429318.5444   20429321.0104   20429318.5454
       251.000         225.000
 113931943.27348  88778118.89148  21680543.7534   21680546.4024   21680543.8584
       238.000         203.000
 126471682.65848  98549340.35348  24066778.7794   24066782.6334   24066778.5514
       222.000         172.000
 107077720.93148  83437179.64048  20376217.0894   20376218.5074   20376216.8864
       253.000         239.000
 122428412.52448  95398751.31348  23297362.3554   23297363.8294   23297362.5134
       229.000         181.000
 126546387.43948  98607570.96848  24080979.3444   24080981.4884   24080979.0594
       218.000         170.000
 129581648.01248 100972698.49048  24658580.4754   24658580.4664   24658581.0534
       214.000         160.000
 124255954.81248  96822806.90748  23645132.8014   23645135.9634   23645133.2684
       224.000         175.000
 09  1 13  0 21  0.0000000  0 10G28G 8G26G 9G27G15G18G17G12G10
 119578570.74748  93178099.13048  22755051.9394   22755054.5694   22755052.7664
       235.000         195.000
 130874455.17548 101980081.45248  24904590.6094   24904593.9214   24904591.5364
       219.000         167.000
 107394596.36248  83684077.17848  20436531.4504   20436534.0314   20436531.3804
       251.000         225.000
 113857922.68948  88720440.51348  21666458.2474   21666460.6724   21666458.2234
       239.000         204.000
 126542576.17848  98604582.03848  24080269.3714   24080272.9704   24080269.4044
       223.000         170.000
 107062787.43048  83425543.13948  20373375.3584   20373376.6684   20373375.1744
       252.000         239.000
 122355441.48348  95341890.75648  23283476.5674   23283478.1974   23283477.3214
       229.000         182.000
 126485163.22748  98559863.78248  24069329.1424   24069330.9784   24069328.6794
       216.000         171.000
 129467376.04448 100883655.52048  24636834.9144   24636835.4214   24636834.2864
       209.000         159.000
 124364885.32548  96907687.80348  23665861.6824   23665864.9024   23665862.4744
       224.000         174.000
 09  1 13  0 21 30.0000000  0 10G28G 8G26G 9G27G15G18G17G12G10
 119647295.29148  93231650.72848  22768129.7344   22768132.5924   22768130.2604
       237.000         195.000
 130965141.73048 102050746.32148  24921847.4104   24921851.2294   24921848.5144
       218.000         163.000
 107432895.54648  83713920.69348  20443819.5624   20443821.9834   20443819.4524
       251.000         225.000
 113784164.40448  88662966.53648  21652422.5094   21652424.8964   21652422.6294
       240.000         203.000
 126613481.58948  98659832.99148  24093762.6324   24093765.8504   24093763.2544
       221.000         170.000
 107048239.36148  83414206.97348  20370606.9874   20370608.2414   20370606.5584
       254.000         240.000
 122282880.60648  95285349.80648  23269668.5074   23269670.2914   23269668.3664
       230.000         183.000
 126424243.40048  98512393.80148  24057736.6664   24057738.1434   24057736.2214
       213.000         168.000
 129353181.37348 100794672.77248  24615103.3264   24615104.5684   24615101.9014
       211.000         157.000
 124473923.21348  96992652.38248  23686611.1444   23686614.0774   23686612.5324
       223.000         172.000
 09  1 13  0 22  0.0000000  0 10G28G 8G26G 9G27G15G18G17G12G10
 119716368.28848  93285473.85448  22781274.1324   22781276.5514   22781274.9664
       237.000         194.000
 131055820.73548 102121405.26248  24939103.4264   24939106.3144   24939104.1134
       220.000         168.000
 107471590.21148  83744072.37448  20451182.7934   20451185.2924   20451182.7174
       250.000         225.000
 113710668.73548  88605697.19948  21638436.4804   21638439.0324   21638436.7514
       237.000         203.000
 126684398.43048  98715092.85048  24107257.8384   24107261.1024   24107258.1654
       224.000         170.000
 107034078.06348  83403172.19448  20367912.1394   20367913.4714   20367912.0104
       253.000         240.000
 122210732.08548  95229130.17448  23255939.7694   23255940.5424   23255940.8394
       227.000         180.000
 126363630.97648  98465163.34648  24046201.3084   24046204.3414   24046200.4534
       216.000         171.000
 129239065.65548 100705751.52348  24593388.0504   24593388.6554   24593386.9754
       214.000         160.000
 124583065.40248  97077698.23248  23707379.5774   23707383.2584   23707380.6204
       220.000         170.000
 09  1 13  0 22 30.0000000  0 10G28G 8G26G 9G27G15G18G17G12G10
 119785787.49748  93339566.74148  22794484.3184   22794486.5404   22794485.2084
       235.000         195.000
 131146491.36648 102192057.67248  24956356.8884   24956360.5774   24956357.7634
       221.000         172.000
 107510680.04448  83774531.97648  20458621.5404   20458624.0324   20458621.3264
       251.000         225.000
 113637436.15348  88548632.85848  21624500.9574   21624503.3044   21624500.9254
       239.000         204.000
 126755326.30748  98770361.31748  24120755.0274   24120758.1734   24120756.1264
       221.000         169.000
 107020304.61748  83392439.63248  20365291.2304   20365292.5284   20365290.9204
       254.000         240.000
 122138998.17148  95173233.63348  23242288.3844   23242290.0494   23242289.5734
       225.000         178.000
 126303328.81848  98418174.68848  24034727.4584   24034729.0714   24034727.2704
       217.000         170.000
 129125031.47548 100616893.79548  24571688.0994   24571688.9164   24571688.5884
       213.000         160.000
 124692309.59648  97162823.55548  23728167.8814   23728172.0534   23728167.5144
       221.000         171.000
 09  1 13  0 23  0.0000000  0 10G28G 8G26G 9G27G15G18G17G12G10
 119855550.82848  93393927.78348  22807759.6994   22807761.7604   22807760.0834
       235.000         193.000
 131237153.27348 102262703.31548  24973609.1804   24973613.3874   24973609.8824
       217.000         164.000
 107550165.07448  83805299.52648  20466135.2664   20466137.7184   20466135.2054
       251.000         225.000
 113564467.38048  88491774.07048  21610615.6714   21610617.7934   21610615.7924
       240.000         204.000
 126826265.04148  98825638.23748  24134254.0614   24134257.0584   24134254.2404
       221.000         169.000
 107006920.33148  83382010.31748  20362744.2114   20362745.5784   20362744.0594
       253.000         240.000
 122067681.19548  95117661.95848  23228717.0314   23228718.3624   23228717.3754
       228.000         178.000
 126243339.64648  98371429.88248  24023312.0014   24023313.6434   24023311.7444
       219.000         173.000
 129011081.27648 100528101.54048  24550005.0764   24550005.4194   24550004.8644
       217.000         165.000
 124801653.00148  97248026.21548  23748975.5404   23748978.8734   23748976.8624
       222.000         168.000
 09  1 13  0 23 30.0000000  0 10G28G 8G26G 9G27G15G18G17G12G10
 119925656.15048  93448555.30248  22821099.7934   22821101.8574   22821100.3824
       233.000         192.000
 131327805.93448 102333341.71548  24990860.0084   24990863.4164   24990860.8164
       213.000         152.000
 107590045.10748  83836374.87348  20473724.0324   20473726.5284   20473723.9194
       251.000         225.000
 113491763.20748  88435121.47448  21596780.1694   21596782.7354   21596780.0354
       238.000         204.000
 126897214.46348  98880923.48048  24147755.1394   24147758.3904   24147755.5594
       219.000         169.000
 106993926.43548  83371885.19948  20360271.5474   20360272.8934   20360271.3414
       254.000         240.000
 121996783.70548  95062417.16748  23215225.8724   23215227.1034   23215227.8274
       226.000         178.000
 126183666.13848  98324931.03448  24011956.4004   24011958.5604   24011956.2994
       216.000         171.000
 128897216.94248 100439376.18448  24528337.0004   24528338.6704   24528336.7064
       219.000         169.000
 124911093.13848  97333304.22848  23769801.2614   23769804.9754   23769802.0204
       222.000         170.000
 09  1 13  0 24  0.0000000  0 10G28G 8G26G 9G27G15G18G17G12G10
 119996101.65548  93503447.90848  22834505.3144   22834507.0294   22834505.4614
       236.000         192.000
 131418448.57848 102403972.31648  25008108.4584   25008112.1004   25008109.1204
       201.000         140.000
 107630320.37648  83867758.19748  20481388.4074   20481390.6194   20481388.1934
       251.000         225.000
 113419324.37048  88378675.64048  21582995.5404   21582998.2934   21582995.6514
       239.000         205.000
 126968174.40548  98936216.91248  24161258.4954   24161261.3954   24161259.1674
       221.000         168.000
 106981324.18448  83362065.25848  20357873.4564   20357874.9494   20357873.3004
       252.000         240.000
 121926308.22348  95007501.20048  23201814.5164   23201815.9434   23201815.5394
       228.000         179.000
 126124311.24448  98278680.48648  24000661.4714   24000662.9424   24000660.6244
       219.000         172.000
 128783441.08448 100350719.73448  24506685.8184   24506687.7504   24506685.6604
       218.000         169.000
 125020627.56448  97418655.70948  23790645.2934   23790648.8814   23790646.4204
       224.000         170.000
 09  1 13  0 24 30.0000000  0 10G28G 8G26G 9G27G15G18G17G12G10
 120066884.47248  93558603.35248  22847975.0124   22847976.4224   22847975.8514
       233.000         191.000
 141509118.52658  92474633.61558  25025354.8585   25025360.4035   25025356.6055
       195.000         129.000
 107670990.02548  83899448.82248  20489127.4844   20489129.8894   20489127.4554
       251.000         225.000
 113347150.97348  88322436.63348  21569261.6164   21569263.9894   21569261.5254
       241.000         206.000
 127039144.26848  98991518.07948  24174764.2754   24174766.9794   24174764.6104
       219.000         168.000
 106969114.70348  83352551.36948  20355550.0414   20355551.6344   20355549.5624
       253.000         240.000
 121856256.36348  94952915.34748  23188483.9784   23188485.7124   23188484.7224
       229.000         179.000
 126065277.30948  98232680.03548  23989427.6384   23989429.3064   23989426.9294
       222.000         171.000
 128669755.70148 100262133.78548  24485052.4094   24485054.5294   24485051.7174
       219.000         169.000
 125130253.17448  97504078.25948  23811506.0974   23811509.4734   23811507.9794
       223.000         171.000
 09  1 13  0 25  0.0000000  0  9G28G26G 9G27G15G18G17G12G10
 120138003.06948  93614020.42948  22861508.2804   22861509.8234   22861508.5524
