     2.11           OBSERVATION DATA    G (GPS)             RINEX VERSION / TYPE
teqc  2008Oct2      gpsops              20090102 00:05:49UTCPGM / RUN BY / DATE
    30.0000                                                 INTERVAL
     1     1                                                WAVELENGTH FACT L1/2
     7    L1    L2    P1    P2    C1    S1    S2            # / TYPES OF OBSERV
Linux 2.4.20-8|Pentium IV|gcc -static|Linux|486/DX+         COMMENT
     2.10           OBSERVATION DATA    GPS                 COMMENT
soc2rnx ver 1.20    gpsops               2-Jan-2009 00:05:47COMMENT
S1, if present, is the SNR for the C/A data stream on L1.   COMMENT
 SNR is mapped to RINEX snr flag value [1,4-9]              COMMENT
    SNR:   >316  >100  >31.6  >10  >3.2    >0 bad=0         COMMENT
L1 & L2:      9     8     7     6     5     4     1         COMMENT
                                                            COMMENT
This data is provided as a public service by NASA/JPL.      COMMENT
No warranty is expressed or implied regarding suitability   COMMENT
for use.  For further information, contact:                 COMMENT
Dave Stowers, NASA/JPL m/s 238-600                          COMMENT
4800 Oak Grove Drive, Pasadena CA 91109 USA                 COMMENT
                                                            COMMENT
Forced Modulo Decimation to 30 seconds                      COMMENT
  2009     1     1     0     0    0.0000000     GPS         TIME OF FIRST OBS
DSN                 JPL                                     OBSERVER / AGENCY
451-U               AOAD/M_T        NONE                    ANT # / TYPE
  4849202.3940  -360328.9929  4114913.1862                  APPROX POSITION XYZ
        0.0254        0.0000        0.0000                  ANTENNA: DELTA H/E/N
LP03574             ASHTECH Z-XII3      CC00                REC # / TYPE / VERS
MADR                                                        MARKER NAME
13407S012                                                   MARKER NUMBER
                                                            END OF HEADER
 09  1  1  0  0  0.0000000  0  9G24G 9G10G28G27G21G15G 8G26
 125497882.08048  97790541.42848  23881465.3284   23881469.3224   23881465.6324
       213.000         159.000
 126505972.34848  98576072.64848  24073292.9984   24073296.4194   24073291.1074
       209.000         158.000
 111451346.40348  86845188.11348  21208498.3194   21208501.8284   21208499.2654
       247.000         217.000
 114227873.85148  89008725.43948  21736847.4924   21736849.7294   21736847.8074
       243.000         210.000
 120032907.33948  93532131.04448  22841505.1044   22841506.3314   22841505.5954
       235.000         194.000
 128465059.68248 100102625.77448  24446107.0334   24446104.7294   24446106.6694
       200.000         130.000
 112270946.21248  87483848.35348  21364455.0494   21364456.7604   21364454.4814
       246.000         222.000
 118565137.88348  92388408.06448  22562202.8734   22562206.6354   22562204.5904
       233.000         192.000
 105876792.43348  82501389.92348  20147688.3514   20147690.6954   20147688.0834
       251.000         228.000
 09  1  1  0  0 30.0000000  0  9G24G 9G10G28G27G21G15G 8G26
 125556591.67648  97836289.15148  23892637.5934   23892641.3214   23892637.1294
       211.000         159.000
 126402742.69148  98495634.00148  24053647.1684   24053652.2484   24053646.8134
       210.000         158.000
 111521583.70248  86899918.46548  21221863.9294   21221867.6284   21221864.7624
       247.000         216.000
 114230546.52348  89010808.04548  21737356.0314   21737358.1574   21737356.4774
       243.000         210.000
 120103630.10948  93587239.69948  22854963.1514   22854964.7884   22854963.4334
       234.000         195.000
 128457313.50948 100096589.80148  24444632.2094   24444629.1754   24444632.2564
       186.000         128.000
 112215530.78448  87440667.50648  21353909.7784   21353911.5304   21353909.6524
       245.000         221.000
 118647150.93948  92452314.30948  22577809.3494   22577813.7264   22577810.0484
       231.000         195.000
 105861803.45248  82489710.19548  20144835.9174   20144838.2674   20144835.8324
       251.000         228.000
 09  1  1  0  1  0.0000000  0  9G24G 9G10G28G27G21G15G 8G26
 125615608.03748  97882275.91748  23903867.3174   23903871.9154   23903867.5494
       213.000         158.000
 126299660.90448  98415310.54348  24034032.8924   24034037.1004   24034033.3654
       215.000         164.000
 111592258.76448  86954989.93048  21235313.0444   21235316.5534   21235313.8564
       247.000         216.000
 114233758.85448  89013311.16748  21737967.3694   21737969.4764   21737967.7394
       242.000         209.000
 120174430.32348  93642408.69148  22868435.6364   22868439.4354   22868435.3104
       233.000         196.000
 128450078.00848 100090951.68848  24443252.1524   24443257.0894   24443248.4364
       190.000         132.000
 112160319.07948  87397645.40548  21343403.0584   21343405.0074   21343402.5864
       246.000         221.000
 118729322.00248  92516343.67748  22593446.4134   22593450.9034   22593446.1834
       233.000         195.000
 105847158.93748  82478298.88348  20142049.1474   20142051.5474   20142049.0374
       251.000         228.000
 09  1  1  0  1 30.0000000  0  9G24G 9G10G28G27G21G15G 8G26
 125674927.29748  97928498.68848  23915154.6394   23915159.1084   23915154.8114
       211.000         156.000
 126196726.87148  98335102.23148  24014445.5434   24014449.3854   24014445.4834
       217.000         166.000
 111663367.94248  87010399.67648  21248844.7224   21248848.1684   21248845.4084
       247.000         216.000
 114237509.62648  89016233.86048  21738680.8584   21738683.2014   21738681.3924
       243.000         209.000
 120245305.40648  93697635.99748  22881922.9144   22881927.0984   22881922.8724
       235.000         195.000
 128443351.21148 100085710.03148  24441973.7914   24441975.5694   24441973.5624
       191.000         131.000
 112105310.78848  87354781.80348  21332935.5804   21332937.3744   21332935.4404
       246.000         222.000
 118811647.72348  92580493.56648  22609112.5544   22609115.9164   22609113.4254
       233.000         190.000
 105832858.32048  82467155.54348  20139327.8094   20139330.1834   20139327.7134
       251.000         228.000
 09  1  1  0  2  0.0000000  0  9G24G 9G10G28G27G21G15G 8G26
 125734546.01348  97974954.82748  23926500.4084   23926504.1364   23926500.0434
       216.000         158.000
 126093941.19948  98255009.55648  23994885.3934   23994889.8164   23994885.5934
       220.000         169.000
 111734909.13648  87066146.05148  21262458.6004   21262461.9244   21262459.2364
       247.000         216.000
 114241798.13648  89019575.55948  21739496.8924   21739499.0504   21739497.6164
       243.000         208.000
 120316253.88948  93752920.51548  22895424.2184   22895426.5044   22895425.2704
       233.000         194.000
 128437132.92048 100080864.54148  24440789.3474   24440792.4634   24440789.8274
       195.000         129.000
 112050506.68148  87312077.30948  21322506.7884   21322508.3634   21322506.5224
       246.000         222.000
 118894125.93348  92644762.29848  22624807.5914   22624809.2314   22624807.4684
       232.000         186.000
 105818901.97048  82456280.46648  20136671.9934   20136674.4954   20136671.9334
       251.000         228.000
 09  1  1  0  2 30.0000000  0  9G24G 9G10G28G27G21G15G 8G26
 125794461.13648  98021641.92748  23937901.7774   23937906.4844   23937902.7734
       212.000         157.000
 125991304.00048  98175032.52248  23975355.6524   23975358.7374   23975355.9914
       222.000         170.000
 111806879.95348  87122227.20248  21276154.2054   21276157.5664   21276155.1874
       248.000         216.000
 114246623.38048  89023335.50048  21740415.4104   21740417.3404   21740415.8984
       242.000         209.000
 120387273.94148  93808260.82748  22908938.8874   22908941.1724   22908939.0374
       232.000         194.000
 128431421.96648 100076414.47348  24439703.7874   24439703.1644   24439706.6234
       191.000         132.000
 111995907.41248  87269532.42548  21312116.9084   21312118.3234   21312116.9484
       245.000         222.000
 118976754.61348  92709148.29248  22640531.2974   22640532.6324   22640531.8024
       232.000         185.000
 105805289.80848  82445673.58848  20134081.6844   20134084.1854   20134081.6564
       251.000         228.000
 09  1  1  0  3  0.0000000  0  9G24G 9G10G28G27G21G15G 8G26
 125854671.12448  98068558.78048  23949359.1374   23949364.1294   23949358.6114
       216.000         158.000
 125888818.14348  98095173.47948  23955852.5524   23955856.2224   23955852.0704
       222.000         169.000
 111879280.13248  87178642.91848  21289931.6034   21289935.0224   21289932.2254
       247.000         216.000
 114251986.90548  89027514.87548  21741436.0124   21741437.9634   21741436.4934
       242.000         209.000
 120458366.06548  93863657.26648  22922466.9824   22922471.1834   22922466.3354
       232.000         194.000
 128426219.25248 100072360.50048  24438715.9884   24438714.7344   24438712.5794
       195.000         134.000
 111941515.56148  87227149.16848  21301766.3194   21301768.3464   21301765.8384
       247.000         222.000
 119059533.38248  92773651.23048  22656283.4434   22656285.3344   22656284.3194
       231.000         187.000
 105792023.99348  82435336.58948  20131557.2674   20131559.8004   20131557.1344
       251.000         228.000
 09  1  1  0  3 30.0000000  0  9G24G 9G10G28G27G21G15G 8G26
 125915173.60248  98115703.57348  23960872.7074   23960876.9054   23960872.1074
       218.000         158.000
 125786484.86748  98015433.30148  23936379.3784   23936382.6364   23936379.3254
       220.000         166.000
 111952107.86048  87235391.79348  21303789.9784   21303793.7324   21303790.9344
       247.000         215.000
 114257888.70048  89032113.68748  21742559.1124   21742561.0794   21742559.5104
       241.000         209.000
 120529529.28148  93919109.11648  22936008.7114   22936012.1134   22936008.9374
       231.000         192.000
 128421524.76348 100068702.41448  24437821.2974   24437825.0074   24437820.7874
       196.000         132.000
 111887332.40848  87184928.53148  21291455.4984   21291457.4464   21291455.3744
       245.000         222.000
 119142460.88148  92838270.05548  22672064.1254   22672067.5284   22672064.6874
       231.000         190.000
 105779105.22748  82425270.01448  20129098.9834   20129101.3504   20129098.9664
       251.000         228.000
 09  1  1  0  4  0.0000000  0  9G24G 9G10G28G27G21G15G 8G26
 125975965.18748  98163073.63948  23972441.0944   23972445.1514   23972442.1574
       218.000         160.000
 125684304.40448  97935812.16648  23916934.9164   23916938.3684   23916935.5584
       220.000         168.000
 112025360.06748  87292471.42548  21317729.5504   21317733.2324   21317730.3274
       246.000         216.000
 114264327.73948  89037131.12948  21743784.2494   21743786.3824   21743784.7364
       243.000         209.000
 120600761.75848  93974614.93748  22949564.0644   22949566.3464   22949564.0794
       233.000         193.000
 128417337.03848 100065439.21148  24437019.9024   24437025.8574   24437023.5064
       187.000         125.000
 111833358.50048  87142870.94048  21281184.7734   21281186.4364   21281184.3714
       246.000         222.000
 119225534.64248  92903002.83048  22687872.3794   22687877.2904   22687873.0384
       230.000         190.000
 105766533.43248  82415473.81348  20126706.6484   20126708.9894   20126706.6764
       251.000         228.000
 09  1  1  0  4 30.0000000  0  9G24G 9G10G28G27G21G15G 8G26
 126037043.76248  98210667.33348  23984064.1264   23984068.4374   23984063.5494
       221.000         163.000
 125582278.29848  97856311.30448  23897519.6354   23897523.1794   23897519.2554
       221.000         164.000
 112099035.79648  87349881.08248  21331749.5254   21331753.4144   21331750.0994
       247.000         215.000
 114271304.22548  89042567.36048  21745111.9494   21745113.9204   21745112.2754
       243.000         209.000
 120672063.08448  94030174.39348  22963132.4964   22963135.9984   22963132.8964
       232.000         194.000
 128413656.09548 100062570.90248  24436321.9374   24436323.4844   24436321.9784
       196.000         128.000
 111779595.50548  87100977.70248  21270953.8104   21270955.6684   21270953.4394
       246.000         223.000
 119308753.53748  92967848.70048  22703708.5944   22703712.3224   22703709.4074
       231.000         187.000
 105754309.79148  82405948.90048  20124380.4624   20124382.8504   20124380.4044
       251.000         228.000
 09  1  1  0  5  0.0000000  0  9G24G 9G10G28G27G21G15G 8G26
 126098405.77048  98258481.85348  23995740.6344   23995745.2044   23995741.0354
       220.000         163.000
 125480406.88448  97776930.95148  23878133.5974   23878137.7984   23878134.5404
       218.000         164.000
 112173131.76248  87407618.19448  21345849.5694   21345853.2934   21345850.7904
       246.000         215.000
 114278816.92048  89048421.41948  21746541.4744   21746543.5254   21746542.1374
       242.000         209.000
 120743431.00248  94085785.74048  22976713.1794   22976717.1124   22976713.4304
       233.000         194.000
 128410480.76848 100060096.62148  24435719.2024   24435721.4894   24435722.0404
       197.000         127.000
 111726043.56348  87059248.91848  21260763.2924   21260765.1234   21260763.1084
       247.000         223.000
 119392114.75348  93032805.49448  22719571.5464   22719573.6294   22719572.4914
       229.000         186.000
 105742434.01048  82396695.04448  20122120.4534   20122123.1304   20122120.2834
       250.000         228.000
 09  1  1  0  5 30.0000000  0  7G24G 9G10G28G27G21G26
 126160048.84748  98306515.42848  24007470.6464   24007475.1574   24007470.7034
       217.000         160.000
 125378691.50648  97697672.21848  23858777.9834   23858782.2984   23858777.1394
       218.000         166.000
 112247647.12248  87465682.10748  21360029.4274   21360033.0234   21360030.2344
       247.000         214.000
 114286866.15548  89054693.55848  21748073.1014   21748075.3174   21748073.4684
       242.000         209.000
 120814865.02748  94141448.60948  22990306.7364   22990309.1984   22990307.1274
       231.000         193.000
 128407810.73648 100058016.00648  24435211.7124   24435213.9244   24435213.7564
       190.000         125.000
 105730907.33348  82387713.21448  20119926.9744   20119929.6604   20119926.8884
       250.000         228.000
 09  1  1  0  6  0.0000000  0  9G24G 9G10G28G27G21G15G 8G26
 126221972.09348  98354767.27948  24019254.3574   24019259.1174   24019254.6344
       220.000         164.000
 125277134.61148  97618536.93948  23839452.1204   23839456.0204   23839452.5114
       217.000         161.000
 112322580.91348  87524072.06348  21374288.8934   21374292.3764   21374289.5714
       246.000         214.000
 114295452.70248  89061384.37748  21749707.2374   21749709.1404   21749707.8944
       241.000         208.000
 120886365.39648  94197163.18548  23003912.7124   23003915.3784   23003912.8104
       232.000         192.000
 128405647.03148 100056329.97748  24434798.7294   24434799.6074   24434793.8814
       191.000         123.000
 111619581.47848  86976291.45748  21240504.3284   21240506.1334   21240504.1294
       246.000         224.000
 119559261.11948  93163049.38448  22751378.1844   22751382.4214   22751378.3164
       231.000         189.000
 105719731.71648  82379004.94148  20117800.3144   20117803.1454   20117800.2424
       251.000         228.000
 09  1  1  0  6 30.0000000  0  9G24G 9G10G28G27G21G15G 8G26
 126284170.95548  98403233.93348  24031090.9244   24031095.1214   24031091.1774
       222.000         163.000
 125175736.14548  97539525.18048  23820156.4854   23820160.2164   23820156.4954
       218.000         162.000
 112397930.16248  87582785.75448  21388627.4114   21388630.9434   21388628.1264
       246.000         214.000
 114304575.39148  89068492.96848  21751443.2184   21751445.1694   21751443.7224
       242.000         208.000
 120957929.77248  94252927.60948  23017530.9194   23017534.3344   23017531.3274
       232.000         192.000
 138404026.60358  90055072.94458  24434483.8685   24434484.4575   24434480.9985
       192.000         129.000
 111566673.64248  86935064.57048  21230436.3064   21230438.1534   21230435.9354
       247.000         224.000
 119643043.24048  93228334.14048  22767321.9754   22767325.0454   22767323.3934
       229.000         187.000
 105708906.65248  82370569.82048  20115740.5244   20115743.0994   20115740.4694
       250.000         228.000
 09  1  1  0  7  0.0000000  0  9G24G 9G10G28G27G21G15G 8G26
 126346642.44048  98451912.97348  24042978.8144   24042982.4774   24042978.8804
       220.000         162.000
 125074496.54548  97460637.15648  23800891.6084   23800895.2354   23800891.4524
       220.000         166.000
 112473692.85548  87641821.60948  21403044.5604   21403048.0854   21403045.3224
       245.000         214.000
 114314233.54848  89076018.81548  21753280.9404   21753282.9524   21753281.3464
       242.000         208.000
 121029556.99948  94308741.00948  23031161.3084   23031164.1484   23031161.6284
       231.000         192.000
 138402870.66248  90054172.28148  24434262.4754   24434264.9634   24434262.0674
       193.000         131.000
 111513982.00748  86894006.15148  21220409.4764   21220411.2094   21220409.0884
       247.000         224.000
 119726961.56948  93293725.04348  22783291.3584   22783293.3134   22783291.6284
       230.000         188.000
 105698432.19248  82362407.90648  20113747.0854   20113749.8854   20113746.9464
       251.000         227.000
 09  1  1  0  7 30.0000000  0  9G24G 9G10G28G27G21G15G 8G26
 126409383.24348  98500801.93548  24054917.9284   24054921.8974   24054918.4104
       219.000         164.000
 124973416.39248  97381873.41548  23781656.4634   23781660.4404   23781656.6894
       220.000         167.000
 112549865.96348  87701177.26548  21417539.7334   21417543.2814   21417540.3874
       245.000         213.000
 114324425.74048  89083960.78948  21755220.7094   21755222.4924   21755221.2214
       243.000         209.000
 121101245.44348  94364602.13548  23044803.2194   23044805.6294   23044803.7204
       231.000         191.000
 138402216.77548  90053662.73648  24434138.1714   24434141.6334   24434138.7224
       188.000         128.000
 111461507.25148  86853116.73848  21210423.7294   21210425.7804   21210423.4664
       247.000         224.000
 119811014.00448  93359220.42748  22799286.1994   22799289.3404   22799287.2914
       230.000         190.000
 105688308.61448  82354519.39948  20111820.6984   20111823.4064   20111820.5984
       251.000         227.000
 09  1  1  0  8  0.0000000  0  9G24G 9G10G28G27G21G15G 8G26
 126472391.81648  98549899.54148  24066907.8334   24066912.2174   24066907.9344
       220.000         165.000
 124872497.80248  97303235.53348  23762453.6154   23762456.7414   23762453.4964
       222.000         170.000
 112626448.96048  87760852.32848  21432112.9404   21432116.3744   21432113.9164
       245.000         212.000
 114335153.36648  89092319.97948  21757261.9424   21757263.8104   21757262.4524
       242.000         209.000
 121172995.12648  94420510.97748  23058456.5474   23058459.3804   23058456.9614
       231.000         191.000
 138402065.70748  90053545.04448  24434108.8374   24434112.2914   24434108.4524
       191.000         123.000
 111409251.88248  86812398.27348  21200479.9294   21200481.8504   21200479.7144
       246.000         224.000
 119895199.98548  93424819.85948  22815306.0114   22815309.8284   22815306.4004
       228.000         188.000
 105678537.86048  82346905.82148  20109961.3794   20109963.9904   20109961.3184
       251.000         227.000
 09  1  1  0  8 30.0000000  0  9G24G 9G10G28G27G21G15G 8G26
 126535664.99548  98599203.30848  24078948.4894   24078952.7424   24078948.6614
       222.000         167.000
 124771741.42448  97224724.06748  23743280.2124   23743283.4434   23743280.7604
       220.000         168.000
 112703439.10248  87820844.63648  21446763.5684   21446767.1584   21446764.2994
       244.000         212.000
 114346414.85548  89101095.18048  21759405.1304   21759406.8484   21759405.8034
       242.000         209.000
 121244804.27148  94476466.12948  23072121.1964   23072124.5914   23072121.3174
       230.000         191.000
 118402437.42658 110053839.22758  24434177.4985   24434179.4735   24434178.4585
       190.000         126.000
 111357216.48248  86771851.21448  21190577.7544   21190579.8684   21190577.5184
       246.000         224.000
 119979517.50648  93490521.82248  22831351.0804   22831353.5574   22831351.3454
       229.000         187.000
 105669119.63348  82339566.94448  20108169.3144   20108171.8014   20108169.1634
       251.000         227.000
 09  1  1  0  9  0.0000000  0  9G24G 9G10G28G27G21G15G 8G26
 126599200.18748  98648711.26548  24091038.9394   24091042.9904   24091038.7284
       223.000         168.000
 124671148.25248  97146339.80448  23724137.0494   23724140.5834   23724137.1734
       219.000         166.000
 112780834.49248  87881152.72648  21461491.3274   21461495.1654   21461492.0924
       244.000         212.000
 114358210.34448  89110286.46748  21761649.7864   21761651.6204   21761650.2884
       243.000         210.000
 121316672.09348  94532467.01648  23085797.2364   23085800.6114   23085797.5304
       229.000         192.000
 138403278.99158  90054492.77558  24434338.6735   24434341.5145   24434343.0005
       197.000         132.000
 111305402.53548  86731476.71448  21180717.9554   21180719.9084   21180717.5694
       247.000         224.000
 120063965.06748  93556325.08548  22847420.7764   22847423.3764   22847421.4714
       228.000         188.000
 105660054.93248  82332503.54048  20106444.3764   20106446.8254   20106444.3514
       251.000         227.000
 09  1  1  0  9 30.0000000  0  9G24G 9G10G28G27G21G15G 8G26
 126662994.69848  98698421.29148  24103178.5734   24103183.2074   24103179.5324
       220.000         168.000
 124570719.44448  97068083.56948  23705026.2984   23705029.7434   23705026.1884
       221.000         165.000
 112858633.15248  87941775.05148  21476296.0204   21476300.0184   21476296.7424
       244.000         212.000
 114370539.21948  89119893.39148  21763995.8704   21763997.6834   21763996.5654
       241.000         209.000
 121388597.85648  94588513.06048  23099484.0544   23099487.4414   23099483.9884
       230.000         191.000
 138404630.58748  90055545.94748  24434597.0404   24434599.5344   24434599.0624
       200.000         136.000
 111253811.09048  86691275.59148  21170900.4324   21170902.3964   21170900.3844
       247.000         225.000
 120148541.01848  93622228.40948  22863514.6264   22863518.5834   22863515.5694
       226.000         187.000
 105651344.31448  82325716.04548  20104786.7414   20104789.3064   20104786.7034
       251.000         227.000
 09  1  1  0 10  0.0000000  0  9G24G 9G10G28G27G21G15G 8G26
 126727046.06048  98748331.46148  24115367.4534   24115371.3894   24115367.4214
       218.000         168.000
 124470456.43648  96989956.53148  23685946.6124   23685950.1014   23685947.2244
       219.000         164.000
 112936833.44648  88002710.34048  21491177.1174   21491181.0504   21491177.7294
       244.000         211.000
 114383401.17148  89129915.69348  21766443.0534   21766445.3324   21766443.3544
       243.000         210.000
 121460580.76448  94644603.62648  23113182.1294   23113185.5014   23113183.0104
       228.000         191.000
 138406482.17548  90056988.78748  24434949.2644   24434950.5394   24434948.9054
       197.000         133.000
 111202443.99048  86651249.27948  21161125.7454   21161127.5804   21161125.4144
       247.000         225.000
 120233244.59948  93688231.16548  22879632.9634   22879636.9094   22879632.6754
       227.000         185.000
 105642988.90648  82319205.33548  20103196.8524   20103199.1684   20103196.8264
       251.000         227.000
 09  1  1  0 10 30.0000000  0  9G24G 9G10G28G27G21G15G 8G26
 126791351.84748  98798439.83948  24127604.5454   24127608.6604   24127604.2174
       220.000         169.000
 124370360.54648  96911959.70948  23666898.8054   23666902.6794   23666899.2334
       216.000         162.000
 113015433.60448  88063957.21048  21506134.1174   21506138.0334   21506134.7994
       244.000         212.000
 114396796.33348  89140353.48648  21768992.2664   21768994.2284   21768992.7004
       241.000         209.000
 121532620.09748  94700738.16148  23126890.6854   23126894.3064   23126890.3964
       230.000         190.000
 138408833.41148  90058820.91748  24435397.0574   24435397.9234   24435397.6904
       198.000         134.000
 111151302.89448  86611399.07448  21151393.7614   21151395.6434   21151393.6784
       247.000         225.000
 120318074.13848  93754332.10248  22895775.5184   22895779.0164   22895776.5544
       227.000         185.000
 105634989.61648  82312972.12148  20101674.8044   20101676.9574   20101674.8084
       252.000         228.000
 09  1  1  0 11  0.0000000  0  9G24G 9G10G28G27G21G15G 8G26
 126855908.11648  98848743.41848  24139888.8494   24139893.4554   24139889.2754
       216.000         165.000
 124270431.54848  96834092.94348  23647883.0104   23647886.8314   23647882.4564
       221.000         165.000
 113094430.41848  88125513.15748  21521166.8734   21521170.6774   21521167.6324
       244.000         212.000
 114410723.01148  89151205.45048  21771642.2934   21771644.4894   21771642.3834
       242.000         209.000
 121604713.91048  94756915.14748  23140609.6394   23140612.9054   23140609.9894
       229.000         189.000
 138411682.34348  90061040.86648  24435937.0854   24435940.6374   24435941.3384
       200.000         138.000
 111100388.17248  86571725.26648  21141704.8964   21141707.1444   21141704.4044
       247.000         226.000
 120403027.40148  93820529.43148  22911941.7684   22911944.9194   22911942.0524
       227.000         184.000
 105627345.97648  82307016.04048  20100220.1814   20100222.4164   20100220.2174
       251.000         228.000
 09  1  1  0 11 30.0000000  0  9G24G 9G10G28G27G21G15G 8G26
 126920712.16448  98899240.03648  24152220.3564   24152225.3504   24152220.5214
       215.000         167.000
 124170670.64048  96756357.13248  23628899.8544   23628902.9664   23628901.1774
       222.000         168.000
 113173821.99048  88187376.71748  21536274.5724   21536278.4044   21536275.4884
       243.000         211.000
 114425180.71848  89162471.20748  21774393.5794   21774395.6614   21774393.9194
       241.000         209.000
 121676861.05648  94813133.68548  23154338.7934   23154341.8034   23154339.2104
       228.000         188.000
 138415028.19948  90063648.00348  24436574.6274   24436577.1544   24436578.0314
       201.000         140.000
 111049700.71748  86532228.54948  21132059.4964   21132061.3814   21132059.2674
       247.000         225.000
 120488102.52448  93886821.72648  22928131.3424   22928134.4034   22928132.1664
       226.000         184.000
 105620058.84348  82301337.75648  20098833.3944   20098835.7874   20098833.2094
       251.000         227.000
 09  1  1  0 12  0.0000000  0  9G24G 9G10G28G27G21G15G 8G26
 126985761.57148  98949927.86548  24164598.7164   24164603.6584   24164598.5114
       217.000         165.000
 124071079.06248  96678753.31448  23609948.4484   23609951.8034   23609948.4834
       225.000         173.000
 113253606.33548  88249546.32748  21551457.0994   21551460.8464   21551457.8634
       243.000         211.000
 114440169.29548  89174150.62248  21777245.7874   21777247.8664   21777246.1114
       241.000         209.000
 121749061.11548  94869393.46348  23168077.6614   23168081.3554   23168077.7864
       228.000         189.000
 138418870.56048  90066642.02448  24437308.0534   24437308.6294   24437306.8054
       210.000         142.000
 110999242.05248  86492910.11848  21122457.5354   21122459.3584   21122457.1924
       247.000         226.000
 120573298.57548  93953208.24848  22944343.3444   22944346.9744   22944343.3754
       227.000         184.000
 105613128.93848  82295937.82648  20097514.7514   20097517.0944   20097514.6144
       251.000         228.000
 09  1  1  0 12 30.0000000  0  9G24G 9G10G28G27G21G15G 8G26
 127051053.79548  99000804.89648  24177023.6774   24177027.8514   24177023.5224
       218.000         164.000
 123971658.19848  96601282.51648  23591029.1644   23591032.9024   23591029.8944
       224.000         173.000
 113333781.89748  88312020.78748  21566714.1444   21566717.7514   21566714.9664
       244.000         211.000
 114455688.34248  89186243.39248  21780199.1144   21780200.9924   21780199.4554
       241.000         209.000
 121821313.38148  94925693.91448  23181827.3004   23181830.4774   23181827.6654
       227.000         188.000
 138423208.49348  90070022.21348  24438132.7154   24438133.7094   24438134.4184
       211.000         143.000
 110949013.93748  86453771.32948  21112899.3574   21112901.4554   21112899.0604
       248.000         226.000
 120658613.94348  94019687.71848  22960578.4174   22960582.0894   22960579.1084
       228.000         183.000
 105606557.05448  82290816.87648  20096263.9984   20096266.5784   20096263.9944
       251.000         227.000
 09  1  1  0 13  0.0000000  0  9G24G 9G10G28G27G21G15G 8G26
 127116585.18448  99051868.33648  24189494.2194   24189498.2254   24189494.8244
       217.000         163.000
 123872408.07148  96523944.75548  23572142.4704   23572146.2284   23572142.5224
       224.000         171.000
 113414346.10848  88374798.08848  21582044.9654   21582048.9544   21582046.0174
       243.000         211.000
 114471736.45348  89198748.41248  21783252.9634   21783255.0034   21783253.2904
       242.000         210.000
 121893616.15748  94982033.72848  23195586.0014   23195589.5184   23195586.0194
       226.000         189.000
 138428040.79148  90073787.63748  24439050.9594   24439053.3634   24439053.7434
       213.000         149.000
 110899016.78448  86414812.51048  21103385.2004   21103387.1714   21103384.9944
       248.000         226.000
 120744046.41448  94086258.47148  22976835.9014   22976838.8744   22976836.2934
       227.000         183.000
 105600343.35548  82285975.02748  20095081.5674   20095084.2174   20095081.4074
       251.000         228.000
 09  1  1  0 13 30.0000000  0  9G24G 9G10G28G27G21G15G 8G26
 127182353.88948  99103116.69948  24202009.4824   24202013.7304   24202009.9844
       221.000         162.000
 123773330.33848  96446741.32948  23553288.5624   23553292.0764   23553289.0084
       221.000         170.000
 113495297.40348  88437877.00648  21597449.4324   21597453.4354   21597450.3364
       243.000         210.000
 114488313.81748  89211665.84948  21786407.5894   21786409.6814   21786407.9644
       242.000         210.000
 121965969.26448  95038412.75748  23209354.1284   23209357.8594   23209353.9384
       227.000         188.000
 138433367.11248  90077938.04948  24440064.5264   24440067.0164   24440065.1074
       211.000         150.000
 110849252.79948  86376035.38448  21093915.4184   21093917.4144   21093915.1524
       248.000         226.000
 120829595.36248  94152919.97848  22993115.2954   22993118.5204   22993115.5064
       228.000         184.000
 105594488.99148  82281413.18348  20093967.5804   20093970.2004   20093967.4504
       251.000         228.000
 09  1  1  0 14  0.0000000  0  9G24G 9G10G28G27G21G15G 8G26
 127248356.92348  99154547.63248  24214569.1534   24214573.4614   24214569.5224
       219.000         160.000
 123674426.35248  96369673.28348  23534467.0184   23534471.2044   23534467.7524
       223.000         171.000
 113576633.26448  88501255.59048  21612927.2024   21612930.7044   21612927.9984
       243.000         210.000
 114505419.88648  89224995.25548  21789662.6744   21789664.6704   21789663.1104
       242.000         209.000
 122038371.76548  95094830.27748  23223131.6364   23223135.5894   23223131.6454
       227.000         188.000
 138439186.71948  90082472.76348  24441172.0404   24441174.3044   24441171.2094
       205.000         151.000
 110799723.13948  86337440.84648  21084490.3634   21084492.2554   21084489.9734
       248.000         226.000
 120915259.55548  94219671.27748  23009416.5654   23009420.3884   23009418.0564
       229.000         183.000
 105588994.72448  82277131.92948  20092922.1804   20092924.5854   20092922.2084
       252.000         228.000
 09  1  1  0 14 30.0000000  0  9G24G 9G10G28G27G21G15G 8G26
 127314591.51448  99206159.02248  24227173.3944   24227177.3914   24227173.4774
       218.000         160.000
 123575697.26148  96292741.51148  23515680.0564   23515683.9354   23515680.2534
       224.000         170.000
 113658351.77448  88564932.34248  21628477.5574   21628481.1184   21628477.8084
       242.000         209.000
 114523053.95448  89238736.09148  21793018.1884   21793020.3744   21793018.5624
       242.000         209.000
 122110822.60548  95151285.45648  23236919.0764   23236922.6784   23236919.1064
       228.000         189.000
 138445498.80148  90087391.26648  24442372.3344   24442375.8264   24442371.7484
       207.000         151.000
 110750429.10148  86299029.91448  21075110.0524   21075111.9064   21075109.7884
       248.000         226.000
 121001037.21248  94286510.98948  23025739.5524   23025743.2314   23025739.5924
       227.000         182.000
 105583861.02348  82273131.63948  20091945.2934   20091947.6904   20091945.3294
       251.000         228.000
 09  1  1  0 15  0.0000000  0  9G24G 9G10G28G27G21G15G 8G26
 127381054.93948  99257948.71348  24239820.9194   24239825.3674   24239820.2834
       219.000         160.000
 123477143.21548  96215946.13448  23496925.5994   23496929.5114   23496925.8794
       221.000         170.000
 113740450.52348  88628905.38048  21644100.7154   21644104.2124   21644101.5994
       243.000         210.000
 114541215.12548  89252887.65648  21796474.2154   21796476.1694   21796474.6894
       242.000         209.000
 122183320.66048  95207777.42648  23250715.2924   23250718.5784   23250715.8024
       228.000         187.000
 138452301.79448  90092692.29548  24443668.0604   24443669.7304   24443666.0154
       211.000         155.000
 110701371.68148  86260803.34848  21065774.7544   21065776.4994   21065774.4634
       248.000         226.000
 121086926.50848  94353437.70448  23042083.9314   23042086.7094   23042084.9914
       228.000         181.000
 105579088.32748  82269412.65048  20091037.1484   20091039.4364   20091037.1544
       252.000         228.000
 09  1  1  0 15 30.0000000  0  9G24G 9G10G28G27G21G15G 8G26
 127447743.39848  99309913.76548  24252511.6304   24252515.6484   24252512.3824
       216.000         161.000
 123378765.01048  96139287.76648  23478205.1714   23478208.6774   23478205.2694
       224.000         173.000
 113822926.68348  88693172.50848  21659795.3744   21659798.9624   21659796.7564
       244.000         210.000
 114559901.97748  89267448.84448  21800030.1134   21800032.2584   21800030.8234
       242.000         209.000
 122255864.39448  95264304.99648  23264519.4954   23264522.8034   23264519.5144
       226.000         186.000
 138459594.29548  90098374.74248  24445056.7094   24445057.8404   24445057.7084
       217.000         157.000
 110652551.52448  86222761.67248  21056484.4504   21056486.6474   21056484.2444
       248.000         227.000
 121172925.15048  94420449.60748  23058448.5834   23058451.8414   23058449.0034
       228.000         180.000
 105574676.49148  82265974.85448  20090197.5164   20090199.8804   20090197.4934
       252.000         228.000
 09  1  1  0 16  0.0000000  0  9G24G 9G10G28G27G21G15G 8G26
 127514654.13948  99362052.00448  24265244.1284   24265248.1854   24265244.6674
       215.000         158.000
 123280563.51948  96062767.10748  23459518.0014   23459521.9924   23459517.8444
       223.000         174.000
 113905778.24448  88757732.16448  21675561.4904   21675565.0574   21675562.3164
       241.000         209.000
 114579113.94948  89282419.21848  21803685.9704   21803688.2124   21803686.3444
       241.000         209.000
 122328452.88248  95320867.45248  23278332.8384   23278336.2814   23278333.2174
       226.000         187.000
 138467375.03748  90104437.64948  24446536.9484   24446538.0394   24446539.4844
       217.000         158.000
 110603969.95848  86184905.91148  21047239.6354   21047241.7594   21047239.3794
       249.000         227.000
 121259031.95648  94487545.81048  23074834.2324   23074837.3564   23074834.9864
       227.000         178.000
 105570626.28048  82262818.84548  20089426.8724   20089429.1264   20089426.7274
       252.000         228.000
 09  1  1  0 16 30.0000000  0  9G24G 9G10G28G27G21G15G 8G26
 127581784.85348  99414361.63348  24278018.3184   24278023.2114   24278018.5554
       216.000         161.000
 123182540.37648  95986385.42848  23440864.7414   23440868.5304   23440865.0914
       224.000         172.000
 113989003.40548  88822582.93548  21691398.5814   21691402.1514   21691398.8484
       242.000         208.000
 114598850.65648  89297798.47248  21807441.8744   21807443.8814   21807442.5504
       241.000         209.000
 122401085.84348  95377464.54548  23292154.6834   23292158.1464   23292154.6944
       229.000         187.000
 138475643.84548  90110880.84748  24448110.1104   24448111.9724   24448110.4994
       218.000         159.000
 110555628.81748  86147237.49048  21038040.6184   21038042.6934   21038040.2934
       248.000         227.000
 121345245.82948  94554725.44548  23091240.2714   23091243.4234   23091240.6874
       228.000         177.000
 105566938.88148  82259945.54648  20088725.1754   20088727.4444   20088725.2264
       251.000         228.000
 09  1  1  0 17  0.0000000  0  9G24G 9G10G28G27G21G15G 8G26
 127649132.49348  99466840.30948  24290834.6504   24290838.6904   24290834.4194
       214.000         162.000
 123084695.87448  95910142.96648  23422245.5584   23422249.4414   23422245.7284
       223.000         172.000
 114072600.13148  88887723.23748  21707306.5044   21707310.1444   21707307.3784
       242.000         208.000
 114619111.15348  89313585.88448  21811297.0864   21811299.2464   21811297.1874
       241.000         208.000
 122473761.99848  95434095.29648  23305984.7954   23305987.8424   23305985.5704
       228.000         188.000
 138484399.11148  90117703.10448  24449776.2684   24449777.8214   24449776.5194
       217.000         159.000
 110507529.25148  86109757.30848  21028887.5554   21028889.8944   21028887.0634
       248.000         227.000
 121431564.99548  94621987.12348  23107666.0104   23107669.8354   23107666.6374
       226.000         178.000
 105563614.49148  82257355.11148  20088092.4834   20088094.7724   20088092.2404
       252.000         228.000
 09  1  1  0 17 30.0000000  0  9G24G 9G10G28G27G21G15G 8G26
 127716694.73148  99519486.22448  24303690.9774   24303695.2794   24303690.8014
       215.000         161.000
 122987031.83348  95834041.12348  23403660.5144   23403664.3154   23403660.5904
       224.000         171.000
 114156566.57148  88953151.62548  21723284.8924   21723288.5364   21723286.2034
       241.000         207.000
 114639895.21548  89329781.26848  21815252.1664   21815254.3024   21815252.7654
       241.000         208.000
 122546481.24148  95490759.64048  23319822.5284   23319825.6664   23319822.6324
       227.000         185.000
 138493640.76048  90124904.35748  24451534.8814   24451536.4644   24451535.9404
       209.000         155.000
 110459673.34048  86072466.99548  21019781.0314   21019782.9874   21019780.7414
       249.000         228.000
 121517988.97748  94689330.46348  23124112.6094   23124115.6254   23124113.3944
       228.000         178.000
 105560654.45048  82255048.58648  20087529.2274   20087531.4584   20087529.2904
       251.000         228.000
 09  1  1  0 18  0.0000000  0  9G24G 9G10G28G27G21G15G 8G26
 127784468.96348  99572297.29348  24316588.3234   24316591.5064   24316588.3754
       216.000         160.000
 122889549.07048  95758080.53848  23385110.2164   23385113.6554   23385110.1954
       228.000         172.000
 114240900.47448  89018866.34648  21739332.9184   21739336.7514   21739333.2954
       241.000         207.000
 114661202.15748  89346384.08348  21819307.0174   21819308.8444   21819307.4664
       242.000         209.000
 122619242.41848  95547456.65248  23333668.3744   23333671.5024   23333668.8394
       227.000         186.000
 138503367.56548  90132483.66348  24453384.9674   24453386.9814   24453385.4574
       209.000         153.000
 110412061.86248  86035367.14548  21010720.9404   21010722.7824   21010720.7684
       249.000         228.000
 121604516.04248  94756754.13248  23140577.8594   23140581.3244   23140578.0884
       224.000         178.000
 105558059.16848  82253026.28148  20087035.3064   20087037.6054   20087035.1054
       251.000         228.000
 09  1  1  0 18 30.0000000  0  9G24G 9G10G28G27G21G15G 8G26
 127852451.42648  99625270.63548  24329524.4824   24329528.6304   24329525.0904
       217.000         159.000
 122792248.28048  95682261.72848  23366595.1174   23366597.5054   23366595.8654
       229.000         172.000
 114325599.22948  89084865.36548  21755450.5184   21755454.2764   21755451.2614
       241.000         207.000
 114683030.30048  89363393.03148  21823460.7394   21823462.7124   21823461.2884
       241.000         208.000
 122692044.23348  95604185.33148  23347522.2214   23347525.5584   23347522.1104
       228.000         188.000
 138513577.92148  90140439.74648  24455328.4164   24455330.3694   24455327.3014
       215.000         156.000
 110364695.85848  85998458.56948  21001707.5814   21001709.4704   21001707.2444
       249.000         228.000
 121691144.27448  94824256.62548  23157062.7574   23157066.3874   23157063.3804
       228.000         178.000
 105555828.67148  82251288.23048  20086610.9384   20086613.1654   20086610.8274
       251.000         228.000
 09  1  1  0 19  0.0000000  0  9G24G 9G10G28G27G21G15G 8G26
 127920639.50048  99678404.20148  24342500.2344   24342504.2934   24342500.1724
       216.000         156.000
 122695130.24648  95606585.29748  23348114.2524   23348116.3874   23348114.0134
       229.000         173.000
 114410660.35548  89151146.75848  21771637.2464   21771640.7484   21771637.9154
       241.000         206.000
 114705379.02348  89380807.61648  21827713.6324   21827715.5144   21827714.0264
       242.000         209.000
 122764885.75048  95660944.93148  23361383.6564   23361387.0244   23361383.7574
       228.000         186.000
 138524270.66448  90148771.71448  24457363.7974   24457365.0764   24457363.4664
       211.000         156.000
 110317576.63248  85961742.29248  20992741.0424   20992743.0674   20992740.6884
       250.000         228.000
 121777872.40348  94891836.94448  23173566.7974   23173570.0694   23173567.7524
       226.000         178.000
 105553963.53848  82249834.87448  20086255.9994   20086258.3634   20086255.8384
       251.000         228.000
 09  1  1  0 19 30.0000000  0  9G24G 9G10G28G27G21G15G 8G26
 127989030.37948  99731695.76448  24355513.8544   24355518.6654   24355514.8964
       209.000         153.000
 122598195.77248  95531051.93548  23329668.0134   23329671.0104   23329669.0464
       228.000         176.000
 114496081.39448  89217708.60148  21787892.0354   21787895.8234   21787893.1514
       241.000         206.000
 114728247.30948  89398627.06848  21832065.2654   21832067.2444   21832065.7934
       241.000         209.000
 122837766.11248  95717734.81948  23375252.2724   23375255.4354   23375252.5504
       229.000         188.000
 138535444.62048  90157478.70948  24459489.8184   24459491.7804   24459490.1674
       214.000         156.000
 110270705.52548  85925219.35248  20983821.6734   20983823.5694   20983821.3284
       250.000         228.000
 121864698.52548  94959493.65748  23190089.0454   23190091.9704   23190089.4624
       227.000         175.000
 105552464.38148  82248666.70348  20085970.8004   20085973.1174   20085970.7374
       252.000         228.000
 09  1  1  0 20  0.0000000  0  9G24G 9G10G28G27G21G15G 8G26
 128057621.62848  99785143.46848  24368566.8864   24368571.1604   24368566.6554
       213.000         154.000
 122501446.36148  95455662.78848  23311256.8894   23311260.8704   23311256.7384
       226.000         175.000
 114581861.12348  89284549.93948  21804215.2984   21804219.2564   21804216.1534
       240.000         206.000
 114751635.24148  89416851.44048  21836515.6124   21836517.7494   21836516.1284
       241.000         209.000
 122910684.97948  95774554.69748  23389128.3834   23389131.7194   23389128.5254
       230.000         189.000
 138547099.28948  90166560.21948  24461707.9144   24461710.0384   24461709.4904
       212.000         157.000
 110224084.50448  85888891.28348  20974950.0154   20974951.7184   20974949.7574
       250.000         228.000
 121951621.69948  95027225.97548  23206629.9424   23206632.7864   23206630.1664
       226.000         176.000
 105551332.41348  82247784.64948  20085755.3874   20085757.7624   20085755.5104
       251.000         228.000
 09  1  1  0 20 30.0000000  0  9G24G 9G10G28G27G21G15G 8G26
 128126409.99548  99838744.79748  24381657.8584   24381661.2514   24381658.1374
       213.000         154.000
 122404882.59048  95380418.28648  23292881.4744   23292885.3864   23292881.7424
       226.000         175.000
 114667996.63548  89351668.50748  21820606.8764   21820610.3724   21820607.9064
       240.000         206.000
 114775540.95448  89435479.26348  21841064.9614   21841066.9794   21841065.3434
       242.000         209.000
 122983641.12248  95831403.61848  23403011.5104   23403014.8954   23403011.9474
       228.000         188.000
 138559232.61948  90176014.71148  24464016.5874   24464017.9494   24464017.7674
       217.000         160.000
 110177714.16448  85852758.55248  20966126.1434   20966127.8354   20966125.9004
       250.000         228.000
 122038640.19248  95095032.56748  23223188.8074   23223192.4484   23223189.3104
       226.000         175.000
 105550567.52848  82247188.63048  20085609.7814   20085612.1554   20085609.8684
       251.000         228.000
 09  1  1  0 21  0.0000000  0  9G24G 9G10G28G27G21G15G 8G26
 128195392.55348  99892497.43948  24394784.6604   24394788.6354   24394784.6834
       212.000         155.000
 122308505.13748  95305318.97548  23274541.3574   23274545.5764   23274541.4474
       225.000         175.000
 114754485.19248  89419062.18948  21837065.0324   21837068.4944   21837065.6614
       241.000         206.000
 114799963.32948  89454509.69248  21845712.4104   21845714.3054   21845712.8474
       241.000         208.000
 123056633.49048  95888280.76348  23416901.6254   23416904.8434   23416901.8764
       229.000         186.000
 138571843.42448  90185841.30848  24466416.6614   24466418.3074   24466419.5434
       214.000         160.000
 110131595.54148  85816821.96048  20957350.1244   20957351.7064   20957349.7684
       251.000         228.000
 122125752.46448  95162912.24548  23239765.9134   23239769.8224   23239766.8684
       227.000         176.000
 105550169.97248  82246878.84948  20085534.0294   20085536.3694   20085533.9334
       251.000         228.000
 09  1  1  0 21 30.0000000  0  9G24G 9G10G28G27G21G15G 8G26
 128264567.35448  99946399.85148  24407947.5394   24407951.7024   24407947.9514
       211.000         153.000
 122212315.65348  95230366.14148  23256236.8214   23256241.0494   23256236.8594
       226.000         176.000
 114841325.56348  89486730.00348  21853590.0364   21853593.8924   21853591.1354
       240.000         205.000
 114824902.36948  89473942.71448  21850458.2074   21850460.0774   21850458.6414
       243.000         209.000
 123129661.99148  95945186.07048  23430798.0144   23430801.2634   23430798.2924
       229.000         185.000
 138584931.36648  90196039.66248  24468905.9174   24468908.2144   24468904.5224
       199.000         146.000
 110085731.04248  85781083.39348  20948622.3794   20948624.0714   20948622.3114
       250.000         229.000
 122212958.32848  95230864.82948  23256360.4854   23256364.3214   23256360.0774
       226.000         175.000
 105550141.48148  82246856.64148  20085528.6794   20085530.9824   20085528.6064
       250.000         227.000
 09  1  1  0 22  0.0000000  0  9G24G 9G10G28G27G21G15G 8G26
 128333931.18748 100000449.61548  24421148.0124   24421151.1654   24421147.6214
       210.000         154.000
 122116314.97748  95155560.42048  23237968.8794   23237972.4624   23237969.2664
       228.000         176.000
 114928515.37248  89554670.10148  21870181.6734   21870185.5834   21870182.5944
       239.000         204.000
 114850357.11948  89493777.58848  21855302.0184   21855303.6534   21855302.5434
       241.000         208.000
 123202725.78548  96002118.88548  23444702.0534   23444704.6164   23444702.4074
       230.000         187.000
 138598495.37048  90206608.98448  24471486.7344   24471489.9344   24471486.1924
       206.000         151.000
 110040121.92748  85745543.83048  20939943.1044   20939945.1124   20939942.9764
       250.000         229.000
 122300256.16848  95298889.10048  23272972.5144   23272976.0014   23272973.4224
       227.000         176.000
 105550482.37448  82247122.27348  20085593.2594   20085595.8134   20085593.1724
       250.000         227.000
 09  1  1  0 22 30.0000000  0  9G24G 9G10G28G27G21G15G 8G26
 128403480.25748 100054643.70148  24434382.0494   24434385.7754   24434381.7714
       214.000         153.000
 122020503.10348  95080901.82448  23219736.8374   23219740.1354   23219738.0654
       225.000         175.000
 115016051.19848  89622879.83248  21886839.2014   21886842.7964   21886839.6934
       240.000         204.000
 114876325.29548  89514012.53548  21860243.3014   21860245.2734   21860243.7494
       240.000         207.000
 123275822.72948  96059077.54048  23458612.2044   23458614.7104   23458612.6774
       230.000         187.000
 138612532.69848  90217547.11848  24474159.3624   24474161.5404   24474160.2324
       214.000         157.000
 109994768.17648  85710203.24348  20931312.6384   20931314.5344   20931312.2344
       250.000         230.000
 122387643.23248  95366982.91048  23289601.9834   23289605.3684   23289601.7094
       228.000         175.000
 105551192.03348  82247675.25048  20085728.3524   20085730.8814   20085728.2264
       250.000         227.000
 09  1  1  0 23  0.0000000  0  9G24G 9G10G28G27G21G15G 8G26
 128473211.99348 100108980.08948  24447650.8864   24447655.8704   24447651.0504
       210.000         152.000
 121924881.30848  95006391.32348  23201540.6624   23201543.6934   23201540.7864
       226.000         175.000
 115103930.90248  89691357.51648  21903562.2774   21903565.9124   21903562.9584
       241.000         205.000
 114902806.45248  89534647.21648  21865282.2014   21865284.5984   21865282.5664
       240.000         207.000
 123348952.46848  96116061.73648  23472528.1294   23472530.9724   23472528.2374
       228.000         186.000
 138627042.44948  90228853.41448  24476920.0584   24476922.5724   24476921.1834
       212.000         156.000
 109949671.42748  85675062.91848  20922731.0004   20922732.9114   20922730.7264
       249.000         229.000
 122475118.34248  95435145.32448  23306248.2974   23306251.4304   23306249.0174
       227.000         175.000
 105552271.31248  82248516.24548  20085933.7984   20085936.3464   20085933.6904
       250.000         227.000
 09  1  1  0 23 30.0000000  0  9G24G 9G10G28G27G21G15G 8G26
 128543123.93948 100163456.93748  24460954.5704   24460959.0074   24460955.0864
       207.000         150.000
 121829451.00548  94932030.06848  23183380.7294   23183383.8324   23183380.8364
       224.000         177.000
 115192153.39548  89760102.30748  21920350.3954   21920354.3814   21920351.2564
       238.000         204.000
 114929799.92448  89555681.09248  21870419.2074   21870421.5014   21870419.7214
       241.000         208.000
 123422114.75148  96173071.27948  23486449.6624   23486453.1354   23486449.7724
       228.000         184.000
 138642023.92148  90240527.30748  24479771.3064   24479773.5604   24479769.8634
       214.000         158.000
 109904833.69348  85640124.42348  20914198.6554   20914200.5434   20914198.3774
       250.000         230.000
 122562680.81348  95503375.81348  23322911.1744   23322914.3764   23322911.6704
       230.000         176.000
 105553721.41248  82249646.19348  20086209.8384   20086212.3074   20086209.7304
       251.000         227.000
 09  1  1  0 24  0.0000000  0  9G24G 9G10G28G27G21G15G 8G26
 128613213.10048 100218071.84748  24474291.4094   24474296.8554   24474291.0984
       209.000         151.000
 121734213.21448  94857818.84248  23165257.0034   23165260.7004   23165257.1084
       224.000         178.000
 115280715.48048  89829111.72148  21937203.0784   21937206.9144   21937203.8044
       239.000         203.000
 114957304.91448  89577113.54948  21875653.3804   21875655.2674   21875654.2204
       241.000         207.000
 123495309.06948  96230105.77448  23500378.3424   23500381.7554   23500379.1994
       228.000         187.000
 138657475.62348  90252567.57248  24482711.6744   24482713.6844   24482712.6624
       216.000         157.000
 109860256.53648  85605388.98148  20905715.9224   20905717.8564   20905715.8114
       249.000         229.000
 122650329.35948  95571673.38748  23339589.7834   23339593.1944   23339590.4844
       228.000         175.000
 105555542.72448  82251065.39648  20086556.3734   20086558.9484   20086556.2494
       251.000         228.000
 09  1  1  0 24 30.0000000  0  9G24G 9G10G28G27G21G15G 8G26
 128683476.36348 100272822.44448  24487663.2154   24487667.9044   24487663.5214
       213.000         152.000
 121639168.22248  94783757.84448  23147170.3364   23147174.1624   23147170.6604
       224.000         178.000
 115369614.63948  89898383.78248  21954120.1304   21954123.5314   21954120.9994
       240.000         203.000
 114985319.77048  89598943.31448  21880984.6434   21880986.1444   21880985.1254
       243.000         208.000
 123568533.94848  96287164.11948  23514313.4614   23514316.0544   23514313.7214
       230.000         190.000
 138673395.98148  90264973.02348  24485740.5934   24485742.9464   24485743.1854
       212.000         155.000
 109815940.61148  85570857.09448  20897282.7984   20897284.6894   20897282.4774
       249.000         229.000
 122738062.16348  95640036.59148  23356284.3304   23356288.4214   23356284.7744
       225.000         174.000
 105557735.53248  82252774.07548  20086973.6474   20086976.2474   20086973.5394
       250.000         228.000
 09  1  1  0 25  0.0000000  0  9G24G 9G10G28G27G21G15G 8G26
 128753911.17548 100327706.68548  24501066.9754   24501071.2434   24501066.6794
       211.000         150.000
 121544317.09148  94709847.88348  23129121.5594   23129123.9264   23129121.1964
       227.000         180.000
 115458849.08648  89967917.12348  21971100.8884   21971104.4074   21971101.4124
       240.000         203.000
 115013843.62948  89621169.68648  21886412.5994   21886414.2014   21886413.1554
       243.000         209.000
 123641788.79748  96344245.81148  23528252.8104   23528255.9894   23528252.7054
       230.000         186.000
 138689783.77648  90277742.70848  24488860.2724   24488862.3824   24488859.3564
       211.000         156.000
 109771887.49748  85536529.99148  20888899.7974   20888901.6734   20888899.4414
       250.000         230.000
 122825878.14348  95708464.59848  23372995.0274   23372999.6284   23372995.3884
       226.000         175.000
 105560300.57148  82254772.80248  20087461.7874   20087464.2864   20087461.6014
       251.000         227.000
 09  1  1  0 25 30.0000000  0  9G24G 9G10G28G27G21G15G 8G26
 128824514.53348 100382722.29148  24514502.7584   24514506.6744   24514503.6094
       214.000         153.000
 121449660.74048  94636089.73748  23111109.3344   23111112.1104   23111109.5444
       228.000         181.000
 115548416.12848  90037709.61748  21988145.0174   21988148.7544   21988146.0204
       240.000         203.000
 115042875.49948  89643791.92748  21891937.4924   21891938.8964   21891938.2854
       242.000         209.000
 123715072.98348  96401350.34548  23542198.0184   23542201.4854   23542198.6234
       227.000         183.000
 138706637.51948  90290875.47848  24492067.1544   24492069.3904   24492068.0684
       212.000         152.000
 109728098.78148  85502408.91548  20880567.0714   20880568.8994   20880566.8814
       250.000         230.000
 122913775.92148  95776956.35348  23389721.7384   23389726.0074   23389722.1004
       225.000         175.000
 105563238.28648  82257061.93048  20088020.8094   20088023.2634   20088020.7864
       251.000         227.000
 09  1  1  0 26  0.0000000  0  9G24G 9G10G28G27G21G15G 8G26
 128895282.90848 100437866.48948  24527968.7384   24527973.4584   24527968.4484
       214.000         152.000
 121355199.09248  94562483.27848  23093133.5514   23093136.5314   23093133.3374
       228.000         181.000
 115638312.94348  90107759.07748  22005251.6284   22005255.5414   22005252.7734
       239.000         202.000
 115072413.50348  89666808.55348  21897557.9354   21897559.9204   21897558.3344
       241.000         208.000
 123788384.78848  96458476.40748  23556148.5434   23556152.2534   23556148.7384
       226.000         184.000
 138723955.15348  90304369.71048  24495362.6844   24495364.4634   24495363.1024
       204.000         150.000
 109684574.63548  85468493.99148  20872284.7914   20872286.4814   20872284.4574
       250.000         230.000
 123001753.38548  95845510.20748  23406463.7024   23406467.1334   23406464.0864
       227.000         176.000
 105566548.34248  82259641.19248  20088650.7174   20088653.0554   20088650.6164
       251.000         228.000
 09  1  1  0 26 30.0000000  0  9G24G 9G10G28G27G21G15G 8G26
 128966214.32448 100493137.70448  24541466.8634   24541471.2624   24541467.1484
       215.000         155.000
 121260934.46248  94489030.32048  23075195.7434   23075198.8174   23075196.0744
       230.000         182.000
 115728537.87448  90178064.21248  22022420.9434   22022424.5044   22022421.5884
       239.000         202.000
 115102457.48548  89690219.45448  21903275.0304   21903276.8044   21903275.6554
       241.000         206.000
 123861724.84048  96515624.47548  23570105.0924   23570108.7894   23570104.9934
       231.000         188.000
 138741736.38048  90318225.20448  24498744.9914   24498748.3474   24498744.5904
       209.000         147.000
 109641318.00448  85434787.52948  20864053.3354   20864055.0554   20864053.0144
       250.000         230.000
 123089810.19548  95914125.90548  23423220.4094   23423223.4434   23423221.1164
       227.000         175.000
 105570232.47048  82262511.93948  20089351.7564   20089354.1684   20089351.7484
       251.000         228.000
 09  1  1  0 27  0.0000000  0  9G24G 9G10G28G27G21G15G 8G26
 129037305.38348 100548533.35148  24554995.2514   24554999.2444   24554995.7494
       213.000         155.000
 121166867.32848  94415731.28148  23057295.1824   23057298.7164   23057295.6864
       225.000         180.000
 115819088.18848  90248622.89648  22039652.1434   22039655.7874   22039652.9334
       239.000         202.000
 115133005.67048  89714023.23648  21909087.9684   21909089.9034   21909088.5304
       240.000         207.000
 123935091.50848  96572793.30548  23584067.3744   23584070.0924   23584067.5164
       232.000         188.000
 138759978.76048  90332440.02948  24502217.4594   24502219.1204   24502219.1344
       207.000         149.000
 109598329.10448  85401289.69148  20855872.7414   20855874.5304   20855872.3904
       250.000         230.000
 123177944.34448  95982801.83548  23439991.3864   23439995.4294   23439992.4284
