     2.11           OBSERVATION DATA    G (GPS)             RINEX VERSION / TYPE
teqc  2008Oct2      gpsops              20090105 00:05:33UTCPGM / RUN BY / DATE
    30.0000                                                 INTERVAL
     1     1                                                WAVELENGTH FACT L1/2
     7    L1    L2    P1    P2    C1    S1    S2            # / TYPES OF OBSERV
Linux 2.4.20-8|Pentium IV|gcc -static|Linux|486/DX+         COMMENT
     2.10           OBSERVATION DATA    GPS                 COMMENT
soc2rnx ver 1.20    gpsops               5-Jan-2009 00:05:32COMMENT
S1, if present, is the SNR for the C/A data stream on L1.   COMMENT
 SNR is mapped to RINEX snr flag value [1,4-9]              COMMENT
    SNR:   >316  >100  >31.6  >10  >3.2    >0 bad=0         COMMENT
L1 & L2:      9     8     7     6     5     4     1         COMMENT
                                                            COMMENT
This data is provided as a public service by NASA/JPL.      COMMENT
No warranty is expressed or implied regarding suitability   COMMENT
for use.  For further information, contact:                 COMMENT
Dave Stowers, NASA/JPL m/s 238-600                          COMMENT
4800 Oak Grove Drive, Pasadena CA 91109 USA                 COMMENT
                                                            COMMENT
Forced Modulo Decimation to 30 seconds                      COMMENT
  2009     1     4     0     0    0.0000000     GPS         TIME OF FIRST OBS
DSN                 JPL                                     OBSERVER / AGENCY
451-U               AOAD/M_T        NONE                    ANT # / TYPE
  4849202.3940  -360328.9929  4114913.1862                  APPROX POSITION XYZ
        0.0254        0.0000        0.0000                  ANTENNA: DELTA H/E/N
LP03574             ASHTECH Z-XII3      CC00                REC # / TYPE / VERS
MADR                                                        MARKER NAME
13407S012                                                   MARKER NUMBER
                                                            END OF HEADER
 09  1  4  0  0  0.0000000  0  9G 9G24G 8G21G26G15G27G10G28
 124002902.45448  96625626.14048  23596979.1624   23596981.6744   23596979.9074
       226.000         174.000
 127021089.39748  98977455.65348  24171321.0184   24171324.0414   24171320.1694
       217.000         165.000
 120607943.35048  93980207.98648  22950933.8514   22950937.0954   22950934.5864
       228.000         187.000
 128417789.54548 100065804.62148  24437099.7854   24437099.1004   24437102.6404
       209.000         141.000
 105607055.17948  82291202.09548  20096360.3354   20096363.0434   20096360.2784
       250.000         228.000
 111004098.46848  86496696.47048  21123380.6674   21123382.5004   21123380.7084
       248.000         225.000
 120943839.67448  94241944.40148  23014852.8444   23014855.4524   23014852.7384
       233.000         193.000
 113262442.71248  88256434.53348  21553137.4324   21553140.5434   21553138.1264
       244.000         211.000
 114460050.58948  89189641.82348  21781029.2204   21781030.8054   21781029.8224
       242.000         210.000
 09  1  4  0  0 30.0000000  0  9G 9G24G 8G21G26G15G27G10G28
 123903590.39848  96548240.19448  23578080.0364   23578083.4044   23578080.2814
       226.000         172.000
 127086543.66848  99028458.96648  24183777.3384   24183780.4764   24183777.7294
       218.000         164.000
 120693293.44948  94046714.52748  22967175.5054   22967178.8784   22967176.1034
       229.000         187.000
 128422451.36848 100069437.21648  24437985.6254   24437987.5194   24437989.1194
       209.000         147.000
 105600761.61948  82286298.02448  20095162.7814   20095165.3704   20095162.6224
       250.000         228.000
 110953841.42648  86457535.14548  21113817.1164   21113818.9064   21113816.7114
       248.000         225.000
 121014714.79448  94297171.75448  23028339.5544   23028342.7964   23028339.3974
       232.000         193.000
 113342666.56048  88318946.61448  21568403.4534   21568406.7414   21568404.1734
       244.000         211.000
 114475968.20748  89202045.17148  21784058.0874   21784060.0054   21784058.2954
       242.000         211.000
 09  1  4  0  1  0.0000000  0  9G 9G24G 8G21G26G15G27G10G28
 123804449.43548  96470987.54648  23559214.6194   23559217.7124   23559215.1344
       225.000         172.000
 127152235.18248  99079647.14548  24196277.7234   24196281.4484   24196277.5104
       219.000         162.000
 120778759.73248  94113311.63148  22983439.4864   22983442.3074   22983439.7054
       230.000         187.000
 128427606.40348 100073454.13848  24438966.9194   24438968.9654   24438967.5454
       210.000         148.000
 105594825.95748  82281672.83448  20094033.2914   20094035.9124   20094033.2554
       251.000         228.000
 110903815.23048  86418553.70448  21104297.4724   21104299.0404   21104297.2514
       248.000         225.000
 121085648.67648  94352444.89648  23041837.8414   23041840.7214   23041837.9344
       232.000         193.000
 113423278.22048  88381760.89048  21583743.2564   21583746.9014   21583744.3124
       243.000         211.000
 114492413.76448  89214859.89248  21787187.5844   21787189.5734   21787187.9304
       243.000         210.000
 09  1  4  0  1 30.0000000  0  9G 9G24G 8G21G26G15G27G10G28
 123705482.37548  96393870.38648  23540381.4404   23540384.3324   23540381.7254
       226.000         171.000
 127218162.75548  99131019.28448  24208823.3744   24208826.8674   24208823.9714
       219.000         162.000
 120864342.33448  94179999.35248  22999725.2684   22999728.4564   22999725.8834
       229.000         187.000
 128433255.39548 100077855.92348  24440041.4824   24440043.6244   24440040.5594
       201.000         146.000
 105589250.49948  82277328.31348  20092972.5154   20092974.8514   20092972.4664
       251.000         228.000
 110854022.65648  86379754.30148  21094822.4174   21094823.8684   21094822.2894
       249.000         225.000
 121156641.84848  94407764.24448  23055347.4684   23055350.1284   23055347.5344
       232.000         193.000
 113504277.22748  88444876.98748  21599156.7444   21599160.4334   21599157.6894
       244.000         210.000
 114509388.66848  89228087.09948  21790417.6984   21790419.4704   21790418.1674
       242.000         210.000
 09  1  4  0  2  0.0000000  0  9G 9G24G 8G21G26G15G27G10G28
 123606690.09248  96316889.41148  23521581.9344   23521584.9714   23521582.4624
       227.000         173.000
 127284323.35148  99182572.98448  24221412.9714   24221417.0744   24221413.3114
       216.000         161.000
 120950039.45748  94246776.30148  23016032.6024   23016036.3514   23016033.9084
       228.000         187.000
 128439397.22748 100082641.78948  24441209.9194   24441212.5034   24441209.9034
       201.000         149.000
 105584035.64848  82273264.78648  20091980.0884   20091982.6114   20091980.1274
       251.000         228.000
 110804465.06148  86341137.99848  21085391.9834   21085393.4774   21085391.7854
       248.000         226.000
 121227693.27848  94463128.98048  23068867.9874   23068871.0174   23068868.0824
       232.000         192.000
 113585660.77948  88508292.73548  21614643.7534   21614646.9784   21614644.4304
       243.000         210.000
 114526892.01048  89241726.06248  21793748.5464   21793750.3554   21793748.9354
       242.000         209.000
 09  1  4  0  2 30.0000000  0  9G 9G24G 8G21G26G15G27G10G28
 123508073.28648  96240045.13248  23502815.9964   23502818.7454   23502816.9114
       224.000         172.000
 127350713.88448  99234305.85748  24234046.4904   24234050.9474   24234046.2634
       217.000         161.000
 121035849.42048  94313641.18148  23032362.1564   23032365.1684   23032362.3734
       229.000         185.000
 128446030.71448 100087810.72648  24442472.2444   24442474.6304   24442470.0874
       207.000         153.000
 105579181.68748  82269482.46948  20091056.3674   20091058.9284   20091056.2714
       250.000         228.000
 110755143.05248  86302705.26148  21076006.2674   21076007.8194   21076005.7404
       248.000         226.000
 121298801.71248  94518538.13648  23082399.3924   23082402.4404   23082399.8344
       232.000         192.000
 113667426.76748  88572006.48648  21630203.1784   21630206.4924   21630203.8274
       243.000         210.000
 114544922.61248  89255775.88348  21797179.4654   21797181.4334   21797179.8014
       241.000         209.000
 09  1  4  0  3  0.0000000  0  9G 9G24G 8G21G26G15G27G10G28
 123409632.17348  96163337.78848  23484082.7424   23484085.6754   23484082.2514
       225.000         174.000
 127417330.80748  99286215.15448  24246724.1274   24246727.1984   24246724.5854
       215.000         158.000
 121121769.95348  94380592.23848  23048711.9224   23048715.0984   23048713.3904
       226.000         184.000
 128453154.22148 100093361.49048  24443829.5414   24443830.0684   24443830.1494
       215.000         156.000
 105574688.66548  82265981.40948  20090201.3114   20090203.8954   20090201.3244
       250.000         227.000
 110706057.39148  86264456.68248  21066665.6224   21066667.1684   21066665.4344
       249.000         226.000
 121369965.61848  94573990.50948  23095941.9914   23095944.2924   23095942.3754
       233.000         191.000
 113749572.61448  88636016.22148  21645835.1934   21645838.5684   21645835.8274
       243.000         210.000
 114563479.14748  89270235.52648  21800710.6954   21800712.5634   21800711.3644
       241.000         209.000
 09  1  4  0  3 30.0000000  0  9G 9G24G 8G21G26G15G27G10G28
 123311367.15648  96086767.65048  23465383.5614   23465386.6734   23465384.5204
       224.000         172.000
 127484170.95348  99338298.37848  24259443.0774   24259446.5454   24259442.8054
       216.000         157.000
 121207799.29248  94447628.07348  23065082.5224   23065085.9474   23065082.5524
       226.000         183.000
 128460766.31848 100099292.98848  24445277.3654   24445278.8824   24445280.3814
       213.000         155.000
 105570556.75848  82262761.73448  20089415.1304   20089417.6084   20089415.0434
       250.000         228.000
 110657209.03348  86226393.02948  21057369.9424   21057371.8844   21057369.6434
       249.000         226.000
 121441183.68548  94629485.10648  23109494.1844   23109496.5254   23109494.6034
       231.000         191.000
 113832095.21948  88700319.54448  21661538.8894   21661542.1484   21661540.1934
       244.000         210.000
 114582560.40648  89285104.03948  21804341.5934   21804343.7804   21804342.1934
       241.000         209.000
 09  1  4  0  4  0.0000000  0  9G 9G24G 8G21G26G15G27G10G28
 123213280.16948  96010336.24148  23446718.2234   23446721.0994   23446717.7004
       225.000         172.000
 127551232.69348  99390554.25348  24272203.4444   24272208.3704   24272203.9404
       211.000         155.000
 121293936.78048  94514748.16648  23081474.0404   23081477.5904   23081474.3564
       228.000         184.000
 128468866.98348 100105605.19048  24446819.3924   24446819.9984   24446819.7484
       217.000         158.000
 105566787.34548  82259824.52648  20088697.8594   20088700.1974   20088697.7664
       250.000         227.000
 110608600.36048  86188516.14648  21048120.0954   21048121.6874   21048119.9034
       249.000         226.000
 121512455.78448  94685021.79248  23123056.5184   23123059.6914   23123056.7574
       231.000         191.000
 113914993.60148  88764915.67648  21677313.7024   21677317.2104   21677314.8404
       243.000         210.000
 114602166.85748  89300381.80148  21808072.6814   21808074.6344   21808073.0244
       242.000         209.000
 09  1  4  0  4 30.0000000  0  9G 9G24G 8G21G26G15G27G10G28
 123115372.34048  95934044.44048  23428086.7694   23428089.8354   23428086.9904
       225.000         173.000
 127618513.13348  99442980.55548  24285007.4314   24285011.1564   24285007.0314
       215.000         158.000
 121380181.16748  94581951.57748  23097885.9644   23097889.2834   23097886.7664
       228.000         184.000
 128477455.54548 100112297.54548  24448453.0744   24448454.7324   24448453.7884
       216.000         159.000
 105563381.63248  82257170.72348  20088049.6944   20088052.1274   20088049.4644
       251.000         227.000
 110560232.53848  86150826.94448  21038915.8474   21038917.6374   21038915.5784
       249.000         227.000
 121583781.03648  94740599.88648  23136629.4904   23136632.6254   23136629.5754
       232.000         191.000
 113998266.03848  88829803.28848  21693159.8994   21693163.5014   21693160.2264
       242.000         209.000
 114622297.89448  89316068.32748  21811903.1834   21811905.3394   21811903.8034
       241.000         209.000
 09  1  4  0  5  0.0000000  0  9G 9G24G 8G21G26G15G27G10G28
 123017644.53048  95857892.93348  23409489.9874   23409493.3364   23409490.0834
       226.000         172.000
 127686008.86348  99495574.62048  24297851.4424   24297855.5684   24297851.6434
       214.000         159.000
 121466530.59148  94649236.82248  23114317.8384   23114321.1914   23114317.9724
       229.000         184.000
 128486530.62048 100119369.01448  24450180.0814   24450181.5244   24450180.7444
       209.000         156.000
 105560339.42148  82254800.16248  20087470.9074   20087473.1804   20087470.8664
       251.000         227.000
 110512106.59648  86113326.21748  21029757.7624   21029759.7604   21029757.4004
       249.000         227.000
 121655158.28248  94796218.51248  23150212.0874   23150215.0244   23150212.5544
       232.000         190.000
 114081909.83648  88894980.26948  21709076.8494   21709080.2344   21709077.6574
       243.000         208.000
 114642952.37448  89332162.73448  21815833.6724   21815835.8344   21815834.2404
       242.000         209.000
 09  1  4  0  5 30.0000000  0  9G 9G24G 8G21G26G15G27G10G28
 122920097.32948  95781882.13648  23390927.1844   23390930.1554   23390927.7514
       226.000         171.000
 127753716.83748  99548334.04448  24310735.9284   24310739.3714   24310735.6794
       214.000         157.000
 121552983.21448  94716602.49248  23130769.3794   23130772.3524   23130770.0094
       227.000         183.000
 128496090.37648 100126818.15848  24451998.5214   24452000.4694   24451999.0374
       207.000         153.000
 105557660.96148  82252713.04748  20086961.2644   20086963.5034   20086961.2114
       251.000         228.000
 110464223.49248  86076014.71448  21020645.9254   21020647.7554   21020645.6084
       249.000         227.000
 121726586.26648  94851876.67248  23163804.2454   23163806.9854   23163804.8394
       229.000         190.000
 114165922.09748  88960444.36248  21725063.6484   21725067.1734   21725064.8414
       242.000         207.000
 114664128.95248  89348663.96648  21819863.6754   21819865.6554   21819864.2274
       242.000         209.000
 09  1  4  0  6  0.0000000  0  9G 9G24G 8G21G26G15G27G10G28
 122822732.24848  95706013.22848  23372399.5664   23372401.6144   23372399.5294
       227.000         172.000
 127821634.89748  99601257.19048  24323660.0804   24323663.6674   24323660.7604
       215.000         156.000
 121639538.07848  94784047.81648  23147240.0314   23147243.5684   23147239.7104
       229.000         184.000
 128506134.56748 100134644.79648  24453910.8334   24453911.3934   24453909.4394
       205.000         153.000
 105555347.66848  82250910.47048  20086521.0094   20086523.2624   20086520.8744
       251.000         228.000
 110416585.41548  86038894.14948  21011580.7854   21011582.5474   21011580.4674
       249.000         227.000
 121798064.55248  94907574.01148  23177406.1774   23177409.2074   23177406.5474
       230.000         190.000
 114250301.68848  89026194.67548  21741120.4784   21741124.1874   21741121.1414
       241.000         208.000
 114685827.68048  89365572.06748  21823992.9484   21823994.9344   21823993.7604
       242.000         209.000
 09  1  4  0  6 30.0000000  0  9G 9G24G 8G21G26G15G27G10G28
 122725550.12148  95630286.91148  23353906.4744   23353908.7344   23353906.4784
       228.000         172.000
 127889760.17848  99654341.82548  24336623.4774   24336628.0394   24336623.5504
       212.000         154.000
 121726193.70348  94851571.66148  23163730.3424   23163733.7094   23163731.5754
       228.000         184.000
 128516661.89948 100142847.90448  24455913.6784   24455915.7574   24455913.3464
       212.000         155.000
 105553399.92248  82249392.74348  20086150.3544   20086152.7094   20086150.2594
       250.000         228.000
 110369193.26748  86001965.20448  21002562.4314   21002564.1714   21002562.2534
       249.000         228.000
 121869592.23148  94963309.84548  23191017.4234   23191020.5924   23191017.7584
       231.000         189.000
 114335046.18348  89092229.34548  21757246.8794   21757250.5314   21757247.3034
       241.000         207.000
 114708047.35248  89382886.10348  21828220.9624   21828223.0824   21828221.5354
       242.000         209.000
 09  1  4  0  7  0.0000000  0  9G 9G24G 8G21G26G15G27G10G28
 122628550.92848  95554703.18548  23335448.1164   23335450.7784   23335448.6864
       227.000         175.000
 127958089.15848  99707585.16748  24349626.7474   24349630.5254   24349627.2984
       207.000         153.000
 121812948.28348  94919172.61548  23180239.0314   23180242.3184   23180239.1224
       228.000         182.000
 128527670.68148 100151426.15948  24458008.2844   24458010.7794   24458007.9774
       209.000         153.000
 105551817.52448  82248159.70048  20085849.2534   20085851.6474   20085849.0024
       251.000         228.000
 110322047.78448  85965228.46848  20993590.6944   20993592.7834   20993590.2234
       249.000         228.000
 121941167.92948  95019083.11048  23204637.8344   23204640.6874   23204638.5184
       229.000         188.000
 114420152.57848  89158546.01148  21773442.1674   21773445.5714   21773442.6624
       241.000         207.000
 114730786.63048  89400605.02748  21832548.3774   21832550.2344   21832549.1564
       240.000         208.000
 09  1  4  0  7 30.0000000  0  9G 9G24G 8G21G26G15G27G10G28
 122531736.46948  95479263.41348  23317024.9594   23317027.8174   23317025.1044
       225.000         176.000
 128026619.44748  99760985.33148  24362666.7304   24362671.4794   24362666.1844
       210.000         150.000
 121899800.67448  94986849.78848  23196766.5254   23196769.3744   23196767.1214
       228.000         181.000
 128539160.14548 100160379.00048  24460195.0494   24460197.3454   24460196.5684
       212.000         157.000
 105550601.64948  82247212.26348  20085618.0014   20085620.3144   20085617.9694
       252.000         228.000
 110275150.77948  85928685.34248  20984666.6124   20984668.4294   20984666.0224
       249.000         227.000
 122012791.34148  95074893.55048  23218266.8774   23218270.2644   23218266.6414
       229.000         187.000
 114505619.10948  89225143.29948  21789705.7544   21789709.2404   21789706.8184
       241.000         206.000
 114754044.86448  89418728.32148  21836973.8184   21836975.9754   21836974.3704
       241.000         209.000
 09  1  4  0  8  0.0000000  0  9G 9G24G 8G21G26G15G27G10G28
 122435106.95448  95403967.70848  23298636.6564   23298639.8224   23298636.7994
       226.000         176.000
 128095347.95648  99814540.02048  24375746.3344   24375749.9174   24375747.0894
       209.000         151.000
 121986749.27448  95054601.93048  23213312.3664   23213315.2204   23213313.6304
       228.000         182.000
 128551128.87848 100169705.23348  24462473.2534   24462474.5674   24462473.9994
       218.000         160.000
 105549752.38348  82246550.48948  20085456.3864   20085458.7584   20085456.3944
       251.000         228.000
 110228503.28848  85892336.64648  20975789.8604   20975791.6004   20975789.5124
       250.000         228.000
 122084460.84748  95130739.89248  23231905.6904   23231908.8984   23231906.1134
       230.000         187.000
 114591443.16848  89292019.17748  21806037.2414   21806041.1124   21806038.4044
       240.000         206.000
 114777821.05348  89437255.23048  21841498.6134   21841500.6134   21841499.2044
       242.000         208.000
 09  1  4  0  8 30.0000000  0  9G 9G24G 8G21G26G15G27G10G28
 122338663.47048  95328816.95848  23280284.2604   23280287.2724   23280284.2324
       226.000         177.000
 128164271.51048  99868246.64048  24388862.5694   24388866.1714   24388863.2034
       207.000         152.000
 122073792.40648  95122427.71648  23229875.7744   23229879.3884   23229876.0534
       228.000         181.000
 128563575.15448 100179403.65448  24464841.7184   24464842.8694   24464844.5234
       217.000         162.000
 105549270.29448  82246174.83548  20085364.6524   20085366.9344   20085364.5624
       251.000         228.000
 110182106.25248  85856183.11448  20966960.9354   20966962.5784   20966960.7074
       250.000         228.000
 122156175.41648  95186621.36548  23245552.7894   23245555.6164   23245553.0734
       230.000         187.000
 114677622.34448  89359171.77148  21822436.9594   21822440.5084   21822437.7234
       240.000         205.000
 114802114.06548  89456184.86048  21846121.5194   21846123.2514   21846121.9264
       241.000         208.000
 09  1  4  0  9  0.0000000  0  9G 9G24G 8G21G26G15G27G10G28
 122242407.67548  95253812.46448  23261967.0514   23261970.2684   23261966.9354
       227.000         175.000
 128233387.96548  99922103.62648  24402014.3654   24402018.2244   24402013.9234
       204.000         147.000
 122160929.20648  95190326.50648  23246457.4964   23246461.4754   23246458.1664
       227.000         182.000
 128576499.06248 100189474.21548  24467300.0224   24467301.9374   24467299.4324
       198.000         151.000
 105549156.61948  82246086.25548  20085343.1994   20085345.3284   20085343.1314
       251.000         228.000
 110135961.93148  85820226.49048  20958180.1084   20958181.5374   20958179.6564
       249.000         228.000
 122227935.18748  95242538.05948  23259207.9994   23259210.8284   23259208.1734
       227.000         186.000
 114764155.27748  89426600.02948  21838903.8114   21838906.9754   21838904.6904
       242.000         205.000
 114826923.90048  89475517.19948  21850842.5244   21850844.4984   21850842.8094
       242.000         209.000
 09  1  4  0  9 30.0000000  0  9G 9G24G 8G21G26G15G27G10G28
 122146341.45348  95178955.66148  23243686.1564   23243689.3974   23243686.4094
       226.000         175.000
 128302695.37748  99976109.41348  24415203.2654   24415206.3204   24415202.9964
       211.000         150.000
 122248159.00848  95258297.76848  23263056.9274   23263060.3834   23263056.5844
       231.000         180.000
 128589899.77448 100199916.33448  24469849.7504   24469852.5134   24469848.3214
       209.000         150.000
 105549412.81548  82246285.88448  20085391.7734   20085394.0624   20085391.5744
       251.000         229.000
 110090072.37948  85784468.39848  20949447.4474   20949449.1744   20949447.1544
       249.000         228.000
 122299740.14148  95298489.95448  23272871.6894   23272874.7714   23272871.5414
       228.000         185.000
 114851040.35348  89494302.68148  21855437.2204   21855440.8124   21855438.0654
       239.000         204.000
 114852250.05048  89495251.86248  21855662.1114   21855663.6714   21855662.7044
       241.000         208.000
 09  1  4  0 10  0.0000000  0  9G 9G24G 8G21G26G15G27G10G28
 122050464.00548  95104245.97548  23225442.1994   23225444.9194   23225442.9674
       227.000         177.000
 128372189.20548 100030260.41148  24428427.4404   24428430.8604   24428426.9054
       211.000         149.000
 122335479.00848  95326339.30048  23279673.1474   23279676.5914   23279673.9374
       226.000         179.000
 128603774.45948 100210727.70948  24472490.1884   24472492.4984   24472491.6654
       212.000         153.000
 105550037.48748  82246772.64148  20085510.5724   20085512.9474   20085510.4924
       252.000         229.000
 110044437.25648  85748908.55848  20940763.2624   20940765.1464   20940763.0284
       249.000         228.000
 122371587.57548  95354474.94748  23286544.1104   23286546.9934   23286544.4824
       229.000         186.000
 114938273.32748  89562276.41148  21872037.0044   21872040.8784   21872037.7624
       239.000         204.000
 114878090.08248  89515386.95448  21860579.0784   21860580.9284   21860579.5324
       241.000         208.000
 09  1  4  0 10 30.0000000  0  9G 9G24G 8G21G26G15G27G10G28
 121954776.21048  95029684.07948  23207233.4844   23207235.8884   23207234.1224
       227.000         176.000
 128441866.56048 100084554.46448  24441686.0794   24441690.4884   24441687.2034
       206.000         149.000
 122422888.12148  95394450.27148  23296306.8164   23296310.0494   23296306.4334
       226.000         178.000
 128618121.90648 100221907.52648  24475221.4674   24475222.8694   24475222.3334
       214.000         157.000
 105551031.49648  82247547.19548  20085699.6724   20085702.0944   20085699.6264
       251.000         229.000
 109999058.08548  85713548.15848  20932128.1374   20932129.8624   20932127.7614
       250.000         229.000
 122443476.73048  95410492.45948  23300224.1154   23300226.8374   23300224.7264
       227.000         185.000
 115025852.37948  89630519.81748  21888702.8494   21888706.4354   21888703.5654
       240.000         204.000
 114904443.15348  89535921.82348  21865593.7664   21865595.9754   21865594.3184
       239.000         207.000
 09  1  4  0 11  0.0000000  0  9G 9G24G 8G21G26G15G27G10G28
 121859279.32148  94955270.93148  23189060.6144   23189063.3054   23189060.7374
       225.000         178.000
 128511724.72248 100138989.38348  24454979.2404   24454984.1554   24454978.5274
       210.000         149.000
 122510384.53648  95462629.28648  23312956.9644   23312960.3774   23312957.7564
       229.000         179.000
 128632941.27848 100233455.09948  24478041.7154   24478042.9404   24478041.0724
       210.000         157.000
 105552395.45248  82248610.01348  20085959.4444   20085961.6724   20085959.3944
       251.000         229.000
 109953936.34148  85678388.34948  20923541.8034   20923543.4314   20923541.5564
       250.000         229.000
 122515406.92748  95466541.95548  23313911.9034   23313914.5134   23313911.7294
       228.000         185.000
 115113774.96848  89699030.92148  21905434.0284   21905437.6504   21905434.7924
       240.000         204.000
 114931308.15948  89556855.59648  21870705.9414   21870708.0784   21870706.2234
       241.000         208.000
 09  1  4  0 11 30.0000000  0  9G 9G24G 8G21G26G15G27G10G28
 121763974.38848  94881007.39648  23170924.1434   23170927.1594   23170924.0514
       223.000         176.000
 128581761.53948 100193563.50148  24468306.6554   24468311.5644   24468307.2744
       209.000         149.000
 122597967.84848  95530876.02048  23329623.7344   23329626.9534   23329624.7594
       227.000         177.000
 128648231.13348 100245369.26748  24480950.9964   24480952.2584   24480950.5234
       219.000         157.000
 105554130.44448  82249961.95148  20086289.4434   20086291.7504   20086289.3644
       252.000         229.000
 109909073.92048  85643430.60448  20915004.8284   20915006.3574   20915004.7104
       249.000         229.000
 122587377.62448  95522622.99548  23327607.4004   23327610.4454   23327607.7434
       229.000         186.000
 115202039.80848  89767808.71148  21922230.4814   21922234.2904   21922231.0274
       240.000         205.000
 114958684.87448  89578188.10648  21875915.6504   21875917.7354   21875916.3564
       241.000         207.000
 09  1  4  0 12  0.0000000  0  9G 9G24G 8G21G26G15G27G10G28
 121668861.98948  94806893.88748  23152823.9304   23152827.9984   23152824.2174
       225.000         177.000
 128651974.02048 100248274.51248  24481667.8484   24481673.3164   24481667.5554
       212.000         152.000
 122685636.59048  95599189.30748  23346306.1144   23346309.5534   23346306.5814
       225.000         176.000
 128663990.42648 100257649.21848  24483949.4444   24483950.5144   24483951.8284
       212.000         152.000
 105556236.95548  82251603.39648  20086690.3094   20086692.6464   20086690.2164
       252.000         229.000
 109864471.92348  85608675.80448  20906517.2634   20906518.9454   20906517.0104
       249.000         229.000
 122659388.06648  95578735.01048  23341310.6904   23341313.8384   23341311.0744
       228.000         186.000
 115290644.29848  89836851.16748  21939091.3394   21939094.9194   21939092.1724
       240.000         204.000
 114986571.96948  89599918.31348  21881222.5604   21881224.2054   21881222.8764
       241.000         208.000
 09  1  4  0 12 30.0000000  0  9G 9G24G 8G21G26G15G27G10G28
 121573943.36248  94732931.31748  23134762.7174   23134765.1354   23134762.7224
       228.000         179.000
 128722359.37048 100303120.22748  24495062.6254   24495067.4434   24495063.4964
       212.000         153.000
 122773389.50648  95667568.18748  23363004.7364   23363008.6664   23363004.9524
       224.000         174.000
 128680217.69448 100270293.83648  24487037.8084   24487039.2954   24487038.0654
       214.000         157.000
 105558715.10748  82253534.41948  20087161.8944   20087164.1974   20087161.8164
       251.000         229.000
 109820131.44648  85574124.79248  20898079.5454   20898081.1494   20898079.1474
       250.000         229.000
 122731437.40548  95634877.33448  23355021.2674   23355024.2124   23355021.5674
       228.000         185.000
 115379585.52248  89906156.00148  21956016.2744   21956019.6704   21956017.0124
       240.000         204.000
 115014968.26248  89622045.29348  21886626.3884   21886628.1654   21886626.7224
       242.000         209.000
 09  1  4  0 13  0.0000000  0  9G 9G24G 8G21G26G15G27G10G28
 121479219.39948  94659120.43648  23116737.8424   23116740.0854   23116738.1844
       229.000         181.000
 128792914.01248 100358097.85948  24508488.3854   24508493.4894   24508488.6504
       216.000         155.000
 122861224.66948  95736011.13648  23379719.1664   23379723.5444   23379719.6334
       225.000         175.000
 128696911.46548 100283301.94548  24490214.9194   24490216.3124   24490214.9464
       211.000         149.000
 105561565.62648  82255755.57848  20087704.3934   20087706.6834   20087704.2934
       251.000         229.000
 109776053.80348  85539778.57148  20889691.8964   20889693.3914   20889691.6224
       250.000         229.000
 122803524.64748  95691049.18448  23368738.8654   23368741.8204   23368739.2984
       225.000         184.000
 115468861.25048  89975721.50548  21973004.8794   21973008.2614   21973005.8254
       240.000         204.000
 115043872.46148  89644568.04748  21892126.9784   21892128.3194   21892127.7554
       242.000         209.000
 09  1  4  0 13 30.0000000  0  9G 9G24G 8G21G26G15G27G10G28
 121384690.44948  94585461.52548  23098749.3594   23098752.0194   23098749.3454
       227.000         181.000
 128863635.23948 100413205.27648  24521946.3174   24521951.0574   24521946.9044
       214.000         152.000
 122949140.64948  95804517.07148  23396449.5764   23396453.1204   23396449.4284
       228.000         174.000
 128714070.30548 100296672.48348  24493479.6484   24493481.5334   24493481.1504
       211.000         152.000
 105564788.88448  82258267.20548  20088317.7024   20088320.0304   20088317.5994
       251.000         228.000
 109732240.58748  85505638.40448  20881354.3854   20881355.9754   20881354.2474
       250.000         229.000
 122875648.95048  95747249.90148  23382463.3944   23382466.9144   23382462.9684
       227.000         184.000
 115558469.33348  90045545.97048  21990057.0044   21990060.3734   21990057.8884
       240.000         204.000
 115073283.62448  89667485.83748  21897723.5574   21897725.2224   21897724.1974
       241.000         208.000
 09  1  4  0 14  0.0000000  0  9G 9G24G 8G21G26G15G27G10G28
 121290358.11948  94511955.80248  23080798.4234   23080801.2034   23080798.3124
       228.000         182.000
 128934520.90948 100468440.88148  24535434.9744   24535439.1434   24535435.5614
       216.000         153.000
 123037136.61148  95873085.35748  23413194.8684   23413197.5234   23413195.5784
       227.000         171.000
 128731692.99448 100310404.40748  24496832.8994   24496835.2684   24496832.0794
       211.000         148.000
 105568385.90148  82261070.07348  20089002.1394   20089004.5994   20089002.2334
       251.000         228.000
 109688693.25548  85471705.41248  20873067.7444   20873069.2144   20873067.4204
       249.000         229.000
 122947809.79048  95803479.12648  23396196.0394   23396198.5764   23396196.2174
       231.000         187.000
 115648407.73148  90115627.83648  22007171.4934   22007175.0174   22007172.2944
       239.000         203.000
 115103201.13848  89690798.18948  21903416.3494   21903418.1864   21903417.1164
       240.000         207.000
 09  1  4  0 14 30.0000000  0  9G 9G24G 8G21G26G15G27G10G28
 121196222.81248  94438603.62348  23062885.1254   23062888.1124   23062885.7474
       225.000         181.000
 129005566.98648 100523801.45248  24548955.2034   24548959.3654   24548955.4724
       217.000         158.000
 123125210.67348  95941714.48648  23429954.3924   23429957.0904   23429955.1784
       224.000         169.000
 128749777.44148 100324496.18548  24500274.9824   24500275.8924   24500275.9424
       206.000         147.000
 105572356.17048  82264163.79048  20089757.6884   20089760.1734   20089757.6794
       251.000         229.000
 109645412.05548  85437979.79148  20864831.5994   20864833.0564   20864831.2414
       250.000         230.000
 123020005.86248  95859735.79848  23409934.8624   23409937.2154   23409935.9014
       229.000         186.000
 115738673.47248  90185964.76948  22024348.4204   22024351.9324   22024348.8984
       239.000         203.000
 115133622.52548  89714503.17848  21909205.1284   21909207.1304   21909205.5214
       240.000         207.000
 09  1  4  0 15  0.0000000  0  9G 9G24G 8G21G26G15G27G10G28
 121102285.53648  94365405.74948  23045008.7904   23045012.2184   23045008.9654
       224.000         178.000
 129076771.55948 100579285.48348  24562505.0734   24562509.3584   24562505.2154
       217.000         160.000
 123213362.10448  96010403.87648  23446728.3614   23446732.5914   23446729.0024
       223.000         169.000
 128768322.57548 100338946.87948  24503803.8174   24503804.2154   24503803.4744
       212.000         151.000
 105576701.06948  82267549.41948  20090584.4824   20090587.0954   20090584.3964
       251.000         229.000
 109602399.76948  85404463.72248  20856646.5484   20856648.1654   20856646.3764
       250.000         230.000
 123092236.94448  95916019.74248  23423679.0624   23423682.3604   23423679.0864
       227.000         183.000
 115829264.61348  90256555.26348  22041587.3484   22041590.9894   22041588.3114
       239.000         203.000
 115164547.69348  89738600.70948  21915090.1104   21915092.1484   21915090.9004
       242.000         208.000
 09  1  4  0 15 30.0000000  0  9G 9G24G 8G21G26G15G27G10G28
 121008547.82848  94292363.39648  23027171.1274   23027174.5594   23027170.6324
       225.000         179.000
 129148131.86448 100634890.89448  24576084.8364   24576089.0654   24576085.0874
       217.000         161.000
 123301589.75248  96079152.66348  23463518.1124   23463522.0564   23463518.2314
       225.000         172.000
 128787327.50548 100353755.93848  24507420.5114   24507421.2304   24507421.9184
       211.000         149.000
 105581421.35748  82271227.55748  20091482.7424   20091485.2614   20091482.6424
       252.000         228.000
 109559657.62348  85371158.14148  20848513.0674   20848514.5154   20848512.8314
       251.000         230.000
 123164502.63148  95972330.62348  23437429.9654   23437434.1304   23437430.4354
       225.000         182.000
 115920179.02648  90327397.66248  22058887.5914   22058891.2244   22058888.4384
       239.000         202.000
 115195975.83248  89763090.17748  21921070.7384   21921072.6294   21921071.1434
       240.000         207.000
 09  1  4  0 16  0.0000000  0  9G 9G24G 8G21G26G15G27G10G28
 120915010.19848  94219476.94948  23009371.5114   23009374.9844   23009371.9044
       225.000         180.000
 129219644.41248 100690614.94948  24589692.3054   24589697.1624   24589693.4954
       213.000         159.000
 123389891.87348  96147959.49248  23480322.5574   23480324.9984   23480323.0284
       229.000         173.000
 128806789.78448 100368921.31748  24511123.3064   24511125.0814   24511126.4164
       208.000         146.000
 105586516.93248  82275198.13248  20092452.3834   20092454.8354   20092452.3704
       251.000         228.000
 109517186.61848  85338063.84048  20840431.1704   20840432.6674   20840430.8564
       251.000         230.000
 123236801.43848  96028667.32648  23451188.8364   23451192.0264   23451188.8874
       228.000         186.000
 116011413.89148  90398489.75648  22076249.2524   22076252.6744   22076250.0244
       240.000         202.000
 115227905.03248  89787970.07048  21927146.5064   21927148.5464   21927147.0344
       242.000         207.000
 09  1  4  0 16 30.0000000  0  9G 9G24G 8G21G26G15G27G10G28
 120821673.03048  94146746.73448  22991610.0184   22991613.7534   22991610.1824
       224.000         180.000
 129291306.29948 100746455.34248  24603329.5184   24603333.7704   24603328.7324
       214.000         157.000
 123478267.09948  96216823.30648  23497139.5464   23497141.8554   23497140.9544
       226.000         170.000
 128826708.23448 100384442.15248  24514913.3934   24514914.0834   24514913.4984
       204.000         146.000
 105591988.20748  82279461.45848  20093493.5474   20093495.8724   20093493.5934
       250.000         228.000
 109474988.03348  85305181.82048  20832401.0324   20832402.5194   20832400.7024
       250.000         230.000
 123309132.49948  96085029.19848  23464953.1684   23464956.0934   23464952.9084
       231.000         187.000
 116102966.70148  90469829.61148  22093671.5934   22093674.6864   22093672.5534
       240.000         202.000
 115260334.00548  89813239.40748  21933317.4034   21933319.7484   21933318.0014
       241.000         208.000
 09  1  4  0 17  0.0000000  0 10G 9G24G 8G21G26G17G15G27G10G28
 120728537.93148  94074173.96548  22973887.1364   22973890.3984   22973887.3454
       226.000         179.000
 129363115.37248 100802410.43348  24616994.0164   24616998.7064   24616994.6834
       212.000         157.000
 123566714.66148  96285743.46848  23513970.1194   23513973.1734   23513970.2854
       224.000         166.000
 128847081.96548 100400317.80348  24518790.4864   24518792.1764   24518789.2794
       210.000         147.000
 105597836.36948  82284018.46048  20094606.4654   20094608.7824   20094606.3004
       250.000         228.000
 142244353.23958  93047542.34058  25165267.9995   25165269.2955   25165267.1465
       214.000         160.000
 109433063.65048  85272513.47348  20824423.1364   20824424.5684   20824422.8554
       250.000         230.000
 123381495.73448  96141416.12848  23478723.2684   23478726.3304   23478723.9244
       228.000         183.000
 116194835.86948  90541415.97948  22111153.6384   22111156.8494   22111154.5154
       240.000         203.000
 115293262.23948  89838897.77648  21939583.6074   21939585.7704   21939584.2284
       241.000         208.000
 09  1  4  0 17 30.0000000  0 10G 9G24G 8G21G26G17G15G27G10G28
 120635605.17048  94001758.83248  22956203.0714   22956205.6114   22956202.9244
       228.000         180.000
 129435068.17748 100858477.55048  24630686.3294   24630690.1854   24630686.9644
       213.000         157.000
 123655232.65848  96354718.50048  23530814.0724   23530817.6454   23530814.6424
       222.000         165.000
 128867908.89948 100416546.56948  24522754.2624   24522755.8614   24522757.3314
       210.000         146.000
 105604061.49848  82288869.22048  20095791.1424   20095793.3504   20095791.0754
       252.000         228.000
 142168025.56548  92988066.26048  25150742.8354   25150745.1194   25150742.8854
       217.000         160.000
 109391414.55948  85240059.63548  20816497.5604   20816499.0084   20816497.1684
       251.000         230.000
 123453890.19848  96197827.37748  23492498.8554   23492502.7274   23492498.7784
       226.000         182.000
 116287018.12248  90613246.29748  22128695.1404   22128698.8244   22128695.7304
       239.000         202.000
 115326687.90048  89864943.75548  21945944.5174   21945946.4054   21945945.0014
       242.000         208.000
 09  1  4  0 18  0.0000000  0 10G 9G24G 8G21G26G17G15G27G10G28
 120542878.16648  93929504.03348  22938557.4584   22938560.1664   22938557.9844
       227.000         181.000
 129507164.26248 100914656.29248  24644405.4764   24644410.2064   24644404.6124
       212.000         156.000
 123743822.51448  96423749.56248  23547672.3904   23547675.6214   23547672.7534
       225.000         168.000
 128889189.72248 100433129.04748  24526803.2044   24526805.4634   24526802.6454
       211.000         149.000
 105610666.33048  82294015.83348  20097047.9144   20097050.2834   20097047.8834
       250.000         228.000
 142091766.81348  92928643.79748  25136231.1914   25136232.3294   25136230.6174
       216.000         160.000
 109350044.31148  85207823.07948  20808624.9524   20808626.5604   20808624.6314
       250.000         230.000
 123526317.45548  96254264.17948  23506281.3824   23506284.9864   23506281.1654
       228.000         184.000
 116379513.82148  90685320.84648  22146296.4064   22146300.1574   22146297.3434
       240.000         202.000
 115360612.19248  89891378.26848  21952400.1074   21952402.0424   21952400.6054
       242.000         208.000
 09  1  4  0 18 30.0000000  0 10G 9G24G 8G21G26G17G15G27G10G28
 120450355.35248  93857408.35148  22920950.9034   22920954.0264   22920950.8334
       228.000         182.000
 129579398.23348 100970942.48948  24658151.9234   24658155.3874   24658152.5494
       212.000         156.000
 123832480.28848  96492833.52348  23564543.7344   23564546.9084   23564544.0094
       225.000         167.000
 128910920.38548 100450061.99948  24530939.5234   24530940.2594   24530939.4774
       211.000         150.000
 105617648.75548  82299456.66448  20098376.6704   20098379.0864   20098376.4054
       250.000         228.000
 142015577.33548  92869275.37448  25121732.6484   25121734.2484   25121733.0154
       214.000         156.000
 109308951.76348  85175802.91048  20800805.2744   20800806.9314   20800804.9884
       251.000         230.000
 123598774.06448  96310723.86048  23520070.4774   23520072.9724   23520071.1084
       232.000         186.000
 116472317.78048  90757635.60348  22163956.5204   22163960.1094   22163957.2834
       238.000         201.000
 115395031.50448  89918198.51348  21958949.6794   21958951.7094   21958950.1984
       241.000         208.000
 09  1  4  0 19  0.0000000  0 10G 9G24G 8G21G26G17G15G27G10G28
 120358035.80848  93785471.04748  22903382.7674   22903386.1334   22903383.4274
       228.000         182.000
 129651765.44048 101027332.53248  24671922.7784   24671927.2024   24671923.1454
       206.000         153.000
 123921203.22648  96561968.26148  23581427.0454   23581430.3314   23581427.3504
       224.000         166.000
 128933097.48448 100467342.85748  24535158.9134   24535160.3574   24535159.5834
       203.000         147.000
 105625007.68348  82305190.89648  20099776.9704   20099779.4574   20099776.9064
       251.000         228.000
 141939458.27148  92809961.81748  25107247.5634   25107248.6514   25107247.5214
       218.000         159.000
 109268136.75648  85143999.00648  20793038.4994   20793040.0864   20793038.1734
       250.000         230.000
 123671257.56148  96367204.51448  23533863.7874   23533866.3244   23533864.5264
       229.000         184.000
 116565425.90848  90830187.39248  22181674.6794   22181677.7754   22181674.8334
       238.000         201.000
 115429942.51148  89945401.89848  21965593.0554   21965595.2134   21965593.4734
       240.000         208.000
 09  1  4  0 19 30.0000000  0 11G 9G18G24G 8G21G26G17G15G27G10G28
 120265921.56248  93713693.72148  22885853.6744   22885857.1804   22885853.6314
       230.000         181.000
 138800235.70258  90363817.18858  24509872.6765   24509873.8695   24509875.2425
       214.000         159.000
 129724264.21048 101083825.04448  24685718.4974   24685723.2264   24685718.1334
       209.000         152.000
 124009991.15248  96631153.64848  23598322.3504   23598326.3204   23598323.1234
       221.000         164.000
 128955720.63948 100484971.25448  24539463.4014   24539465.2474   24539463.8064
       199.000         143.000
 105632744.66048  82311219.70948  20101249.1314   20101251.8364   20101249.1164
       250.000         228.000
 141863413.83548  92750706.38748  25092777.3174   25092779.1844   25092777.8344
       219.000         164.000
 109227601.71948  85112413.26348  20785324.8504   20785326.4344   20785324.4834
       250.000         230.000
 123743768.40748  96423706.43948  23547661.0514   23547665.1614   23547661.1134
       227.000         183.000
 116658836.90648  90902975.18948  22199450.1614   22199453.2134   22199450.9804
       240.000         201.000
 115465345.12448  89972988.35448  21972330.1324   21972332.1014   21972330.1904
       242.000         208.000
 09  1  4  0 20  0.0000000  0 11G 9G18G24G 8G21G26G17G15G27G10G28
 120174013.60748  93642077.13648  22868364.7724   22868367.6084   22868365.1754
       231.000         183.000
 138703630.45648  90288540.38948  24491489.1284   24491491.2514   24491489.7744
       213.000         159.000
 129796891.87548 101140418.07748  24699539.7444   24699543.9384   24699540.7314
       212.000         153.000
 124098843.66348  96700389.33148  23615229.8024   23615234.2184   23615230.2034
       220.000         163.000
 128978788.55848 100502946.23848  24543853.7094   24543855.0894   24543852.1794
       206.000         147.000
 105640860.64148  82317543.83548  20102793.6914   20102796.1824   20102793.5464
       251.000         228.000
 141787447.47848  92691511.79148  25078321.5494   25078322.8564   25078321.7614
       214.000         163.000
 109187348.32448  85081046.98748  20777664.9314   20777666.5294   20777664.6084
       250.000         230.000
 123816306.44548  96480229.56348  23561464.7094   23561468.5074   23561465.0904
       227.000         183.000
 116752548.94848  90975997.55948  22217283.0324   22217286.1734   22217284.3464
       239.000         201.000
 115501238.34748  90000957.09848  21979160.5154   21979162.1714   21979160.9214
       240.000         208.000
 09  1  4  0 20 30.0000000  0 11G 9G18G24G 8G21G26G17G15G27G10G28
 120082313.21148  93570622.28548  22850914.9334   22850917.7444   22850915.4704
       231.000         183.000
 138607248.63148  90213437.65748  24473147.4864   24473150.5344   24473147.9984
       209.000         157.000
 129869646.33048 101197109.86448  24713384.0084   24713388.7734   24713384.4574
       209.000         152.000
 124187759.53348  96769674.39448  23632150.9954   23632154.1944   23632150.6694
       226.000         166.000
 129002299.73748 100521266.62548  24548327.7564   24548329.2634   24548329.4714
       210.000         149.000
 105649356.40448  82324163.90748  20104410.3064   20104412.8374   20104410.1084
       251.000         228.000
 141711562.56648  92632380.72948  25063879.6254   25063882.3014   25063879.5324
       213.000         160.000
 109147378.60648  85049901.73648  20770058.8994   20770060.4974   20770058.6084
       250.000         230.000
 123888871.37048  96536773.63848  23575273.6454   23575277.0864   23575273.9924
       227.000         183.000
 116846559.88448  91049252.83748  22235172.3754   22235175.9814   22235173.3164
       238.000         201.000
 115537621.35448  90029307.49348  21986083.7574   21986085.6144   21986083.9504
       242.000         207.000
 09  1  4  0 21  0.0000000  0 11G 9G18G24G 8G21G26G17G15G27G10G28
 119990821.81648  93499330.30548  22833504.7184   22833507.0994   22833505.1624
       229.000         181.000
 138511092.81948  90138511.10948  24454849.8604   24454852.6714   24454849.6554
       214.000         160.000
 129942524.88948 101253898.35148  24727252.9274   24727256.8984   24727252.4914
       207.000         146.000
 124276737.54048  96839007.92748  23649083.9284   23649086.3284   23649084.7784
       226.000         166.000
 129026253.09148 100539931.57848  24552885.7814   24552887.3104   24552887.5244
       207.000         152.000
 105658232.88748  82331080.63748  20106099.5714   20106101.9654   20106099.5694
       251.000         228.000
 141635762.38348  92573315.64748  25049456.1314   25049458.7144   25049456.7484
       212.000         162.000
 109107694.24548  85018978.85548  20762507.3244   20762508.7804   20762507.1984
       250.000         231.000
 123961462.82348  96593338.41548  23589087.9174   23589090.7124   23589087.9854
       230.000         185.000
 116940867.15248  91122739.00848  22253118.2194   22253122.0964   22253118.6384
       238.000         200.000
 115574493.40148  90058038.96048  21993100.1764   21993102.0344   21993100.7674
       241.000         207.000
 09  1  4  0 21 30.0000000  0 11G 9G18G24G 8G21G26G17G15G27G10G28
 119899539.40048  93428201.16848  22816133.9204   22816136.5384   22816133.8794
       229.000         181.000
 138415165.62648  90063762.61348  24436596.3674   24436598.1754   24436596.7664
       215.000         155.000
 130015524.18348 101310780.88448  24741142.9154   24741147.8654   24741144.0004
       205.000         143.000
 124365776.36448  96908388.79448  23666025.6774   23666029.3664   23666027.1904
       216.000         158.000
 129050646.45548 100558939.36848  24557528.2774   24557530.0984   24557526.6964
       213.000         154.000
 105667489.92548  82338293.90348  20107861.1584   20107863.5424   20107861.0744
       251.000         228.000
 141560049.32948  92514318.39648  25035049.0454   25035050.5184   25035048.4314
       208.000         161.000
 109068296.29948  84988279.15748  20755010.1894   20755011.6594   20755009.9864
       250.000         231.000
 124034079.80448  96649923.06048  23602905.8404   23602909.3164   23602906.3694
       227.000         182.000
 117035468.44848  91196454.29248  22271120.5974   22271124.0844   22271121.2044
       238.000         200.000
 115611852.53448  90087149.97448  22000209.4394   22000211.4864   22000209.3154
       242.000         207.000
 09  1  4  0 22  0.0000000  0 11G 9G18G24G 8G21G26G17G15G27G10G28
 119808468.19548  93357236.58048  22798803.6834   22798806.5864   22798803.8674
       231.000         183.000
 138319470.02748  89989194.58348  24418385.6064   24418386.7094   24418385.5924
       211.000         155.000
 130088642.23248 101367755.99048  24755055.8024   24755061.7584   24755055.5394
       206.000         147.000
 124454875.86848  96977816.92248  23682980.7094   23682984.8644   23682980.0824
       221.000         162.000
 129075478.98848 100578289.38548  24562254.2674   24562255.4674   24562256.7894
       214.000         158.000
 105677128.72048  82345804.64448  20109695.4704   20109697.6554   20109695.4244
       251.000         228.000
 141484427.12448  92455392.05348  25020657.7924   25020659.4554   25020657.5994
       205.000         157.000
 109029186.61548  84957804.07948  20747567.7494   20747569.2384   20747567.4414
       250.000         231.000
 124106722.27048  96706527.55248  23616729.1184   23616732.7224   23616728.9334
       230.000         185.000
 117130361.91648  91270397.25848  22289178.3794   22289181.5834   22289179.3154
       239.000         199.000
 115649697.97848  90116639.92948  22007411.3944   22007413.0634   22007412.1234
       240.000         207.000
 09  1  4  0 22 30.0000000  0 11G 9G18G24G 8G21G26G17G15G27G10G28
 119717608.12848  93286436.55148  22781513.4214   22781516.5174   22781513.4954
       230.000         182.000
 138224007.85748  89914808.48348  24400220.2154   24400221.1674   24400219.1844
       216.000         156.000
 130161875.28048 101424820.67948  24768993.4074   24768996.8184   24768993.6844
       211.000         148.000
 124544034.07648  97047290.84948  23699948.6194   23699950.8374   23699949.3584
       223.000         162.000
 129100748.17148 100597979.63648  24567062.2844   24567064.3074   24567062.0524
       212.000         155.000
 105687149.05748  82353612.69848  20111602.1784   20111604.4144   20111602.1414
       251.000         228.000
 141408898.02448  92396538.16948  25006285.4334   25006287.0544   25006284.6884
       214.000         161.000
 108990365.99448  84927554.24948  20740180.3264   20740182.1024   20740180.0524
       250.000         231.000
 124179388.85048  96763150.86548  23630558.4754   23630561.0844   23630558.8934
       233.000         186.000
 117225544.06848  91344565.16748  22307290.8404   22307294.1794   22307291.5344
       237.000         198.000
 115688027.60348  90146507.17548  22014705.1114   22014706.8914   22014705.3294
       241.000         207.000
 09  1  4  0 23  0.0000000  0 11G 9G18G24G 8G21G26G17G15G27G10G28
 119626958.98048  93215800.86248  22764263.3444   22764266.4414   22764263.5494
       231.000         184.000
 138128780.73048  89840605.54848  24382099.0124   24382100.1154   24382098.9344
       211.000         153.000
 130235219.51748 101481972.01648  24782951.2684   24782954.8414   24782952.2644
       211.000         150.000
 124633248.49048  97116808.54248  23716924.3244   23716928.2414   23716925.3394
       216.000         159.000
 129126451.08248 100618007.88848  24571953.7464   24571954.5174   24571953.3834
       215.000         156.000
 105697550.27248  82361717.53548  20113581.3394   20113583.6604   20113581.3234
       251.000         228.000
 141333463.72648  92337758.18748  24991931.3154   24991932.8824   24991931.1874
       209.000         163.000
 108951834.64748  84897529.82348  20732848.1394   20732849.7404   20732847.8544
       250.000         231.000
 124252077.87848  96819791.62848  23644389.4534   23644393.2084   23644390.1504
       226.000         182.000
 117321011.60148  91418955.44348  22325457.5674   22325461.1134   22325458.3654
       238.000         199.000
 115726839.01648  90176749.83248  22022090.5474   22022092.5844   22022091.1824
       239.000         206.000
 09  1  4  0 23 30.0000000  0 11G 9G18G24G 8G21G26G17G15G27G10G28
 119536522.55848  93145330.94848  22747054.1344   22747057.2414   22747054.7024
       230.000         184.000
 138033792.86548  89766589.05448  24364023.7974   24364025.3564   24364023.3754
       213.000         158.000
 130308673.08948 101539208.56048  24796927.9314   24796932.2924   24796928.2714
       208.000         148.000
 124722519.08748  97186370.00948  23733912.2154   23733915.5424   23733911.9954
       218.000         162.000
 129152587.12548 100638373.60448  24576926.6954   24576928.4784   24576927.6494
       214.000         153.000
 105708333.96548  82370120.41748  20115633.4414   20115635.7814   20115633.2564
       251.000         228.000
 141258128.79348  92279055.64148  24977594.9504   24977597.3624   24977594.3424
       208.000         162.000
 108913595.24048  84867732.88648  20725571.3584   20725573.0304   20725570.9964
       250.000         231.000
 124324789.78548  96876450.22948  23658226.5184   23658229.8094   23658226.0654
       231.000         185.000
 117416763.56848  91493567.37148  22343678.5014   22343682.0394   22343679.4584
       238.000         198.000
 115766131.87748  90207367.65848  22029567.2574   22029569.7444   22029567.2664
       240.000         205.000
 09  1  4  0 24  0.0000000  0 11G 9G18G24G 8G21G26G17G15G27G10G28
 119446301.89248  93075029.13048  22729885.8364   22729889.0204   22729885.9134
       229.000         184.000
 137939048.17148  89692762.03248  24345994.1254   24345996.5154   24345995.1654
       213.000         159.000
 130382235.36048 101596529.76948  24810925.5804   24810931.4524   24810926.3244
       206.000         143.000
 124811846.76548  97255975.98648  23750911.8574   23750913.9944   23750911.9754
       221.000         161.000
 129179156.85748 100659077.28648  24581982.7974   24581983.7624   24581984.2614
       211.000         153.000
 105719502.68348  82378823.30948  20117758.8144   20117761.2524   20117758.7564
       250.000         228.000
 141182897.93448  92220434.23348  24963279.2884   24963281.7434   24963278.6754
       213.000         160.000
 108875651.26748  84838166.15048  20718350.9894   20718352.4954   20718350.6014
       250.000         231.000
 124397526.03348  96933127.84348  23672068.9834   23672070.7984   23672069.6014
       231.000         183.000
 117512799.01448  91568400.17448  22361953.2764   22361957.1424   22361953.8264
       237.000         198.000
 115805906.85248  90238361.13648  22037136.4864   22037138.8374   22037137.2634
       239.000         206.000
 09  1  4  0 24 30.0000000  0 11G 9G18G24G 8G21G26G17G15G27G10G28
 119356296.83448  93004895.37148  22712758.3144   22712761.3704   22712758.8424
       230.000         185.000
 137844548.46948  89619125.92948  24328011.3754   24328013.0034   24328010.4764
       216.000         159.000
 130455902.55048 101653932.77648  24824944.9384   24824948.4424   24824946.0084
       209.000         143.000
 124901229.60248  97325624.92548  23767919.5434   23767922.6804   23767920.0084
       216.000         159.000
 129206157.52748 100680116.77948  24587120.2734   24587122.0844   24587119.2744
       208.000         150.000
 105731056.11348  82387825.98448  20119957.3024   20119959.7794   20119957.0734
       251.000         228.000
 141107773.54148  92161895.72348  24948983.2274   24948985.5194   24948983.8244
       211.000         161.000
 108838003.18348  84808829.98148  20711186.8014   20711188.4514   20711186.6914
       250.000         231.000
 124470285.07348  96989823.17048  23685912.9274   23685916.2784   23685913.1054
       229.000         181.000
 117609114.76648  91643451.39848  22380281.8714   22380285.3614   22380282.4714
       238.000         198.000
 115846161.79648  90269728.62648  22044796.9504   22044799.0144   22044797.3054
       241.000         206.000
 09  1  4  0 25  0.0000000  0 11G 9G18G24G 8G21G26G17G15G27G10G28
 119266505.10748  92934927.80248  22695671.9154   22695674.5324   22695672.3294
       229.000         185.000
 137750293.01548  89545680.13648  24310075.2074   24310077.2154   24310075.7134
       217.000         161.000
 130529668.49848 101711412.73248  24838983.0124   24838985.9004   24838983.5274
       210.000         143.000
 124990663.32148  97395313.48548  23784938.0514   23784942.3844   23784938.4484
       217.000         160.000
 129233584.03048 100701488.05448  24592340.1654   24592341.4594   24592340.1704
       206.000         149.000
 105742991.40048  82397126.19848  20122228.5754   20122230.9744   20122228.4754
       251.000         228.000
 141032755.30548  92103439.93248  24934708.6194   24934709.8774   24934707.8724
       214.000         164.000
 108800649.40848  84779723.14048  20704078.4904   20704080.1724   20704078.1934
       250.000         232.000
 124543063.22848  97046533.39548  23699762.5224   23699765.4654   23699762.4424
       229.000         182.000
 117705705.30748  91718716.75448  22398662.3344   22398665.9894   22398663.5174
       238.000         197.000
 115886891.92148  90301466.39648  22052547.7524   22052549.8274   22052548.4514
       240.000         206.000
 09  1  4  0 25 30.0000000  0 11G 9G18G24G 8G21G26G17G15G27G10G28
 119176928.57648  92865127.95348  22678625.2504   22678628.4014   22678625.6324
       230.000         185.000
 137656285.64148  89472427.66048  24292185.9544   24292187.5884   24292186.7224
       215.000         158.000
 130603531.65748 101768968.42748  24853038.1934   24853042.4854   24853037.4304
       213.000         146.000
 125080147.41248  97465041.34848  23801966.8294   23801970.9294   23801966.7924
       220.000         160.000
