     2.11           OBSERVATION DATA    G (GPS)             RINEX VERSION / TYPE
teqc  2008Oct2      gpsops              20090121 00:17:27UTCPGM / RUN BY / DATE
    30.0000                                                 INTERVAL
     1     1                                                WAVELENGTH FACT L1/2
     7    L1    L2    P1    P2    C1    S1    S2            # / TYPES OF OBSERV
Linux 2.4.20-8|Pentium IV|gcc -static|Linux|486/DX+         COMMENT
     2.10           OBSERVATION DATA    GPS                 COMMENT
soc2rnx ver 1.20    gpsops              21-Jan-2009 00:17:25COMMENT
S1, if present, is the SNR for the C/A data stream on L1.   COMMENT
 SNR is mapped to RINEX snr flag value [1,4-9]              COMMENT
    SNR:   >316  >100  >31.6  >10  >3.2    >0 bad=0         COMMENT
L1 & L2:      9     8     7     6     5     4     1         COMMENT
                                                            COMMENT
This data is provided as a public service by NASA/JPL.      COMMENT
No warranty is expressed or implied regarding suitability   COMMENT
for use.  For further information, contact:                 COMMENT
Dave Stowers, NASA/JPL m/s 238-600                          COMMENT
4800 Oak Grove Drive, Pasadena CA 91109 USA                 COMMENT
                                                            COMMENT
Forced Modulo Decimation to 30 seconds                      COMMENT
  2009     1    20     0     0    0.0000000     GPS         TIME OF FIRST OBS
DSN                 JPL                                     OBSERVER / AGENCY
451-U               AOAD/M_T        NONE                    ANT # / TYPE
  4849202.3940  -360328.9929  4114913.1862                  APPROX POSITION XYZ
        0.0254        0.0000        0.0000                  ANTENNA: DELTA H/E/N
LP03574             ASHTECH Z-XII3      CC00                REC # / TYPE / VERS
MADR                                                        MARKER NAME
13407S012                                                   MARKER NUMBER
                                                            END OF HEADER
 09  1 20  0  0  0.0000000  0  9G 9G28G18G17G10G12G15G26G27
 112738157.79148  87847907.55248  21453363.4424   21453366.5914   21453363.4314
       240.000         207.000
 120717336.90748  94065448.33548  22971752.3824   22971754.1684   22971753.5494
       232.000         189.000
 121384832.30748  94585579.78748  23098768.4154   23098770.3294   23098768.1594
       230.000         180.000
 125592597.03848  97864354.67448  23899481.5914   23899483.8804   23899482.7854
       217.000         174.000
 125919106.98948  98118775.96748  23961617.3884   23961620.5284   23961616.8194
       220.000         167.000
 127827794.98048  99606070.17548  24324822.9664   24324825.1834   24324822.6314
       215.000         163.000
 106879083.95448  83282396.01148  20338418.3594   20338419.8024   20338417.7204
       254.000         240.000
 108034932.06048  84183059.37748  20558366.0304   20558368.4664   20558365.2254
       253.000         225.000
 125511177.35748  97800907.48848  23883989.7094   23883992.5864   23883990.5284
       225.000         174.000
 09  1 20  0  0 30.0000000  0  9G 9G28G18G17G10G12G15G26G27
 112668567.39148  87793681.28748  21440120.9904   21440123.7614   21440121.0614
       239.000         206.000
 120791270.08548  94123058.60948  22985821.8414   22985823.5424   22985821.8624
       233.000         190.000
 121318505.58248  94533896.62148  23086146.4674   23086148.0924   23086147.5764
       229.000         181.000
 125536841.21848  97820908.59248  23888872.1224   23888874.3444   23888871.4744
       222.000         177.000
 126029342.17348  98204673.52648  23982594.4144   23982597.9874   23982595.0804
       222.000         169.000
 127714998.23548  99518176.62748  24303359.4094   24303361.3084   24303359.1634
       217.000         165.000
 106871290.38348  83276323.09748  20336935.2354   20336936.6794   20336935.2414
       253.000         240.000
 108079438.50948  84217739.72148  20566835.4524   20566837.7714   20566835.3424
       253.000         225.000
 125580206.59248  97854696.51948  23897125.5784   23897128.8714   23897126.0874
       222.000         174.000
 09  1 20  0  1  0.0000000  0  9G 9G28G18G17G10G12G15G26G27
 112599248.71448  87739666.74548  21426930.0794   21426933.0134   21426930.1374
       240.000         207.000
 120865517.31148  94180913.59248  22999950.5834   22999952.5564   22999950.9414
       230.000         189.000
 121252623.65948  94482560.08048  23073609.0584   23073611.2564   23073609.2134
       230.000         182.000
 125481435.08248  97777734.99248  23878328.1404   23878330.7344   23878328.2244
       222.000         176.000
 126139644.94948  98290623.72148  24003583.5394   24003587.5444   24003584.4694
       219.000         166.000
 127602313.99448  99430370.76148  24281916.1284   24281917.9464   24281915.5784
       217.000         166.000
 106863902.39148  83270566.22248  20335529.2634   20335530.7394   20335529.0424
       254.000         240.000
 108124337.39048  84252725.85048  20575379.2754   20575381.8124   20575379.2244
       254.000         225.000
 125649257.66448  97908502.53648  23910265.5394   23910269.3564   23910265.8134
       223.000         174.000
 09  1 20  0  1 30.0000000  0  9G 9G28G18G17G10G12G15G26G27
 112530202.87148  87685864.80748  21413791.0874   21413793.8754   21413791.5984
       240.000         208.000
 120940076.71648  94239011.82848  23014138.5974   23014140.8294   23014138.2524
       231.000         188.000
 121187189.29148  94431572.25848  23061157.7934   23061159.2934   23061158.5554
       229.000         180.000
 125426381.45948  97734836.09048  23867852.3294   23867854.7434   23867852.3184
       222.000         176.000
 126250012.44548  98376624.35048  24024585.4814   24024589.1314   24024586.2774
       219.000         167.000
 127489745.12248  99342654.79548  24260494.1204   24260496.5584   24260493.8804
       216.000         165.000
 106856920.67548  83265125.91948  20334200.8544   20334202.1224   20334200.4794
       254.000         240.000
 108169629.14048  84288018.11148  20583998.2184   20584000.3964   20583998.2214
       253.000         224.000
 125718330.86648  97962325.78748  23923409.7394   23923413.5314   23923409.3494
       225.000         172.000
 09  1 20  0  2  0.0000000  0  9G 9G28G18G17G10G12G15G26G27
 112461429.48448  87632275.17148  21400704.1154   21400706.7234   21400704.4804
       241.000         207.000
 121014945.23348  94297350.92748  23028385.9074   23028387.7754   23028386.0144
       231.000         189.000
 121122203.78548  94380934.22048  23048791.2844   23048792.5154   23048791.4264
       228.000         179.000
 125371682.17148  97692213.27348  23857443.2724   23857445.6904   23857443.5034
       224.000         178.000
 126360441.35448  98462672.85048  24045599.1204   24045603.7474   24045600.6034
       221.000         167.000
 127377292.62748  99255029.53048  24239095.1084   24239098.6654   24239095.1214
       218.000         166.000
 106850346.20548  83260002.94748  20332949.8414   20332951.0464   20332949.6654
       254.000         240.000
 108215312.37748  84323615.42548  20592691.3214   20592693.7484   20592691.1574
       253.000         225.000
 125787424.76148  98016165.17048  23936558.2754   23936561.2434   23936558.6714
       225.000         172.000
 09  1 20  0  2 30.0000000  0  9G 9G28G18G17G10G12G15G26G27
 112392929.77148  87578898.79548  21387668.7074   21387671.7374   21387669.1644
       240.000         208.000
 121090121.38148  94355929.74748  23042691.3534   23042693.3214   23042691.8724
       232.000         187.000
 121057669.84248  94330648.02748  23036510.7364   23036511.8874   23036511.7234
       228.000         179.000
 125317340.34948  97649869.00048  23847103.1174   23847104.6224   23847103.0054
       220.000         175.000
 126470930.00848  98548767.91148  24066625.1534   24066629.4774   24066626.0704
       219.000         166.000
 127264959.52648  99167497.27448  24217719.4774   24217722.3064   24217718.8974
       221.000         168.000
 106844180.12348  83255198.20248  20331776.3924   20331777.7034   20331776.1014
       254.000         240.000
 108261387.55648  84359518.15448  20601458.9494   20601461.4524   20601458.9374
       253.000         224.000
 125856539.80348  98070021.01948  23949710.4434   23949713.1984   23949710.8524
       225.000         173.000
 09  1 20  0  3  0.0000000  0  9G 9G28G18G17G10G12G15G26G27
 112324703.85648  87525735.77148  21374685.7724   21374688.6994   21374685.9944
       240.000         208.000
 121165601.87248  94414745.70548  23057054.5244   23057056.3484   23057055.5164
       230.000         186.000
 120993589.05048  94280714.95648  23024316.5664   23024318.4154   23024316.8304
       229.000         181.000
 125263358.31348  97607805.10648  23836829.5464   23836831.9974   23836829.1804
       220.000         176.000
 126581475.45348  98634907.18048  24087660.6044   24087664.9094   24087661.3094
       218.000         164.000
 127152748.02548  99080059.73948  24196366.5564   24196368.5794   24196366.1214
       221.000         166.000
 106838423.69148  83250712.66648  20330680.9704   20330682.2434   20330680.7004
       254.000         240.000
 108307854.05648  84395725.80148  20610301.3084   20610303.6764   20610301.1854
       253.000         224.000
 125925675.55448  98123893.01348  23962866.7864   23962869.9874   23962866.9604
       225.000         172.000
 09  1 20  0  3 30.0000000  0  9G 9G28G18G17G10G12G15G26G27
 112256752.92448  87472787.01448  21361755.0164   21361757.9824   21361755.4594
       240.000         207.000
 121241385.72748  94473798.05648  23071475.6664   23071477.5604   23071475.2454
       229.000         185.000
 120929964.36348  94231137.27548  23012209.2984   23012210.8384   23012210.5354
       229.000         181.000
 125209739.39548  97566024.13348  23826626.4504   23826628.1954   23826626.1834
       221.000         173.000
 126692075.40248  98721088.96548  24108707.1524   24108711.2174   24108707.2414
       217.000         164.000
 127040660.61648  98992718.92448  24175036.7634   24175038.6234   24175037.0944
       216.000         165.000
 106833078.44348  83246547.53148  20329663.8444   20329665.0564   20329663.6934
       254.000         240.000
 108354712.32548  84432238.72448  20619218.2954   20619220.7144   20619218.1664
       253.000         225.000
 125994832.39048  98177781.43348  23976026.3764   23976030.1034   23976026.5944
       227.000         172.000
 09  1 20  0  4  0.0000000  0  9G 9G28G18G17G10G12G15G26G27
 112189077.72548  87420053.10348  21348877.0364   21348879.7134   21348877.3524
       241.000         208.000
 121317470.43948  94533084.84348  23085954.2044   23085955.9764   23085954.5154
       230.000         185.000
 120866797.87948  94181916.65948  23000189.2044   23000191.0434   23000189.5994
       231.000         182.000
 125156486.15548  97524528.09748  23816492.9364   23816494.9074   23816493.0694
       220.000         174.000
 126802727.37248  98807311.29648  24129763.9994   24129768.2514   24129764.7494
       218.000         164.000
 126928699.37748  98905476.43448  24153731.4634   24153732.3844   24153731.1254
       220.000         169.000
 106828145.19648  83242703.45048  20328725.1584   20328726.2654   20328724.8914
       254.000         240.000
 108401961.99448  84469056.64448  20628209.5314   20628212.0054   20628209.4154
       254.000         224.000
 126064010.04948  98231686.09648  23989190.7854   23989193.9064   23989191.6004
       225.000         171.000
 09  1 20  0  4 30.0000000  0  9G 9G28G18G17G10G12G15G26G27
 112121678.06048  87367533.90548  21336051.2344   21336053.9184   21336051.6024
       241.000         208.000
 121393853.40248  94592604.03448  23100489.4504   23100491.1514   23100490.6694
       230.000         185.000
 120804090.86048  94133054.04448  22988256.7324   22988257.9674   22988257.4574
       231.000         183.000
 125103600.22748  97483318.28648  23806429.0084   23806430.7304   23806428.9484
       221.000         175.000
 126913428.30048  98893571.72948  24150828.4804   24150833.9644   24150829.1084
       213.000         165.000
 126816866.42148  98818333.90348  24132450.4124   24132451.1954   24132450.5914
       220.000         168.000
 106823624.23548  83239180.61448  20327864.8654   20327866.0564   20327864.6904
       254.000         240.000
 108449602.03948  84506178.73248  20637275.2044   20637277.6384   20637275.2104
       253.000         224.000
 126133207.55648  98285606.19548  24002358.5544   24002362.1094   24002359.0204
       226.000         170.000
 09  1 20  0  5  0.0000000  0  9G 9G28G18G17G10G12G15G26G27
 112054554.65448  87315229.97048  21323277.8104   21323280.7534   21323277.9974
       241.000         209.000
 121470532.49248  94652353.97048  23115081.0844   23115082.6884   23115081.1684
       230.000         184.000
 120741845.73348  94084551.36348  22976411.9554   22976413.4164   22976413.3114
       231.000         183.000
 125051084.94748  97442397.30248  23796435.2994   23796437.8974   23796435.1714
       220.000         175.000
 127024175.93248  98979868.55848  24171903.9864   24171908.3234   24171903.9054
       220.000         164.000
 126705164.25148  98731293.27248  24111193.9774   24111195.8844   24111193.7844
       215.000         167.000
 106819517.21948  83235980.34948  20327083.1984   20327084.6094   20327082.9844
       253.000         240.000
 108497632.67848  84543605.19348  20646414.9944   20646417.4504   20646414.8484
       253.000         224.000
 126202425.12248  98339541.93848  24015530.3234   24015533.1974   24015531.0714
       226.000         171.000
 09  1 20  0  5 30.0000000  0  9G 9G28G18G17G10G12G15G26G27
 111987707.89548  87263141.58948  21310557.8094   21310560.2934   21310557.6074
       241.000         209.000
 121547505.25448  94712332.74048  23129728.6424   23129730.2284   23129729.7144
       230.000         185.000
 120680064.64648  94036410.26548  22964655.4734   22964657.2714   22964656.1314
       231.000         184.000
 124998942.37448  97401766.72848  23786513.2064   23786515.6614   23786512.9994
       224.000         178.000
 127134967.19148  99066199.39848  24192987.0684   24192991.2294   24192988.6954
       219.000         165.000
 126593594.94748  98644356.18148  24089962.2694   24089965.2824   24089961.0134
       218.000         170.000
 106815824.50348  83233102.89748  20326380.4534   20326381.8694   20326380.0714
       254.000         240.000
 108546053.06848  84581335.35048  20655629.0994   20655631.6014   20655628.8464
       252.000         224.000
 126271662.24148  98393492.91548  24028705.4394   24028708.6804   24028705.7594
       223.000         169.000
 09  1 20  0  6  0.0000000  0  9G 9G28G18G17G10G12G15G26G27
 111921138.34648  87211269.24748  21297889.8004   21297892.2954   21297889.8894
       241.000         209.000
 121624769.66848  94772538.77848  23144431.6014   23144433.0904   23144432.4774
       229.000         184.000
 120618749.54348  93988632.25548  22952987.3234   22952988.7854   22952989.1164
       229.000         180.000
 124947175.25948  97361428.72648  23776662.3494   23776664.2244   23776663.0404
       223.000         179.000
 127245800.10848  99152562.68448  24214077.8284   24214082.1294   24214078.2394
       221.000         165.000
 126482160.79648  98557524.43748  24068756.7534   24068760.0784   24068756.2274
       219.000         169.000
 106812547.90748  83230549.70548  20325757.0034   20325758.2864   20325756.7194
       254.000         241.000
 108594863.19248  84619369.21348  20664917.4444   20664919.8874   20664917.3164
       253.000         224.000
 126340919.11548  98447459.27848  24041884.6004   24041887.7614   24041884.6464
       221.000         167.000
 09  1 20  0  6 30.0000000  0  9G 9G28G18G17G10G12G15G26G27
 111854847.10248  87159613.75548  21285274.8554   21285277.6794   21285274.5014
       242.000         209.000
 121702324.10948  94832970.80448  23159189.6704   23159191.2434   23159189.8174
       230.000         183.000
 120557902.56648  93941219.04348  22941408.1554   22941410.0574   22941409.4494
       229.000         182.000
 124895786.18048  97321385.30948  23766883.4024   23766885.7004   23766883.1984
       222.000         179.000
 127356672.51448  99238956.79148  24235177.0314   24235179.4814   24235177.7634
       225.000         164.000
 126370864.47248  98470800.04948  24047578.1894   24047580.6424   24047577.9044
       221.000         171.000
 106809688.39348  83228321.50348  20325212.8834   20325214.1914   20325212.7754
       254.000         241.000
 108644063.14148  84657706.83348  20674279.8234   20674282.3594   20674279.9614
       252.000         224.000
 126410195.75848  98501441.05748  24055067.6374   24055070.8824   24055068.1544
       222.000         168.000
 09  1 20  0  7  0.0000000  0  9G 9G28G18G17G10G12G15G26G27
 111788834.11948  87108175.07448  21272713.3454   21272715.8264   21272713.8604
       243.000         210.000
 121780165.42948  94893626.37348  23174002.6994   23174003.7864   23174002.7684
       229.000         184.000
 120497525.65748  93894172.09548  22929918.7344   22929920.2974   22929919.2054
       229.000         182.000
 124844777.59848  97281638.35248  23757176.9054   23757178.6534   23757176.7404
       223.000         180.000
 127467580.85248  99325378.88448  24256281.5884   24256284.8184   24256283.0664
       217.000         161.000
 126259707.49348  98384184.21948  24026426.4864   24026428.1404   24026426.5004
       222.000         171.000
 106807246.52048  83226418.74148  20324748.1294   20324749.6344   20324747.9834
       254.000         241.000
 108693652.05948  84696347.53548  20683716.1154   20683718.8194   20683715.9024
       253.000         224.000
 126479491.46148  98555437.71548  24068253.9664   24068257.0724   24068254.5014
       218.000         167.000
 09  1 20  0  7 30.0000000  0  9G 9G28G18G17G10G12G15G26G27
 111723100.48448  87056954.08348  21260204.5074   21260206.9914   21260205.3454
       241.000         209.000
 121858291.75548  94954504.03648  23188869.2414   23188870.8314   23188869.6664
       229.000         182.000
 120437620.95648  93847493.13048  22918519.3754   22918521.0944   22918520.0364
       230.000         182.000
 124794152.10248  97242189.93448  23747542.9634   23747544.9784   23747542.5714
       227.000         180.000
 127578523.00448  99411827.30248  24277392.7044   24277397.2844   24277393.5474
       220.000         164.000
 126148692.79148  98297679.28848  24005300.8104   24005302.8334   24005300.8364
       219.000         169.000
 106805223.99248  83224842.73848  20324363.1824   20324364.7314   20324362.8904
       254.000         241.000
 108743630.03548  84735291.40848  20693226.6274   20693229.3664   20693226.5534
       252.000         224.000
 126548806.49948  98609449.43448  24081443.8254   24081447.3304   24081443.5384
       217.000         166.000
 09  1 20  0  8  0.0000000  0  9G 9G28G18G17G10G12G15G26G27
 111657646.53448  87005951.03348  21247748.8484   21247751.6244   21247749.1284
       243.000         210.000
 121936701.28848  95015602.36548  23203790.1854   23203791.4064   23203791.0784
       230.000         183.000
 120378190.81748  93801183.92848  22907210.7254   22907212.1264   22907211.0774
       230.000         182.000
 124743912.26548  97203042.02248  23737982.5014   23737985.0184   23737982.2434
       223.000         180.000
 127689496.63648  99498300.25948  24298510.5574   24298514.5484   24298512.2114
       220.000         163.000
 126037822.66048  98211286.99448  23984203.3824   23984204.6084   23984203.0834
       222.000         169.000
 106803621.45148  83223593.99748  20324058.2544   20324059.8224   20324058.0014
       254.000         241.000
 108793996.69548  84774538.14848  20702811.0764   20702813.6184   20702810.8904
       252.000         223.000
 126618140.92448  98663476.27148  24094637.6734   24094641.4674   24094637.4614
       218.000         164.000
 09  1 20  0  8 30.0000000  0  9G 9G28G18G17G10G12G15G26G27
 111592472.26648  86955165.92148  21235346.7084   21235349.2864   21235347.1894
       241.000         209.000
 122015390.67248  95076918.76448  23218764.3914   23218765.7604   23218765.1774
       229.000         183.000
 120319236.30248  93755245.33648  22895991.9854   22895992.9974   22895992.3704
       230.000         183.000
 124694059.95948  97164196.07648  23728496.0014   23728498.1434   23728495.6934
       225.000         180.000
 127800498.57048  99584795.26348  24319633.5424   24319637.8004   24319635.3214
       215.000         162.000
 125927098.44448  98125008.42048  23963133.0514   23963134.1984   23963133.4984
       224.000         172.000
 106802439.12648  83222672.70548  20323833.2754   20323834.7854   20323833.1784
       253.000         241.000
 108844751.01948  84814086.96448  20712469.4884   20712471.8674   20712469.4744
       253.000         223.000
 126687493.67248  98717517.36148  24107835.0734   24107839.1464   24107835.5854
       219.000         164.000
 09  1 20  0  9  0.0000000  0  9G 9G28G18G17G10G12G15G26G27
 111527578.96148  86904599.70948  21222997.7254   21223000.4264   21222997.5894
       243.000         210.000
 122094358.68548  95138452.26548  23233791.3364   23233792.8354   23233791.8554
       229.000         180.000
 120260760.28048  93709679.61648  22884864.0024   22884865.7034   22884865.2844
       230.000         183.000
 124644598.56548  97125654.72248  23719083.7064   23719085.8114   23719083.4034
       225.000         180.000
 127911527.20348  99671311.05948  24340761.0304   24340765.1884   24340760.8534
       217.000         163.000
 125816523.64748  98038846.26248  23942091.1934   23942092.1684   23942091.8114
       223.000         172.000
 106801679.03748  83222080.42248  20323688.6864   20323690.1454   20323688.3224
       253.000         241.000
 108895893.44248  84853938.19148  20722201.4764   20722203.9884   20722201.4614
       252.000         223.000
 126756865.62348  98771573.39448  24121036.3074   24121040.4614   24121035.7314
       219.000         165.000
 09  1 20  0  9 30.0000000  0  9G 9G28G18G17G10G12G15G26G27
 111462966.96648  86854252.71248  21210702.7794   21210705.1404   21210703.5664
       243.000         211.000
 122173602.86648  95200200.98548  23248870.9374   23248872.5254   23248872.3144
       229.000         182.000
 120202764.48348  93664488.08248  22873827.9304   22873829.0794   22873828.0734
       230.000         183.000
 124595530.17948  97087419.62248  23709746.5304   23709748.5904   23709746.2714
       225.000         180.000
 128022579.34248  99757845.18648  24361894.0424   24361898.0814   24361893.8254
       219.000         162.000
 125706099.81448  97952801.72648  23921078.0204   23921078.8494   23921077.2324
       219.000         170.000
 106801341.84248  83221817.67548  20323624.4814   20323625.9194   20323624.2544
       254.000         241.000
 108947423.13448  84894091.18748  20732007.3184   20732010.0124   20732007.2594
       253.000         224.000
 126826256.10148  98825643.88348  24134240.9434   24134245.0024   24134241.1814
       218.000         165.000
 09  1 20  0 10  0.0000000  0  9G 9G28G18G17G10G12G15G26G27
 111398636.85148  86804125.36048  21198461.0164   21198463.6214   21198461.4984
       242.000         210.000
 122253120.95848  95262163.12748  23264002.7094   23264004.9274   23264002.7474
       227.000         182.000
 120145250.46048  93619671.95948  22862882.9344   22862884.5664   22862883.9484
       229.000         182.000
 124546857.26048  97049492.68348  23700484.4494   23700486.1154   23700484.2734
       225.000         180.000
 128133652.82548  99844395.97548  24383030.2114   24383035.3554   24383031.4834
       216.000         158.000
 125595829.09548  97866876.53348  23900093.0794   23900094.9724   23900093.2974
       222.000         169.000
 106801427.92548  83221884.74848  20323640.9964   20323642.2654   20323640.7554
       254.000         241.000
 108999339.99748  84934545.85948  20741886.9904   20741889.4014   20741886.8504
       253.000         224.000
 126895665.08648  98879728.77848  24147449.2664   24147452.7374   24147449.4794
       221.000         162.000
 09  1 20  0 10 30.0000000  0  9G 9G28G18G17G10G12G15G26G27
 111334589.18248  86754218.11148  21186273.0114   21186275.6074   21186272.9434
       242.000         210.000
 122332910.75448  95324336.99448  23279186.1304   23279188.4304   23279186.9484
       228.000         182.000
 120088220.65548  93575233.14548  22852031.0754   22852032.4774   22852030.8404
       230.000         183.000
 124498582.26648  97011875.80848  23691297.8424   23691299.8614   23691297.9214
       228.000         180.000
 128244745.16448  99930961.44948  24404169.7124   24404175.1694   24404170.6534
       213.000         155.000
 125485713.90148  97781072.49448  23879139.4154   23879141.6414   23879138.5134
       220.000         173.000
 106801939.20348  83222283.14548  20323738.2624   20323739.6074   20323738.1904
       254.000         241.000
 109051643.44648  84975301.79248  20751839.9174   20751842.3194   20751839.9124
       253.000         224.000
 126965092.52548  98933828.07848  24160660.9884   24160664.2884   24160661.3344
       218.000         161.000
 09  1 20  0 11  0.0000000  0  9G 9G28G18G17G10G12G15G26G27
 111270824.33048  86704531.22248  21174138.7824   21174141.7794   21174139.1854
       241.000         210.000
 122412969.85948  95386720.70748  23294421.0014   23294422.9124   23294421.7314
       226.000         181.000
 120031676.46848  93531172.75548  22841270.4964   22841272.3214   22841271.4734
       230.000         183.000
 124450707.43648  96974570.75548  23682187.8004   23682190.0204   23682188.0094
       228.000         181.000
 128355853.21148 100017539.10848  24425313.1344   24425318.2574   24425313.7294
       216.000         159.000
 125375756.55948  97695391.48948  23858215.6334   23858218.4374   23858215.2314
       222.000         174.000
 106802876.18348  83223013.25948  20323916.5614   20323917.9034   20323916.2364
       255.000         241.000
 109104333.05148  85016358.62648  20761866.3914   20761868.8994   20761866.1804
       252.000         223.000
 127034538.00348  98987941.41848  24173876.0744   24173879.3744   24173876.1024
       219.000         161.000
 09  1 20  0 11 30.0000000  0  9G 9G28G18G17G10G12G15G26G27
 111207342.10648  86655064.56648  21162058.4414   21162061.3424   21162058.5964
       241.000         210.000
 122493295.31648  95449311.95548  23309706.6664   23309708.4204   23309706.1794
       228.000         180.000
 119975619.64148  93487492.11348  22830603.2024   22830605.1624   22830603.5684
       229.000         181.000
 124403234.52048  96937578.87748  23673153.8744   23673156.0814   23673153.8984
       226.000         179.000
 128466974.39348 100104127.03248  24446459.9924   24446463.9584   24446461.3004
       217.000         162.000
 125265958.83048  97609834.82448  23837321.9034   23837324.5984   23837322.9724
       222.000         174.000
 106804238.82448  83224075.05948  20324175.8584   20324177.2454   20324175.6184
       254.000         241.000
 109157407.71948  85057715.49948  20771966.0684   20771968.8574   20771965.8674
       252.000         223.000
 127104000.83548  99042068.28848  24187094.3174   24187097.3994   24187095.2744
       218.000         160.000
 09  1 20  0 12  0.0000000  0  9G 9G28G18G17G10G12G15G26G27
 111144143.82848  86605819.15948  21150032.5894   21150035.2074   21150032.3494
       242.000         211.000
 122573885.69048  95512109.65348  23325042.7034   23325044.0394   23325042.8284
       229.000         181.000
 119920052.61948  93444193.14648  22820029.0274   22820030.8354   22820029.4284
       229.000         184.000
 124356166.72448  96900902.67048  23664197.2914   23664199.1294   23664197.5494
       226.000         181.000
 128578106.51348 100190723.48048  24467607.3484   24467612.7214   24467608.5924
       213.000         160.000
 125156323.49848  97524404.71548  23816458.5554   23816461.0194   23816457.8744
       223.000         172.000
 106806029.02548  83225470.01448  20324516.5154   20324517.9274   20324516.3384
       254.000         241.000
 109210867.98948  85099372.83848  20782139.2254   20782141.8304   20782139.0084
       251.000         223.000
 127173481.72148  99096209.26148  24200316.3264   24200320.1334   24200315.9454
       215.000         161.000
 09  1 20  0 12 30.0000000  0  9G 9G28G18G17G10G12G15G26G27
 111081229.79648  86556795.25348  21138060.3604   21138063.0114   21138060.6074
       243.000         211.000
 122654738.61048  95575111.92048  23340428.4684   23340429.8444   23340429.1244
       226.000         180.000
 119864977.23048  93401277.25048  22809548.7664   22809550.6684   22809549.2744
       229.000         184.000
 124309506.43948  96864543.99748  23655318.3034   23655319.6844   23655318.2794
       227.000         180.000
 128689247.17748 100277326.55548  24488756.5124   24488761.7404   24488756.6514
       213.000         155.000
 125046852.26648  97439102.47048  23795627.1324   23795628.7004   23795626.7094
       225.000         175.000
 106808247.58548  83227198.75448  20324938.6814   20324940.0824   20324938.4434
       254.000         241.000
 109264713.09248  85141330.05448  20792385.7294   20792388.0424   20792385.6724
       251.000         222.000
 127242980.53048  99150364.15048  24213541.7024   24213544.8184   24213542.1974
       217.000         159.000
 09  1 20  0 13  0.0000000  0  9G 9G28G18G17G10G12G15G26G27
 111018600.07348  86507992.87048  21126142.3074   21126144.9124   21126142.7544
       244.000         212.000
 122735851.43048  95638316.69948  23355863.5524   23355864.8884   23355863.8464
       226.000         179.000
 119810394.88148  93358745.55748  22799161.9134   22799164.0214   22799162.4744
       230.000         185.000
 124263255.31148  96828504.15348  23646516.7474   23646518.9644   23646516.7824
       227.000         181.000
 128800393.54648 100363934.11648  24509907.3144   24509910.7464   24509908.0544
       210.000         156.000
 124937547.38048  97353929.84548  23774827.1744   23774828.6484   23774827.5174
       224.000         175.000
 106810894.98348  83229261.65548  20325442.5144   20325443.8734   20325442.2714
       254.000         241.000
 109318942.09848  85183586.41048  20802705.1544   20802707.6754   20802705.0874
       251.000         222.000
 127312496.46748  99204532.38848  24226769.9654   24226773.1864   24226770.4764
       213.000         160.000
 09  1 20  0 13 30.0000000  0  9G 9G28G18G17G10G12G15G26G27
 110956255.34848  86459412.60048  21114278.1704   21114281.2814   21114278.3514
       241.000         212.000
 122817221.91148  95701722.27148  23371347.7894   23371349.1514   23371347.8244
       227.000         179.000
 119756307.34648  93316599.42848  22788869.7034   22788871.4254   22788869.4564
       232.000         187.000
 124217416.01848  96792785.23848  23637794.0204   23637795.9324   23637794.3264
       229.000         182.000
 128911543.41648 100450544.43048  24531058.7514   24531061.8614   24531060.3154
       214.000         157.000
 124828411.21548  97268888.71148  23754059.0284   23754061.0004   23754059.3494
       222.000         175.000
 106813972.19548  83231659.48148  20326028.0924   20326029.4074   20326027.9134
       254.000         241.000
 109373554.89148  85226141.83048  20813097.4904   20813100.0024   20813097.2204
       252.000         222.000
 127382029.73248  99258714.11548  24240001.4524   24240004.9794   24240001.7054
       212.000         160.000
 09  1 20  0 14  0.0000000  0  9G 9G28G18G17G10G12G15G26G27
 110894197.30048  86411055.69748  21102468.9224   21102471.9144   21102468.2184
       243.000         211.000
 122898848.66848  95765327.53148  23386881.0024   23386882.1744   23386880.6784
       226.000         178.000
 119702717.25348  93274840.91548  22778672.2844   22778673.7814   22778672.9514
       233.000         187.000
 124171991.65948  96757389.65348  23629149.6874   23629152.0054   23629149.8894
       228.000         183.000
 129022694.30248 100537155.49948  24552209.6284   24552213.8724   24552210.3944
       211.000         153.000
 124719446.69548  97183981.35148  23733323.5014   23733325.9924   23733323.4844
       224.000         177.000
 106817480.78848  83234393.44848  20326695.7974   20326697.0664   20326695.6384
       254.000         241.000
 109428551.72948  85268996.50048  20823563.1474   20823565.5934   20823563.1804
       251.000         222.000
 127451580.88348  99312909.79848  24253236.6494   24253240.4714   24253236.4504
       212.000         159.000
 09  1 20  0 14 30.0000000  0 10G 9G 5G28G18G17G10G12G15G26G27
 110832425.98348  86362922.21048  21090714.4144   21090717.2004   21090714.2884
       243.000         213.000
 131108385.81758 102162361.99058  24949108.7825   24949113.3745   24949110.0235
       215.000         155.000
 122980729.11748  95829130.47648  23402461.7214   23402463.5824   23402462.1204
       225.000         176.000
 119649626.21348  93233471.26848  22768569.4964   22768570.6484   22768569.8504
       232.000         187.000
 124126984.31348  96722318.99748  23620585.2844   23620587.2454   23620585.1874
       227.000         180.000
 129133843.64648 100623765.36648  24573360.4244   24573364.7784   24573360.9484
       213.000         153.000
 124610655.75848  97099209.20248  23712621.6664   23712623.9314   23712621.2354
       224.000         178.000
 106821421.12948  83237463.83948  20327445.4934   20327446.8974   20327445.2064
       254.000         240.000
 109483931.68248  85312149.70548  20834101.5184   20834104.0694   20834101.4314
       251.000         222.000
 127521149.46048  99367119.08748  24266475.0804   24266478.1494   24266475.7644
       210.000         157.000
 09  1 20  0 15  0.0000000  0 10G 9G 5G28G18G17G10G12G15G26G27
 110770941.51048  86315012.24548  21079014.5654   21079017.1714   21079014.8414
       244.000         213.000
 130993069.52548 102072505.14448  24927166.0264   24927169.8234   24927166.7404
       213.000         156.000
 123062860.79448  95893129.18548  23418091.2694   23418092.5804   23418091.3464
       226.000         177.000
 119597035.48948  93192491.48548  22758561.4934   22758563.2984   22758562.2224
       234.000         188.000
 124082395.62448  96687574.56848  23612100.0344   23612101.6394   23612100.3274
       227.000         179.000
 129244988.79948 100710371.99648  24594511.3204   24594515.2074   24594511.8344
       213.000         157.000
 124502039.90748  97014573.50048  23691953.1314   23691954.9974   23691952.5784
       227.000         179.000
 106825793.70048  83240871.04048  20328277.5584   20328278.9684   20328277.3044
       254.000         240.000
 109539693.82748  85355600.71548  20844712.8804   20844715.3614   20844712.6224
       251.000         221.000
 127590735.02348  99421341.58548  24279717.1064   24279719.8844   24279717.1604
       211.000         156.000
 09  1 20  0 15 30.0000000  0 10G 9G 5G28G18G17G10G12G15G26G27
 110709743.50048  86267325.50648  21067368.6184   21067371.4664   21067369.2104
       244.000         213.000
 130877825.42548 101982704.57548  24905235.0494   24905238.9854   24905236.4014
       211.000         155.000
 123145240.92048  95957321.48848  23433767.7474   23433769.2564   23433767.9914
       225.000         177.000
 119544946.13648  93151902.39348  22748649.2144   22748651.0744   22748649.8724
       231.000         187.000
 124038227.26048  96653157.66648  23603695.2384   23603697.2514   23603694.9104
       230.000         182.000
 129356126.80848 100796973.02348  24615659.8614   24615664.0654   24615661.2864
       210.000         157.000
 124393600.92748  96930075.60548  23671317.9954   23671320.0334   23671318.0664
       230.000         179.000
 106830598.77148  83244615.25048  20329192.0524   20329193.2874   20329191.9034
       254.000         240.000
 109595837.11448  85399348.72548  20855396.5984   20855398.9444   20855396.5604
       252.000         221.000
 127660336.67548  99475576.57948  24292961.7684   24292964.9884   24292961.9334
       212.000         155.000
 09  1 20  0 16  0.0000000  0 10G 9G 5G28G18G17G10G12G15G26G27
 110648830.93748  86219861.17548  21055777.5254   21055780.4144   21055777.8464
       244.000         214.000
 130762653.93648 101892960.58448  24883318.0784   24883322.6014   24883319.6594
       208.000         155.000
 123227865.29148  96021704.11148  23449490.4604   23449492.4234   23449491.2454
       226.000         177.000
 119493358.69948  93111704.39548  22738832.2694   22738834.1164   22738832.7954
       232.000         187.000
 123994479.94348  96619068.84648  23595370.1714   23595372.5614   23595369.7624
       228.000         181.000
 129467253.55348 100883565.23948  24636806.8754   24636810.8594   24636807.0564
       212.000         155.000
 124285339.53348  96845716.07948  23650716.9864   23650718.6424   23650717.9384
       225.000         178.000
 106835835.77048  83248696.02248  20330188.6094   20330189.8644   20330188.3634
       254.000         240.000
 109652359.35248  85443392.02248  20866152.2644   20866154.8874   20866152.4334
       249.000         221.000
 127729952.97148  99529823.06748  24306209.5364   24306212.2134   24306210.4334
       209.000         157.000
 09  1 20  0 16 30.0000000  0 10G 9G 5G28G18G17G10G12G15G26G27
 110588207.45748  86172622.10648  21044241.2204   21044244.0644   21044241.3864
       244.000         213.000
 130647560.32548 101803277.25148  24861416.5104   24861420.5124   24861417.0714
       210.000         154.000
 123310734.97348  96086277.89148  23465259.7034   23465261.9134   23465259.9304
       226.000         177.000
 119442277.76948  93071901.04948  22729111.6974   22729113.3664   22729112.1674
       231.000         187.000
 123951159.40248  96585312.58848  23587127.0184   23587128.6214   23587126.5414
       228.000         182.000
 129578369.34848 100970148.98648  24657950.4474   24657955.0194   24657951.3804
       216.000         154.000
 124177261.25048  96761499.25548  23630149.0814   23630151.8374   23630148.0254
       223.000         177.000
 106841508.49548  83253116.31948  20331268.0224   20331269.3734   20331267.6924
       254.000         240.000
 109709263.38148  85487732.81448  20876980.7084   20876983.4994   20876980.4994
       248.000         221.000
 127799586.99148  99584083.32848  24319460.2784   24319463.5564   24319460.1414
       212.000         156.000
 09  1 20  0 17  0.0000000  0 10G 9G 5G28G18G17G10G12G15G26G27
 110527873.94948  86125608.99248  21032760.1334   21032762.8684   21032760.2924
       243.000         213.000
 130532546.87348 101713656.38348  24839529.9594   24839533.8624   24839531.4234
       212.000         155.000
 123393848.14548  96151041.38448  23481075.7924   23481077.9124   23481076.8214
       227.000         177.000
 119391705.44248  93032494.07148  22719487.7274   22719490.0984   22719488.5964
       231.000         186.000
 123908268.01148  96551890.73448  23578964.6004   23578967.0394   23578964.4314
       231.000         182.000
 129689472.15048 101056722.65448  24679093.8944   24679095.9454   24679095.2214
       217.000         155.000
 124069368.52348  96677427.03848  23609617.6214   23609620.0464   23609616.9354
       224.000         174.000
 106847618.24048  83257877.15248  20332430.8074   20332432.0224   20332430.6134
       254.000         241.000
 109766549.00648  85532370.94748  20887881.8604   20887884.6364   20887881.6584
       248.000         221.000
 127869239.17148  99638357.76648  24332714.1604   24332717.6424   24332714.8754
       212.000         155.000
 09  1 20  0 17 30.0000000  0 10G 9G 5G28G18G17G10G12G15G26G27
 110467830.60348  86078821.97648  21021334.3064   21021336.9414   21021334.0334
       245.000         214.000
 130417615.15548 101624099.19748  24817659.4184   24817662.9144   24817659.9654
       212.000         154.000
 123477202.08548  96215992.51548  23496937.5984   23496939.4274   23496938.0724
       228.000         177.000
 119341643.10248  92993484.43848  22709961.5844   22709963.1864   22709961.6814
       233.000         187.000
 123865807.65648  96518804.75948  23570884.9484   23570886.6884   23570885.0884
       228.000         181.000
 129800559.27848 101143284.06648  24700232.8624   24700236.1134   24700233.8204
       215.000         154.000
 123961662.78448  96593500.49448  23589121.9274   23589123.7424   23589122.0464
       228.000         178.000
 106854165.30448  83262978.75648  20333676.6544   20333677.8664   20333676.4734
       254.000         240.000
 109824215.20148  85577305.62848  20898855.3774   20898858.1424   20898855.2574
       248.000         221.000
 127938908.77648  99692645.77448  24345972.4754   24345975.1224   24345972.4944
       210.000         155.000
 09  1 20  0 18  0.0000000  0 10G 9G 5G28G18G17G10G12G15G26G27
 110408077.00348  86032260.74448  21009963.3814   21009966.1204   21009963.7864
       244.000         213.000
 130302766.38048 101534606.66548  24795805.0584   24795808.9324   24795806.7354
       211.000         155.000
 123560793.62148  96281128.77448  23512844.5164   23512846.3694   23512845.5084
       229.000         176.000
 119292091.73548  92954872.98748  22700532.2644   22700534.2354   22700532.3144
       229.000         188.000
 123823779.51648  96486055.55248  23562887.0654   23562888.7984   23562886.8964
       227.000         181.000
 129911627.19648 101229830.46248  24721367.9774   24721372.7884   24721369.1624
       212.000         157.000
 123854145.68248  96509720.96048  23568662.5034   23568663.9964   23568662.6404
       224.000         177.000
 106861149.68848  83268421.12848  20335005.6364   20335006.9674   20335005.4494
       253.000         240.000
 109882260.50048  85622535.71748  20909900.9724   20909903.8114   20909900.6294
       250.000         220.000
 128008594.90348  99746946.63948  24359232.6594   24359236.4754   24359233.3904
       208.000         154.000
 09  1 20  0 18 30.0000000  0 10G 9G 5G28G18G17G10G12G15G26G27
 110348613.94748  85985925.89748  20998647.9744   20998650.6994   20998647.7324
       245.000         215.000
 130188002.69548 101445180.45548  24773966.0474   24773969.8454   24773967.5834
       207.000         153.000
 123644621.04348  96346448.84648  23528796.6714   23528798.2604   23528796.7994
       227.000         177.000
 119243053.62548  92916661.47148  22691200.4464   22691202.4864   22691200.5614
       232.000         189.000
 123782186.25348  96453645.21848  23554972.5104   23554974.1274   23554972.4704
       229.000         182.000
 130022673.56048 101316360.08448  24742499.4374   24742503.8394   24742499.9364
       213.000         158.000
 123746819.65048  96426090.29648  23548238.5804   23548240.5254   23548237.8384
       226.000         178.000
 106868572.30848  83274204.98348  20336418.0994   20336419.4994   20336417.7834
       254.000         240.000
 109940684.93048  85668061.24148  20921018.8974   20921021.4854   20921018.8454
       250.000         220.000
 128078297.82248  99801260.58148  24372496.8494   24372500.5204   24372497.0364
       208.000         155.000
 09  1 20  0 19  0.0000000  0 10G 9G 5G28G18G17G10G12G15G26G27
 110289442.27248  85939818.09648  20987388.0974   20987390.8944   20987388.5714
       245.000         214.000
 130073326.47748 101355822.39548  24752143.6944   24752147.8054   24752144.1604
       206.000         153.000
 123728682.37748  96411951.17748  23544792.7704   23544794.9214   23544792.7834
       229.000         178.000
 119194529.57948  92878850.53148  22681967.1434   22681968.4344   22681967.2584
       233.000         189.000
 123741030.37548  96421575.72448  23547140.1824   23547142.3934   23547140.7984
       226.000         180.000
 130133696.34448 101402871.34748  24763626.5764   24763630.9214   24763627.4104
       213.000         157.000
 123639687.07748  96342610.40048  23527852.1174   23527854.5464   23527852.0184
       224.000         180.000
 106876434.25748  83280331.17048  20337914.2574   20337915.5594   20337914.0564
       254.000         240.000
 109999488.01448  85713881.82448  20932208.8134   20932211.2784   20932208.9254
       248.000         220.000
 128148017.77748  99855587.79348  24385763.6024   24385768.4154   24385763.2564
       209.000         157.000
 09  1 20  0 19 30.0000000  0 10G 9G 5G28G18G17G10G12G15G26G27
 110230561.75848  85893937.18048  20976183.5234   20976186.1254   20976184.1754
       245.000         215.000
 129958738.71448 101266533.29148  24730337.6564   24730342.0184   24730337.0534
       210.000         153.000
 123812974.34948  96477633.24548  23560833.3984   23560834.8524   23560834.7984
       228.000         178.000
 119146520.88048  92841441.17348  22672831.4504   22672832.5914   22672832.4464
       235.000         189.000
 123700313.10548  96389847.98148  23539392.1694   23539393.9864   23539391.5074
       227.000         181.000
 130244692.31948 101489361.71748  24784748.0864   24784752.2804   24784749.2424
       209.000         152.000
 123532749.41348  96259282.38048  23507502.8134   23507505.1124   23507503.3124
       225.000         181.000
 106884735.61148  83286799.74948  20339493.9574   20339495.2674   20339493.8504
       254.000         240.000
 110058668.22848  85759996.26248  20943470.2914   20943472.9684   20943469.9984
       248.000         220.000
 128217753.84148  99909927.55848  24399034.6214   24399039.1074   24399035.1704
       210.000         156.000
 09  1 20  0 20  0.0000000  0 10G 9G 5G28G18G17G10G12G15G26G27
 110171973.55048  85848284.03848  20965034.5504   20965037.1724   20965035.0174
       245.000         214.000
 129844242.39648 101177315.40848  24708550.1844   24708554.0754   24708551.3534
       212.000         155.000
 123897495.43948  96543493.82048  23576916.7424   23576918.7564   23576917.4544
       228.000         179.000
 119099029.88948  92804435.20548  22663793.7924   22663795.4814   22663793.3774
       232.000         188.000
 123660037.40548  96358464.32948  23531728.0204   23531730.1694   23531727.5974
       228.000         182.000
 130355659.76948 101575829.82448  24805864.2744   24805867.7524   24805863.5404
       209.000         148.000
 123426009.65448  96176108.55248  23487190.4484   23487193.4534   23487190.1724
       224.000         181.000
 106893477.49048  83293611.59248  20341157.3314   20341158.8264   20341157.0464
       254.000         240.000
 110118226.01848  85806404.90748  20954804.0034   20954806.3804   20954803.7934
       249.000         220.000
 128287506.70848  99964280.42948  24412307.3974   24412311.7984   24412307.5574
       210.000         157.000
 09  1 20  0 20 30.0000000  0 10G 9G 5G28G18G17G10G12G15G26G27
 110113677.49348  85802858.54948  20953941.3434   20953943.7244   20953941.5604
       246.000         215.000
 129729838.83548 101088169.80348  24686779.9454   24686783.2894   24686780.0334
       212.000         154.000
 123982243.07848  96609530.93248  23593043.6844   23593045.8154   23593044.2474
       227.000         178.000
 119052058.09348  92767833.80148  22654855.5664   22654857.0004   22654856.1704
       231.000         188.000
 123620204.90048  96327426.02148  23524148.2124   23524150.1334   23524148.2754
       226.000         181.000
 130466595.60548 101662273.37048  24826975.1374   24826977.0254   24826975.0744
       211.000         148.000
 123319469.32248  96093090.12348  23466917.0284   23466919.4734   23466916.6024
       224.000         180.000
 106902660.31248  83300767.03548  20342904.8484   20342906.2244   20342904.7034
       254.000         240.000
 110178160.18648  85853106.84848  20966209.1194   20966211.4944   20966209.1094
       248.000         219.000
 128357275.80848 100018645.96048  24425584.4514   24425588.7884   24425584.0974
       201.000         156.000
 09  1 20  0 21  0.0000000  0 10G 9G 5G28G18G17G10G12G15G26G27
 110055674.23748  85757661.21248  20942903.5954   20942906.0234   20942904.0734
       246.000         214.000
 129615530.19748 100999098.14148  24665028.7524   24665030.4144   24665029.3154
       212.000         153.000
 124067215.20048  96675742.96148  23609213.8014   23609215.2624   23609214.4664
       228.000         177.000
 119005607.29548  92731638.38248  22646016.5814   22646017.8774   22646016.8834
       232.000         188.000
 123580817.97848  96296734.90148  23516652.9094   23516654.7294   23516652.4454
       227.000         182.000
 130577497.92648 101748690.77648  24848079.0264   24848082.3514   24848080.3584
       213.000         154.000
 123213130.79248  96010228.96848  23446680.9854   23446683.5174   23446681.3654
       226.000         181.000
 106912284.81748  83308266.64448  20344736.3784   20344737.7244   20344736.1764
       253.000         240.000
 110238469.99248  85900101.48148  20977685.6654   20977688.0264   20977685.5584
       249.000         219.000
 128427061.46948 100073024.38848  24438864.3464   24438867.7294   24438863.7114
       211.000         156.000
 09  1 20  0 21 30.0000000  0 10G 9G 5G28G18G17G10G12G15G26G27
 109997963.38448  85712691.72648  20931921.5984   20931923.9414   20931921.9784
       246.000         215.000
 129501317.30948 100910101.13748  24643294.4414   24643295.8024   24643296.2474
       212.000         154.000
 124152408.45348  96742127.31348  23625425.2254   23625426.8114   23625426.8864
       228.000         175.000
 118959677.68048  92695849.07148  22637276.0364   22637278.1524   22637276.5844
       233.000         189.000
 123541877.59448  96266391.75048  23509243.0664   23509245.0944   23509242.7544
       226.000         182.000
 130688362.76848 101835078.93248  24869175.9894   24869179.7414   24869177.0254
       217.000         161.000
 123106995.44448  95927526.12748  23426484.6894   23426486.4414   23426484.7504
       227.000         181.000
 106922350.74148  83316110.21748  20346651.7924   20346653.2034   20346651.5634
       253.000         239.000
 110299154.16948  85947387.84048  20989233.3844   20989235.9124   20989233.3924
       249.000         219.000
 128496862.45048 100127414.72648  24452147.0474   24452151.0294   24452147.8084
       211.000         157.000
 09  1 20  0 22  0.0000000  0 10G 9G 5G28G18G17G10G12G15G26G27
 109940546.19848  85667951.06548  20920995.4594   20920997.9634   20920995.8994
       248.000         215.000
 129387203.25448 100821181.13548  24621578.5794   24621581.4934   24621579.0804
       212.000         156.000
 124237821.49948  96808682.93248  23641678.9514   23641680.3014   23641679.2604
       227.000         177.000
 118914271.70348  92660467.78948  22628635.6184   22628637.3074   22628636.5234
       235.000         190.000
 123503386.44948  96236398.64748  23501918.0494   23501920.2094   23501917.2104
       227.000         182.000
 130799188.91848 101921436.94648  24890265.1774   24890268.9504   24890266.0614
       212.000         156.000
 123001065.72248  95844983.50748  23406326.7504   23406327.9914   23406326.3654
       226.000         181.000
 106932859.80648  83324299.09848  20348651.6134   20348653.0414   20348651.2734
       254.000         239.000
 110360212.91548  85994966.07548  21000852.4024   21000855.0934   21000852.3634
       248.000         218.000
 128566679.57948 100181817.68848  24465432.9324   24465436.3164   24465433.4184
       208.000         157.000
 09  1 20  0 22 30.0000000  0 10G 9G 5G28G18G17G10G12G15G26G27
 109883423.94448  85623440.22848  20910125.3444   20910127.9984   20910125.7104
       247.000         216.000
 129273190.54648 100732340.12148  24599882.5244   24599886.5484   24599883.5654
       213.000         157.000
 124323452.74648  96875408.56448  23657974.2434   23657975.3414   23657974.8244
       227.000         176.000
 118869391.45348  92625496.18148  22620095.1994   22620096.9134   22620096.1524
       233.000         190.000
 123465347.65648  96206758.02348  23494679.5994   23494681.9104   23494679.4264
       228.000         184.000
 130909974.25548 102007763.16048  24911346.6894   24911350.2644   24911347.3164
       204.000         140.000
 122895344.84348  95762603.60948  23386208.8754   23386210.0314   23386208.3094
       226.000         181.000
 106943813.16948  83332834.18648  20350736.0774   20350737.4234   20350735.8514
       253.000         239.000
 110421646.33548  86042836.27448  21012542.7824   21012545.4844   21012542.7784
       248.000         218.000
 128636513.54448 100236233.77048  24478722.5144   24478725.3254   24478722.2684
       203.000         157.000
 09  1 20  0 23  0.0000000  0 10G 9G 5G28G18G17G10G12G15G26G27
 109826596.39948  85579159.02848  20899311.5284   20899313.9274   20899311.5764
       247.000         216.000
 129159280.60948 100643579.18048  24578206.0824   24578210.3204   24578207.0854
       210.000         159.000
 124409299.58148  96942302.19948  23674310.0004   23674311.7114   23674310.2174
       227.000         175.000
 118825037.95148  92590935.02048  22611654.9654   22611656.6664   22611655.2844
       235.000         189.000
 123427762.68248  96177471.02548  23487527.3874   23487529.2894   23487526.9364
       226.000         182.000
 131020716.45948 102094055.84348  24932418.8124   24932420.6154   24932419.8114
       208.000         138.000
 122789834.24548  95680387.57848  23366130.4084   23366131.6694   23366130.5294
       228.000         181.000
 106955211.25048  83341715.80248  20352904.9164   20352906.4634   20352904.6764
       253.000         239.000
 110483453.08048  86090997.36348  21024304.2824   21024306.9094   21024304.2084
       248.000         219.000
 128706363.56948 100290662.32848  24492013.2734   24492017.7524   24492012.3774
       208.000         158.000
 09  1 20  0 23 30.0000000  0 10G 9G 5G28G18G17G10G12G15G26G27
 109770065.78048  85535109.20548  20888554.0464   20888556.4894   20888554.6284
       248.000         215.000
 129045477.04348 100554901.07848  24556549.2684   24556554.1584   24556549.2964
       213.000         160.000
 124495361.35148  97009363.30048  23690687.2824   23690689.0084   23690687.8484
       226.000         175.000
 118781214.44348  92556786.82948  22603315.5234   22603317.0514   22603316.3534
       233.000         190.000
 123390634.83248  96148540.24348  23480462.3284   23480463.9774   23480461.8304
       229.000         184.000
 131131414.07148 102180313.76948  24953484.9594   24953488.2224   24953485.4074
       216.000         154.000
 122684537.83348  95598338.44648  23346093.4694   23346094.7714   23346093.4044
       228.000         184.000
 106967056.02348  83350945.48948  20355158.9854   20355160.4254   20355158.7014
       253.000         239.000
 110545633.97948  86139449.99948  21036136.8924   21036139.6844   21036136.8724
       248.000         218.000
 128776231.45448 100345104.82348  24505309.3384   24505313.0034   24505309.1334
       210.000         157.000
 09  1 20  0 24  0.0000000  0 10G 9G 5G28G18G17G10G12G15G26G27
 109713830.45448  85491289.47148  20877852.7394   20877855.3024   20877852.9904
       248.000         216.000
 128931779.71448 100466305.79948  24534914.1234   24534917.9894   24534914.0084
       214.000         161.000
 124581633.59348  97076588.41548  23707104.1214   23707105.7484   23707104.8324
       229.000         176.000
 118737920.44348  92523051.23748  22595077.1614   22595078.7134   22595077.1864
       235.000         191.000
 123353964.17748  96119965.70648  23473484.0154   23473486.3434   23473484.2244
       230.000         182.000
 131242062.73548 102266533.48248  24974540.7494   24974545.1394   24974540.8034
       211.000         156.000
 122579455.71048  95516456.30248  23326097.0894   23326098.7474   23326096.6824
       228.000         183.000
 106979346.02848  83360522.12148  20357497.6744   20357499.0864   20357497.3874
       253.000         239.000
 110608186.45548  86188192.17648  21048040.1544   21048043.1154   21048039.9604
       248.000         218.000
 128846115.30748 100399559.75348  24518607.5864   24518611.4194   24518607.7054
       209.000         157.000
 09  1 20  0 24 30.0000000  0 10G 9G 5G28G18G17G10G12G15G26G27
 109657890.59448  85447699.98348  20867207.8444   20867210.2154   20867207.8074
       248.000         215.000
 128818190.28148 100377794.56948  24513298.9894   24513302.6324   24513299.4524
       216.000         161.000
 124668113.72548  97143975.53148  23723561.1874   23723562.3854   23723562.2724
       228.000         174.000
 118695156.72848  92489728.86148  22586939.6204   22586941.3574   22586940.0234
       235.000         192.000
 123317752.77848  96091749.04348  23466593.1114   23466595.1824   23466592.6654
       227.000         180.000
 131352659.71348 102352712.87648  24995586.7174   24995590.7454   24995587.3394
       207.000         148.000
 122474589.68448  95434742.54848  23306141.7474   23306143.6834   23306141.3764
       227.000         185.000
 106992081.53448  83370445.89048  20359921.2514   20359922.5374   20359921.1594
       253.000         239.000
 110671109.55048  86237223.15148  21060014.2164   21060016.6594   21060014.1064
       248.000         218.000
 128916014.52448 100454026.70548  24531908.8724   24531912.4204   24531909.6124
       210.000         158.000
 09  1 20  0 25  0.0000000  0 10G 9G 5G28G18G17G10G12G15G26G27
 109602247.23348  85404341.52148  20856619.0974   20856621.6314   20856619.2694
       247.000         216.000
 128704711.40448 100289369.51748  24491705.3814   24491708.6724   24491705.9924
       217.000         164.000
 124754800.66948  97211523.79748  23740056.7754   23740058.3884   23740056.9934
       228.000         175.000
 118652925.56048  92456821.45048  22578903.5304   22578904.9494   22578904.0674
       235.000         192.000
 123282003.29448  96063892.31348  23459790.3004   23459792.5154   23459790.1944
       228.000         182.000
 131463203.63848 102438850.97148  25016622.3374   25016625.5564   25016623.5694
       213.000         148.000
 122369942.64948  95353199.42748  23286227.7074   23286230.0494   23286227.1034
       227.000         183.000
 107005264.01648  83380717.94948  20362429.7754   20362431.1214   20362429.5434
       252.000         239.000
 110734403.34048  86286542.99048  21072058.6064   21072061.0114   21072058.3874
       249.000         217.000
 128985929.60048 100508505.96948  24545214.2644   24545217.0094   24545214.8004
       210.000         161.000
 09  1 20  0 25 30.0000000  0 10G 9G 5G28G18G17G10G12G15G26G27
 109546900.60648  85361214.28548  20846087.0654   20846089.6234   20846086.8274
       248.000         216.000
 128591344.62348 100201031.80248  24470132.2234   24470135.9394   24470133.7374
       214.000         161.000
 124841691.47848  97279230.91348  23756591.5924   23756593.2664   23756591.5954
       228.000         176.000
 118611227.85748  92424329.73048  22570968.0504   22570970.1894   22570968.5204
       235.000         191.000
 123246716.89048  96036396.40048  23453075.8144   23453077.9744   23453076.0964
       227.000         183.000
 131573691.17348 102524945.24148  25037649.0364   25037650.2214   25037649.1024
       215.000         148.000
 122265515.93448  95271827.98948  23266355.7874   23266358.1624   23266356.3594
       227.000         184.000
 107018893.43548  83391338.26648  20365023.1554   20365024.8024   20365022.7944
       252.000         239.000
 110798066.38248  86336150.55048  21084173.2534   21084175.6944   21084173.2854
       248.000         217.000
 129055860.14648 100562997.29748  24558521.2154   24558524.7264   24558521.0104
       209.000         160.000
 09  1 20  0 26  0.0000000  0 10G 9G 5G28G18G17G10G12G15G26G27
 109491851.50048  85318318.89648  20835611.6314   20835614.1804   20835611.5424
       248.000         217.000
