     2.11           OBSERVATION DATA    G (GPS)             RINEX VERSION / TYPE
teqc  2008Oct2      gpsops              20090108 00:05:35UTCPGM / RUN BY / DATE
    30.0000                                                 INTERVAL
     1     1                                                WAVELENGTH FACT L1/2
     7    L1    L2    P1    P2    C1    S1    S2            # / TYPES OF OBSERV
Linux 2.4.20-8|Pentium IV|gcc -static|Linux|486/DX+         COMMENT
     2.10           OBSERVATION DATA    GPS                 COMMENT
soc2rnx ver 1.20    gpsops               8-Jan-2009 00:05:32COMMENT
S1, if present, is the SNR for the C/A data stream on L1.   COMMENT
 SNR is mapped to RINEX snr flag value [1,4-9]              COMMENT
    SNR:   >316  >100  >31.6  >10  >3.2    >0 bad=0         COMMENT
L1 & L2:      9     8     7     6     5     4     1         COMMENT
                                                            COMMENT
This data is provided as a public service by NASA/JPL.      COMMENT
No warranty is expressed or implied regarding suitability   COMMENT
for use.  For further information, contact:                 COMMENT
Dave Stowers, NASA/JPL m/s 238-600                          COMMENT
4800 Oak Grove Drive, Pasadena CA 91109 USA                 COMMENT
                                                            COMMENT
Forced Modulo Decimation to 30 seconds                      COMMENT
  2009     1     7     0     0    0.0000000     GPS         TIME OF FIRST OBS
DSN                 JPL                                     OBSERVER / AGENCY
451-U               AOAD/M_T        NONE                    ANT # / TYPE
  4849202.3940  -360328.9929  4114913.1862                  APPROX POSITION XYZ
        0.0254        0.0000        0.0000                  ANTENNA: DELTA H/E/N
LP03574             ASHTECH Z-XII3      CC00                REC # / TYPE / VERS
MADR                                                        MARKER NAME
13407S012                                                   MARKER NUMBER
                                                            END OF HEADER
 09  1  7  0  0  0.0000000  0  9G 9G 8G24G26G10G15G21G28G27
 121606856.32548  94758577.04448  23141025.5874   23141027.8264   23141025.0644
       224.000         178.000
 122719868.51448  95625868.73648  23352814.4224   23352818.8184   23352815.2614
       227.000         175.000
 128689345.98948 100277393.58148  24488783.0854   24488786.5464   24488783.3144
       213.000         153.000
 105554032.96948  82249884.93948  20086272.6484   20086275.0534   20086272.6964
       251.000         229.000
 115298879.30648  89843269.24248  21940657.3644   21940660.4204   21940658.2524
       241.000         204.000
 109866728.39348  85610431.98148  20906947.4864   20906949.2654   20906947.5074
       250.000         230.000
 128671701.58348 100263682.08248  24485396.0784   24485397.3474   24485395.3414
       215.000         154.000
 115015772.47448  89622675.49548  21886776.3954   21886777.7264   21886776.6244
       243.000         210.000
 121840145.01948  94940359.09948  23185417.8064   23185421.0324   23185418.5874
       229.000         190.000
 09  1  7  0  0 30.0000000  0  9G 9G 8G24G26G10G15G21G28G27
 121512050.67348  94684702.52748  23122984.7084   23122987.0504   23122984.6294
       227.000         182.000
 122807635.16648  95694258.32348  23369516.0384   23369520.1054   23369516.4234
       225.000         174.000
 128759842.72248 100332326.06448  24502198.1354   24502201.8474   24502197.1134
       215.000         152.000
 105556798.09548  82252039.58148  20086798.7664   20086801.2014   20086798.7404
       251.000         228.000
 115387857.87248  89912603.17748  21957589.3634   21957592.5564   21957590.3244
       239.000         204.000
 109822358.86848  85575858.32348  20898504.2734   20898505.8664   20898503.9534
       250.000         230.000
 128688215.62748 100276550.11348  24488539.3814   24488540.8684   24488538.9204
       211.000         153.000
 115044567.48048  89645113.16148  21892256.2604   21892257.4144   21892256.8094
       243.000         210.000
 121910919.26748  94995507.85348  23198886.0604   23198888.9224   23198886.0874
       230.000         191.000
 09  1  7  0  1  0.0000000  0  9G 9G 8G24G26G10G15G21G28G27
 121417440.12748  94610980.06248  23104981.1924   23104983.7844   23104981.6944
       228.000         183.000
 122895483.56348  95762711.60548  23386233.2694   23386237.4184   23386233.8684
       225.000         174.000
 128830507.35648 100387389.39148  24515645.3234   24515649.6244   24515646.4234
       212.000         153.000
 105559936.17648  82254484.82648  20087395.9544   20087398.3084   20087395.9124
       251.000         228.000
 115477171.20648  89982197.97948  21974585.3704   21974588.4834   21974586.1914
       240.000         204.000
 109778252.45548  85541489.68548  20890111.1094   20890112.7184   20890110.7674
       251.000         230.000
 128705195.08348 100289780.88248  24491769.7454   24491771.5924   24491771.2094
       213.000         153.000
 115073869.70048  89667946.06448  21897832.0734   21897833.6964   21897832.4934
       243.000         209.000
 121981739.59148  95050692.51448  23212362.5824   23212365.6714   23212362.8294
       229.000         191.000
 09  1  7  0  1 30.0000000  0  9G 9G 8G24G26G10G15G21G28G27
 121323025.47048  94537410.21948  23087014.5254   23087017.0644   23087014.1504
       228.000         182.000
 122983412.07948  95831227.31948  23402965.9204   23402969.3214   23402966.2624
       228.000         174.000
 128901336.92448 100442581.26248  24529123.0214   24529127.1564   24529123.1954
       214.000         153.000
 105563447.05848  82257220.57048  20088064.1484   20088066.3694   20088064.0854
       251.000         228.000
 115566816.18048  90052051.19548  21991644.2004   21991647.5004   21991644.9074
       240.000         204.000
 109734410.28848  85507326.95648  20881768.1804   20881769.7804   20881768.0834
       250.000         230.000
 128722638.51148 100303373.15248  24495088.8624   24495090.6114   24495088.6224
       209.000         149.000
 115103677.98648  89691173.30448  21903504.0264   21903505.8464   21903504.7124
       242.000         209.000
 122052604.92848  95105912.24648  23225847.6024   23225850.9594   23225847.6424
       228.000         191.000
 09  1  7  0  2  0.0000000  0  9G 9G 8G24G26G10G15G21G28G27
 121228808.35748  94463994.29348  23069085.6984   23069088.3814   23069086.3654
       229.000         182.000
 123071420.35648  95899805.21948  23419713.3034   23419715.9244   23419713.9694
       227.000         172.000
 128972329.40748 100497900.03548  24542633.3874   24542636.8774   24542633.0044
       214.000         156.000
 105567332.17348  82260247.93148  20088803.3934   20088805.7624   20088803.2154
       251.000         229.000
 115656791.74048  90122162.01648  22008766.2094   22008769.3554   22008767.2404
       240.000         204.000
 109690834.82048  85473372.04348  20873476.1424   20873477.5994   20873475.9044
       250.000         231.000
 128740545.29848 100317326.49948  24498496.6434   24498498.5094   24498497.2954
       215.000         151.000
 115133991.70348  89714794.38748  21909272.4544   21909274.2334   21909273.1594
       240.000         208.000
 122123515.22548  95161166.98848  23239341.8574   23239344.8264   23239342.2724
       229.000         190.000
 09  1  7  0  2 30.0000000  0  9G 9G 8G24G26G10G15G21G28G27
 121134788.53648  94390732.12048  23051194.0504   23051197.2054   23051194.5014
       227.000         180.000
 123159505.75348  95968443.16148  23436475.1044   23436478.3264   23436476.0404
       224.000         171.000
 129043480.64548 100553342.55048  24556172.5444   24556176.8624   24556173.0804
       214.000         156.000
 105571591.03348  82263566.52348  20089613.7484   20089616.2754   20089613.6884
       251.000         229.000
 115747094.21048  90192527.56848  22025950.0834   22025953.2284   22025950.9654
       240.000         203.000
 109647526.09148  85439624.97448  20865234.8374   20865236.2514   20865234.5034
       251.000         231.000
 128758912.50348 100331638.56948  24501992.0754   24501993.0144   24501992.8044
       214.000         152.000
 115164808.68248  89738807.62348  21915136.6044   21915138.5734   21915137.0934
       241.000         208.000
 122194468.41948  95216455.17848  23252843.8734   23252846.5414   23252844.2894
       229.000         191.000
 09  1  7  0  3  0.0000000  0  9G 9G 8G24G26G10G15G21G28G27
 121040967.86548  94317625.12048  23033339.7984   23033343.4564   23033339.5494
       227.000         180.000
 123247668.20548  96037141.16648  23453251.6524   23453255.6194   23453251.8584
       223.000         171.000
 129114788.90448 100608907.39048  24569741.7494   24569746.3434   24569742.4504
       214.000         158.000
 105576225.20248  82267177.55948  20090495.6784   20090498.1214   20090495.5314
       251.000         229.000
 115837721.82048  90263146.47048  22043195.9034   22043198.9054   22043196.6914
       240.000         202.000
 109604486.38848  85406087.54848  20857044.5954   20857046.1014   20857044.3244
       251.000         231.000
 128777740.09248 100346309.42148  24505575.4804   24505576.4454   24505574.8604
       215.000         152.000
 115196128.61548  89763212.76548  21921096.8404   21921098.6234   21921097.6794
       241.000         208.000
 122265464.91948  95271777.11348  23266353.9554   23266356.5254   23266354.1944
       230.000         190.000
 09  1  7  0  3 30.0000000  0  9G 9G 8G24G26G10G15G21G28G27
 120947346.94248  94244673.76248  23015524.5734   23015528.0344   23015524.5104
       228.000         181.000
 123335906.30848  96105898.10748  23470043.4274   23470046.8544   23470043.7744
       226.000         174.000
 129186251.06248 100664592.16248  24583340.8884   24583345.2744   24583341.3744
       214.000         156.000
 105581234.65248  82271081.01948  20091448.9524   20091451.3564   20091448.7684
       251.000         229.000
 115928672.17448  90334016.86948  22060503.0904   22060505.9464   22060504.0034
       240.000         201.000
 109561716.93048  85372760.69648  20848905.8814   20848907.3064   20848905.6114
       251.000         231.000
 128797026.27648 100361337.63048  24509244.7104   24509246.4464   24509247.8704
       213.000         151.000
 115227950.25148  89788008.84548  21927152.2914   21927154.0724   21927152.7014
       241.000         208.000
 122336503.66648  95327131.97048  23279872.1464   23279874.9424   23279872.8894
       229.000         190.000
 09  1  7  0  4  0.0000000  0  9G 9G 8G24G26G10G15G21G28G27
 120853925.89748  94171878.16348  22997747.1574   22997750.7764   22997747.2354
       227.000         180.000
 123424218.13948  96174712.52048  23486849.2074   23486851.1654   23486850.1094
       227.000         171.000
 129257863.80648 100720394.23448  24596967.1324   24596972.2304   24596967.3034
       209.000         152.000
 105586619.60548  82275277.07948  20092473.7744   20092475.9744   20092473.7694
       251.000         229.000
 116019942.71348  90405136.76748  22077871.2174   22077874.2344   22077872.1404
       240.000         202.000
 109519218.73648  85339645.21648  20840818.7534   20840820.2644   20840818.4044
       251.000         231.000
 128816768.83448 100376721.37548  24513001.1974   24513002.2194   24513002.8974
       206.000         150.000
 115260271.97448  89813194.61348  21933302.7404   21933304.7994   21933303.3584
       241.000         208.000
 122407583.19348  95382518.61448  23293398.1124   23293400.9084   23293398.3444
       230.000         189.000
 09  1  7  0  4 30.0000000  0  9G 9G 8G24G26G10G15G21G28G27
 120760707.25148  94099240.27948  22980008.3534   22980011.6504   22980008.0454
       229.000         180.000
 123512603.34548  96243584.12248  23503668.2814   23503670.6044   23503668.8484
       227.000         171.000
 129329625.28548 100776312.26748  24610623.1004   24610627.9344   24610623.5664
       210.000         154.000
 105592381.81348  82279767.11348  20093570.2814   20093572.5234   20093570.4024
       251.000         229.000
 116111532.06948  90476505.09448  22095300.2444   22095303.2984   22095301.0744
       239.000         202.000
 109476994.38548  85306743.13148  20832783.7244   20832785.3424   20832783.4444
       251.000         232.000
 128836967.63548 100392460.69648  24516844.0364   24516846.2984   24516842.5314
       207.000         149.000
 115293093.68348  89838769.97848  21939548.4214   21939550.5504   21939549.1374
       242.000         208.000
 122478704.14848  95437937.52448  23306932.0674   23306934.6904   23306932.2104
       229.000         189.000
 09  1  7  0  5  0.0000000  0 10G 9G17G 8G24G26G10G15G21G28G27
 120667690.76248  94026759.91548  22962308.0224   22962311.0174   22962308.7484
       230.000         182.000
 142196189.06358  93010006.69858  25156106.4235   25156109.0545   25156105.7105
       217.000         162.000
 123601059.77748  96312511.18748  23520500.5224   23520503.1484   23520501.7784
       223.000         166.000
 129401531.49648 100832343.05448  24624306.9104   24624311.3874   24624307.2754
       211.000         156.000
 105598520.43248  82284550.44348  20094738.4704   20094740.7024   20094738.3794
       251.000         229.000
 116203436.65148  90548119.04548  22112789.0234   22112792.2504   22112789.5374
       239.000         202.000
 109435043.84948  85274054.39648  20824800.9574   20824802.3284   20824800.7714
       251.000         232.000
 128857619.89348 100408553.34948  24520775.5094   24520776.8814   24520777.4764
       211.000         149.000
 115326412.85848  89864732.97348  21945889.1344   21945890.9464   21945889.5334
       242.000         209.000
 122549864.45448  95493387.09148  23320472.8544   23320476.1804   23320473.2284
       225.000         188.000
 09  1  7  0  5 30.0000000  0 10G 9G17G 8G24G26G10G15G21G28G27
 120574877.75748  93954438.11348  22944646.5784   22944649.3034   22944646.8924
       231.000         183.000
 142119951.16248  92950600.50648  25141599.0084   25141600.2174   25141598.4604
       216.000         161.000
 123689586.72648  96381493.20348  23537346.2904   23537349.0474   23537346.7454
       224.000         168.000
 129473580.09548 100888484.76248  24638017.0944   24638022.0594   24638017.2564
       210.000         155.000
 105605036.62148  82289627.99348  20095978.4544   20095980.7074   20095978.3814
       252.000         229.000
 116295654.69148  90619977.24948  22130337.3504   22130341.0584   22130337.7884
       238.000         201.000
 109393369.10648  85241580.56148  20816870.4934   20816871.9304   20816870.1484
       251.000         232.000
 128878724.50448 100424998.50948  24524791.0534   24524793.1154   24524791.9444
       210.000         147.000
 115360228.82548  89891083.07648  21952324.0674   21952326.0304   21952324.6294
       241.000         208.000
 122621064.02548  95548867.25348  23334021.8134   23334025.2834   23334021.7454
       230.000         189.000
 09  1  7  0  6  0.0000000  0 10G 9G17G 8G24G26G10G15G21G28G27
 120482270.81048  93882276.87548  22927024.2244   22927026.7294   22927024.4054
       232.000         184.000
 142043783.89948  92891249.42248  25127104.1194   25127106.0274   25127103.9054
       211.000         158.000
 123778184.42348  96450530.38548  23554206.0414   23554208.3264   23554205.9494
       225.000         170.000
 129545769.83548 100944736.47548  24651755.0324   24651758.8604   24651755.0824
       212.000         155.000
 105611932.53848  82295001.43748  20097290.6644   20097292.9984   20097290.7524
       251.000         229.000
 116388185.82348  90692079.41148  22147945.2984   22147949.0764   22147946.0914
       238.000         200.000
 109351973.25648  85209324.05548  20808993.0374   20808994.5994   20808992.8164
       251.000         232.000
 128900281.59048 100441796.21448  24528894.3604   24528895.2334   24528892.6254
       213.000         151.000
 115394542.21348  89917820.78848  21958853.4104   21958855.3854   21958854.0574
       240.000         207.000
 122692303.75848  95604378.72848  23347579.0804   23347581.7374   23347579.3304
       232.000         191.000
 09  1  7  0  6 30.0000000  0 11G 9G18G17G 8G24G26G10G15G21G28G27
 120389866.54048  93810273.54648  22909440.2304   22909442.7874   22909440.4204
       233.000         185.000
 138989021.86558  90510924.01358  24545795.8215   24545796.0505   24545797.7145
       219.000         154.000
 141967686.02148  92831952.39948  25112623.4104   25112625.1814   25112622.7394
       215.000         156.000
 123866847.45048  96519618.44248  23571078.2694   23571080.6624   23571078.9554
       225.000         168.000
 129618093.89848 101001092.85148  24665518.3554   24665521.4614   24665518.9784
       210.000         155.000
 105619204.59048  82300667.95748  20098674.5684   20098676.8784   20098674.5354
       251.000         229.000
 116481022.87548  90764419.95848  22165611.6974   22165615.3054   22165612.5974
       238.000         200.000
 109310853.65448  85177282.80948  20801168.2144   20801169.6994   20801167.8934
       251.000         232.000
 128922285.57548 100458942.17348  24533080.8794   24533082.8014   24533081.4384
       208.000         149.000
 115429347.46548  89944941.75948  21965476.6154   21965478.8514   21965477.1484
       240.000         208.000
 122763578.75748  95659917.69348  23361142.3544   23361144.7874   23361142.6374
       231.000         189.000
 09  1  7  0  7  0.0000000  0 11G 9G18G17G 8G24G26G10G15G21G28G27
 120297666.58648  93738429.43748  22891894.4034   22891897.7064   22891894.5904
       231.000         182.000
 138892019.60448  90435337.76448  24527336.7584   24527337.6884   24527337.4614
       219.000         159.000
 141891661.21748  92772712.27948  25098156.9584   25098158.7584   25098157.4074
       215.000         163.000
 123955575.29948  96588757.02148  23587962.7074   23587965.5824   23587963.3224
       224.000         168.000
 129690550.10048 101057552.19448  24679305.6504   24679310.2654   24679305.7514
       211.000         155.000
 105626853.75648  82306628.34148  20100130.1374   20100132.5214   20100130.1044
       252.000         229.000
 116574164.10648  90836997.53848  22183336.2964   22183339.2954   22183336.7294
       239.000         201.000
 109270012.07348  85145458.19948  20793396.3264   20793397.8724   20793395.9574
       251.000         232.000
 128944735.34648 100476435.43248  24537351.7034   24537354.9054   24537353.2094
       198.000         143.000
 115464643.74948  89972445.36348  21972193.5574   21972195.3604   21972193.8964
       241.000         207.000
 122834888.85348  95715483.98148  23374711.3274   23374714.8344   23374711.6784
       228.000         187.000
 09  1  7  0  7 30.0000000  0 11G 9G18G17G 8G24G26G10G15G21G28G27
 120205673.89448  93666746.81648  22874389.0244   22874391.8694   22874389.2534
       232.000         184.000
 138795236.86248  90359922.74248  24508919.1444   24508920.0734   24508921.8234
       216.000         159.000
 141815714.74148  92713533.19548  25083704.4464   25083706.3754   25083704.9654
       212.000         160.000
 124044369.03848  96657946.93548  23604858.9214   23604862.4754   23604859.7784
       221.000         167.000
 129763137.64348 101114113.91448  24693120.0124   24693122.9974   24693120.6014
       216.000         158.000
 105634882.66048  82312884.62748  20101657.9154   20101660.2844   20101658.0024
       252.000         229.000
 116667609.41248  90909812.06448  22201118.4624   22201121.5864   22201119.1914
       240.000         201.000
 109229452.10248  85113853.03548  20785677.9734   20785679.4894   20785677.7784
       251.000         232.000
 128967631.50448 100494276.59648  24541708.9354   24541711.6864   24541707.3754
       209.000         148.000
 115500432.17848  90000332.45048  21979003.9934   21979005.7394   21979004.6374
       241.000         208.000
 122906235.70348  95771078.89648  23388287.6284   23388292.0214   23388287.4944
       228.000         189.000
 09  1  7  0  8  0.0000000  0 11G 9G18G17G 8G24G26G10G15G21G28G27
 120113889.05148  93595226.16948  22856923.2144   22856926.2304   22856923.6134
       232.000         184.000
 138698675.71248  90284680.31048  24490543.6124   24490546.3674   24490544.3024
       215.000         158.000
 141739849.18248  92654417.18648  25069266.7264   25069269.8834   25069266.8584
       209.000         159.000
 124133226.96848  96727186.84048  23621767.2804   23621771.3184   23621767.7194
       220.000         166.000
 129835853.13348 101170775.34048  24706956.7744   24706960.4444   24706957.6744
       211.000         155.000
 105643291.53048  82319436.98548  20103257.9444   20103260.4174   20103257.7704
       252.000         229.000
 116761355.99848  90982861.34748  22218957.8984   22218961.2004   22218958.9394
       239.000         201.000
 109189174.86848  85082468.17348  20778013.5164   20778014.9184   20778013.1044
       251.000         232.000
 128990972.05148 100512463.97848  24546151.2434   24546152.7804   24546151.8184
       206.000         148.000
 115536710.84848  90028601.54048  21985907.4814   21985909.2604   21985907.7944
       241.000         207.000
 122977618.04048  95826701.48448  23401872.2824   23401875.4194   23401872.2774
       233.000         190.000
 09  1  7  0  8 30.0000000  0 11G 9G18G17G 8G24G26G10G15G21G28G27
 120022312.54048  93523867.84948  22839496.9344   22839499.3044   22839497.4684
       231.000         182.000
 138602338.44948  90209612.31148  24472210.9274   24472213.8164   24472211.4544
       210.000         158.000
 141664067.12048  92595366.26048  25054847.2624   25054848.8724   25054847.3064
       208.000         160.000
 124222147.83348  96796475.84348  23638690.0504   23638692.3564   23638690.2824
       226.000         171.000
 129908693.52048 101227534.08848  24720817.0654   24720821.6274   24720816.6194
       212.000         149.000
 105652080.52948  82326285.55948  20104930.4834   20104932.8844   20104930.3874
       253.000         229.000
 116855400.82748  91056143.02848  22236853.9814   22236857.3184   22236855.3234
       239.000         200.000
 109149181.70948  85051304.66648  20770403.0474   20770404.5244   20770402.7354
       251.000         232.000
 129014755.05448 100530996.24248  24550676.9524   24550678.1904   24550679.1634
       211.000         152.000
 115573478.33048  90057251.52948  21992904.1044   21992905.6934   21992904.7404
       241.000         207.000
 123049035.01848  95882351.08248  23415463.0474   23415465.3744   23415463.4814
       233.000         189.000
 09  1  7  0  9  0.0000000  0 11G 9G18G17G 8G24G26G10G15G21G28G27
 119930944.88348  93452672.28348  22822109.9244   22822112.3304   22822110.1404
       228.000         182.000
 138506227.38648  90134720.64248  24453921.7034   24453924.6454   24453921.1034
       216.000         162.000
 141588371.32348  92536382.49748  25040442.6404   25040444.5674   25040442.1824
       213.000         163.000
 124311130.02648  96865812.62748  23655623.1584   23655625.2944   23655624.4964
       223.000         167.000
 129981655.82748 101284387.79248  24734701.8354   24734706.0054   24734702.3634
       206.000         147.000
 105661250.07848  82333430.64948  20106675.4904   20106677.8644   20106675.5704
       253.000         229.000
 116949741.63348  91129655.33148  22254806.1684   22254809.7664   22254806.8514
       239.000         200.000
 109109473.48648  85020363.18648  20762846.9114   20762848.2874   20762846.6784
       252.000         232.000
 129038978.81448 100549871.76348  24555287.7874   24555288.7914   24555286.2844
       211.000         155.000
 115610733.66748  90086281.66448  21999993.5184   21999995.4574   21999993.7364
       242.000         207.000
 123120485.53748  95938026.80548  23429059.0654   23429061.9534   23429059.6974
       229.000         187.000
 09  1  7  0  9 30.0000000  0 11G 9G18G17G 8G24G26G10G15G21G28G27
 119839787.81348  93381640.82448  22804763.1604   22804765.9324   22804762.7164
       229.000         182.000
 138410346.03348  90060007.90848  24435676.4674   24435679.1404   24435676.5714
       216.000         156.000
 141512765.26548  92477468.76048  25026054.2064   25026056.0734   25026053.9824
       204.000         155.000
 124400173.08348  96935196.80248  23672565.4954   23672569.4044   23672565.9594
       216.000         162.000
 130054738.08048 101341334.97748  24748607.1844   24748612.7224   24748607.4284
       203.000         148.000
 105670801.01248  82340872.92748  20108493.1074   20108495.3584   20108492.9224
       254.000         229.000
 117044376.87848  91203397.05948  22272815.0194   22272818.2824   22272815.6274
       237.000         200.000
 109070052.52148  84989645.55348  20755345.2974   20755346.7104   20755345.1344
       251.000         232.000
 129063641.95548 100569089.82448  24559980.3434   24559981.7634   24559982.6904
       218.000         158.000
 115648474.96548  90115690.46948  22007175.5234   22007177.1714   22007176.3544
       241.000         207.000
 123191969.62848  95993728.68748  23442661.3974   23442665.0424   23442661.3464
       229.000         186.000
 09  1  7  0 10  0.0000000  0 11G 9G18G17G 8G24G26G10G15G21G28G27
 119748842.42948  93310774.31148  22787456.6524   22787459.4634   22787457.3104
       228.000         183.000
 138314696.67848  89985475.91548  24417474.8854   24417476.1484   24417475.0884
       213.000         154.000
 141437252.41748  92418627.56348  25011684.7744   25011687.1334   25011683.8924
       215.000         160.000
 124489275.98948  97004627.62148  23689522.1284   23689525.4264   23689521.3964
       221.000         168.000
 130127937.32048 101398373.30948  24762537.1554   24762542.4764   24762536.3564
       211.000         148.000
 105680734.17848  82348613.04948  20110383.2744   20110385.5304   20110383.3014
       253.000         229.000
 117139304.00048  91277366.24948  22290879.0364   22290882.1054   22290879.6814
       239.000         199.000
 109030920.41448  84959153.00248  20747898.6644   20747900.0744   20747898.4684
       251.000         232.000
 129088742.97248 100588649.05348  24564757.3064   24564758.9344   24564758.8104
       212.000         156.000
 115686701.62848  90145477.48448  22014449.9414   22014451.5574   22014450.4034
       241.000         207.000
 123263486.91248  96049456.42148  23456271.0804   23456274.0874   23456271.8204
       231.000         188.000
 09  1  7  0 10 30.0000000  0 11G 9G18G17G 8G24G26G10G15G21G28G27
 119658108.06748  93240072.21848  22770190.6684   22770193.3424   22770190.5924
       229.000         184.000
 138219280.79448  89911125.87648  24399318.1964   24399318.6994   24399317.6914
       216.000         157.000
 141361834.29648  92359860.19348  24997334.6254   24997335.1374   24997335.1744
       211.000         164.000
 124578435.95148  97074102.92248  23706489.5284   23706491.7854   23706490.7124
       221.000         165.000
 130201249.30448 101455499.51348  24776488.8354   24776492.6474   24776489.6164
       211.000         149.000
 105691048.39648  82356650.10148  20112345.8134   20112348.1904   20112345.7674
       253.000         228.000
 117234519.22148  91351559.92548  22308997.7424   22309001.0164   22308999.0124
       238.000         198.000
 108992077.01148  84928885.41748  20740507.0114   20740508.4984   20740506.8104
       251.000         232.000
 129114278.98348 100608547.20948  24569615.9664   24569617.7954   24569614.3104
       214.000         155.000
 115725410.83948  90175640.49948  22021815.7594   22021817.5354   22021816.6344
       241.000         206.000
 123335035.19748  96105208.34748  23469886.9824   23469889.2094   23469887.2614
       232.000         189.000
 09  1  7  0 11  0.0000000  0 11G 9G18G17G 8G24G26G10G15G21G28G27
 119567585.61848  93169535.26148  22752964.9174   22752967.8324   22752965.1324
       232.000         185.000
 138124100.68848  89836959.58148  24381206.2284   24381206.7184   24381205.9154
       210.000         152.000
 141286513.66548  92301168.82848  24983000.8084   24983002.7854   24983000.5914
       209.000         160.000
 124667651.98548  97143621.86248  23723465.5824   23723469.1944   23723466.2904
       217.000         163.000
 130274670.93148 101512711.17648  24790459.9634   24790463.8414   24790460.6594
       207.000         150.000
 105701744.35148  82364984.60248  20114381.0484   20114383.5634   20114380.8384
       253.000         228.000
 117330019.74848  91425975.90948  22327170.8084   22327174.1884   22327171.8194
       237.000         198.000
 108953523.58048  84898843.78148  20733170.6084   20733171.9934   20733170.4184
       251.000         233.000
 129140247.66748 100628782.54948  24574557.6944   24574559.6594   24574558.8734
       213.000         154.000
 115764601.02548  90206178.32148  22029273.1524   22029275.1334   22029273.4914
       240.000         206.000
 123406613.59648  96160983.72048  23483507.4974   23483510.3454   23483508.1924
       230.000         186.000
 09  1  7  0 11 30.0000000  0 11G 9G18G17G 8G24G26G10G15G21G28G27
 119477276.45948  93099164.48548  22735779.8854   22735782.6914   22735780.3564
       231.000         185.000
 138029159.95148  89762979.82048  24363139.0444   24363140.8114   24363138.9804
       212.000         158.000
 141211294.17248  92242556.30548  24968686.1994   24968689.5254   24968685.9214
       210.000         158.000
 124756923.75148  97213184.25148  23740453.8414   23740457.3594   23740453.7554
       222.000         166.000
 130348200.24648 101570006.70648  24804452.2884   24804456.8664   24804452.6674
       207.000         146.000
 105712822.93848  82373617.26848  20116489.3824   20116491.7794   20116489.3924
       253.000         228.000
 117425804.21648  91500613.14948  22345397.9014   22345401.1314   22345398.6724
       238.000         197.000
 108915262.22548  84869029.74048  20725889.6834   20725891.1634   20725889.4564
       250.000         232.000
 129166648.44148 100649354.57548  24579581.7354   24579583.2234   24579582.7944
       215.000         155.000
 115804271.75848  90237090.57448  22036822.1394   22036824.4084   22036822.7554
       241.000         206.000
 123478222.22548  96216782.64648  23497133.7644   23497136.9264   23497133.8364
       230.000         186.000
 09  1  7  0 12  0.0000000  0 11G 9G18G17G 8G24G26G10G15G21G28G27
 119387186.23248  93028964.34048  22718635.9064   22718639.0914   22718636.8074
       229.000         185.000
 137934466.06448  89689192.38548  24345119.4424   24345122.1304   24345119.9894
       211.000         160.000
 141136183.70848  92184028.64048  24954393.9704   24954395.7414   24954394.2374
       210.000         162.000
 124846254.82548  97282792.91148  23757453.7284   23757455.9054   23757454.8654
       219.000         163.000
 130421839.21048 101627387.65548  24818466.2974   24818469.5974   24818466.7994
       204.000         143.000
 105724289.67548  82382552.37348  20118671.5284   20118673.8804   20118671.5154
       253.000         228.000
 117521874.67948  91575473.24448  22363679.3374   22363682.6954   22363680.2434
       237.000         196.000
 108877299.37448  84839448.29348  20718665.6074   20718667.1184   20718665.3494
       251.000         233.000
 129193484.22148 100670265.51748  24584688.3904   24584689.7634   24584688.7004
       211.000         152.000
 115844426.05848  90268379.64948  22044463.5184   22044465.5664   22044463.9414
       241.000         206.000
 123549865.50448  96272608.55248  23510766.9704   23510770.3344   23510766.8794
       231.000         186.000
 09  1  7  0 12 30.0000000  0 11G 9G18G17G 8G24G26G10G15G21G28G27
 119297309.01748  92958930.16148  22701533.3744   22701536.1194   22701533.3024
       230.000         187.000
 137840014.53648  89615593.82348  24327146.0774   24327147.8684   24327144.6554
       212.000         158.000
 141061178.43648  92125582.96548  24940121.1564   24940123.6394   24940120.0544
       212.000         163.000
 124935637.10448  97352441.40048  23774461.3064   23774464.7994   23774461.9614
       212.000         159.000
 130495578.09948 101684846.50648  24832498.3434   24832501.1824   24832498.8074
       209.000         144.000
 105736137.83348  82391784.70048  20120926.1074   20120928.4804   20120925.9794
       253.000         228.000
 117618221.94548  91650549.02048  22382013.8794   22382017.0234   22382014.4534
       237.000         197.000
 108839629.49148  84810095.13748  20711497.2654   20711498.8494   20711497.0894
       251.000         233.000
 129220746.26148 100691508.66348  24589876.6254   24589877.6114   24589875.4304
       212.000         152.000
 115885055.72148  90300039.12748  22052195.2754   22052197.2204   22052196.1474
       241.000         206.000
 123621535.64148  96328455.39548  23524405.5394   23524408.7734   23524406.2344
       230.000         188.000
 09  1  7  0 13  0.0000000  0 11G 9G18G17G 8G24G26G10G15G21G28G27
 119207646.28148  92889063.13448  22684470.5584   22684473.6844   22684470.9254
       229.000         186.000
 137745808.74448  89542186.74648  24309219.4254   24309221.5104   24309220.4764
       215.000         161.000
 140986282.00148  92067222.14848  24925869.2584   24925870.5894   24925869.8244
       212.000         164.000
 125025070.31848  97422129.58448  23791480.1604   23791484.1114   23791479.1594
       213.000         160.000
 130569414.70048 101742381.51148  24846548.7614   24846552.4664   24846549.7354
       211.000         146.000
 105748368.68148  82401315.23248  20123253.6314   20123255.9744   20123253.4584
       252.000         228.000
 117714843.94848  91725838.88748  22400400.5184   22400403.8024   22400401.3914
       237.000         197.000
 108802254.76048  84780971.97148  20704384.9304   20704386.6614   20704384.6414
       251.000         232.000
 129248433.49248 100713083.10748  24595144.0644   24595147.2084   24595145.7944
       207.000         150.000
 115926159.83148  90332068.30148  22060017.1224   22060018.8164   22060017.6234
       243.000         207.000
 123693232.73548  96384323.28148  23538049.7034   23538052.3524   23538050.2504
       230.000         186.000
 09  1  7  0 13 30.0000000  0 11G 9G18G17G 8G24G26G10G15G21G28G27
 119118199.15748  92819364.09148  22667448.8604   22667452.3364   22667449.2644
       229.000         186.000
 137651851.63548  89468973.41448  24291339.6144   24291341.9114   24291340.6004
       213.000         160.000
 140911497.70548  92008948.61748  24911637.5434   24911639.8924   24911637.5064
       212.000         162.000
 125114553.49548  97491856.73348  23808508.1504   23808512.2144   23808508.4064
       216.000         161.000
 130643346.76148 101799990.88548  24860617.8974   24860622.0004   24860618.0214
       216.000         152.000
 105760983.19548  82411144.70948  20125654.1524   20125656.4964   20125654.0284
       253.000         228.000
 117811739.14348  91801341.63748  22418838.8714   22418842.4304   22418839.4894
       236.000         197.000
 108765177.05448  84752080.25448  20697329.2624   20697330.9294   20697329.0304
       251.000         233.000
 129276544.89648 100734988.02648  24600494.6944   24600496.2064   24600493.8264
       212.000         156.000
 115967737.76648  90364466.69348  22067929.1624   22067931.1094   22067929.8504
       240.000         206.000
 123764956.92848  96440212.23448  23551696.8104   23551700.8574   23551696.7384
       226.000         184.000
 09  1  7  0 14  0.0000000  0 11G 9G18G17G 8G24G26G10G15G21G28G27
 119028968.93948  92749834.06148  22650469.1074   22650472.0434   22650469.4134
       230.000         186.000
 137558146.08548  89395956.11948  24273508.3634   24273510.0024   24273507.1884
       212.000         157.000
 140836829.27048  91950765.42348  24897427.8914   24897431.4544   24897428.3264
       209.000         159.000
 125204086.61148  97561622.79648  23825546.8964   23825549.9024   23825548.1414
       216.000         162.000
 130717371.89648 101857672.80948  24874704.1374   24874708.7504   24874704.1154
       210.000         151.000
 105773982.01448  82421273.66248  20128127.7404   20128130.0114   20128127.6584
       253.000         228.000
 117908905.14948  91877055.39848  22437329.1984   22437332.4674   22437329.6884
       237.000         197.000
 108728398.00648  84723421.25448  20690330.4704   20690332.2334   20690330.1924
       251.000         233.000
 129305078.80348 100757222.26848  24605923.9054   24605926.2034   24605924.6464
       211.000         157.000
 116009788.31648  90397233.35948  22075931.1324   22075932.9924   22075931.3974
       242.000         206.000
 123836707.71748  96496121.92948  23565351.6564   23565354.7444   23565351.4274
       232.000         188.000
 09  1  7  0 14 30.0000000  0 11G 9G18G17G 8G24G26G10G15G21G28G27
 118939956.22148  92680473.50848  22633530.5984   22633533.4274   22633530.9724
       231.000         187.000
 137464694.53448  89323136.75348  24255724.3454   24255726.7224   24255725.6634
       213.000         157.000
 140762279.35448  91892674.58348  24883241.7844   24883244.4494   24883241.1604
       211.000         163.000
 125293667.74248  97631426.25448  23842593.6554   23842596.7074   23842593.1244
       213.000         161.000
 130791486.74648 101915424.60848  24888807.1304   24888812.0904   24888806.7814
       208.000         149.000
 105787365.35148  82431702.22248  20130674.5094   20130676.7704   20130674.5264
       252.000         228.000
 118006339.34648  91952978.12848  22455870.2634   22455873.5414   22455870.8754
       237.000         196.000
 108691919.02348  84694996.07448  20683388.8264   20683390.3884   20683388.5824
       251.000         233.000
 129334032.63848 100779783.67248  24611433.7914   24611436.0434   24611434.4094
       215.000         157.000
 116052309.39248  90430366.66648  22084022.6734   22084024.5534   22084022.9004
       242.000         207.000
 123908484.24248  96552051.70248  23579010.4874   23579013.5744   23579011.7684
       228.000         184.000
 09  1  7  0 15  0.0000000  0 11G 9G18G17G 8G24G26G10G15G21G28G27
 118851162.87648  92611283.89648  22616634.3014   22616636.7484   22616634.2604
       232.000         188.000
 137371500.09148  89250517.69148  24237991.0164   24237993.0254   24237991.0144
       215.000         159.000
 140687851.44148  91834678.80248  24869079.4434   24869081.6784   24869079.2954
       216.000         165.000
 125383296.57748  97701266.88648  23859648.2934   23859652.7774   23859649.2024
       213.000         161.000
 130865688.94848 101973244.49348  24902927.0624   24902932.6664   24902927.2294
       213.000         151.000
 105801134.11848  82442431.13448  20133294.5824   20133296.9294   20133294.4404
       253.000         228.000
 118104039.61748  92029108.20548  22474461.8644   22474465.4694   22474462.5444
       235.000         196.000
 108655742.00548  84666806.18448  20676504.6484   20676506.1224   20676504.3994
       250.000         233.000
 129363405.35748 100802671.47548  24617022.7964   24617024.6804   24617024.7564
       212.000         156.000
 116095300.10748  90463865.93248  22092203.4744   22092205.2234   22092203.9164
       241.000         205.000
 123980286.36148  96608001.36548  23592672.5314   23592676.9324   23592671.9074
       228.000         185.000
 09  1  7  0 15 30.0000000  0 11G 9G18G17G 8G24G26G10G15G21G28G27
 118762589.28048  92542265.51648  22599779.3544   22599781.7854   22599779.7754
       232.000         188.000
 137278565.38348  89178101.05848  24220306.5054   24220307.9954   24220305.6254
       217.000         163.000
 140613548.25048  91776780.25948  24854939.3074   24854941.5534   24854938.7414
       216.000         162.000
 125472971.62948  97771143.51848  23876714.7294   23876717.5494   23876714.8604
       218.000         162.000
 130939975.96348 102031130.43248  24917063.3724   24917069.3464   24917063.0544
       205.000         150.000
 105815288.65348  82453460.62948  20135988.1064   20135990.4974   20135988.1134
       252.000         228.000
 118202003.76848  92105443.90048  22493103.9064   22493107.6524   22493104.6274
       236.000         196.000
 108619868.06848  84638852.46048  20669678.0784   20669679.3954   20669677.7064
       251.000         233.000
 129393195.31348 100825884.44648  24622692.4444   24622693.6944   24622691.6804
       214.000         152.000
 116138758.90348  90497729.93148  22100473.4174   22100475.0304   22100473.7754
       242.000         206.000
 124052113.27848  96663970.39748  23606342.4044   23606344.9494   23606342.6644
       230.000         187.000
 09  1  7  0 16  0.0000000  0 11G 9G18G17G 8G24G26G10G15G21G28G27
 118674234.96048  92473418.01148  22582966.1574   22582968.7174   22582966.4324
       233.000         189.000
 137185891.71448  89105887.83648  24202671.4494   24202672.7804   24202673.1364
       219.000         164.000
 140539371.52348  91718980.18548  24840824.8494   24840825.3354   24840825.2114
       219.000         164.000
 125562690.84948  97841054.57848  23893786.7564   23893790.0974   23893786.6394
       211.000         159.000
 131014343.81148 102089079.39048  24931215.3364   24931221.0084   24931215.1514
       206.000         150.000
 105829828.18148  82464790.12748  20138754.8074   20138757.2814   20138754.6904
       252.000         228.000
 118300227.93148  92181982.20748  22511795.7494   22511799.0224   22511796.3484
       237.000         196.000
 108584297.34948  84611135.01348  20662909.3834   20662910.6974   20662909.2534
       251.000         234.000
 129423398.86748 100849419.63548  24628440.4924   24628441.5414   24628442.2134
       210.000         157.000
 116182682.82548  90531956.36748  22108831.9504   22108833.6654   22108832.2274
       242.000         206.000
 124123963.31948  96719957.45048  23620014.5914   23620017.6674   23620015.0914
       228.000         184.000
 09  1  7  0 16 30.0000000  0 11G 9G18G17G 8G24G26G10G15G21G28G27
 118586101.70848  92404742.75348  22566194.7584   22566197.7684   22566195.2664
       232.000         189.000
 137093483.11348  89033881.14548  24185086.3744   24185087.7254   24185086.5604
       212.000         160.000
 140465325.62248  91661282.07048  24826734.2004   24826735.1004   24826733.7434
       217.000         163.000
 125652454.12148  97910999.93648  23910867.1364   23910871.3894   23910868.7344
       210.000         155.000
 131088790.64748 102147089.89048  24945381.7614   24945387.1034   24945382.0294
       208.000         143.000
 105844754.23548  82476420.81348  20141595.0894   20141597.6014   20141595.0344
       252.000         228.000
 118398710.45248  92258721.82348  22530535.9494   22530539.7594   22530537.0754
       236.000         195.000
 108549032.68448  84583656.05248  20656198.7304   20656200.1794   20656198.6014
       251.000         234.000
 129454015.49848 100873276.69948  24634265.8784   24634267.6274   24634264.1674
       213.000         155.000
 116227071.88548  90566545.24348  22117278.9734   22117280.4444   22117279.8084
       241.000         205.000
 124195837.15648  96775963.02048  23633691.4634   23633694.6774   23633691.3764
       231.000         185.000
 09  1  7  0 17  0.0000000  0 11G 9G18G17G 8G24G26G10G15G21G28G27
 118498190.86248  92336240.81548  22549465.5324   22549468.7304   22549465.4934
       230.000         188.000
 137001341.91148  88962082.83148  24167552.5484   24167553.6004   24167553.3864
       217.000         162.000
 140391413.95748  91603688.61548  24812668.7084   24812670.8884   24812668.8794
       214.000         161.000
 125742260.92448  97980979.25448  23927958.4174   23927960.8014   23927959.9344
       209.000         157.000
 131163313.69948 102205159.84948  24959562.8344   24959567.1254   24959563.3944
       206.000         139.000
 105860067.58348  82488353.27848  20144509.2584   20144511.6494   20144509.2374
       252.000         228.000
 118497449.03648  92335660.96448  22549325.1524   22549328.9264   22549325.8774
       236.000         195.000
 108514075.67648  84556416.80848  20649546.5474   20649548.0744   20649546.3274
       251.000         234.000
 129485043.66448 100897454.47348  24640171.0304   24640172.1384   24640171.2064
       214.000         155.000
 116271924.56348  90601495.38848  22125814.1774   22125815.5534   22125814.4374
       240.000         206.000
 124267734.51348  96831986.93248  23647373.5384   23647376.2554   23647374.3144
       230.000         185.000
 09  1  7  0 17 30.0000000  0 11G 9G18G17G 8G24G26G10G15G21G28G27
 118410503.20748  92267912.80648  22532778.6924   22532782.4704   22532778.2824
       229.000         188.000
 136909471.08548  88890495.16648  24150070.0834   24150071.2534   24150070.5494
       219.000         160.000
 140317639.66548  91546202.12048  24798630.4224   24798631.9544   24798629.7324
       221.000         165.000
 125832110.46648  98050991.85748  23945055.3574   23945058.9034   23945053.8994
       209.000         157.000
 131237910.33748 102263287.12748  24973759.9814   24973763.1494   24973758.7064
       200.000         133.000
 105875768.51548  82500587.76948  20147497.0204   20147499.3984   20147496.8464
       252.000         228.000
 118596441.40348  92412797.86848  22568162.9024   22568166.5224   22568163.7054
       234.000         193.000
 108479427.93748  84529418.57048  20642953.1444   20642954.8714   20642952.8734
       251.000         234.000
 129516481.29948 100921951.33748  24646151.9784   24646154.5224   24646153.1964
       215.000         156.000
 116317239.33748  90636805.60148  22134437.0314   22134438.8054   22134437.2114
       241.000         205.000
 124339655.21548  96888029.01948  23661059.1994   23661062.4444   23661059.6044
       229.000         185.000
 09  1  7  0 18  0.0000000  0 11G 9G18G17G 8G24G26G10G15G21G28G27
 118323039.07348  92199758.95648  22516135.1644   22516138.4714   22516135.8244
       231.000         188.000
 136817872.81248  88819119.89648  24132638.8074   24132640.5914   24132641.1164
       216.000         159.000
 140244005.06648  91488824.49148  24784618.1984   24784620.9244   24784618.6504
       214.000         165.000
 125922000.75548  98121036.24648  23962160.4164   23962163.8124   23962162.1454
       208.000         157.000
 131312577.27548 102321469.14548  24987967.3254   24987971.2984   24987970.2154
       206.000         138.000
 105891856.91348  82513124.18048  20150558.6284   20150560.9584   20150558.5654
       253.000         228.000
 118695684.78048  92490130.35248  22587048.4014   22587051.6204   22587049.1554
       234.000         193.000
 108445090.28448  84502661.95548  20636418.9264   20636420.5984   20636418.6514
       251.000         234.000
 129548325.98048 100946765.38748  24652212.8984   24652214.3484   24652212.7734
       215.000         152.000
 116363014.17548  90672474.31548  22143147.7474   22143149.5834   22143148.4804
       240.000         205.000
 124411597.93548  96944088.26948  23674749.6424   23674752.4844   23674750.2204
       229.000         184.000
 09  1  7  0 18 30.0000000  0 11G 9G18G17G 8G24G26G10G15G21G28G27
 118235798.84548  92131779.58248  22499533.8004   22499536.5834   22499533.9344
       231.000         187.000
 136726549.14948  88747958.61448  24115260.8484   24115262.4064   24115261.2294
       219.000         163.000
 140170512.73048  91431557.78148  24770632.4554   24770635.5884   24770632.7434
       214.000         165.000
 126011930.56648  98191111.39448  23979273.9494   23979277.4594   23979273.0204
       213.000         159.000
 131387311.54448 102379703.60748  25002189.6574   25002193.2974   25002189.7664
       209.000         144.000
 105908332.95848  82525962.64948  20153693.7774   20153696.2494   20153693.6604
       252.000         228.000
 118795176.24148  92567656.15648  22605980.9144   22605984.1554   22605981.7074
       235.000         193.000
 108411063.54648  84476147.61648  20629943.9374   20629945.5204   20629943.6294
       251.000         234.000
 129580575.36348 100971894.76848  24658349.1874   24658351.9124   24658350.7294
       206.000         145.000
 116409246.97548  90708499.87748  22151945.3814   22151947.5204   22151945.2954
       241.000         206.000
 124483561.45648  97000163.73448  23688443.7704   23688446.6234   23688443.7354
       230.000         184.000
 09  1  7  0 19  0.0000000  0 11G 9G18G17G 8G24G26G10G15G21G28G27
 118148784.59748  92063976.28348  22482976.0054   22482978.6894   22482975.9474
       233.000         188.000
 136635503.82848  88677014.22848  24097935.7264   24097936.6244   24097936.5974
       216.000         160.000
 140097166.67548  91374404.98248  24756675.3204   24756677.0634   24756674.6364
       218.000         165.000
 126101900.10148  98261217.51748  23996394.0504   23996397.6864   23996395.6724
       208.000         158.000
 131462110.99248 102437988.88748  25016423.6234   25016426.7774   25016424.2144
       206.000         145.000
 105925197.82048  82539104.09148  20156903.1584   20156905.5164   20156903.0024
       253.000         228.000
 118894914.13448  92645373.98648  22624960.4974   22624963.7844   22624961.7684
       235.000         193.000
 108377350.84648  84449877.98048  20623528.5544   20623530.0934   20623528.4234
       250.000         234.000
 129613228.26248 100997338.50448  24664563.6514   24664565.7624   24664562.9404
       205.000         144.000
 116455937.18448  90744881.85848  22160830.4384   22160832.1994   22160831.1344
       240.000         205.000
 124555546.60148  97056256.05248  23702142.3624   23702144.7564   23702142.8614
       228.000         183.000
 09  1  7  0 19 30.0000000  0 11G 9G18G17G 8G24G26G10G15G21G28G27
 118061996.20448  91996348.96648  22466460.6994   22466463.3754   22466460.6694
       232.000         188.000
 136544738.58648  88606288.05648  24080663.7784   24080664.7104   24080664.2704
       216.000         161.000
 140023968.94548  91317367.79748  24742746.8224   24742748.3134   24742746.3114
       214.000         163.000
 126191907.32048  98331352.95248  24013521.7774   24013526.1414   24013519.9114
       209.000         158.000
 131536971.95848 102496322.09948  25030668.5094   25030672.1704   25030668.3354
       209.000         147.000
 105942451.02448  82552548.13548  20160186.3044   20160188.6884   20160186.2264
       253.000         228.000
 118994895.28748  92723281.36648  22643986.0744   22643989.7684   22643986.4814
       234.000         193.000
 108343952.55948  84423853.33848  20617173.0814   20617174.6714   20617172.7664
       250.000         234.000
 129646281.92848 101023094.54048  24670853.4694   24670854.5284   24670854.3584
       208.000         150.000
 116503082.17648  90781618.21648  22169801.6154   22169803.4324   22169801.5134
       241.000         206.000
 124627551.80848  97112363.98948  23715844.1724   23715846.9314   23715844.3774
       227.000         182.000
 09  1  7  0 20  0.0000000  0 11G 9G18G17G 8G24G26G10G15G21G28G27
 117975435.00848  91928898.69848  22449988.3424   22449991.3394   22449988.8274
       232.000         190.000
 136454256.66148  88535782.67948  24063444.3534   24063446.7824   24063445.4344
       214.000         163.000
 139950923.54948  91260449.34848  24728846.9584   24728848.5634   24728846.0504
       219.000         167.000
 126281951.86148  98401517.50648  24030656.6924   24030660.8914   24030657.9124
       205.000         159.000
 131611892.58148 102554701.79148  25044925.8294   25044929.5784   25044926.0694
       209.000         150.000
 105960094.05848  82566295.95048  20163543.6354   20163546.0754   20163543.5754
       252.000         228.000
 119095117.85848  92801376.85448  22663057.5574   22663061.3904   22663058.0054
       233.000         191.000
 108310870.32448  84398074.96648  20610877.8424   20610879.2344   20610877.5464
       251.000         234.000
 129679735.05048 101049161.91248  24677219.3524   24677220.9704   24677220.5714
       211.000         152.000
 116550681.30248  90818708.43248  22178859.7674   22178861.4304   22178860.5074
       239.000         205.000
 124699577.38248  97168487.80248  23729550.3944   23729553.2284   23729550.1814
       228.000         184.000
 09  1  7  0 20 30.0000000  0 11G 9G18G17G 8G24G26G10G15G21G28G27
 117889101.23548  91861625.65048  22433559.7724   22433562.8514   22433560.1814
       233.000         193.000
 136364060.19148  88465499.71348  24046280.9034   24046283.3734   24046280.4134
       215.000         161.000
 139878032.67048  91203651.28548  24714975.7584   24714977.1244   24714975.9684
       213.000         162.000
 126372031.87848  98471709.69148  24047798.2124   24047802.2644   24047796.6554
       211.000         161.000
 131686869.32348 102613125.22248  25059193.3864   25059197.3924   25059192.8824
       206.000         147.000
 105978126.32548  82580347.05948  20166975.0924   20166977.4454   20166974.9684
       252.000         228.000
 119195578.17648  92879657.61648  22682174.6704   22682178.2944   22682175.4584
       234.000         191.000
 108278105.24648  84372543.73748  20604642.9594   20604644.2224   20604642.7714
       251.000         234.000
 129713585.21748 101075538.65148  24683660.1634   24683662.3094   24683661.6154
       209.000         146.000
 116598731.87948  90856150.44248  22188003.4694   22188005.0914   22188004.0274
       241.000         204.000
 124771622.07948  97224626.53648  23743260.0484   23743262.9204   23743260.5214
       228.000         181.000
 09  1  7  0 21  0.0000000  0 11G 9G18G17G 8G24G26G10G15G21G28G27
 117802995.59148  91794530.37048  22417174.3874   22417177.5604   22417174.1974
       232.000         192.000
 136274151.44548  88395440.98148  24029171.5624   24029174.3834   24029174.4114
       217.000         162.000
 139805299.18048  91146975.87548  24701134.8014   24701136.5844   24701134.2684
       219.000         165.000
 126462146.12448  98541928.57748  24064946.9294   24064950.2994   24064946.8894
       210.000         159.000
 131761898.98048 102671589.85648  25073470.8684   25073474.8464   25073470.4834
       203.000         144.000
 105996547.62548  82594701.30848  20170480.5854   20170482.9154   20170480.5404
       252.000         227.000
 119296273.92548  92958121.83048  22701336.8964   22701339.9874   22701338.1344
       235.000         192.000
 108245658.49748  84347260.55748  20598468.5554   20598469.8944   20598468.3444
       251.000         234.000
 129747829.85648 101102222.73548  24690176.9084   24690177.8484   24690176.2594
       206.000         141.000
 116647232.21648  90893942.91948  22197232.4524   22197234.3264   22197232.9384
       239.000         203.000
 124843684.98648  97280779.42548  23756972.7314   23756976.2354   23756972.9244
       228.000         182.000
 09  1  7  0 21 30.0000000  0 11G 9G18G17G 8G24G26G10G15G21G28G27
 117717118.49748  91727613.17048  22400832.2974   22400835.4434   22400832.1764
       233.000         192.000
 136184532.76648  88325608.24548  24012118.6454   24012120.2694   24012119.8864
       221.000         162.000
 139732725.95548  91090425.28648  24687325.3194   24687326.4024   24687325.4414
       220.000         166.000
 126552293.80948  98612173.50348  24082101.5394   24082105.0994   24082102.8304
       210.000         158.000
 131836978.90648 102730093.66748  25087757.1394   25087762.8174   25087757.7354
       199.000         138.000
 106015358.52748  82609359.14348  20174060.2004   20174062.5764   20174060.1144
       252.000         228.000
 119397202.01848  93036767.09148  22720542.8044   22720546.0444   22720544.0594
       233.000         191.000
 108213531.07748  84322226.20048  20592354.7554   20592356.1884   20592354.6644
       251.000         235.000
 129782466.83548 101129212.60448  24696767.4004   24696769.0434   24696768.8744
       202.000         138.000
 116696180.65648  90932084.55748  22206547.0294   22206548.8304   22206547.6494
       240.000         203.000
 124915765.45348  97336946.01448  23770689.3404   23770692.6774   23770689.5564
       226.000         180.000
 09  1  7  0 22  0.0000000  0 11G 9G18G17G 8G24G26G10G15G21G28G27
 117631470.39948  91660874.40648  22384534.3864   22384536.8834   22384534.7874
       233.000         191.000
 136095206.61848  88256003.42048  23995120.4964   23995121.6264   23995122.3664
       218.000         162.000
 139660315.81148  91034001.84448  24673545.1144   24673547.5674   24673546.0844
       214.000         164.000
 126642473.63948  98682443.45448  24099262.1324   24099265.7784   24099262.7424
       214.000         161.000
 131912105.79648 102788634.09548  25102053.3844   25102058.1934   25102052.8334
       203.000         136.000
 106034559.13348  82624320.64348  20177713.8974   20177716.4294   20177713.8474
       252.000         228.000
 119498360.12248  93115591.58248  22739792.1524   22739796.0214   22739792.7504
       233.000         190.000
 108181724.62448  84297441.94448  20586302.1624   20586303.6684   20586301.9884
       251.000         235.000
 129817493.81948 101156506.32048  24703433.7394   24703434.2494   24703433.3924
       211.000         140.000
 116745575.30548  90970573.89948  22215946.6754   22215948.5484   22215947.4224
       241.000         203.000
 124987862.95148  97393125.87948  23784408.9434   23784412.0674   23784408.8834
       228.000         179.000
 09  1  7  0 22 30.0000000  0 11G 9G18G17G 8G24G26G10G15G21G28G27
 117546052.77248  91594315.23148  22368279.4114   22368282.3024   22368279.9424
       233.000         190.000
 136006176.58448  88186629.36448  23978177.8164   23978180.0454   23978179.3504
       218.000         161.000
 139588072.30948  90977708.17748  24659798.1594   24659799.9614   24659797.6334
       222.000         172.000
 126732685.22248  98752738.16548  24116428.6804   24116432.7814   24116430.1074
       213.000         162.000
 131987277.63848 102847209.59448  25116357.3724   25116363.8424   25116356.4234
       207.000         131.000
 106054150.23048  82639586.43048  20181441.9604   20181444.4184   20181441.8824
       253.000         228.000
 119599746.26848  93194593.75148  22759085.2574   22759089.2474   22759086.3474
       233.000         189.000
 108150241.10148  84272909.32548  20580310.9474   20580312.5514   20580310.6724
       251.000         235.000
 129852909.09548 101184102.67148  24710173.6694   24710175.4964   24710173.9694
       209.000         149.000
 116795414.45748  91009409.60048  22225430.7714   22225432.4584   22225431.1384
       240.000         203.000
 125059977.57948  97449319.07348  23798132.0184   23798135.0434   23798132.4234
       226.000         178.000
 09  1  7  0 23  0.0000000  0 11G 9G18G17G 8G24G26G10G15G21G28G27
 117460866.65848  91527936.44248  22352069.4144   22352072.1384   22352069.6644
       236.000         194.000
 135917444.64448  88117487.61248  23961292.4764   23961295.5604   23961292.4474
       216.000         164.000
 139515998.48648  90921546.77648  24646083.2814   24646085.0454   24646083.3264
       218.000         169.000
 126822927.86048  98823057.05948  24133602.1794   24133605.3594   24133602.4674
       215.000         163.000
 132062491.62748 102905817.97248  25130670.5894   25130675.1644   25130672.8754
       206.000         137.000
 106074132.29048  82655156.85948  20185244.3344   20185246.7844   20185244.2734
       252.000         227.000
 119701358.06748  93273771.76848  22778421.4294   22778425.2834   22778422.0274
       231.000         189.000
 108119081.77548  84248629.33148  20574381.5594   20574383.1284   20574381.3774
       250.000         235.000
 129888710.82048 101212000.06248  24716986.2984   24716988.6804   24716985.5224
       217.000         155.000
 116845696.93448  91048590.75248  22234999.2404   22235000.8164   22234999.4264
       241.000         202.000
 125132109.08448  97505525.42548  23811858.0154   23811861.3564   23811858.3044
       227.000         180.000
