     2.11           OBSERVATION DATA    G (GPS)             RINEX VERSION / TYPE
teqc  2008Oct2      gpsops              20090110 00:05:36UTCPGM / RUN BY / DATE
    30.0000                                                 INTERVAL
     1     1                                                WAVELENGTH FACT L1/2
     7    L1    L2    P1    P2    C1    S1    S2            # / TYPES OF OBSERV
Linux 2.4.20-8|Pentium IV|gcc -static|Linux|486/DX+         COMMENT
     2.10           OBSERVATION DATA    GPS                 COMMENT
soc2rnx ver 1.20    gpsops              10-Jan-2009 00:05:34COMMENT
S1, if present, is the SNR for the C/A data stream on L1.   COMMENT
 SNR is mapped to RINEX snr flag value [1,4-9]              COMMENT
    SNR:   >316  >100  >31.6  >10  >3.2    >0 bad=0         COMMENT
L1 & L2:      9     8     7     6     5     4     1         COMMENT
                                                            COMMENT
This data is provided as a public service by NASA/JPL.      COMMENT
No warranty is expressed or implied regarding suitability   COMMENT
for use.  For further information, contact:                 COMMENT
Dave Stowers, NASA/JPL m/s 238-600                          COMMENT
4800 Oak Grove Drive, Pasadena CA 91109 USA                 COMMENT
                                                            COMMENT
Forced Modulo Decimation to 30 seconds                      COMMENT
  2009     1     9     0     0    0.0000000     GPS         TIME OF FIRST OBS
DSN                 JPL                                     OBSERVER / AGENCY
451-U               AOAD/M_T        NONE                    ANT # / TYPE
  4849202.3940  -360328.9929  4114913.1862                  APPROX POSITION XYZ
        0.0254        0.0000        0.0000                  ANTENNA: DELTA H/E/N
LP03574             ASHTECH Z-XII3      CC00                REC # / TYPE / VERS
MADR                                                        MARKER NAME
13407S012                                                   MARKER NUMBER
                                                            END OF HEADER
 09  1  9  0  0  0.0000000  0 10G 8G 9G18G17G27G26G24G21G28G10
 124155020.35748  96744162.26648  23625923.9464   23625925.6814   23625924.1164
       221.000         168.000
 120076022.28048  93565719.21248  22849718.7304   22849721.0284   22849719.1664
       231.000         185.000
 128698002.32448 100284153.17648  24490417.9694   24490421.6954   24490417.9664
       214.000         158.000
 131706512.03548 102628438.25148  25062925.7244   25062927.2264   25062925.7924
       213.000         162.000
 122428262.52048  95398634.46248  23297330.6004   23297334.1834   23297331.8634
       230.000         188.000
 105644903.57548  82320690.73348  20103565.6634   20103568.2654   20103565.6724
       251.000         228.000
 129860426.14448 101189915.34548  24711639.0814   24711642.4874   24711638.6074
       212.000         153.000
 128999986.29848 100519483.05848  24547870.4164   24547870.8084   24547872.9004
       207.000         150.000
 115558753.26748  90045773.47048  21990106.3944   21990107.8734   21990107.2364
       243.000         209.000
 116765083.18948  90985765.60048  22219666.9934   22219670.4584   22219667.8364
       239.000         202.000
 09  1  9  0  0 30.0000000  0 10G 8G 9G18G17G27G26G24G21G28G10
 124243944.98848  96813454.20648  23642845.9934   23642847.0984   23642846.4544
       226.000         172.000
 119984520.24048  93494418.93448  22832306.3254   22832308.6694   22832306.7124
       228.000         182.000
 128601691.57148 100209105.83148  24472091.1954   24472094.3664   24472091.4814
       210.000         159.000
 131630798.13948 102569440.39148  25048517.2284   25048519.0124   25048516.4444
       213.000         165.000
 122498863.71048  95453648.37248  23310766.5224   23310769.1624   23310766.6904
       233.000         190.000
 105653877.43548  82327683.34848  20105273.6074   20105275.9624   20105273.4034
       252.000         229.000
 129933306.75548 101246705.43948  24725507.9944   24725512.2474   24725507.7224
       208.000         150.000
 129023941.30448 100538149.24148  24552429.4734   24552431.3074   24552430.4524
       207.000         154.000
 115595759.85048  90074609.77748  21997148.5694   21997150.2374   21997149.4034
       242.000         208.000
 116859140.49648  91059057.01548  22237565.5514   22237569.0154   22237566.5084
       239.000         201.000
 09  1  9  0  1  0.0000000  0 10G 8G 9G18G17G27G26G24G21G28G10
 124332930.59848  96882793.65448  23659778.8034   23659780.8244   23659779.9134
       218.000         165.000
 119893227.32148  93423281.60948  22814933.4684   22814936.2634   22814933.4114
       227.000         182.000
 128505607.40948 100134235.11648  24453807.4814   24453809.9884   24453807.4014
       217.000         164.000
 131555172.10948 102510511.02348  25034125.5974   25034126.8514   25034124.9124
       205.000         157.000
 122569503.79248  95508692.59648  23324209.2994   23324211.3124   23324209.9624
       232.000         189.000
 105663231.86648  82334972.51248  20107053.8024   20107056.1444   20107053.7134
       252.000         229.000
 130006308.22748 101303589.67948  24739398.7344   24739403.9794   24739399.2684
       208.000         150.000
 129048335.80148 100557157.88848  24557072.0314   24557073.7354   24557071.5694
       215.000         156.000
 115633253.25548  90103825.41648  22004283.1844   22004285.0424   22004283.2334
       243.000         208.000
 116953493.67148  91132578.95648  22255520.0994   22255523.8874   22255521.1014
       238.000         201.000
 09  1  9  0  1 30.0000000  0 10G 8G 9G18G17G27G26G24G21G28G10
 124421976.72548  96952180.18248  23676721.7104   23676726.0914   23676721.9924
       215.000         163.000
 119802145.70848  93352308.93148  22797601.2894   22797604.2654   22797601.2904
       229.000         183.000
 128409753.20448 100059543.54448  24435567.2004   24435569.1794   24435567.5574
       215.000         158.000
 131479637.76848 102451653.11348  25019751.0224   25019753.5474   25019750.1904
       212.000         161.000
 122640182.93448  95563767.25948  23337658.4394   23337661.5064   23337659.4404
       228.000         185.000
 105672968.39748  82342559.40848  20108906.7524   20108908.9824   20108906.7424
       252.000         229.000
 130079428.44048 101360566.43248  24753312.3304   24753318.3754   24753312.4594
       209.000         150.000
 129073169.21248 100576508.60448  24561798.3834   24561799.2654   24561801.2194
       213.000         158.000
 115671232.71048  90133419.79948  22011510.7444   22011512.0684   22011511.4944
       243.000         209.000
 117048141.07748  91206330.17048  22273531.2424   22273534.8654   22273531.7764
       239.000         201.000
 09  1  9  0  2  0.0000000  0 10G 8G 9G18G17G27G26G24G21G28G10
 124511082.56848  97021613.29648  23693679.6704   23693682.4724   23693679.3204
       221.000         167.000
 119711275.98248  93281501.35748  22780309.2874   22780312.2674   22780309.4274
       229.000         184.000
 128314131.73148  99985033.27248  24417370.4924   24417371.7424   24417370.5444
       214.000         156.000
 131404198.33048 102392869.10448  25005397.4644   25005397.5834   25005397.9524
       217.000         166.000
 122710900.67348  95618871.95348  23351114.6234   23351118.6524   23351114.5234
       229.000         186.000
 105683087.49248  82350444.41848  20110832.2764   20110834.5304   20110832.2804
       252.000         228.000
 130152664.75648 101417633.69148  24767250.3774   24767253.7274   24767250.4154
       211.000         149.000
 129098440.06148 100596200.12548  24566606.7084   24566608.0944   24566605.6514
       206.000         152.000
 115709697.38448  90163392.27648  22018830.2154   22018831.8904   22018830.8494
       242.000         208.000
 117143080.51248  91280308.94948  22291597.6904   22291600.9864   22291598.3214
       239.000         200.000
 09  1  9  0  2 30.0000000  0 10G 8G 9G18G17G27G26G24G21G28G10
 124600245.59148  97091090.98248  23710646.5034   23710649.4084   23710647.8414
       215.000         164.000
 119620617.94948  93210858.74548  22763057.7134   22763060.4944   22763057.9484
       229.000         185.000
 128218744.21048  99910705.32748  24399219.2434   24399219.3704   24399218.1674
       214.000         157.000
 131328855.21248 102334160.20148  24991058.8524   24991061.3204   24991059.1564
       212.000         163.000
 122781654.58048  95674004.85048  23364579.6544   23364582.3294   23364579.5874
       233.000         191.000
 105693588.23648  82358626.81448  20112830.3884   20112832.6714   20112830.2274
       252.000         228.000
 130226012.90348 101474788.07048  24781207.4314   24781211.0844   24781208.8104
       213.000         150.000
 129124145.09248 100616230.04148  24571497.8104   24571499.3814   24571498.3024
       213.000         156.000
 115748643.96948  90193740.27448  22026241.2064   22026242.8674   22026241.8634
       241.000         208.000
 117238308.39148  91354512.49248  22309718.9774   22309722.1874   22309719.8754
       239.000         200.000
 09  1  9  0  3  0.0000000  0 10G 8G 9G18G17G27G26G24G21G28G10
 124689464.57748  97160612.22248  23727623.2614   23727627.3194   23727623.8454
       216.000         164.000
 119530172.28248  93140381.60748  22745846.8644   22745849.6954   22745846.7824
       231.000         186.000
 128123593.02148  99836561.56848  24381112.3254   24381112.7574   24381112.1424
       209.000         151.000
 131253611.56548 102275528.82048  24976740.1164   24976743.0294   24976740.9664
       204.000         157.000
 122852444.06148  95729165.49248  23378051.1784   23378053.2844   23378051.9144
       235.000         191.000
 105704471.00448  82367106.89448  20114901.2594   20114903.5864   20114901.1974
       252.000         228.000
 130299470.10048 101532027.42748  24795185.6344   24795190.0934   24795185.1784
       210.000         149.000
 129150282.54548 100636596.87048  24576471.5454   24576473.5384   24576471.9614
       213.000         156.000
 115788070.92648  90224462.57748  22033743.4914   22033745.9194   22033743.7804
       242.000         207.000
 117333821.67848  91428938.42348  22327894.4294   22327897.8364   22327895.3274
       238.000         199.000
 09  1  9  0  3 30.0000000  0 10G 8G 9G18G17G27G26G24G21G28G10
 124778740.74948  97230178.04648  23744613.3974   23744616.1354   23744613.8864
       220.000         165.000
 119439942.06048  93070072.35048  22728676.8854   22728679.1864   22728677.4774
       230.000         185.000
 128028683.34248  99762605.98448  24363051.8654   24363052.9894   24363052.3324
       212.000         159.000
 131178472.47848 102216978.85648  24962442.0254   24962444.2384   24962441.6114
       216.000         164.000
 122923270.76248  95784355.13248  23391528.5874   23391531.0724   23391528.9834
       230.000         188.000
 105715738.76648  82375886.95448  20117045.6064   20117047.7794   20117045.5884
       252.000         228.000
 130373035.79348 101589351.32448  24809185.2074   24809189.3144   24809186.2944
       208.000         146.000
 129176853.01548 100657301.10348  24581527.8294   24581529.7234   24581529.5274
       210.000         156.000
 115827979.68948  90255560.31748  22041338.1714   22041340.1504   22041338.9094
       240.000         207.000
 117429620.74848  91503587.04248  22346124.1674   22346127.7754   22346124.7894
       238.000         199.000
 09  1  9  0  4  0.0000000  0 10G 8G 9G18G17G27G26G24G21G28G10
 124868072.35248  97299787.09248  23761612.2394   23761614.6204   23761613.4374
       216.000         162.000
 119349927.69348  92999931.30948  22711547.1544   22711550.2604   22711547.5824
       230.000         186.000
 127934017.16048  99688840.13848  24345037.0524   24345039.3754   24345037.7834
       211.000         161.000
 131103440.55748 102158512.41148  24948164.2164   24948166.4014   24948164.6604
       215.000         165.000
 122994133.46448  95839572.79848  23405012.7954   23405015.5354   23405012.6354
       229.000         185.000
 105727391.20848  82384966.78348  20119262.9284   20119265.2044   20119262.9004
       252.000         228.000
 130446706.53848 101646757.08548  24823204.6364   24823207.8934   24823205.3354
       210.000         144.000
 129203854.09948 100678340.90848  24586666.1154   24586667.5434   24586664.7484
       213.000         156.000
 115868367.83748  90287031.60048  22049023.8544   22049025.9194   22049024.1464
       241.000         207.000
 117525702.16348  91578455.67548  22364407.8234   22364411.1924   22364408.6674
       237.000         198.000
 09  1  9  0  4 30.0000000  0 10G 8G 9G18G17G27G26G24G21G28G10
 124957456.25048  97369436.84448  23778620.0834   23778624.6964   23778620.7174
       213.000         160.000
 119260127.57348  92929957.19548  22694459.1664   22694461.6194   22694459.5304
       230.000         187.000
 127839594.66848  99615264.18948  24327069.2104   24327071.1554   24327067.5644
       213.000         158.000
 131028516.44548 102100130.01148  24933907.2934   24933908.4944   24933907.5814
       214.000         165.000
 123065029.50048  95894816.44348  23418503.8584   23418506.6024   23418503.9554
       233.000         188.000
 105739426.54048  82394344.95448  20121553.1794   20121555.4494   20121552.9844
       251.000         228.000
 130520477.24548 101704240.74748  24837243.2544   24837246.4274   24837243.9934
       211.000         144.000
 129231281.85248 100699713.11648  24591885.4964   24591887.5064   24591886.8754
       206.000         153.000
 115909231.94348  90318873.76148  22056800.1414   22056801.7764   22056800.8394
       242.000         207.000
 117622061.31548  91653540.71848  22382744.4094   22382747.9294   22382745.0674
       237.000         199.000
 09  1  9  0  5  0.0000000  0 10G 8G 9G18G17G27G26G24G21G28G10
 125046890.72448  97439126.01648  23795639.8534   23795643.3674   23795639.2254
       216.000         161.000
 119170542.60448  92860150.74948  22677410.7714   22677414.2614   22677411.1584
       230.000         187.000
 127745418.56948  99541880.21948  24309147.7684   24309149.9924   24309148.8144
       216.000         161.000
 130953702.88248 102041833.69548  24919670.5544   24919672.2924   24919670.5064
       215.000         164.000
 123135957.57148  95950085.06648  23432002.0804   23432003.9414   23432002.4094
       235.000         190.000
 105751845.00248  82404021.67348  20123916.3424   20123918.6894   20123916.1424
       251.000         228.000
 130594344.61248 101761799.68048  24851299.4784   24851303.0074   24851299.8674
       214.000         146.000
 129259134.02848 100721416.06348  24597185.1394   24597188.0934   24597184.9964
       212.000         156.000
 115950570.15748  90351085.35348  22064666.6544   22064668.3724   22064667.4554
       243.000         207.000
 117718695.57148  91728840.12148  22401133.5594   22401137.0324   22401134.3424
       238.000         199.000
 09  1  9  0  5 30.0000000  0 10G 8G 9G18G17G27G26G24G21G28G10
 125136374.69048  97508853.78248  23812667.9454   23812671.9434   23812668.6204
       217.000         163.000
 119081173.59148  92790512.57648  22660404.5364   22660407.6894   22660405.1564
       231.000         187.000
 127651491.12048  99468689.98248  24291274.3514   24291275.9404   24291274.7364
       215.000         161.000
 130879003.05148 101983626.00348  24905454.6764   24905457.1924   24905454.4464
       214.000         161.000
 123206917.24048  96005378.31848  23445504.7984   23445507.1664   23445504.9804
       233.000         187.000
 105764647.08348  82413997.31348  20126352.5094   20126354.8954   20126352.4754
       251.000         228.000
 130668306.06448 101819431.97048  24865374.8014   24865378.1684   24865375.6714
       215.000         149.000
 129287408.98848 100743448.50248  24602566.5124   24602568.2794   24602566.7924
       213.000         154.000
 115992380.94048  90383665.19748  22072622.8794   22072624.6284   22072623.2424
       242.000         207.000
 117815602.73448  91804352.20448  22419574.2344   22419577.9194   22419575.0524
       237.000         198.000
 09  1  9  0  6  0.0000000  0 10G 8G 9G18G17G27G26G24G21G28G10
 125225907.96548  97578619.96348  23829706.1784   23829709.0804   23829707.3094
       217.000         162.000
 118992022.12048  92721043.90148  22643439.7714   22643442.5794   22643440.0454
       230.000         187.000
 127557815.74048  99395696.17648  24273448.9214   24273450.2394   24273448.3684
       214.000         159.000
 130804420.40548 101925509.66248  24891261.8254   24891264.2414   24891261.7574
       214.000         163.000
 123277908.58348  96060696.22848  23459013.2494   23459016.5714   23459013.3414
       229.000         187.000
 105777833.83848  82424272.70748  20128861.8734   20128864.1414   20128861.7044
       252.000         228.000
 130742359.58748 101877136.00248  24879466.0654   24879469.7014   24879465.7524
       213.000         149.000
 129316105.65248 100765809.55548  24608027.0134   24608029.0664   24608026.8074
       212.000         156.000
 116034663.46048  90416612.62348  22080669.0164   22080670.8364   22080669.5334
       241.000         207.000
 117912780.41248  91880075.06648  22438066.5844   22438069.9534   22438067.0204
       238.000         198.000
 09  1  9  0  6 30.0000000  0 10G 8G 9G18G17G27G26G24G21G28G10
 125315489.23248  97648423.51348  23846752.8814   23846755.9884   23846753.1794
       219.000         162.000
 118903088.83948  92651745.25348  22626516.5754   22626519.4544   22626516.8754
       232.000         190.000
 127464394.88148  99322900.70348  24255671.0084   24255672.5404   24255672.3094
       215.000         157.000
 130729958.07948 101867487.08748  24877092.9314   24877094.6734   24877092.7454
       220.000         165.000
 123348930.87748  96116038.24548  23472528.4344   23472531.8214   23472528.8044
       231.000         187.000
 105791405.63448  82434848.12948  20131444.4874   20131446.7474   20131444.4694
       251.000         228.000
 130816502.14348 101934909.41248  24893574.5254   24893578.8714   24893574.2564
       213.000         153.000
 129345221.86448 100788497.47948  24613567.6904   24613569.2484   24613569.4244
       216.000         156.000
 116077416.19348  90449926.44048  22088804.7304   22088806.4504   22088804.9844
       241.000         207.000
 118010226.38348  91956006.97548  22456609.8994   22456613.2474   22456610.7444
       236.000         197.000
 09  1  9  0  7  0.0000000  0 10G 8G 9G18G17G27G26G24G21G28G10
 125405117.20448  97718263.48548  23863808.2324   23863812.0664   23863808.6714
       214.000         163.000
 118814374.48248  92582617.18548  22609635.1594   22609637.6324   22609635.0914
       233.000         189.000
 127371231.18948  99250305.60048  24237942.9954   24237944.4594   24237943.2604
       215.000         159.000
 130655618.93748 101809560.48348  24862946.4594   24862948.0144   24862946.3304
       217.000         161.000
 123419983.34348  96171403.79048  23486049.5504   23486052.7854   23486049.6524
       234.000         189.000
 105805362.80148  82445723.83648  20134100.5274   20134102.7694   20134100.4834
       252.000         229.000
 130890730.91648 101992750.00348  24907699.1234   24907703.8904   24907700.2874
       207.000         151.000
 129374756.04948 100811511.09148  24619187.4864   24619190.1384   24619187.2364
       210.000         153.000
 116120637.87948  90483605.67848  22097029.3064   22097031.0794   22097029.8964
       241.000         206.000
 118107938.65748  92032146.40748  22475204.0474   22475207.4974   22475204.6134
       236.000         197.000
 09  1  9  0  7 30.0000000  0 10G 8G 9G18G17G27G26G24G21G28G10
 125494791.35948  97788139.44248  23880873.7024   23880876.4214   23880874.8494
       215.000         163.000
 118725879.88648  92513660.36748  22592795.1074   22592797.6894   22592795.7714
       232.000         190.000
 127278327.49348  99177913.11848  24220264.5844   24220265.9854   24220263.9204
       217.000         164.000
 130581406.30248 101751732.43048  24848824.7494   24848825.4714   24848824.7984
       220.000         161.000
 123491065.54748  96226792.52748  23499576.9164   23499579.2704   23499577.6034
       233.000         189.000
 105819705.93648  82456900.30048  20136829.9444   20136832.1774   20136829.7184
       252.000         228.000
 130965043.03448 102050655.51848  24921839.8694   24921845.5644   24921839.4894
       211.000         150.000
 129404706.27748 100834848.89948  24624887.9064   24624888.8974   24624888.0224
       210.000         155.000
 116164327.07748  90517649.20948  22105343.1634   22105345.0134   22105343.5134
       241.000         206.000
 118205913.90748  92108490.75648  22493848.0564   22493851.7074   22493848.7274
       238.000         198.000
 09  1  9  0  8  0.0000000  0 10G 8G 9G18G17G27G26G24G21G28G10
 125584509.74448  97858049.84348  23897945.7604   23897949.4594   23897944.9204
       215.000         160.000
 118637605.37548  92444875.04248  22575996.9554   22575999.7524   22575997.1614
       232.000         189.000
 127185685.75648  99105724.76848  24202635.4314   24202636.7054   24202637.0714
       220.000         165.000
 130507322.25248 101694004.56548  24834727.2864   24834727.9114   24834727.2634
       219.000         164.000
 123562176.56448  96282203.68348  23513107.7374   23513111.0284   23513108.4804
       228.000         186.000
 105834434.83148  82468377.35148  20139632.7244   20139635.0274   20139632.6874
       251.000         228.000
 131039435.06148 102108623.33348  24935996.6034   24936001.8984   24935997.1004
       209.000         147.000
 129435069.70248 100858508.72348  24630665.5454   24630667.0684   24630666.4934
       209.000         155.000
 116208481.42248  90552055.18748  22113745.4294   22113747.3214   22113745.7564
       242.000         207.000
 118304149.70848  92185038.13048  22512542.0434   22512545.2674   22512542.6924
       237.000         197.000
 09  1  9  0  8 30.0000000  0 10G 8G 9G18G17G27G26G24G21G28G10
 125674272.28648  97927994.64348  23915026.7154   23915030.4514   23915028.2044
       214.000         159.000
 118549552.76848  92376262.62548  22559241.0694   22559243.9814   22559241.3554
       232.000         190.000
 127093309.43748  99033743.21248  24185056.5224   24185058.1284   24185056.6944
       213.000         162.000
 130433370.98248 101636380.22048  24820654.2064   24820655.9734   24820655.1474
       216.000         164.000
 123633316.51348  96337637.39648  23526646.0134   23526648.8084   23526645.4374
       234.000         190.000
 105849550.77548  82480156.00048  20142509.1304   20142511.5284   20142509.0624
       252.000         229.000
 131113905.36148 102166652.14248  24950167.6514   24950171.6384   24950168.5194
       207.000         140.000
 129465845.55048 100882489.84048  24636522.0014   24636523.1784   24636520.3734
       214.000         157.000
 116253099.96948  90586822.88748  22122236.4374   22122237.7684   22122237.1034
       242.000         207.000
 118402644.26148  92261787.12748  22531284.5664   22531288.1594   22531285.4964
       236.000         196.000
 09  1  9  0  9  0.0000000  0 10G 8G 9G18G17G27G26G24G21G28G10
 125764077.50848  97997972.73748  23932117.1774   23932119.3194   23932118.6724
       214.000         160.000
 118461722.09548  92307823.16848  22542527.0444   22542530.2744   22542526.8984
       230.000         190.000
 127001200.54648  98961970.09648  24167527.7674   24167530.1834   24167528.4584
       215.000         162.000
 130359554.87248 101578861.16448  24806608.1214   24806608.4584   24806607.1524
       223.000         165.000
 123704484.17648  96393092.71548  23540188.9984   23540191.6324   23540190.2044
       229.000         187.000
 105865053.47248  82492236.02648  20145459.2744   20145461.6544   20145459.1824
       252.000         229.000
 131188450.33248 102224739.17648  24964353.8904   24964357.2124   24964353.4144
       203.000         136.000
 129497031.38448 100906790.53348  24642455.0094   24642457.4614   24642456.8254
       209.000         147.000
 116298180.73848  90621950.76548  22130814.6114   22130816.3744   22130814.6454
       242.000         207.000
 118501394.43748  92338735.31248  22550076.0004   22550079.6554   22550076.9524
       235.000         195.000
 09  1  9  0  9 30.0000000  0 10G 8G 9G18G17G27G26G24G21G28G10
 125853925.32448  98067983.98948  23949214.2214   23949217.0104   23949212.8794
       215.000         160.000
 118374115.58348  92239558.37448  22525855.6764   22525859.5124   22525855.3644
       231.000         189.000
 126909362.99148  98890408.35648  24150052.3724   24150053.7544   24150052.1964
       218.000         161.000
 130285877.78248 101521450.40848  24792587.8174   24792589.1434   24792588.1274
       218.000         167.000
 123775680.22648  96448570.12048  23553735.7754   23553739.5544   23553735.3894
       230.000         186.000
 105880944.65748  82504618.75848  20148483.3414   20148485.6664   20148483.2564
       252.000         229.000
 131263068.54148 102282883.21548  24978552.7054   24978557.8064   24978553.0804
       207.000         135.000
 129528626.20348 100931409.86348  24648468.0034   24648470.1624   24648468.1234
       212.000         154.000
 116343723.53548  90657438.65748  22139481.2634   22139482.9564   22139482.0454
       242.000         207.000
 118600398.87148  92415881.61348  22568915.7094   22568919.6054   22568916.6674
       235.000         195.000
 09  1  9  0 10  0.0000000  0 10G 8G 9G18G17G27G26G24G21G28G10
 125943813.32048  98138026.57248  23966318.9244   23966321.7894   23966320.1044
       213.000         160.000
 118286732.62348  92171467.77548  22509227.5624   22509230.7204   22509228.2494
       231.000         188.000
 126817797.66048  98819058.74848  24132627.9214   24132629.7074   24132629.5154
       214.000         161.000
 130212341.70148 101464149.55748  24778593.4234   24778595.8044   24778593.7644
       213.000         164.000
 123846902.70048  96504068.15348  23567290.5474   23567292.8774   23567290.3964
       234.000         188.000
 105897223.17848  82517303.31048  20151580.9914   20151583.3464   20151580.8674
       251.000         229.000
 131337755.60248 102341080.92348  24992765.5824   24992769.1984   24992766.7774
       212.000         142.000
 129560626.91648 100956345.48748  24654557.7604   24654559.3484   24654558.4004
       207.000         146.000
 116389725.33248  90693284.21748  22148235.0594   22148237.0304   22148235.0624
       241.000         207.000
 118699653.88548  92493223.17448  22587803.5674   22587807.0984   22587804.3894
       235.000         195.000
 09  1  9  0 10 30.0000000  0 10G 8G 9G18G17G27G26G24G21G28G10
 126033741.07648  98208100.11148  23983432.2004   23983434.6724   23983431.9554
       216.000         161.000
 118199574.50148  92103552.35848  22492641.8774   22492644.8434   22492641.9814
       231.000         188.000
 126726508.13748  98747924.06348  24115256.5844   24115257.8394   24115256.8844
       217.000         163.000
 130138950.15548 101406961.35748  24764627.3614   24764629.8034   24764626.7954
       217.000         165.000
 123918151.79148  96559586.90848  23580848.1164   23580851.1514   23580848.5324
       231.000         186.000
 105913890.21448  82530290.60948  20154752.5934   20154754.9574   20154752.4594
       251.000         228.000
 131412509.38648 102399330.61948  25006991.9584   25006994.2124   25006991.9824
       214.000         149.000
 129593032.08448 100981596.22948  24660724.1834   24660726.4294   24660724.2344
       202.000         144.000
 116436184.97248  90729486.52648  22157076.0554   22157078.0734   22157076.3904
       242.000         207.000
 118799157.25048  92570758.25948  22606738.5944   22606741.9134   22606739.0794
       236.000         194.000
 09  1  9  0 11  0.0000000  0 10G 8G 9G18G17G27G26G24G21G28G10
 126123707.17748  98278203.57848  24000551.3474   24000555.1634   24000552.6844
       209.000         158.000
 118112641.95048  92035812.71748  22476099.5234   22476102.3264   22476099.6164
       232.000         189.000
 126635496.26948  98677005.74448  24097937.0714   24097938.4564   24097938.0144
       212.000         160.000
 130065705.68848 101349887.69948  24750690.2114   24750690.5044   24750690.3064
       216.000         163.000
 123989426.34148  96615125.51148  23594411.2294   23594414.2724   23594411.2784
       232.000         187.000
 105930945.57848  82543580.49548  20157998.0564   20158000.4524   20157998.0234
       251.000         228.000
 131487326.50548 102457629.66548  25021229.0224   25021231.9184   25021228.6594
       209.000         149.000
 129625839.12148 101007160.10348  24666967.2634   24666968.3294   24666966.9504
       208.000         146.000
 116483100.38148  90766043.99648  22166003.6734   22166005.4954   22166003.9194
       242.000         207.000
 118898906.40348  92648484.87248  22625720.1954   22625723.4504   22625721.5304
       236.000         194.000
 09  1  9  0 11 30.0000000  0 10G 8G 9G18G17G27G26G24G21G28G10
 126213711.20548  98348336.54748  24017679.1954   24017682.1104   24017677.9044
       213.000         159.000
 118025935.92048  91968249.57348  22459599.9494   22459602.2404   22459600.0504
       233.000         189.000
 126544765.07248  98606306.12448  24080671.0774   24080672.8154   24080671.6724
       216.000         162.000
 129992611.74148 101292931.41548  24736780.6174   24736782.9024   24736780.2824
       217.000         166.000
 124060726.10348  96670683.74748  23607979.7694   23607982.2664   23607980.2514
       232.000         188.000
 105948389.81148  82557173.40148  20161317.6194   20161320.0254   20161317.5034
       251.000         228.000
 131562204.47848 102515976.13748  25035477.0354   25035480.8724   25035478.1734
       209.000         152.000
 129659046.21548 101033035.72448  24673287.0114   24673287.8924   24673288.0684
       210.000         149.000
 116530470.21148  90802955.54848  22175017.9874   22175019.5804   22175018.1404
       242.000         206.000
 118998898.42348  92726400.71648  22644747.8354   22644751.5684   22644748.5884
       235.000         194.000
 09  1  9  0 12  0.0000000  0 10G 8G 9G18G17G27G26G24G21G28G10
 126303751.66448  98418497.91548  24034812.4084   24034816.7564   24034813.4594
       210.000         160.000
 117939456.60148  91900863.10948  22443143.0974   22443145.9804   22443143.6964
       232.000         191.000
 126454316.88048  98535827.01648  24063458.9284   24063460.9204   24063459.6354
       214.000         162.000
 129919670.79948 101236094.32248  24722900.8254   24722902.5714   24722900.3724
       212.000         164.000
 124132050.25348  96726260.99348  23621551.9034   23621554.8894   23621552.3524
       229.000         186.000
 105966223.15448  82571069.50348  20164711.1384   20164713.6014   20164711.0984
       251.000         228.000
 131637140.23548 102574367.60348  25049737.2484   25049740.8794   25049736.3724
       214.000         155.000
 129692651.20948 101059221.42148  24679680.8004   24679682.9894   24679682.9994
       206.000         144.000
 116578292.71148  90840219.82648  22184118.4854   22184119.8944   22184119.1154
       241.000         206.000
 119099131.13748  92804504.12648  22663821.3524   22663824.9484   22663821.7314
       233.000         192.000
 09  1  9  0 12 30.0000000  0 10G 8G 9G18G17G27G26G24G21G28G10
 126393828.26448  98488687.45848  24051953.5524   24051957.3264   24051952.1934
       213.000         161.000
 117853205.84448  91833654.75848  22426730.3614   22426733.3964   22426730.5184
       232.000         193.000
 126364155.25748  98465571.21648  24046302.1004   24046304.3884   24046301.7384
       216.000         162.000
 129846886.77348 101179379.55948  24709048.9544   24709051.5254   24709048.1624
       212.000         163.000
 124203399.17448  96781857.53448  23635128.7864   23635132.1304   23635128.6574
       230.000         186.000
 105984446.65548  82585269.62948  20168179.0934   20168181.4114   20168179.1504
       252.000         228.000
 131712131.79048 102632802.55948  25064007.2144   25064010.8994   25064007.9474
       207.000         147.000
 129726652.88748 101085716.20548  24686151.3034   24686153.7934   24686150.6354
       206.000         143.000
 116626566.92648  90877836.10048  22193304.6744   22193306.1304   22193305.2474
       241.000         204.000
 119199602.88348  92882793.79048  22682940.7484   22682943.9674   22682941.3404
       236.000         192.000
 09  1  9  0 13  0.0000000  0 10G 8G 9G18G17G27G26G24G21G28G10
 126483939.33348  98558903.86948  24069101.8794   24069104.4324   24069102.3024
       214.000         158.000
 117767183.39948  91766624.30648  22410360.5414   22410363.8484   22410360.1144
       233.000         193.000
 126274281.75548  98395539.93748  24029199.8464   24029201.7844   24029202.5804
       216.000         162.000
 129774261.97348 101122788.78348  24695230.0314   24695231.9964   24695229.1534
       219.000         169.000
 124274771.14848  96837472.04548  23648710.7144   23648713.8964   23648710.8714
       229.000         186.000
 106003059.93648  82599773.48548  20171721.0704   20171723.3824   20171720.9364
       251.000         228.000
 131787175.44648 102691278.11648  25078286.9754   25078291.9924   25078286.8164
       205.000         144.000
 129761048.47348 101112517.95448  24692696.5504   24692697.3424   24692697.0744
       207.000         142.000
 116675290.27348  90915802.34748  22202576.0064   22202577.7584   22202576.3154
       242.000         204.000
 119300310.04748  92961266.90548  22702104.9724   22702107.9334   22702106.1864
       235.000         192.000
 09  1  9  0 13 30.0000000  0 10G 8G 9G18G17G27G26G24G21G28G10
 126574082.89448  98629145.61448  24086255.4274   24086258.1914   24086257.2574
       209.000         157.000
 117681389.25548  91699771.75148  22394034.8534   22394037.6324   22394034.9474
       235.000         194.000
 126184698.17248  98325734.56348  24012153.2084   24012154.7174   24012154.5374
       220.000         161.000
 129701798.28748 101066323.55748  24681440.2494   24681442.2604   24681440.8484
       211.000         162.000
 124346164.84348  96893103.47848  23662296.3794   23662299.4184   23662296.5934
       229.000         184.000
 106022062.24848  82614580.47248  20175337.1854   20175339.4294   20175337.0954
       252.000         228.000
 131862267.70348 102749791.51148  25092576.2764   25092581.1194   25092577.2814
       202.000         140.000
 129795834.81748 101139624.20648  24699316.4054   24699317.2334   24699317.5764
       206.000         139.000
 116724459.87048  90954116.32248  22211932.9104   22211934.7434   22211933.9254
       240.000         203.000
 119401248.85048  93039920.51748  22721312.9244   22721315.9724   22721314.1344
       233.000         191.000
 09  1  9  0 14  0.0000000  0 10G 8G 9G18G17G27G26G24G21G28G10
 126664258.63448  98699412.40648  24103415.0124   24103418.3144   24103415.8394
       210.000         159.000
 117595825.08648  91633098.39048  22377752.6144   22377755.1794   22377753.1074
       234.000         192.000
 126095407.68748  98256157.51848  23995161.7804   23995162.8834   23995163.9024
       218.000         161.000
 129629499.42648 101009986.79548  24667681.9414   24667684.8204   24667681.7864
       218.000         169.000
 124417580.67848  96948752.15448  23675886.0494   23675889.3494   23675886.3684
       227.000         183.000
 106041454.57048  82629691.37248  20179027.3424   20179029.6684   20179027.3684
       251.000         228.000
 131937406.23448 102808341.03648  25106875.1104   25106879.4424   25106875.2204
       198.000         135.000
 129831010.29448 101167033.69048  24706009.9874   24706011.9584   24706010.0274
       216.000         151.000
 116774075.20748  90992777.62048  22221374.3484   22221376.1054   22221374.7844
       240.000         203.000
 119502417.58648  93118753.28748  22740564.5294   22740567.9554   22740565.0794
       233.000         192.000
 09  1  9  0 14 30.0000000  0 10G 8G 9G18G17G27G26G24G21G28G10
 126754465.54648  98769703.47648  24120580.6824   24120584.2004   24120582.2164
       211.000         159.000
 117510491.42948  91566604.65348  22361513.6554   22361516.5004   22361514.2794
       234.000         192.000
 126006412.77748  98186810.84448  23978226.0004   23978228.1314   23978227.4804
       217.000         161.000
 129557368.57248 100953780.94148  24653956.9554   24653958.6504   24653957.6374
       217.000         171.000
 124489017.91848  97004417.53348  23689480.6504   23689483.5114   23689480.9734
       230.000         184.000
 106061237.35948  82645106.52648  20182791.9074   20182794.1464   20182791.9344
       251.000         228.000
 132012588.38648 102866924.62448  25121182.1914   25121185.4154   25121180.9644
       208.000         137.000
 129866572.85348 101194744.73048  24712777.8274   24712780.2264   24712778.0514
       211.000         153.000
 116824134.27448  91031784.68948  22230900.2994   22230901.9904   22230900.4284
       239.000         202.000
 119603813.79348  93197763.31348  22759859.5074   22759863.1384   22759860.5704
       233.000         191.000
 09  1  9  0 15  0.0000000  0 10G 8G 9G18G17G27G26G24G21G28G10
 126844703.17848  98840018.47848  24137752.9524   24137756.1124   24137753.7004
       214.000         160.000
 117425389.43748  91500291.41748  22345319.7424   22345322.3634   22345320.2864
       236.000         194.000
 125917716.43348  98117696.82848  23961347.5884   23961350.3164   23961347.6384
       216.000         164.000
 129485408.94248 100897708.50948  24640262.7164   24640265.1814   24640263.6034
       215.000         165.000
 124560476.57148  97060099.58548  23703078.7864   23703081.4224   23703079.0504
       229.000         184.000
 106081411.13148  82660826.34648  20186630.6284   20186633.1314   20186630.5954
       250.000         228.000
 132087811.99148 102925540.41748  25135497.0094   25135501.1864   25135497.0524
       211.000         141.000
 129902520.81148 101222756.06348  24719618.9874   24719620.4034   24719619.0944
       216.000         161.000
 116874635.75148  91071136.48848  22240510.4054   22240511.6124   22240510.9074
       240.000         202.000
 119705435.39148  93276948.96348  22779197.4794   22779200.9534   22779197.9564
       233.000         190.000
 09  1  9  0 15 30.0000000  0 10G 8G 9G18G17G27G26G24G21G28G10
 126934970.41648  98910356.59348  24154929.9434   24154933.3214   24154930.1424
       214.000         159.000
 117340520.07248  91434159.45948  22329169.3834   22329172.5244   22329169.8884
       233.000         193.000
 125829321.67948  98048817.80048  23944527.1874   23944529.6854   23944526.7144
       219.000         165.000
 129413623.58848 100841771.81448  24626602.9844   24626604.2924   24626603.5034
       218.000         167.000
 124631956.19948  97115797.98248  23716680.4264   23716683.9144   23716680.9694
       227.000         183.000
 106101976.43748  82676851.25448  20190544.0754   20190546.6344   20190543.8514
       251.000         228.000
 132163073.82848 102984186.03048  25149818.2624   25149822.3974   25149818.7964
       214.000         145.000
 129938852.27548 101251066.31948  24726531.5734   24726534.2784   24726532.7384
       215.000         158.000
 116925578.05948  91110831.79248  22250204.5144   22250206.0654   22250205.1324
       238.000         203.000
 119807279.82548  93356308.25348  22798577.7144   22798581.5214   22798578.2144
       233.000         191.000
 09  1  9  0 16  0.0000000  0 10G 8G 9G18G17G27G26G24G21G28G10
 127025265.85548  98980716.64948  24172113.1264   24172115.5774   24172115.2684
       213.000         159.000
 117255883.47848  91368208.89448  22313063.5494   22313066.7044   22313063.6324
       234.000         194.000
 125741230.28448  97980175.15348  23927763.8654   23927765.3804   23927764.6644
       219.000         166.000
 129342014.98648 100785972.94848  24612976.7604   24612978.1294   24612977.3314
       219.000         169.000
 124703455.56148  97171511.74448  23730286.3394   23730289.5934   23730286.6094
       227.000         181.000
 106122932.86848  82693180.93548  20194532.1164   20194534.5744   20194532.1204
       251.000         228.000
 132238370.57148 103042858.82048  25164147.3364   25164151.6094   25164147.4774
       208.000         147.000
 129975564.16148 101279672.93748  24733517.0964   24733519.6284   24733517.3434
       212.000         155.000
 116976958.56748  91150868.55148  22259981.6954   22259983.8144   22259981.7554
       241.000         202.000
 119909343.80848  93435838.62248  22818000.1974   22818003.6154   22818001.4814
       233.000         190.000
 09  1  9  0 16 30.0000000  0 10G 8G 9G18G17G27G26G24G21G28G10
 127115588.50948  99051097.88748  24189300.6524   24189303.5844   24189301.4314
       212.000         157.000
 117171480.61048  91302440.44948  22297002.3604   22297005.4794   22297002.1584
       233.000         194.000
 125653445.02048  97911771.06048  23911058.9504   23911059.8594   23911058.7734
       219.000         163.000
 129270586.31848 100730314.26748  24599383.6104   24599385.0594   24599383.1744
       217.000         166.000
 124774974.30048  97227240.63148  23743895.9474   23743898.9684   23743896.2794
       226.000         180.000
 106144280.91948  82709815.77348  20198594.5744   20198596.8734   20198594.4884
       251.000         228.000
 132313699.61648 103101556.73948  25178481.4394   25178486.7884   25178482.9484
       202.000         148.000
 130012654.71648 101308574.65948  24740575.5614   24740578.0214   24740575.5294
       213.000         150.000
 117028775.77248  91191245.60448  22269842.4884   22269844.1694   22269843.1664
       240.000         202.000
 120011625.18648  93515538.39948  22837463.6194   22837466.8924   22837464.4024
       231.000         189.000
 09  1  9  0 17  0.0000000  0 10G 8G 9G18G17G27G26G24G21G28G10
 127205938.60148  99121500.54948  24206493.2524   24206496.7104   24206493.9774
       211.000         156.000
 117087313.30548  91236855.56948  22280985.4814   22280988.5224   22280985.5284
       233.000         192.000
 125565969.37848  97843608.19548  23894412.9604   23894413.7894   23894412.2554
       221.000         165.000
 129199341.28448 100674798.67248  24585826.0944   24585827.7524   24585825.5394
       214.000         167.000
 124846513.18648  97282985.20248  23757509.2174   23757512.2924   23757509.5994
       226.000         179.000
 106166021.78748  82726756.70148  20202731.6174   20202733.9814   20202731.6084
       251.000         228.000
 132389059.36848 103160278.60148  25192822.1094   25192827.0824   25192821.8104
       207.000         150.000
 130050122.75548 101337770.49548  24747705.9054   24747708.2504   24747706.5364
       207.000         147.000
 117081028.97748  91231962.37948  22279785.6594   22279787.2104   22279785.8724
       239.000         202.000
 120114122.49748  93595406.43048  22856968.1754   22856971.3374   22856968.6934
       232.000         188.000
 09  1  9  0 17 30.0000000  0 10G 8G 9G18G17G27G26G24G21G28G10
 127296314.15848  99191923.05748  24223691.0064   24223694.3604   24223690.9104
       210.000         158.000
 117003380.77348  91171453.61048  22265013.5994   22265016.4154   22265014.2874
       234.000         192.000
 125478804.72148  97775687.69648  23877825.4114   23877827.6094   23877826.9964
       220.000         166.000
 129128281.68448 100619427.57548  24572304.1454   24572305.4494   24572303.6824
       214.000         166.000
 124918070.37348  97338744.02248  23771126.2874   23771129.2364   23771126.4774
       227.000         180.000
 106188154.69348  82744003.11348  20206943.3584   20206945.7654   20206943.2104
       251.000         228.000
 132464445.82448 103219021.25748  25207168.2644   25207172.2014   25207168.7314
       211.000         151.000
 130087964.73648 101367257.71548  24754907.8264   24754909.4084   24754908.7244
       205.000         148.000
 117133714.93148  91273016.36848  22289811.6164   22289812.6724   22289812.3094
       240.000         201.000
 120216831.60048  93675439.48448  22876512.8844   22876516.4134   22876513.6904
       230.000         188.000
 09  1  9  0 18  0.0000000  0 10G 8G 9G18G17G27G26G24G21G28G10
 127386715.14748  99262365.35248  24240893.7704   24240897.8424   24240892.6274
       216.000         161.000
 116919685.05548  91106236.17448  22249086.9134   22249090.0754   22249087.1394
       234.000         194.000
 125391954.73048  97708012.34448  23861299.2844   23861300.2694   23861299.3414
       219.000         165.000
 129057412.00548 100564204.42948  24558816.7104   24558819.4174   24558815.1494
       214.000         166.000
 124989646.32648  97394517.48948  23784747.2544   23784749.8564   23784747.4654
       227.000         181.000
 106210680.78148  82761555.91248  20211230.0134   20211232.2974   20211229.9094
       251.000         228.000
 132539857.10048 103277783.28648  25221519.1964   25221521.6764   25221519.3234
       206.000         146.000
 130126179.29348 101397035.22948  24762179.8934   24762181.2794   24762179.0874
       208.000         152.000
 117186833.10448  91314407.15848  22299919.5594   22299921.3614   22299919.8504
       239.000         202.000
 120319750.94148  93755636.36848  22896097.6554   22896101.2584   22896098.3254
       231.000         186.000
 09  1  9  0 18 30.0000000  0 10G 8G 9G18G17G27G26G24G21G28G10
 127477137.95948  99332824.65548  24258101.0994   24258104.9734   24258103.2514
       211.000         162.000
 116836224.17348  91041201.72848  22233204.9964   22233207.9394   22233204.7974
       235.000         196.000
 125305419.31948  97640582.17248  23844832.0874   23844833.6244   23844833.5474
       220.000         166.000
 128986732.72748 100509129.67148  24545368.1354   24545370.0714   24545367.0884
       220.000         170.000
 125061238.05948  97450303.25348  23798370.7354   23798373.5914   23798371.1984
       226.000         181.000
 106233597.73048  82779413.26248  20215590.9694   20215593.3534   20215590.9004
       251.000         228.000
 132615287.74948 103336560.41248  25235872.6854   25235876.3824   25235872.2064
       198.000         136.000
 130164761.78248 101427099.49348  24769521.0734   24769523.0774   24769521.6564
       207.000         152.000
 117240379.08548  91356131.29848  22310109.0394   22310111.1764   22310109.4194
       240.000         201.000
 120422875.63348  93835993.25848  22915721.7184   22915725.4064   22915722.6914
       231.000         188.000
 09  1  9  0 19  0.0000000  0 10G 8G 9G18G17G27G26G24G21G28G10
 127567583.51948  99403301.68048  24275312.4944   24275315.9644   24275312.9484
       211.000         161.000
 116753000.23248  90976351.91648  22217367.7694   22217371.1554   22217368.2544
       232.000         194.000
 125219202.48648  97573400.21448  23828425.2354   23828427.1204   23828425.2084
       220.000         168.000
 128916247.83748 100454206.38648  24531955.6944   24531957.2984   24531955.4204
       211.000         166.000
 125132846.84948  97506102.28148  23811997.1494   23812000.2864   23811997.2624
       227.000         180.000
 106256907.40148  82797576.64448  20220026.5694   20220028.9514   20220026.4814
       252.000         228.000
 132690736.68148 103395351.82148  25250229.7064   25250232.0594   25250230.9874
       184.000         127.000
 130203711.70548 101457450.05748  24776932.8824   24776936.0574   24776934.0594
       206.000         152.000
 117294352.51348  91398188.51248  22320379.7274   22320381.7524   22320380.0114
       240.000         202.000
 120526204.81248  93916509.48748  22935384.6444   22935388.1404   22935385.1974
       230.000         189.000
 09  1  9  0 19 30.0000000  0  9G 8G 9G18G17G27G26G21G28G10
 127658051.20248  99473795.93848  24292527.6544   24292531.1904   24292528.0264
       211.000         161.000
 116670014.59348  90911687.80848  22201575.9064   22201579.4854   22201576.2184
       235.000         195.000
 125133307.41648  97506468.97248  23812079.5604   23812081.3324   23812082.0804
       220.000         167.000
 128845960.75148 100399437.20948  24518579.4274   24518581.7924   24518578.3814
       218.000         166.000
 125204472.53048  97561914.48048  23825627.2244   23825630.0624   23825627.4794
       225.000         180.000
 106280610.44748  82816046.54348  20224537.2884   20224539.5804   20224537.2754
       252.000         228.000
 130243027.16748 101488085.44848  24784414.0724   24784416.8514   24784414.6544
       201.000         143.000
 117348752.20748  91440577.88548  22330731.8504   22330733.4014   22330732.3574
       241.000         202.000
 120629735.93848  93997183.08648  22955086.0904   22955089.5924   22955086.8454
       231.000         186.000
 09  1  9  0 20  0.0000000  0  9G 8G 9G18G17G27G26G21G28G10
 127748539.88948  99544306.58848  24309747.3614   24309750.1794   24309748.5194
       216.000         158.000
 116587267.88448  90847209.84848  22185830.3344   22185833.4054   22185830.1994
       238.000         198.000
 125047736.58548  97439790.43048  23795796.0974   23795797.7624   23795796.8854
       222.000         169.000
 128775874.58548 100344824.63348  24505242.6704   24505245.1194   24505242.0864
       212.000         166.000
 125276114.51148  97617739.38348  23839259.8814   23839263.2864   23839260.2384
       223.000         177.000
 106304706.99348  82834823.06248  20229122.7544   20229124.9714   20229122.8094
       252.000         228.000
 130282705.61948 101519003.71948  24791965.1354   24791966.9764   24791966.2174
       199.000         137.000
 117403575.87748  91483297.62448  22341164.3884   22341165.9374   22341164.7164
       241.000         202.000
 120733466.42048  94078012.02348  22974825.3334   22974828.6504   22974825.9904
       230.000         185.000
 09  1  9  0 20 30.0000000  0  9G 8G 9G18G17G27G26G21G28G10
 127839048.86448  99614833.07248  24326970.2644   24326973.4904   24326970.3094
       211.000         159.000
 116504760.86848  90782918.66748  22170130.1464   22170132.7134   22170130.3594
       238.000         198.000
 124962492.39048  97373366.34648  23779575.4134   23779576.9604   23779574.9654
       221.000         170.000
 128705992.15948 100290370.77548  24491944.4254   24491946.9804   24491943.6064
       218.000         168.000
 125347772.23948  97673576.56648  23852896.0474   23852898.6974   23852896.3274
       224.000         177.000
 106329197.19448  82853906.32748  20233782.9934   20233785.2754   20233782.8184
       251.000         228.000
 130322744.60548 101550202.89148  24799584.0014   24799585.8684   24799584.1314
       190.000         126.000
 117458821.44148  91526346.12548  22351677.3784   22351679.2644   22351677.9514
       241.000         202.000
 120837393.48848  94158994.14948  22994602.2914   22994605.2764   22994603.3734
       232.000         185.000
 09  1  9  0 21  0.0000000  0  9G 8G 9G18G17G27G26G21G28G10
 127929576.72948  99685374.22848  24344197.7254   24344200.4364   24344198.3594
       212.000         160.000
 116422493.80748  90718814.47948  22154474.7564   22154477.7464   22154475.1164
       236.000         196.000
 124877577.00948  97307198.54248  23763415.8144   23763418.2194   23763416.0324
       220.000         166.000
 128636316.08448 100236077.71648  24478686.1864   24478688.5004   24478686.4394
       218.000         167.000
 125419444.94348  97729425.42148  23866534.7254   23866537.8494   23866535.0484
       222.000         176.000
 106354080.88348  82873296.21348  20238518.1644   20238520.4874   20238517.9594
       252.000         228.000
 130363141.46548 101581680.92848  24807272.4374   24807271.5964   24807272.9114
       190.000         123.000
 117514486.96148  91569721.84848  22362270.1294   22362272.3514   22362271.1034
       240.000         201.000
 120941514.17748  94240127.15648  23014415.7264   23014418.4054   23014417.0524
       231.000         184.000
 09  1  9  0 21 30.0000000  0  8G 8G 9G18G17G27G26G28G10
 128020122.06448  99755929.00548  24361427.1724   24361431.1234   24361427.0444
       213.000         161.000
 116340467.45048  90654897.85448  22138865.6264   22138868.3044   22138866.1514
       237.000         197.000
 124792993.06548  97241288.94648  23747320.4544   23747321.5414   23747320.3014
       224.000         167.000
 128566849.47648 100181947.92548  24465467.2644   24465469.3064   24465467.2814
       220.000         169.000
 125491132.26348  97785285.65948  23880176.1554   23880179.9824   23880176.0404
       221.000         176.000
 106379358.16848  82892992.79148  20243328.3584   20243330.6374   20243328.2384
       252.000         228.000
 117570570.53348  91613423.33348  22372942.4914   22372944.2314   22372943.0264
       239.000         201.000
 121045826.20248  94321409.25448  23034265.6904   23034268.6334   23034266.4884
       230.000         185.000
 09  1  9  0 22  0.0000000  0  8G 8G 9G18G17G27G26G28G10
 128110684.90948  99826497.43848  24378661.2824   24378664.4884   24378661.9044
       209.000         162.000
 116258682.71448  90591169.50648  22123302.5434   22123305.6454   22123302.6214
       237.000         198.000
 124708742.99348  97175639.54248  23731288.3224   23731289.7424   23731289.6254
       223.000         170.000
 128497595.60148 100127983.87548  24452288.1534   24452290.0674   24452288.7044
       216.000         165.000
 125562834.11748  97841157.20448  23893820.6864   23893824.4684   23893821.2614
       222.000         176.000
 106405029.66448  82912996.55348  20248213.5764   20248215.7824   20248213.5584
       252.000         228.000
 117627070.65548  91657449.40848  22383693.9834   22383695.6124   22383694.1024
       240.000         201.000
 121150326.92348  94402838.36948  23054151.5284   23054155.1804   23054151.7564
       230.000         186.000
 09  1  9  0 22 30.0000000  0  8G 8G 9G18G17G27G26G28G10
 128201264.53748  99897078.95448  24395897.8584   24395901.8104   24395898.4864
       214.000         163.000
 116177140.46548  90527630.10848  22107785.3384   22107788.3314   22107784.7264
       236.000         197.000
 124624830.20248  97110252.95448  23715319.9964   23715321.8404   23715319.4214
       222.000         169.000
 128428557.62848 100074188.06048  24439150.8294   24439152.6714   24439150.6044
       214.000         169.000
 125634550.23848  97897039.85948  23907468.0814   23907471.5274   23907468.1644
       223.000         176.000
 106431095.68048  82933307.72648  20253173.7604   20253175.8324   20253173.7484
       252.000         228.000
 117683985.37748  91701798.53548  22394524.4924   22394526.1604   22394525.4634
       239.000         201.000
 121255014.27948  94484412.91748  23074072.9724   23074076.4474   23074074.1614
       228.000         186.000
 09  1  9  0 23  0.0000000  0  8G 8G 9G18G17G27G26G28G10
 128291859.51548  99967672.40448  24413137.6854   24413141.1524   24413137.3554
       216.000         166.000
 116095840.97148  90464279.86948  22092314.3794   22092317.3084   22092314.6344
       237.000         198.000
 124541256.18248  97045130.31948  23699415.9314   23699418.4244   23699415.9464
       224.000         170.000
 128359737.57848 100020562.03248  24426054.5984   24426056.7334   24426054.0474
       216.000         167.000
 125706279.49648  97952932.77648  23921118.0704   23921120.9234   23921118.1254
       224.000         175.000
 106457555.95248  82953926.12348  20258208.9004   20258211.1244   20258208.8254
       252.000         228.000
 117741312.16048  91746468.75348  22405433.3334   22405435.7954   22405433.6604
       239.000         201.000
 121359884.93148  94566130.30448  23094028.9774   23094032.6354   23094029.3294
       227.000         185.000
 09  1  9  0 23 30.0000000  0  8G 8G 9G18G17G27G26G28G10
 128382469.42848 100038277.53448  24430380.1694   24430383.9684   24430381.0884
       213.000         166.000
 116014785.42948  90401119.72048  22076890.4764   22076893.2014   22076890.5084
       238.000         197.000
 124458024.15148  96980274.19248  23683577.7904   23683579.4374   23683578.3794
       223.000         171.000
 128291139.08148  99967108.67348  24413001.2844   24413002.5144   24413001.2984
       216.000         171.000
 125778022.16948  98008836.15448  23934770.0104   23934773.0544   23934770.2684
       223.000         174.000
 106484410.94448  82974852.08048  20263319.1454   20263321.5744   20263318.9324
       251.000         228.000
 117799049.53448  91791458.92248  22416420.6384   22416423.0554   22416420.8004
       239.000         201.000
 121464936.62748  94647988.75948  23114019.3664   23114023.4224   23114019.2984
       230.000         185.000
 09  1  9  0 24  0.0000000  0  8G 8G 9G18G17G27G26G28G10
 128473093.22548 100108893.46048  24447625.2414   24447629.0274   24447625.7404
       216.000         166.000
 115933973.91048  90338149.72248  22061512.2844   22061515.3374   22061512.9974
       238.000         198.000
 124375135.97948  96915686.00148  23667805.3154   23667806.4104   23667804.7284
       222.000         172.000
 128222764.66148  99913829.90948  24399989.3174   24399991.9614   24399989.2134
       218.000         171.000
 125849777.18448  98064749.14148  23948424.4174   23948427.7944   23948424.8054
       223.000         175.000
 106511660.36848  82996085.39048  20268504.5494   20268507.0234   20268504.4864
       251.000         227.000
 117857195.31548  91836767.32148  22427485.3074   22427487.4304   22427485.8394
       239.000         200.000
 121570166.21548  94729985.83748  23134044.0904   23134047.9024   23134045.1084
       228.000         183.000
 09  1  9  0 24 30.0000000  0  8G 8G 9G18G17G27G26G28G10
 128563729.70348 100179519.24348  24464873.0944   24464876.5514   24464872.9444
       216.000         166.000
 115853406.97448  90275370.29748  22046181.0714   22046183.8394   22046181.4864
       239.000         198.000
 124292594.09848  96851367.68048  23652097.4404   23652099.2004   23652097.7374
       223.000         171.000
 128154617.07248  99860727.89748  24387021.4544   24387023.4804   24387021.2074
       218.000         171.000
 125921544.09248  98120671.40148  23962081.2644   23962084.4984   23962081.4404
       224.000         175.000
 106539304.31548  83017626.12448  20273765.1324   20273767.4454   20273764.9894
       252.000         227.000
 117915747.53348  91882392.42048  22438627.3624   22438628.9364   22438628.3574
       237.000         200.000
 121675571.31848  94812119.67848  23154101.7754   23154105.9004   23154102.2944
       227.000         183.000
 09  1  9  0 25  0.0000000  0  8G 8G 9G18G17G27G26G28G10
 128654378.26148 100250154.48348  24482123.2244   24482125.8834   24482123.5454
       218.000         166.000
 115773085.82548  90212782.40348  22030896.2834   22030899.4294   22030896.8494
       238.000         200.000
 124210401.37348  96787321.39648  23636456.8014   23636458.7274   23636457.5034
       224.000         172.000
 128086699.73648  99807805.29248  24374097.6924   24374099.7514   24374097.3734
       220.000         176.000
 125993322.75348  98176602.80948  23975740.2654   23975743.6064   23975740.6144
       223.000         174.000
 106567343.30248  83039474.68348  20279100.7494   20279103.0094   20279100.6754
       252.000         227.000
 117974704.32448  91928332.77048  22449846.3754   22449847.9834   22449846.4884
       238.000         199.000
 121781149.59048  94894388.46548  23174192.2584   23174196.4934   23174193.5154
       226.000         181.000
 09  1  9  0 25 30.0000000  0  8G 8G 9G18G17G27G26G28G10
 128745037.87548 100320798.35048  24499374.7714   24499377.6714   24499375.7464
       220.000         166.000
 115693010.71048  90150386.23048  22015658.6494   22015661.4704   22015658.6974
       239.000         200.000
