     2.11           OBSERVATION DATA    G (GPS)             RINEX VERSION / TYPE
teqc  2008Oct2      gpsops              20090125 00:06:10UTCPGM / RUN BY / DATE
    30.0000                                                 INTERVAL
     1     1                                                WAVELENGTH FACT L1/2
     7    L1    L2    P1    P2    C1    S1    S2            # / TYPES OF OBSERV
Linux 2.4.20-8|Pentium IV|gcc -static|Linux|486/DX+         COMMENT
     2.10           OBSERVATION DATA    GPS                 COMMENT
soc2rnx ver 1.20    gpsops              25-Jan-2009 00:06:03COMMENT
S1, if present, is the SNR for the C/A data stream on L1.   COMMENT
 SNR is mapped to RINEX snr flag value [1,4-9]              COMMENT
    SNR:   >316  >100  >31.6  >10  >3.2    >0 bad=0         COMMENT
L1 & L2:      9     8     7     6     5     4     1         COMMENT
                                                            COMMENT
This data is provided as a public service by NASA/JPL.      COMMENT
No warranty is expressed or implied regarding suitability   COMMENT
for use.  For further information, contact:                 COMMENT
Dave Stowers, NASA/JPL m/s 238-600                          COMMENT
4800 Oak Grove Drive, Pasadena CA 91109 USA                 COMMENT
                                                            COMMENT
Forced Modulo Decimation to 30 seconds                      COMMENT
  2009     1    24     0     0    0.0000000     GPS         TIME OF FIRST OBS
DSN                 JPL                                     OBSERVER / AGENCY
451-U               AOAD/M_T        NONE                    ANT # / TYPE
  4849202.3940  -360328.9929  4114913.1862                  APPROX POSITION XYZ
        0.0254        0.0000        0.0000                  ANTENNA: DELTA H/E/N
LP03574             ASHTECH Z-XII3      CC00                REC # / TYPE / VERS
MADR                                                        MARKER NAME
13407S012                                                   MARKER NUMBER
                                                            END OF HEADER
 09  1 24  0  0  0.0000000  0 10G 9G 5G10G27G18G15G17G26G28G12
 110593870.53648  86177027.27448  21045325.5444   21045328.2324   21045325.8284
       246.000         213.000
 130669191.06348 101820127.72648  24865536.6634   24865539.8034   24865536.8774
       213.000         156.000
 129467023.95648 100883387.34248  24636760.6744   24636765.5084   24636760.3554
       207.000         153.000
 126566606.55048  98623311.87548  24084837.5964   24084841.8484   24084838.1884
       221.000         163.000
 119505640.71448  93121273.42548  22741170.7324   22741171.9494   22741171.0254
       234.000         186.000
 106851771.88348  83261113.30048  20333222.3384   20333223.6374   20333222.2184
       254.000         240.000
 123968034.90748  96598462.55048  23590338.1084   23590339.9424   23590338.1594
       224.000         179.000
 109704534.32548  85484037.86148  20876089.9604   20876092.8724   20876090.3754
       247.000         220.000
 123318215.83548  96092106.03448  23466684.5354   23466686.2254   23466685.6024
       227.000         177.000
 124260266.67048  96826167.20348  23645954.4914   23645956.4884   23645954.4654
       224.000         179.000
 09  1 24  0  0 30.0000000  0 10G 9G 5G10G27G18G15G17G26G28G12
 110533472.62248  86129963.98148  21033832.0264   21033834.9634   21033832.2144
       244.000         213.000
 130554162.29548 101730494.93548  24843647.4194   24843651.1454   24843648.5874
       213.000         154.000
 129578123.99448 100969958.81148  24657902.9934   24657905.8334   24657903.3154
       218.000         153.000
 126635144.90548  98676718.39448  24097880.6324   24097883.8644   24097880.9124
       221.000         164.000
 119454669.40548  93081555.50648  22731470.7344   22731472.8464   22731471.1724
       232.000         186.000
 106858171.71248  83266100.17748  20334440.2624   20334441.5184   20334440.0804
       254.000         240.000
 123925159.25148  96565052.96048  23582178.5664   23582181.1704   23582178.4874
       226.000         182.000
 109761807.03248  85528665.92848  20886988.8904   20886991.5644   20886988.7754
       247.000         220.000
 123401317.97648  96156860.92548  23482498.2684   23482500.2434   23482499.3544
       225.000         177.000
 124152242.38848  96741992.46348  23625398.2864   23625400.5964   23625397.9784
       226.000         179.000
 09  1 24  0  1  0.0000000  0 10G 9G 5G10G27G18G15G17G26G28G12
 110473363.43348  86083125.66048  21022393.6474   21022396.4144   21022393.5004
       244.000         213.000
 130439213.86148 101640924.70948  24821774.2134   24821775.9924   24821775.1354
       211.000         154.000
 129689209.24748 101056518.76848  24679041.1774   24679044.9974   24679042.3954
       215.000         151.000
 126703706.49648  98730143.00048  24110927.1704   24110930.9444   24110927.9124
       218.000         162.000
 119404205.08148  93042232.66548  22721867.6154   22721869.9744   22721868.5114
       231.000         187.000
 106865007.55448  83271426.79748  20335741.0654   20335742.3944   20335740.8164
       253.000         240.000
 123882713.06248  96531978.00548  23574101.4744   23574103.5214   23574101.7114
       226.000         181.000
 109819459.06348  85573589.58048  20897959.7714   20897962.5374   20897959.5224
       249.000         220.000
 123484659.62448  96221802.48548  23498357.9014   23498359.7494   23498358.0074
       228.000         178.000
 124044402.39848  96657961.32648  23604876.3874   23604878.9834   23604876.4564
       225.000         177.000
 09  1 24  0  1 30.0000000  0 10G 9G 5G10G27G18G15G17G26G28G12
 110413544.41048  86036513.44048  21011010.5114   21011013.1234   21011010.6654
       245.000         213.000
 130324348.94648 101551419.61448  24799916.0044   24799919.5204   24799917.1484
       213.000         156.000
 129800278.18348 101143066.01748  24700177.0944   24700181.3684   24700178.3034
       214.000         153.000
 126772292.75348  98783586.85548  24123978.9544   24123982.5304   24123979.0614
       220.000         161.000
 119354250.96348  93003307.35748  22712361.9434   22712363.5034   22712362.4474
       231.000         186.000
 106872280.81848  83277094.27648  20337125.0214   20337126.4924   20337124.7644
       254.000         240.000
 123840699.75148  96499240.36048  23566106.5584   23566108.5334   23566106.6464
       226.000         180.000
 109877490.98948  85618809.26048  20909002.9314   20909005.5814   20909002.7464
       249.000         220.000
 123568239.67948  96286929.78448  23514262.3074   23514264.5174   23514263.4274
       225.000         176.000
 123936750.25548  96574076.55848  23584391.8494   23584393.2584   23584391.9394
       226.000         180.000
 09  1 24  0  2  0.0000000  0 10G 9G 5G10G27G18G15G17G26G28G12
 110354016.18548  85990127.81548  20999682.5264   20999685.2494   20999682.4104
       246.000         213.000
 130209569.03648 101461980.73948  24778074.7784   24778077.5364   24778076.4034
       208.000         153.000
 129911327.90648 101229598.21848  24721309.7794   24721314.1564   24721310.6874
       212.000         156.000
 126840903.08348  98837049.42248  24137035.0364   24137038.7754   24137034.9944
       219.000         162.000
 119304808.06048  92964780.40548  22702953.3884   22702955.2244   22702953.1524
       233.000         186.000
 106879992.29248  83283103.20648  20338592.5774   20338593.9484   20338592.4234
       253.000         239.000
 123799120.95148  96466841.29048  23558194.6724   23558196.3844   23558194.4774
       227.000         180.000
 109935901.66748  85664324.07048  20920118.1424   20920120.7814   20920118.1514
       249.000         220.000
 123652055.40148  96352240.74648  23530211.9974   23530213.8914   23530211.6874
       225.000         177.000
 123829287.14148  96490339.07448  23563942.3674   23563943.7284   23563942.7844
       225.000         179.000
 09  1 24  0  2 30.0000000  0 10G 9G 5G10G27G18G15G17G26G28G12
 110294779.07448  85943969.04048  20988410.1144   20988413.0764   20988410.5984
       245.000         213.000
 130094876.53248 101372609.99548  24756248.8054   24756251.3634   24756248.6304
       209.000         153.000
 130022356.29548 101316113.81848  24742437.2534   24742441.3344   24742438.8484
       213.000         157.000
 126909537.46348  98890530.76648  24150096.0374   24150099.5874   24150096.3564
       216.000         163.000
 119255878.39548  92926653.40048  22693642.2164   22693644.3564   22693642.7124
       233.000         188.000
 106888142.94248  83289454.35848  20340143.5604   20340144.9294   20340143.3444
       253.000         239.000
 123757979.27748  96434782.84848  23550365.9794   23550367.4524   23550366.0534
       225.000         181.000
 109994690.90948  85710133.87348  20931305.2254   20931307.8434   20931305.2474
       248.000         219.000
 123736104.61548  96417733.64048  23546206.1084   23546208.0954   23546206.3294
       227.000         176.000
 123722016.00148  96406751.19048  23543529.0604   23543530.5274   23543528.8414
       225.000         180.000
 09  1 24  0  3  0.0000000  0 10G 9G 5G10G27G18G15G17G26G28G12
 110235833.18948  85898037.17948  20977193.1604   20977195.7784   20977193.7924
       246.000         213.000
 129980272.78648 101283308.41948  24734440.0484   24734443.3284   24734441.2454
       212.000         153.000
 130133360.26248 101402610.40048  24763560.5074   24763564.6084   24763560.7674
       211.000         153.000
 126978195.35648  98944030.43048  24163161.2324   24163164.7494   24163161.6824
       216.000         161.000
 119207463.22248  92888927.28348  22684429.2574   22684430.8944   22684429.9094
       233.000         188.000
 106896732.81248  83296147.75948  20341778.1154   20341779.4884   20341777.8774
       253.000         239.000
 123717276.25448  96403066.20048  23542619.9084   23542622.1054   23542619.7524
       225.000         182.000
 110053857.58148  85756237.76448  20942564.3564   20942566.9274   20942564.1414
       248.000         219.000
 123820384.93148  96483406.60948  23562244.2224   23562246.0554   23562245.1084
       227.000         177.000
 123614938.53248  96323314.22148  23523153.2984   23523154.7454   23523153.1404
       226.000         181.000
 09  1 24  0  3 30.0000000  0 10G 9G 5G10G27G18G15G17G26G28G12
 110177178.57948  85852332.29948  20966031.5594   20966034.2704   20966032.1404
       245.000         214.000
 129865759.45048 101194077.27348  24712648.8234   24712652.4964   24712648.7804
       212.000         154.000
 130244337.16148 101489085.88948  24784679.1824   24784682.6864   24784679.5304
       213.000         153.000
 127046876.12448  98997547.89548  24176230.6584   24176234.2794   24176230.7844
       211.000         159.000
 119159563.46848  92851602.79648  22675314.2494   22675316.0864   22675314.6404
       235.000         188.000
 106905762.38148  83303183.77748  20343496.4354   20343497.7304   20343496.1524
       253.000         239.000
 123677013.65848  96371692.76748  23534958.2214   23534960.2724   23534957.5684
       227.000         181.000
 110113400.69048  85802634.97748  20953895.1034   20953897.5734   20953894.9394
       249.000         219.000
 123904893.57248  96549257.49148  23578325.6674   23578327.8914   23578326.5144
       226.000         176.000
 123508056.50148  96240029.54448  23502814.1244   23502816.0354   23502813.9044
       225.000         181.000
 09  1 24  0  4  0.0000000  0 10G 9G 5G10G27G18G15G17G26G28G12
 110118817.04348  85806855.78648  20954925.8454   20954928.4294   20954925.8954
       246.000         214.000
 129751339.59048 101104918.93948  24690875.2004   24690878.3854   24690875.7344
       211.000         152.000
 130355285.45148 101575539.05948  24805791.5744   24805795.5744   24805793.3914
       210.000         149.000
 127115580.85948  99051084.04348  24189304.6794   24189308.1524   24189305.1384
       214.000         159.000
 119112182.08248  92814682.21648  22666298.0844   22666299.7274   22666298.3384
       235.000         189.000
 106915233.62948  83310563.96648  20345298.7134   20345300.1034   20345298.4884
       254.000         239.000
 123637194.89448  96340665.14848  23527381.3804   23527383.0134   23527381.2204
       227.000         182.000
 110173320.79548  85849325.97048  20965297.5844   20965299.9874   20965297.4814
       248.000         219.000
 123989629.52348  96615285.48448  23594450.2054   23594452.5244   23594451.1164
       224.000         178.000
 123401373.10448  96156899.64648  23482512.5194   23482514.9854   23482512.3894
       226.000         181.000
 09  1 24  0  4 30.0000000  0 10G 9G 5G10G27G18G15G17G26G28G12
 110060747.90648  85761607.11948  20943875.6564   20943878.0784   20943876.0304
       246.000         214.000
 129637014.32348 101015834.31848  24669121.1634   24669123.2724   24669121.3054
       213.000         151.000
 130466201.82448 101661967.42648  24826898.4624   24826901.2744   24826899.2134
       211.000         147.000
 127184308.90948  99104638.35048  24202382.9944   24202386.5394   24202382.7534
       212.000         156.000
 119065319.36948  92778165.81448  22657380.3004   22657382.0954   22657381.2694
       232.000         187.000
 106925146.16048  83318288.01448  20347185.0824   20347186.4934   20347184.8804
       253.000         239.000
 123597821.14048  96309984.30048  23519888.5324   23519890.2784   23519888.2704
       227.000         182.000
 110233616.46048  85896309.59948  20976771.3814   20976773.8944   20976771.3704
       248.000         219.000
 124074589.82948  96681488.32348  23610617.8184   23610619.7394   23610618.3194
       228.000         176.000
 123294889.40648  96073925.35348  23462249.3544   23462251.7464   23462249.4204
       225.000         180.000
 09  1 24  0  5  0.0000000  0 10G 9G 5G10G27G18G15G17G26G28G12
 110002972.86248  85716587.61548  20932881.4484   20932883.8094   20932882.0154
       246.000         214.000
 129522786.55548 100926825.66848  24647383.5534   24647385.3214   24647384.8214
       206.000         148.000
 130577085.17648 101748370.03748  24847998.7914   24848002.0234   24848000.0304
       213.000         152.000
 127253061.03448  99158211.42448  24215465.6674   24215469.4394   24215465.9514
       211.000         156.000
 119018978.35348  92742055.91348  22648561.9234   22648563.5164   22648562.2804
       233.000         188.000
 106935501.75548  83326357.30448  20349155.6714   20349157.0874   20349155.4614
       253.000         239.000
 123558895.23648  96279652.42948  23512481.1024   23512483.1394   23512480.8294
       224.000         182.000
 110294288.13448  85943586.21348  20988316.7934   20988319.3064   20988316.6904
       248.000         219.000
 124159773.12748  96747864.89948  23626827.6484   23626829.4464   23626828.8004
       227.000         176.000
 123188608.89548  95991109.39448  23442024.9024   23442027.1844   23442024.8754
       224.000         181.000
 09  1 24  0  5 30.0000000  0 10G 9G 5G10G27G18G15G17G26G28G12
 109945490.87248  85671796.46148  20921942.8994   20921945.3334   20921943.0344
       246.000         214.000
 129408657.06348 100837893.63748  24625665.1024   24625667.4614   24625665.7154
       210.000         151.000
 130687931.07748 101834743.41648  24869092.6744   24869095.9434   24869093.3714
       214.000         159.000
 127321835.84548  99211802.16548  24228553.2174   24228557.0674   24228553.3464
       209.000         156.000
 118973159.21248  92706352.69348  22639842.6824   22639844.9234   22639843.9134
       235.000         190.000
 106946299.79548  83334771.35648  20351210.5064   20351211.9044   20351210.2574
       253.000         239.000
 123520418.21848  96249670.33448  23505159.1234   23505161.2224   23505158.6774
       228.000         182.000
 110355333.75148  85991154.22048  20999933.4144   20999935.8474   20999933.2124
       248.000         218.000
 124245175.60748  96814412.28748  23643079.4284   23643080.9694   23643079.8814
       227.000         177.000
 123082532.28748  95908452.29548  23421839.5804   23421841.2334   23421839.1284
       228.000         182.000
 09  1 24  0  6  0.0000000  0 10G 9G 5G10G27G18G15G17G26G28G12
 109888303.68348  85627235.02548  20911060.3764   20911063.2054   20911060.8064
       246.000         215.000
 129294628.68548 100749040.35848  24603966.7394   24603969.3044   24603968.0304
       215.000         158.000
 130798738.30448 101921086.68248  24890178.3554   24890182.0004   24890179.1474
       212.000         156.000
 127390634.09948  99265411.17548  24241645.3324   24241649.0924   24241645.7124
       211.000         157.000
 118927864.42548  92671058.05748  22631223.7944   22631225.5404   22631224.6774
       234.000         189.000
 106957541.62248  83343531.21848  20353349.6724   20353351.2464   20353349.4894
       253.000         239.000
 123482393.09348  96220040.37148  23497923.2384   23497925.1834   23497923.5264
       225.000         181.000
 110416753.39748  86039013.68148  21011621.1824   21011623.6674   21011621.2004
       248.000         218.000
 124330796.08848  96881129.54448  23659372.3154   23659373.9744   23659373.1784
       225.000         175.000
 122976662.68548  95825956.52748  23401693.2174   23401694.5604   23401693.2854
       228.000         182.000
 09  1 24  0  6 30.0000000  0 10G 9G 5G10G27G18G15G17G26G28G12
 109831410.88948  85582902.98948  20900234.1634   20900236.7474   20900234.1554
       246.000         215.000
 129180702.90748 100660267.05348  24582287.7004   24582290.1584   24582288.6254
       213.000         161.000
 130909504.16848 102007397.68348  24911255.3394   24911259.2674   24911256.2334
       202.000         141.000
 127459455.43248  99319038.15448  24254741.8884   24254745.0294   24254742.0104
       215.000         158.000
 118883094.99148  92636172.77948  22622704.1514   22622705.9234   22622705.0054
       236.000         189.000
 106969227.58348  83352637.15548  20355573.4664   20355575.0264   20355573.1194
       253.000         239.000
 123444821.64148  96190763.90848  23490773.3694   23490775.4484   23490772.9224
       224.000         181.000
 110478546.43848  86087164.09848  21023379.9254   21023382.5304   21023379.7734
       248.000         218.000
 124416632.05648  96948014.70848  23675706.4784   23675708.1004   23675706.8604
       227.000         176.000
 122871001.76948  95743623.35548  23381586.8584   23381587.7614   23381587.2114
       226.000         182.000
 09  1 24  0  7  0.0000000  0 10G 9G 5G10G27G18G15G17G26G28G12
 109774813.52648  85538801.15548  20889464.1054   20889466.6094   20889464.5124
       247.000         215.000
 129066882.04248 100571575.48448  24560627.6504   24560630.7804   24560628.6164
       216.000         161.000
 131020226.48548 102093674.84548  24932325.3944   24932326.5414   24932325.3034
       211.000         136.000
 127528300.06248  99372683.30048  24267842.6584   24267845.9554   24267842.9584
       211.000         156.000
 118838852.67248  92601698.24148  22614285.1534   22614286.9954   22614285.7344
       234.000         188.000
 106981358.48648  83362089.79948  20357881.9394   20357883.3764   20357881.6724
       253.000         239.000
 123407705.91448  96161842.58548  23483710.4944   23483712.6554   23483710.1834
       227.000         182.000
 110540712.13148  86135604.89348  21035209.6244   21035212.3794   21035209.5324
       248.000         218.000
 124502681.40748  97015066.13848  23692081.0664   23692082.8424   23692081.9584
       225.000         175.000
 122765552.14948  95661454.81848  23361519.7534   23361521.0104   23361519.1604
       225.000         181.000
 09  1 24  0  7 30.0000000  0 10G 9G 5G10G27G18G15G17G26G28G12
 109718513.48448  85494930.99948  20878750.3834   20878753.0714   20878750.6984
       246.000         215.000
 128953169.44848 100482968.29348  24538989.3344   24538992.2064   24538989.9734
       212.000         160.000
 131130903.68148 102179916.88848  24953386.8574   24953390.2124   24953388.0334
       215.000         153.000
 127597169.19948  99426347.56248  24280948.0734   24280950.9984   24280947.9244
       211.000         154.000
 118795140.33248  92567636.67348  22605966.8804   22605968.4954   22605967.1394
       235.000         190.000
 106993936.60348  83371890.92448  20360275.5244   20360276.8674   20360275.3334
       253.000         239.000
 123371049.25648  96133278.95848  23476734.8834   23476736.8144   23476735.1544
       225.000         181.000
 110603251.37748  86184336.76948  21047110.5284   21047113.3264   21047110.3814
       249.000         218.000
 124588943.49348  97082283.33948  23708495.9494   23708497.7984   23708496.4074
       227.000         174.000
 122660317.16848  95579453.55548  23341494.5944   23341496.2174   23341494.1404
       230.000         185.000
 09  1 24  0  8  0.0000000  0 10G 9G 5G10G27G18G15G17G26G28G12
 109662509.88948  85451291.83348  20868093.3284   20868095.9414   20868093.3054
       246.000         215.000
 128839565.80348 100394445.97848  24517370.7844   24517374.1374   24517371.0154
       215.000         160.000
 131241532.76148 102266121.32848  24974439.5244   24974443.2164   24974440.7634
       214.000         157.000
 127666061.84748  99480030.09748  24294057.3804   24294061.3524   24294057.5714
       214.000         155.000
 118751958.28948  92533988.31148  22597749.9514   22597751.3304   22597750.2524
       235.000         190.000
 107006960.79848  83382039.64548  20362753.9294   20362755.3584   20362753.7464
       253.000         239.000
 123334852.40948  96105073.63248  23469846.8564   23469849.2334   23469846.4814
       227.000         181.000
 110666162.30448  86233358.25948  21059082.1224   21059084.7054   21059082.0384
       249.000         218.000
 124675414.70848  97149663.50148  23724951.1644   23724952.5524   23724951.6514
       223.000         174.000
 122555297.67648  95497620.19548  23321510.1564   23321512.0244   23321510.1784
       229.000         185.000
 09  1 24  0  8 30.0000000  0 10G 9G 5G10G27G18G15G17G26G28G12
 109606802.20948  85407883.25648  20857492.5364   20857494.9784   20857492.7164
       245.000         216.000
 128726072.02548 100306009.28748  24495773.9574   24495777.4954   24495773.9614
       215.000         161.000
 131352109.76048 102352285.13248  24995481.8014   24995485.1524   24995482.5034
       208.000         149.000
 127734976.59648  99533729.88048  24307171.6914   24307174.6984   24307172.0564
       211.000         155.000
 118709306.82748  92500753.40048  22589633.7144   22589635.3594   22589634.2344
       234.000         192.000
 107020431.29948  83392536.12848  20365317.2504   20365318.7524   20365316.9994
       252.000         238.000
 123299116.35448  96077227.34648  23463046.4704   23463048.8214   23463046.3494
       226.000         181.000
 110729442.83648  86282667.75748  21071124.0904   21071126.5174   21071123.8514
       249.000         218.000
 124762091.60948  97217203.94248  23741445.1494   23741446.7544   23741444.7894
       226.000         174.000
 122450494.73648  95415955.59148  23301566.4344   23301568.9414   23301566.1904
       226.000         185.000
 09  1 24  0  9  0.0000000  0 10G 9G 5G10G27G18G15G17G26G28G12
 109551391.84148  85364706.35348  20846948.2544   20846950.7714   20846948.2854
       245.000         216.000
 128612690.83148 100217660.31448  24474198.0974   24474201.7144   24474198.6974
       219.000         163.000
 131462632.99948 102438407.09548  25016513.3014   25016516.2044   25016514.9814
       216.000         149.000
 127803914.29848  99587447.54848  24320290.8354   24320293.1484   24320290.3114
       214.000         156.000
 118667188.05148  92467933.57048  22581618.8014   22581620.1894   22581618.9294
       235.000         191.000
 107034348.88948  83403380.99948  20367965.6294   20367967.1034   20367965.2614
       252.000         238.000
 123263843.95948  96049742.37548  23456334.6744   23456336.6014   23456334.4174
       225.000         181.000
 110793093.49948  86332265.66548  21083236.3814   21083238.9744   21083236.3774
       248.000         217.000
 124848972.96848  97284903.70148  23757978.0074   23757979.8514   23757978.6944
       225.000         174.000
 122345911.17248  95334461.90148  23281664.9764   23281666.7964   23281664.9754
       225.000         183.000
 09  1 24  0  9 30.0000000  0 10G 9G 5G10G27G18G15G17G26G28G12
 109496278.20048  85321760.66048  20836460.4284   20836463.1324   20836460.3064
       246.000         216.000
 128499423.35048 100129399.94848  24452644.0994   24452647.4924   24452645.7844
       217.000         164.000
 131573099.57948 102524484.99848  25037534.9254   25037536.8894   25037534.6014
       216.000         148.000
 127872874.35048  99641182.63048  24333412.8944   24333415.8444   24333412.9824
       212.000         156.000
 118625602.57848  92435529.30148  22573704.9644   22573706.8954   22573705.6964
       234.000         190.000
 107048713.63948  83414574.30648  20370699.2284   20370700.5824   20370698.9724
       252.000         238.000
 123229036.21948  96022619.45848  23449711.0214   23449713.1394   23449710.6964
       226.000         182.000
 110857112.24948  86382150.40148  21095418.7274   21095421.2614   21095418.5964
       248.000         217.000
 124936055.75048  97352760.39448  23774549.6134   23774551.2964   23774550.2544
       227.000         174.000
 122241548.59548  95253140.42348  23261805.3334   23261807.0634   23261805.2004
       226.000         185.000
 09  1 24  0 10  0.0000000  0 10G 9G 5G10G27G18G15G17G26G28G12
 109441462.75148  85279047.33048  20826029.4654   20826032.0414   20826029.7094
       246.000         216.000
 128386272.39748 100041230.36848  24431112.2534   24431114.9824   24431113.0624
       219.000         159.000
 131683507.80648 102610517.44448  25058544.7284   25058547.5754   25058545.9614
       212.000         147.000
 127941857.21948  99694935.50148  24346539.8624   24346543.7854   24346540.7224
       208.000         155.000
 118584552.72748  92403542.40148  22565893.7004   22565895.2794   22565894.0484
       235.000         192.000
 107063526.84848  83426117.05848  20373518.0044   20373519.4714   20373517.8774
       252.000         238.000
 123194696.03548  95995860.86448  23443176.3084   23443177.9874   23443176.0074
       228.000         183.000
 110921499.75848  86432322.48148  21107671.3324   21107673.7304   21107671.2474
       248.000         217.000
 125023338.41148  97420772.84848  23791158.8904   23791160.4684   23791159.4244
       224.000         172.000
 122137409.79948  95171993.32848  23241988.6534   23241990.6494   23241988.2054
       228.000         186.000
 09  1 24  0 10 30.0000000  0 10G 9G 5G10G27G18G15G17G26G28G12
 109386945.70148  85236566.52348  20815655.0914   20815657.8804   20815655.1304
       247.000         216.000
 128273239.63748  99953152.90948  24409602.3594   24409605.3334   24409602.2544
       212.000         159.000
 131793855.04648 102696502.24548  25079543.2074   25079546.7924   25079544.7974
       203.000         147.000
 128010862.58748  99748705.94048  24359671.5534   24359674.6724   24359671.5854
       209.000         156.000
 118544039.38448  92371973.55948  22558184.2574   22558185.6124   22558184.9824
       235.000         191.000
 107078788.74748  83438009.43948  20376422.0924   20376423.7124   20376421.8244
       251.000         238.000
 123160824.59248  95969467.53248  23436731.0734   23436732.6214   23436730.9234
       227.000         183.000
 110986254.71748  86482780.88748  21119993.6924   21119996.1354   21119993.5494
       249.000         217.000
 125110818.49748  97488939.14048  23807805.6194   23807807.3654   23807806.0004
       223.000         170.000
 122033496.45548  95091021.89648  23222214.6724   23222216.5054   23222215.0244
       229.000         185.000
 09  1 24  0 11  0.0000000  0 10G 9G 5G10G27G18G15G17G26G28G12
 109332727.96548  85194318.94148  20805337.9604   20805340.3734   20805338.3354
       246.000         216.000
 128160327.60548  99865169.52248  24388115.4154   24388119.1264   24388116.1364
       212.000         158.000
 131904139.26448 102782437.96148  25100528.6774   25100532.9214   25100528.8194
       213.000         149.000
 128079891.15648  99802494.41548  24372806.8694   24372810.3204   24372806.8524
       211.000         156.000
 118504064.62848  92340824.39348  22550577.3974   22550578.4514   22550577.9704
       234.000         190.000
 107094500.33848  83450252.23148  20379411.9834   20379413.5654   20379411.5294
       253.000         238.000
 123127424.52148  95943441.49048  23430375.0804   23430376.9144   23430374.7394
       230.000         185.000
 111051377.02048  86533525.52448  21132386.0484   21132388.6544   21132385.8484
       248.000         216.000
 125198494.31148  97557257.97048  23824489.7454   23824491.2494   23824489.9484
       224.000         169.000
 121929811.26648  95010228.25348  23202483.7464   23202485.4234   23202483.5554
       227.000         184.000
 09  1 24  0 11 30.0000000  0 10G 9G 5G10G27G18G15G17G26G28G12
 109278810.52348  85152305.35148  20795077.7294   20795080.2724   20795077.6004
       246.000         216.000
 128047538.63148  99777282.03448  24366652.8024   24366656.4294   24366653.6164
       218.000         160.000
 132014358.61248 102868323.16948  25121503.3604   25121505.7964   25121504.3114
       213.000         149.000
 128148943.08148  99856301.10248  24385946.4124   24385950.3504   24385945.9834
       206.000         155.000
 118464630.07948  92310096.17548  22543072.7964   22543074.8394   22543073.4894
       234.000         191.000
 107110662.61648  83462846.20548  20382487.6014   20382489.1684   20382487.4014
       252.000         238.000
 123094498.41348  95917784.78848  23424109.4714   23424111.2704   23424109.5374
       229.000         184.000
 111116866.24548  86584556.07848  21144848.2674   21144850.8384   21144848.1854
       248.000         216.000
 125286364.34948  97625728.11648  23841210.8544   23841212.5424   23841210.8864
       224.000         169.000
 121826356.72048  94929614.31748  23182796.7144   23182798.6554   23182796.4574
       229.000         186.000
 09  1 24  0 12  0.0000000  0 10G 9G 5G10G27G18G15G17G26G28G12
 109225192.44848  85110525.04548  20784874.5204   20784877.2444   20784874.6184
       248.000         217.000
 127934873.65648  99689491.15148  24345213.9404   24345217.2134   24345213.8424
       217.000         161.000
 132124509.74048 102954155.19948  25142464.1094   25142467.6524   25142464.5504
       209.000         146.000
 128218017.41048  99910125.23448  24399091.2704   24399094.4354   24399091.2774
       211.000         156.000
 118425736.08948  92279789.16848  22535671.4484   22535673.5714   22535671.8234
       234.000         191.000
 107127275.07948  83475790.97848  20385648.9104   20385650.4084   20385648.5374
       252.000         238.000
 123062046.88848  95892497.89448  23417934.1374   23417936.0214   23417933.7254
       228.000         184.000
 111182720.89348  86635871.38748  21157379.9164   21157382.4864   21157379.8984
       247.000         216.000
 125374425.18848  97694346.94448  23857968.7154   23857970.0034   23857969.1764
       225.000         172.000
 121723134.05248  94849181.07448  23163154.3324   23163156.2924   23163154.2484
       227.000         187.000
 09  1 24  0 12 30.0000000  0 10G 9G 5G10G27G18G15G17G26G28G12
 109171874.71348  85068978.76048  20774728.7094   20774731.1514   20774728.9364
       247.000         217.000
 127822335.17748  99601798.82448  24323798.7324   24323801.3534   24323798.5094
       219.000         162.000
 132234590.55348 103039932.42448  25163412.4894   25163414.5224   25163414.6074
       210.000         146.000
 128287114.63348  99963967.18948  24412239.7214   24412243.3354   24412239.5204
       209.000         156.000
 118387384.50448  92249904.81548  22528373.6244   22528375.4564   22528374.4174
       234.000         192.000
 107144338.75548  83489087.34948  20388895.9724   20388897.4934   20388895.8064
       252.000         237.000
 123030072.47648  95867582.77248  23411849.6934   23411851.4184   23411849.5364
       229.000         185.000
 111248940.44848  86687471.02948  21169981.0664   21169983.7524   21169980.8894
       248.000         216.000
 125462675.25748  97763113.23448  23874761.9264   23874763.6004   23874762.2434
       225.000         172.000
 121620145.65748  94768930.40548  23143556.2404   23143558.5924   23143555.7554
       228.000         187.000
 09  1 24  0 13  0.0000000  0 10G 9G 5G10G27G18G15G17G26G28G12
 109118857.64348  85027666.76448  20764639.8294   20764642.3784   20764640.0794
       247.000         217.000
 127709924.73548  99514206.29148  24302407.3114   24302409.9984   24302407.9364
       217.000         164.000
 132344598.34848 103125652.76648  25184344.8524   25184349.1374   25184346.8944
       206.000         146.000
 128356234.28048 100017826.66648  24425393.0954   24425396.5924   24425393.2304
       208.000         158.000
 118349575.97148  92220443.61748  22521178.5094   22521180.6514   22521179.0284
       234.000         191.000
 107161853.90348  83502735.50748  20392229.0224   20392230.5004   20392228.7944
       252.000         237.000
 122998576.51748  95843040.47848  23405856.0714   23405858.1474   23405856.2714
       227.000         185.000
 111315523.93548  86739354.25848  21182651.6074   21182654.0684   21182651.5244
       248.000         216.000
 125551111.71248  97832024.73548  23891590.7694   23891592.3834   23891591.7924
       222.000         170.000
 121517393.46448  94688863.75248  23124003.4274   23124005.0754   23124003.7154
       228.000         186.000
 09  1 24  0 13 30.0000000  0 10G 9G 5G10G27G18G15G17G26G28G12
 109066142.40748  84986589.96748  20754608.3094   20754610.8604   20754608.5124
       247.000         217.000
 127597644.75148  99426715.42448  24281040.6384   24281044.1644   24281040.6524
       217.000         164.000
 132454531.88148 103211315.21148  25205265.2624   25205267.8074   25205265.5514
       214.000         146.000
 128425377.11548 100071704.19448  24438550.4674   24438553.7814   24438550.7584
       211.000         158.000
 118312312.46748  92191407.12448  22514087.6744   22514089.5904   22514088.1574
       233.000         191.000
 107179821.32948  83516736.09248  20395648.1524   20395649.5714   20395647.8144
       252.000         237.000
 122967560.81048  95818872.41048  23399953.7654   23399956.1264   23399953.7144
       229.000         185.000
 111382470.81748  86791520.65648  21195391.1454   21195393.6034   21195391.0184
       248.000         215.000
 125639732.92348  97901080.21548  23908454.6954   23908456.1784   23908455.2494
       222.000         168.000
 121414879.77148  94608982.97148  23104495.3674   23104496.8994   23104495.6044
       227.000         185.000
 09  1 24  0 14  0.0000000  0 10G 9G 5G10G27G18G15G17G26G28G12
 109013728.80048  84945748.21048  20744634.2734   20744636.9554   20744634.5814
       246.000         217.000
 127485496.78048  99339327.41948  24259699.3764   24259702.9584   24259700.2334
       219.000         163.000
 132564387.67548 103296917.09948  25226170.3784   25226173.3704   25226171.3294
       209.000         145.000
 128494542.66948 100125599.43048  24451712.8634   24451715.4124   24451714.3774
       211.000         159.000
 118275594.87148  92162796.00848  22507100.6114   22507102.0374   22507100.8774
       234.000         192.000
 107198240.91848  83531089.01248  20399153.3344   20399154.6874   20399153.0124
       252.000         237.000
 122937027.30448  95795080.06648  23394143.6734   23394145.5884   23394144.1824
       228.000         186.000
 111449780.21748  86843969.52948  21208199.6454   21208202.3674   21208199.5314
       247.000         216.000
 125728536.56948  97970277.84648  23925353.5284   23925354.6934   23925353.7724
       221.000         164.000
 121312606.46948  94529289.49448  23085033.4024   23085035.1294   23085032.9694
       228.000         186.000
 09  1 24  0 14 30.0000000  0 10G 9G 5G10G27G18G15G17G26G28G12
 108961617.28448  84905141.84048  20734717.7774   20734720.3894   20734718.0114
       246.000         217.000
 127373482.70048  99252043.72348  24238384.3844   24238387.6334   24238385.8204
       219.000         163.000
 132674163.42348 103382456.62948  25247060.7994   25247063.0424   25247061.9304
       205.000         141.000
 128563730.93048 100179512.34148  24464878.8134   24464881.7624   24464879.6704
       211.000         160.000
 118239424.00648  92134610.91148  22500217.2844   22500219.7454   22500218.2804
       235.000         192.000
 107217113.24948  83545794.71748  20402744.5484   20402745.9684   20402744.2914
       252.000         237.000
 122906977.52448  95771664.64148  23388425.2904   23388427.0104   23388425.1284
       230.000         184.000
 111517451.16448  86896700.13248  21221077.1154   21221079.5184   21221076.9594
       247.000         215.000
 125817520.27748  98039615.80248  23942286.5674   23942287.7104   23942287.0634
       222.000         164.000
 121210575.60648  94449784.93048  23065617.6134   23065619.0864   23065617.5964
       227.000         186.000
 09  1 24  0 15  0.0000000  0 10G 9G 5G10G27G18G15G17G26G28G12
 108909808.40648  84864771.29148  20724859.0194   20724861.4594   20724858.8074
       247.000         217.000
 127261604.59348  99164865.99048  24217094.9554   24217097.9544   24217095.4494
       219.000         164.000
 132783857.22048 103467932.28048  25267934.3584   25267935.7844   25267934.9744
       207.000         141.000
 128632942.02248 100233443.04448  24478048.7824   24478052.2884   24478049.5194
       211.000         161.000
 118203801.32448  92106852.96948  22493439.0224   22493441.0994   22493439.2764
       235.000         193.000
 107236438.97648  83560853.71948  20406422.1254   20406423.5414   20406421.8814
       251.000         236.000
 122877413.53148  95748627.76548  23382799.4914   23382801.2754   23382799.8794
       229.000         185.000
 111585482.90848  86949711.87148  21234023.1124   21234025.6824   21234023.0544
       247.000         215.000
 125906681.91148  98109092.39448  23959253.6044   23959254.1754   23959254.1784
       221.000         162.000
 121108789.16448  94370470.84148  23046247.8984   23046249.7454   23046247.2044
       227.000         188.000
 09  1 24  0 15 30.0000000  0 10G 9G 5G10G27G18G15G17G26G28G12
 108858303.10848  84824637.30548  20715057.8324   20715060.2914   20715057.9584
       248.000         218.000
 127149864.76048  99077796.00148  24195831.2314   24195834.7614   24195831.6984
       219.000         165.000
 132893466.67948 103553342.25648  25288792.3634   25288794.6644   25288793.2144
       209.000         145.000
 128702176.01148 100287391.57748  24491224.1634   24491227.4704   24491224.3344
       210.000         162.000
 118168728.31348  92079523.35448  22486764.6744   22486766.5944   22486765.3044
       235.000         192.000
 107256218.63448  83576266.43348  20410186.0044   20410187.4894   20410185.7244
       251.000         236.000
 122848337.19448  95725970.87648  23377266.7014   23377268.2584   23377266.4164
       230.000         185.000
 111653874.86248  87003004.30048  21247037.7234   21247040.2544   21247037.7494
       247.000         215.000
 125996019.79448  98178706.34848  23976254.1354   23976254.7964   23976253.9424
       221.000         161.000
 121007250.01748  94291349.44548  23026925.8634   23026927.8404   23026925.7254
       227.000         187.000
 09  1 24  0 16  0.0000000  0 10G 9G 5G10G27G18G15G17G26G28G12
 108807101.40648  84784739.88448  20705314.5934   20705317.0524   20705315.0974
       248.000         218.000
 127038264.70948  98990834.92948  24174594.6314   24174597.7014   24174595.0134
       221.000         165.000
 133002989.21448 103638684.44848  25309633.2344   25309637.0054   25309633.8254
       211.000         144.000
 128771432.93948 100341357.98548  24504403.1894   24504406.6284   24504403.3384
       216.000         163.000
 118134205.96848  92052622.81948  22480195.5164   22480196.9884   22480196.5714
       236.000         194.000
 107276452.48748  83592033.06348  20414036.4684   20414037.9414   20414036.1884
       252.000         236.000
 122819749.97148  95703695.12348  23371826.2674   23371828.0694   23371826.2254
       227.000         184.000
 111722626.21548  87056576.77848  21260120.6804   21260123.0994   21260120.5694
       247.000         214.000
 126085531.31048  98248455.58348  23993287.5554   23993288.3564   23993288.4094
       224.000         164.000
 120905959.24548  94212421.56748  23007651.5644   23007652.7454   23007651.5974
       231.000         188.000
 09  1 24  0 16 30.0000000  0 10G 9G 5G10G27G18G15G17G26G28G12
 108756203.53148  84745079.21348  20695629.0184   20695631.4964   20695629.4244
       248.000         218.000
 126926806.34748  98903984.27548  24153384.6504   24153388.1944   24153385.2204
       220.000         165.000
 133112422.26948 103723956.92648  25330458.2614   25330460.4164   25330460.1164
       206.000         142.000
 128840712.47948 100395342.02148  24517586.6014   24517590.0054   24517587.1664
       215.000         163.000
 118100235.10248  92026152.00348  22473731.4614   22473732.6734   22473731.6334
       236.000         193.000
 107297140.56648  83608153.63948  20417973.2364   20417974.7204   20417973.0014
       251.000         236.000
 122791653.35048  95681801.63548  23366479.9184   23366481.7564   23366479.7984
       230.000         186.000
 111791735.78848  87110428.38148  21273271.7744   21273274.1424   21273271.4634
       248.000         215.000
 126175214.06748  98318338.22648  24010353.7844   24010354.7264   24010354.6904
       221.000         161.000
 120804918.74248  94133688.72448  22988423.9794   22988425.4944   22988423.9944
       228.000         187.000
 09  1 24  0 17  0.0000000  0 10G 9G 5G10G27G18G15G17G26G28G12
 108705610.20248  84705655.84748  20686001.3564   20686003.8214   20686001.6424
       248.000         219.000
 126815491.65048  98817245.56048  24132202.1274   24132205.4354   24132202.7104
       221.000         167.000
 133221763.97448 103809158.22848  25351264.6964   25351266.8544   25351264.3664
       204.000         137.000
 128910014.82248 100449343.87348  24530774.9114   24530777.0814   24530775.4184
       212.000         160.000
 118066816.80948  92000111.76948  22467372.1314   22467373.1914   22467373.0484
       237.000         193.000
 107318283.37148  83624628.55148  20421996.5264   20421998.1014   20421996.3284
       251.000         236.000
 122764048.95048  95660291.70748  23361226.8334   23361228.7934   23361226.8924
       228.000         186.000
 111861202.87448  87164558.57048  21286490.9784   21286493.4014   21286491.0714
       247.000         214.000
 126265066.38048  98388353.01748  24027451.8174   24027453.1834   24027452.4184
       220.000         163.000
 120704130.97148  94055152.80048  22969244.4224   22969246.2614   22969244.1904
       229.000         188.000
 09  1 24  0 17 30.0000000  0 10G 9G 5G10G27G18G15G17G26G28G12
 108655322.28048  84666470.46248  20676431.9284   20676434.3474   20676431.9754
       248.000         218.000
 126704322.99048  98730620.64148  24111047.7554   24111050.6324   24111048.5524
       219.000         166.000
 133331012.51148 103894286.95348  25372053.9584   25372056.4414   25372054.2054
       206.000         139.000
 128979340.37948 100503363.75348  24543966.6964   24543969.6714   24543967.3934
       209.000         160.000
 118033952.58048  91974503.25848  22461118.3394   22461119.3614   22461118.5104
       236.000         194.000
 107339882.11048  83641458.72848  20426106.6924   20426108.2084   20426106.3864
       252.000         236.000
 122736939.14148  95639167.18548  23356067.8604   23356069.7484   23356067.8914
       227.000         186.000
 111931027.09148  87218967.04448  21299778.0634   21299780.5714   21299777.9574
       246.000         214.000
 126355086.23648  98458498.33948  24044581.6974   24044583.4864   24044582.3584
       221.000         161.000
 120603598.24148  93976815.62648  22950113.4574   22950115.3514   22950112.9934
       230.000         189.000
 09  1 24  0 18  0.0000000  0 10G 9G 5G10G27G18G15G17G26G28G12
 108605340.58748  84627523.69948  20666920.5344   20666923.0504   20666920.7844
       248.000         218.000
 126593302.61648  98644111.28848  24089920.7654   24089924.1234   24089921.1484
       220.000         168.000
 133440165.60148 103979341.33448  25392825.2034   25392827.9564   25392827.0014
       204.000         138.000
 129048689.41048 100557401.92648  24557163.3484   24557165.8554   24557163.0784
       213.000         161.000
 118001643.85748  91949327.63448  22454970.0264   22454971.4604   22454970.5564
       237.000         194.000
 107361937.02648  83658644.36948  20430303.6904   20430305.1144   20430303.4784
       251.000         236.000
 122710325.77448  95618429.52248  23351003.5014   23351005.3684   23351003.4464
       229.000         187.000
 112001207.68648  87273653.21448  21313132.9794   21313135.5804   21313132.9054
       246.000         213.000
 126445271.60448  98528772.64248  24061743.8954   24061745.4724   24061744.8674
       219.000         163.000
 120503323.02548  93898679.12048  22931031.7214   22931033.8034   22931031.6844
       231.000         189.000
 09  1 24  0 18 30.0000000  0 10G 9G 5G10G27G18G15G17G26G28G12
 108555664.10648  84588814.76148  20657467.5114   20657469.9234   20657467.9754
       248.000         218.000
 126482431.31148  98557718.06448  24068822.8194   24068825.9964   24068823.8024
       217.000         167.000
 133549219.76448 104064318.58148  25413578.8214   25413581.6454   25413579.5824
       206.000         138.000
 129118060.99148 100611457.70348  24570364.3514   24570367.5594   24570364.7394
       212.000         164.000
 117969890.56948  91924584.78848  22448927.7094   22448928.7984   22448928.2774
       238.000         193.000
 107384447.07348  83676184.65948  20434587.1274   20434588.6684   20434586.8084
       251.000         236.000
 122684209.20748  95598078.94148  23346033.7234   23346035.5654   23346033.7324
       229.000         186.000
 112071742.95148  87328615.74948  21326555.4504   21326557.8594   21326555.5074
       246.000         213.000
 126535619.50348  98599173.59048  24078936.1944   24078938.4334   24078935.9694
       218.000         163.000
 120403306.23048  93820743.94648  22911999.7424   22912000.8444   22911999.8004
       231.000         189.000
 09  1 24  0 19  0.0000000  0 10G 9G 5G10G27G18G15G17G26G28G12
 108506293.84948  84550344.43948  20648072.5914   20648075.1304   20648073.1004
       248.000         219.000
 126371711.54748  98471442.94448  24047753.6494   24047756.4894   24047754.3134
       218.000         167.000
 133658172.92848 104149217.10048  25434310.7494   25434314.4084   25434313.0094
       207.000         142.000
 129187455.70748 100665531.50648  24583569.7934   24583572.7284   24583569.9904
       215.000         163.000
 117938694.31448  91900276.01048  22442991.0104   22442992.3274   22442991.6944
       236.000         193.000
 107407413.61848  83694080.66048  20438957.5214   20438959.1024   20438957.3044
       251.000         236.000
 122658591.63148  95578117.20148  23341159.0284   23341160.9204   23341158.9374
       230.000         188.000
 112142632.45048  87383854.31548  21340045.2924   21340047.5994   21340045.1424
       247.000         212.000
 126626128.20348  98669699.85448  24096159.8974   24096161.7034   24096160.4734
       217.000         160.000
 120303550.32548  93743012.08348  22893016.5924   22893018.3194   22893016.7174
       231.000         191.000
 09  1 24  0 19 30.0000000  0 10G 9G 5G10G27G18G15G17G26G28G12
 108457230.39748  84512113.18948  20638736.2954   20638738.6984   20638736.4864
       248.000         219.000
 126261144.93248  98385287.15248  24026713.1444   24026716.4784   24026713.3384
       219.000         168.000
 133767023.15248 104234035.38448  25455024.5864   25455026.7404   25455026.1564
       207.000         139.000
 129256873.25948 100719623.10448  24596779.4334   24596782.4804   24596779.6944
       212.000         164.000
 117908055.98848  91876401.98948  22437160.6354   22437162.2644   22437160.7494
       237.000         193.000
 107430836.64848  83712332.36548  20443414.7884   20443416.3094   20443414.5494
       251.000         235.000
 122633474.49948  95558545.42248  23336379.5184   23336381.2314   23336379.3194
       231.000         188.000
 112213875.01248  87439367.99748  21353602.4304   21353604.7714   21353602.5354
       246.000         213.000
 126716795.32348  98740349.53748  24113412.6404   24113414.9874   24113413.4984
       217.000         160.000
 120204056.86448  93665484.73448  22874083.4754   22874085.4094   22874083.0254
       230.000         190.000
 09  1 24  0 20  0.0000000  0 11G 9G 5G10G27G18G15G17G26G22G28G12
 108408474.30648  84474121.43048  20629458.2464   20629460.7414   20629458.2444
       248.000         219.000
 126150733.54348  98299252.30648  24005703.1684   24005706.1924   24005704.3214
       222.000         171.000
 133875768.04048 104318771.62948  25475718.5984   25475721.3924   25475719.9734
       204.000         141.000
 129326313.84948 100773732.63048  24609993.4874   24609996.6664   24609993.2354
       214.000         162.000
 117877976.31048  91852963.26848  22431436.5314   22431438.3354   22431437.2844
       235.000         192.000
 107454716.47448  83730940.02048  20447958.9394   20447960.4234   20447958.5994
       251.000         235.000
 122608859.03948  95539364.54948  23331695.3714   23331696.9764   23331694.8514
       232.000         188.000
 112285470.05048  87495156.33448  21367226.2364   21367228.9264   21367226.2854
       246.000         212.000
 138236445.86158  89924505.41558  24402583.3285   24402582.7365   24402583.9425
       220.000         158.000
 126807619.01748  98811121.24948  24130695.3724   24130698.2964   24130695.2794
       217.000         160.000
 120104828.28048  93588163.76448  22855200.7224   22855202.6904   22855200.3674
       230.000         190.000
 09  1 24  0 20 30.0000000  0 11G 9G 5G10G27G18G15G17G26G22G28G12
 108360025.48248  84436369.10648  20620238.7384   20620241.1024   20620238.9694
       249.000         219.000
 126040478.93048  98213339.63248  23984722.0684   23984725.2374   23984722.9884
       219.000         170.000
 133984404.71548 104403423.56848  25496391.0634   25496394.0254   25496390.7004
       206.000         140.000
 129395777.08648 100827859.82548  24623211.9554   24623214.9524   24623212.4564
       215.000         160.000
 117848456.13148  91829960.52448  22425819.1424   22425820.6354   22425819.2334
       235.000         193.000
 107479053.12848  83749903.63748  20452590.0094   20452591.5794   20452589.6474
       251.000         235.000
 122584746.91848  95520575.87848  23327106.9114   23327108.7154   23327106.5864
       231.000         189.000
 112357416.10548  87551218.18348  21380917.2184   21380919.8264   21380917.0324
       245.000         212.000
 138163134.35448  89867379.52548  24388631.7764   24388632.1994   24388632.6514
       222.000         163.000
 126898596.66148  98882012.91748  24148008.1984   24148010.3714   24148008.5264
       219.000         161.000
 120005866.09548  93511050.38348  22836368.8394   22836370.7534   22836368.4364
       232.000         191.000
 09  1 24  0 21  0.0000000  0 11G 9G 5G10G27G18G15G17G26G22G28G12
 108311884.53848  84398856.68648  20611077.7724   20611080.2834   20611078.1764
       247.000         219.000
 125930383.31548  98127550.85348  23963771.5674   23963774.9974   23963771.7834
       219.000         171.000
 134092931.70448 104487990.04948  25517041.4224   25517046.4764   25517042.2574
       196.000         136.000
 129465263.51348 100882005.08048  24636434.7014   24636437.4584   24636434.6954
       214.000         161.000
 117819496.48248  91807394.56048  22420308.1054   22420309.8594   22420308.4814
       234.000         193.000
 107503847.03248  83769223.55748  20457308.1754   20457309.6464   20457307.9634
       251.000         235.000
 122561139.71348  95502180.67848  23322614.5134   23322616.3944   23322614.5704
       231.000         188.000
 112429712.51048  87607553.03748  21394674.6754   21394677.2864   21394674.5694
       245.000         212.000
 138090203.84448  89810550.55648  24374753.3444   24374753.8374   24374752.8444
       214.000         167.000
 126989726.56648  98953023.20148  24165350.0484   24165352.1024   24165351.1034
       220.000         163.000
 119907172.64848  93434146.40348  22817588.1544   22817590.0514   22817588.3164
       232.000         192.000
 09  1 24  0 21 30.0000000  0 11G 9G 5G10G27G18G15G17G26G22G28G12
 108264053.31948  84361585.61148  20601975.8194   20601978.3004   20601975.6724
       248.000         220.000
 125820449.90848  98041888.46748  23942851.8544   23942855.6604   23942851.8394
       221.000         170.000
 134201347.90648 104572470.19248  25537672.6224   25537677.0574   25537673.3894
       203.000         137.000
 129534774.16848 100936169.25148  24649662.2334   24649665.0834   24649662.7904
       216.000         163.000
 117791099.54948  91785267.07348  22414904.2754   22414906.2854   22414904.7374
       235.000         191.000
 107529099.72748  83788900.97348  20462113.6664   20462115.1324   20462113.4544
       251.000         235.000
 122538040.16648  95484181.04248  23318218.8534   23318220.4444   23318218.9714
       231.000         187.000
 112502359.72348  87664161.24748  21408498.9734   21408501.6204   21408498.8554
       244.000         211.000
 138017657.55648  89754021.03848  24360948.3514   24360949.0194   24360946.4564
       223.000         165.000
 127081007.55448  99024151.25648  24182720.0834   24182722.0704   24182719.8404
       220.000         163.000
 119808750.87548  93357454.12148  22798859.1584   22798861.1224   22798858.8734
       232.000         193.000
 09  1 24  0 22  0.0000000  0 11G 9G 5G10G27G18G15G17G26G22G28G12
 108216531.06748  84324555.28848  20592932.6984   20592935.1914   20592933.0504
       248.000         220.000
 125710679.23548  97956352.89448  23921963.4414   23921966.5714   23921964.2234
       221.000         170.000
 134309649.47248 104656861.02948  25558282.8834   25558285.9604   25558284.5624
       199.000         134.000
 129604307.93348 100990351.36648  24662894.0054   24662897.2054   24662894.3244
       216.000         163.000
 117763264.62548  91763577.51248  22409607.7124   22409609.2554   22409608.1494
       235.000         192.000
 107554810.01248  83808934.95448  20467006.1684   20467007.6734   20467005.8704
       251.000         235.000
 122515448.51048  95466577.16548  23313919.6484   23313921.7104   23313919.2554
       230.000         188.000
 112575355.50148  87721041.07248  21422389.6454   21422392.2634   21422389.5374
       245.000         211.000
 137945496.84048  89697791.81348  24347217.2064   24347217.6094   24347217.5544
       218.000         165.000
 127172436.22448  99095394.35048  24200118.9054   24200120.6714   24200119.5484
       218.000         163.000
 119710601.72448  93280974.26448  22780182.0214   22780183.9934   22780181.9404
       232.000         193.000
 09  1 24  0 22 30.0000000  0 11G 9G 5G10G27G18G15G17G26G22G28G12
 108169318.81048  84287766.52248  20583948.3774   20583951.0304   20583948.4604
       248.000         220.000
 125601073.70848  97870945.99548  23901106.1254   23901109.5584   23901106.7944
       223.000         172.000
 134417834.27148 104741160.89448  25578869.9934   25578873.3644   25578870.3134
       206.000         139.000
 129673865.19748 101044551.81548  24676129.9954   24676133.2644   24676130.0414
       214.000         163.000
 117735993.42648  91742327.23348  22404418.0984   22404419.5494   22404418.7364
       235.000         191.000
 107580978.54848  83829326.01448  20471985.9484   20471987.3434   20471985.7994
       251.000         235.000
 122493366.39848  95449370.31448  23309717.5224   23309719.6144   23309717.0074
       230.000         188.000
 112648699.35548  87778192.12348  21436346.5684   21436349.1444   21436346.4374
       245.000         211.000
 137873723.64748  89641864.72648  24333558.9854   24333558.8334   24333559.0564
       221.000         168.000
 127264011.03448  99166751.33248  24217545.0914   24217546.9204   24217544.7744
       218.000         162.000
 119612727.44048  93204708.60548  22761557.1034   22761559.2834   22761556.7344
       232.000         194.000
 09  1 24  0 23  0.0000000  0 10G 9G 5G27G18G15G17G26G22G28G12
 108122416.47048  84251219.24648  20575023.1634   20575025.8174   20575023.4374
       248.000         220.000
 125491634.89548  97785668.97248  23880281.1604   23880284.0064   23880282.5264
       221.000         172.000
 129743445.82648 101098770.47148  24689371.8944   24689374.1344   24689371.8044
       214.000         163.000
 117709286.33248  91721516.49448  22399335.6604   22399337.5214   22399336.0634
       235.000         192.000
 107607605.52748  83850074.29848  20477052.8224   20477054.3734   20477052.6804
       250.000         235.000
 122471795.20848  95432561.60148  23305612.6974   23305614.6814   23305612.5234
       233.000         190.000
 112722390.08348  87835613.46848  21450369.4074   21450371.9494   21450369.2604
       244.000         210.000
 137802339.72748  89586240.90948  24319974.7104   24319975.7244   24319975.2114
       213.000         164.000
 127355729.58248  99238220.31848  24234998.0294   24235000.2034   24234997.9204
       222.000         164.000
 119515129.72448  93128658.44948  22742985.2814   22742987.1314   22742985.1884
       233.000         194.000
 09  1 24  0 23 30.0000000  0 10G 9G 5G27G18G15G17G26G22G28G12
 108075824.58548  84214913.88748  20566156.8684   20566159.7064   20566157.0644
       249.000         220.000
 125382364.74548  97700523.44748  23859486.8274   23859490.7954   23859486.9064
       221.000         172.000
 129813050.08848 101153007.53848  24702616.2414   24702619.0554   24702615.7554
       215.000         162.000
 117683144.32948  91701146.09848  22394361.1404   22394362.7564   22394361.4654
       236.000         193.000
 107634691.29748  83871180.08748  20482207.0904   20482208.6554   20482206.7894
       250.000         235.000
 122450736.53548  95416152.23948  23301605.5074   23301607.4124   23301605.5934
       232.000         190.000
 112796426.63648  87893304.28848  21464457.9874   21464460.7364   21464457.9504
       244.000         210.000
 137731347.65548  89530922.44348  24306465.9404   24306466.2754   24306464.6594
       218.000         170.000
 127447590.00048  99309799.85348  24252479.1994   24252480.9734   24252480.3814
       222.000         163.000
 119417810.85248  93052825.57648  22724466.2184   22724467.7714   22724466.0254
       234.000         195.000
 09  1 24  0 24  0.0000000  0 10G 9G 5G27G18G15G17G26G22G28G12
 108029543.48648  84178850.70048  20557349.9064   20557352.6034   20557350.1614
       248.000         220.000
 125273265.07148  97615510.72248  23838725.8814   23838729.7274   23838726.1364
       223.000         175.000
 129882677.91348 101207262.95248  24715866.6194   24715869.5614   24715866.9744
       218.000         164.000
 117657568.05848  91681216.53448  22389494.2274   22389495.7974   22389494.9154
       236.000         193.000
 107662235.83948  83892643.35448  20487448.6194   20487450.2224   20487448.2954
       251.000         234.000
 122430191.58348  95400143.18648  23297695.8074   23297697.6674   23297695.7454
       232.000         191.000
 112870808.09648  87951263.86248  21478612.3024   21478614.9554   21478612.1934
       244.000         210.000
