     2.11           OBSERVATION DATA    G (GPS)             RINEX VERSION / TYPE
teqc  2008Oct2      gpsops              20090131 00:06:07UTCPGM / RUN BY / DATE
    30.0000                                                 INTERVAL
     1     1                                                WAVELENGTH FACT L1/2
     7    L1    L2    P1    P2    C1    S1    S2            # / TYPES OF OBSERV
Linux 2.4.20-8|Pentium IV|gcc -static|Linux|486/DX+         COMMENT
     2.10           OBSERVATION DATA    GPS                 COMMENT
soc2rnx ver 1.20    gpsops              31-Jan-2009 00:05:59COMMENT
S1, if present, is the SNR for the C/A data stream on L1.   COMMENT
 SNR is mapped to RINEX snr flag value [1,4-9]              COMMENT
    SNR:   >316  >100  >31.6  >10  >3.2    >0 bad=0         COMMENT
L1 & L2:      9     8     7     6     5     4     1         COMMENT
                                                            COMMENT
This data is provided as a public service by NASA/JPL.      COMMENT
No warranty is expressed or implied regarding suitability   COMMENT
for use.  For further information, contact:                 COMMENT
Dave Stowers, NASA/JPL m/s 238-600                          COMMENT
4800 Oak Grove Drive, Pasadena CA 91109 USA                 COMMENT
                                                            COMMENT
Forced Modulo Decimation to 30 seconds                      COMMENT
  2009     1    30     0     0    0.0000000     GPS         TIME OF FIRST OBS
DSN                 JPL                                     OBSERVER / AGENCY
451-U               AOAD/M_T        NONE                    ANT # / TYPE
  4849202.3940  -360328.9929  4114913.1862                  APPROX POSITION XYZ
        0.0254        0.0000        0.0000                  ANTENNA: DELTA H/E/N
LP03574             ASHTECH Z-XII3      CC00                REC # / TYPE / VERS
MADR                                                        MARKER NAME
13407S012                                                   MARKER NUMBER
                                                            END OF HEADER
 09  1 30  0  0  0.0000000  0 10G 5G 9G18G26G17G27G28G12G15G22
 125138904.88748  97510816.34348  23813157.2944   23813160.8374   23813156.3964
       223.000         175.000
 107963777.00648  84127613.81648  20544830.2484   20544832.9924   20544830.2884
       249.000         221.000
 117683883.10548  91701712.80848  22394509.6754   22394511.2414   22394510.0104
       235.000         193.000
 112974283.78248  88031892.27048  21498305.4894   21498308.7234   21498305.2674
       244.000         211.000
 122421501.42448  95393369.71548  23296043.1804   23296045.1204   23296042.7224
       232.000         191.000
 128112549.92748  99827946.74948  24379018.3434   24379020.8044   24379018.4804
       212.000         158.000
 127681589.02648  99492142.05948  24297001.4304   24297003.2124   24297002.0604
       211.000         154.000
 119288709.77048  92952225.52848  22699900.1764   22699902.4034   22699899.5774
       232.000         194.000
 107740044.67248  83953274.58648  20502253.2984   20502255.0914   20502253.0324
       250.000         234.000
 127576678.86148  99410395.73548  24277036.9124   24277037.2724   24277034.8504
       220.000         163.000
 09  1 30  0  0 30.0000000  0 10G 5G 9G18G26G17G27G28G12G15G22
 125030230.62548  97426135.09848  23792476.7954   23792480.4624   23792476.6854
       224.000         175.000
 107918241.83648  84092131.87248  20536165.1414   20536167.9344   20536165.0214
       249.000         221.000
 117659086.32948  91682390.64348  22389790.9734   22389792.9214   22389791.2604
       236.000         194.000
 113049464.14648  88090474.37748  21512612.0374   21512614.9604   21512612.0224
       244.000         210.000
 122402197.05948  95378327.35748  23292369.6364   23292371.3194   23292369.3954
       230.000         191.000
 128180799.65248  99881128.32448  24392005.7344   24392009.1994   24392005.3264
       213.000         159.000
 127773907.29348  99564078.36048  24314569.4274   24314572.0034   24314569.5874
       214.000         154.000
 119192080.42548  92876929.91648  22681511.8124   22681514.2744   22681511.2014
       233.000         194.000
 107769094.66748  83975910.93148  20507781.3284   20507783.2524   20507781.0664
       250.000         233.000
 127506948.21948  99356060.10148  24263766.9814   24263768.1664   24263765.3274
       219.000         164.000
 09  1 30  0  1  0.0000000  0 10G 5G 9G18G26G17G27G28G12G15G22
 124921733.02148  97341591.50748  23771830.2094   23771834.2254   23771831.7234
       224.000         176.000
 107873018.45248  84056892.86748  20527559.3174   20527562.0274   20527559.7074
       249.000         221.000
 117634856.39948  91663510.16648  22385179.8704   22385181.8984   22385180.4934
       234.000         192.000
 113124985.31148  88149322.02948  21526983.1144   21526986.1654   21526982.9974
       244.000         210.000
 122383410.33048  95363688.36248  23288794.1694   23288796.6034   23288793.6344
       230.000         192.000
 128249082.24748  99934335.49848  24404999.8654   24405003.1364   24405000.0434
       212.000         159.000
 127866357.58748  99636117.47648  24332162.3424   24332164.5044   24332164.5144
       213.000         150.000
 119095735.41348  92801855.86548  22663178.2154   22663180.6534   22663178.5144
       234.000         195.000
 107798602.56648  83998904.08948  20513396.5534   20513398.3954   20513396.2904
       250.000         233.000
 127437617.30748  99302035.98948  24250574.6444   24250575.1424   24250577.3774
       220.000         165.000
 09  1 30  0  1 30.0000000  0 10G 5G 9G18G26G17G27G28G12G15G22
 124813413.71748  97257186.82248  23751217.7924   23751221.8904   23751218.9994
       224.000         176.000
 107828107.16848  84021897.06648  20519013.0034   20519015.7354   20519013.1884
       248.000         221.000
 117611193.71448  91645071.69748  22380677.2444   22380678.9204   22380677.5074
       235.000         192.000
 113200846.33348  88208434.52148  21541418.9384   21541422.0074   21541418.8194
       243.000         209.000
 122365142.41948  95349453.63248  23285317.9524   23285320.3884   23285317.8474
       233.000         191.000
 128317397.59048  99987568.20948  24417999.5234   24418003.2844   24418000.1964
       212.000         159.000
 127958937.67548  99708257.77948  24349779.8344   24349782.1744   24349781.5564
       206.000         151.000
 118999676.83348  92727005.00348  22644899.1724   22644901.1444   22644898.7554
       235.000         196.000
 107828568.49848  84022254.14348  20519098.8244   20519100.7644   20519098.5194
       250.000         233.000
 127368688.43048  99248325.16348  24237457.4154   24237458.3144   24237456.4084
       215.000         163.000
 09  1 30  0  2  0.0000000  0 10G 5G 9G18G26G17G27G28G12G15G22
 124705275.50148  97172923.24948  23730639.2734   23730643.4834   23730639.7274
       220.000         173.000
 107783509.45248  83987145.60048  20510526.3444   20510529.0024   20510526.4924
       249.000         222.000
 117588099.68348  91627076.32748  22376282.4794   22376284.4654   22376283.1734
       235.000         193.000
 113277047.11848  88267811.76548  21555919.3114   21555922.5644   21555919.1254
       243.000         210.000
 122347395.37248  95335624.76748  23281940.8914   23281943.1174   23281940.8124
       234.000         192.000
 128385746.71548 100040827.23548  24431005.7274   24431010.0294   24431005.7834
       212.000         160.000
 128051646.41648  99780498.32448  24367421.8214   24367424.2114   24367421.1384
       212.000         150.000
 118903907.33048  92652379.39048  22626674.9424   22626676.9374   22626674.6614
       234.000         196.000
 107858993.28448  84045961.74848  20524888.5404   20524890.4794   20524888.2564
       250.000         233.000
 127300164.46348  99194929.87548  24224417.8534   24224418.7434   24224417.8244
       216.000         163.000
 09  1 30  0  2 30.0000000  0 10G 5G 9G18G26G17G27G28G12G15G22
 124597320.76448  97088802.64348  23710096.0884   23710100.0444   23710096.3874
       223.000         174.000
 107739225.89148  83952638.92948  20502099.4124   20502102.3494   20502099.7224
       248.000         221.000
 117565575.66148  91609525.12648  22371996.7364   22371998.4354   22371997.2564
       235.000         194.000
 113353587.15148  88327453.35648  21570484.4924   21570487.7174   21570484.1054
       244.000         209.000
 122330171.22548  95322203.34548  23278663.3954   23278665.5594   23278663.3104
       233.000         191.000
 128454130.25848 100094113.07048  24444019.0874   24444022.6634   24444019.6764
       214.000         161.000
 128144482.24048  99852837.88848  24385088.0574   24385090.5944   24385088.5304
       209.000         150.000
 118808429.35548  92577980.94548  22608505.9694   22608508.2944   22608505.8274
       234.000         196.000
 107889877.43748  84070027.30348  20530765.6094   20530767.4664   20530765.4204
       250.000         233.000
 127232047.85248  99141852.02648  24211454.9204   24211457.4104   24211457.3294
       218.000         169.000
 09  1 30  0  3  0.0000000  0 10G 5G 9G18G26G17G27G28G12G15G22
 124489550.41348  97004825.72348  23689588.4824   23689592.1094   23689589.1064
       225.000         176.000
 107695256.03448  83918376.70848  20493732.2984   20493735.0274   20493732.6864
       248.000         222.000
 117543620.69848  91592417.35948  22367818.7294   22367820.2744   22367819.4634
       236.000         194.000
 113430464.38048  88387357.70048  21585113.8734   21585117.0604   21585113.8944
       243.000         209.000
 122313469.93048  95309189.35648  23275485.2964   23275487.1574   23275485.0234
       233.000         191.000
 128522547.35748 100147425.06648  24457038.1994   24457042.5064   24457037.9244
       214.000         163.000
 128237441.72248  99925273.80348  24402778.1244   24402779.8104   24402779.2544
       214.000         151.000
 118713243.55448  92503810.16648  22590392.3904   22590394.7824   22590391.9544
       234.000         196.000
 107921220.11548  84094450.15148  20536729.8544   20536731.8094   20536729.4584
       250.000         233.000
 127164340.10348  99089092.72048  24198571.6454   24198572.6204   24198571.3004
       218.000         169.000
 09  1 30  0  3 30.0000000  0 10G 5G 9G18G26G17G27G28G12G15G22
 124381966.58848  96920994.17148  23669115.8324   23669119.5824   23669116.8364
       224.000         176.000
 107651600.84248  83884359.68548  20485424.8234   20485427.7754   20485424.8814
       249.000         222.000
 117522236.43348  91575754.28848  22363749.4704   22363751.0994   22363749.6224
       236.000         194.000
 113507677.87448  88447524.05748  21599807.0044   21599810.1164   21599806.9954
       244.000         209.000
 122297292.77148  95296583.78748  23272406.7764   23272408.5974   23272406.6504
       233.000         191.000
 128590998.23348 100200763.37648  24470064.1674   24470067.8624   24470064.0094
       213.000         161.000
 128330523.42948  99997804.98848  24420491.1854   24420493.1874   24420492.8214
       216.000         154.000
 118618352.01348  92429868.69148  22572335.0714   22572337.4994   22572335.2374
       233.000         195.000
 107953021.77948  84119230.64548  20542781.6154   20542783.3964   20542781.4014
       250.000         233.000
 127097043.31348  99036653.71748  24185765.2614   24185766.1494   24185765.8064
       221.000         169.000
 09  1 30  0  4  0.0000000  0 10G 5G 9G18G26G17G27G28G12G15G22
 124274571.16248  96837309.40248  23648679.7724   23648682.8724   23648680.4414
       223.000         176.000
 107608260.61748  83850588.09048  20477177.4934   20477180.3504   20477177.8274
       248.000         222.000
 117501423.43348  91559536.34648  22359788.9024   22359790.8204   22359789.1804
       235.000         195.000
 113585226.70648  88507951.71048  21614564.1074   21614567.2054   21614563.8344
       244.000         208.000
 122281641.08848  95284387.66648  23269428.2934   23269430.4304   23269427.9684
       233.000         191.000
 128659483.02848 100254128.11248  24483096.1674   24483099.7234   24483097.1054
       216.000         160.000
 128423725.43148 100070429.90548  24438226.7054   24438229.2564   24438226.9914
       212.000         154.000
 118523757.05848  92356158.32648  22554334.1564   22554336.3834   22554334.0764
       235.000         196.000
 107985282.44148  84144368.80448  20548920.4994   20548922.5384   20548920.1824
       250.000         233.000
 127030159.60348  98984536.50948  24173038.1464   24173038.5054   24173038.3174
       221.000         170.000
 09  1 30  0  4 30.0000000  0 10G 5G 9G18G26G17G27G28G12G15G22
 124167365.89148  96753772.82348  23628278.8944   23628282.4064   23628279.2114
       225.000         176.000
 107565235.62148  83817062.12248  20468990.1894   20468992.9854   20468990.2084
       248.000         222.000
 117481182.16648  91543763.93048  22355937.2074   22355938.9244   22355937.8814
       236.000         195.000
 113663109.77148  88568639.79748  21629384.8614   21629387.7844   21629384.8704
       242.000         208.000
 122266516.30548  95272602.12548  23266550.0584   23266552.0014   23266549.6884
       232.000         190.000
 128728001.79248 100307519.33648  24496135.2564   24496138.3034   24496135.7054
       215.000         160.000
 128517045.63148 100143146.87248  24455985.3274   24455987.5674   24455985.5194
       215.000         156.000
 118429460.14248  92282680.20148  22536390.3434   22536392.5374   22536390.3314
       235.000         197.000
 108018001.72648  84169864.32748  20555146.8264   20555148.9094   20555146.4354
       250.000         233.000
 126963690.92148  98932742.68848  24160390.0234   24160390.5214   24160390.3694
       224.000         171.000
 09  1 30  0  5  0.0000000  0 10G 5G 9G18G26G17G27G28G12G15G22
 124060352.18948  96670385.47448  23607915.2074   23607918.4184   23607915.6614
       225.000         178.000
 107522526.10648  83783781.99048  20460862.6924   20460865.7494   20460862.7724
       249.000         222.000
 117461512.32348  91528436.76548  22352193.9984   22352195.7284   22352194.8934
       237.000         194.000
 113741325.73148  88629587.29448  21644268.9384   21644271.6234   21644268.6224
       242.000         208.000
 122251918.95448  95261227.57148  23263772.3544   23263773.9654   23263772.0084
       230.000         190.000
 128796554.00848 100360936.61348  24509180.6054   24509184.1104   24509181.9924
       213.000         162.000
 128610481.42248 100215953.96248  24473766.2694   24473767.8264   24473767.2344
       215.000         155.000
 118335462.70048  92209435.43948  22518503.1394   22518505.2954   22518502.8294
       236.000         197.000
 108051179.58948  84195717.19348  20561460.5064   20561462.4264   20561460.3354
       250.000         232.000
 126897638.57248  98881273.35048  24147820.2794   24147820.4284   24147822.3544
       220.000         164.000
 09  1 30  0  5 30.0000000  0 10G 5G 9G18G26G17G27G28G12G15G22
 123953532.51248  96587149.37248  23587587.8254   23587591.3184   23587588.7514
       225.000         177.000
 107480132.83948  83750748.28048  20452795.7674   20452798.5284   20452796.1894
       248.000         222.000
 117442415.07648  91513555.77448  22348559.8674   22348562.1334   22348560.3534
       234.000         195.000
 113819873.87148  88690793.61048  21659216.2654   21659219.0764   21659216.2154
       244.000         208.000
 122237850.49148  95250265.13248  23261095.1224   23261097.3554   23261095.1414
       232.000         192.000
 128865140.29548 100414380.45048  24522231.7114   24522234.6094   24522232.2294
       215.000         160.000
 128704031.43248 100288850.02148  24491568.0674   24491569.3934   24491569.3304
       214.000         154.000
 118241767.43948  92136426.15348  22500674.0404   22500675.9404   22500674.1284
       236.000         198.000
 108084816.53348  84221927.78548  20567861.3964   20567863.3104   20567861.1114
       250.000         232.000
 126832005.35648  98830130.55848  24135329.8754   24135330.5994   24135330.5294
       218.000         165.000
 09  1 30  0  6  0.0000000  0 10G 5G 9G18G26G17G27G28G12G15G22
 123846908.90948  96504066.03848  23567298.2934   23567301.5674   23567298.3974
       225.000         177.000
 107438056.47848  83717961.51048  20444788.7934   20444791.5544   20444788.6584
       249.000         223.000
 117423891.26848  91499121.61848  22345034.9414   22345037.0734   22345035.4404
       236.000         195.000
 113898753.40948  88752258.19448  21674226.4514   21674229.3544   21674226.8014
       241.000         207.000
 122224312.46048  95239716.01148  23258518.9564   23258521.2094   23258518.7244
       231.000         192.000
 128933761.06548 100467851.17448  24535289.1884   24535293.6424   24535289.8194
       217.000         161.000
 128797693.70848 100361833.59148  24509391.4594   24509392.9804   24509392.3624
       212.000         152.000
 118148376.39048  92063653.94148  22482902.3024   22482904.0694   22482901.9914
       236.000         199.000
 108118912.88748  84248496.37448  20574349.7074   20574351.6424   20574349.5224
       250.000         232.000
 126766793.56348  98779316.21048  24122920.8514   24122921.2754   24122921.9494
       220.000         166.000
 09  1 30  0  6 30.0000000  0 10G 5G 9G18G26G17G27G28G12G15G22
 123740482.99048  96421136.74748  23547046.0934   23547049.6084   23547046.8944
       224.000         179.000
 107396297.60248  83685422.13148  20436842.4084   20436845.0734   20436842.6634
       249.000         222.000
 117405940.75248  91485134.18848  22341619.1524   22341621.1924   22341619.8934
       235.000         195.000
 113977963.00148  88813979.93648  21689299.2904   21689302.5574   21689299.1344
       241.000         207.000
 122211305.69448  95229580.86448  23256043.9634   23256046.0804   23256043.6164
       232.000         193.000
 129002416.25948 100521348.69548  24548355.0184   24548357.9874   24548355.4694
       216.000         161.000
 128891465.97048 100434902.86348  24527235.2994   24527237.6724   24527236.1324
       210.000         149.000
 118055290.78848  91991119.74548  22465188.2594   22465190.4504   22465188.2464
       235.000         198.000
 108153467.99148  84275422.41548  20580925.2574   20580927.2364   20580925.1254
       250.000         232.000
 126702004.93648  98728831.56048  24110592.2154   24110592.4364   24110593.0324
       218.000         166.000
 09  1 30  0  7  0.0000000  0 10G 5G 9G18G26G17G27G28G12G15G22
 123634257.10648  96338363.35348  23526831.9284   23526835.3844   23526832.4334
       225.000         179.000
 107354856.79248  83653130.59548  20428956.4304   20428959.1254   20428956.4934
       249.000         223.000
 117388565.04248  91471594.66048  22338312.6874   22338314.7444   22338312.6594
       236.000         195.000
 114057502.33548  88875958.63648  21704435.1624   21704438.1144   21704435.1154
       242.000         206.000
 122198831.72748  95219860.89448  23253670.5824   23253672.2894   23253670.6264
       232.000         192.000
 129071106.39048 100574873.49848  24561426.2144   24561429.7494   24561426.1964
       216.000         164.000
 128985347.04948 100508056.92048  24545099.6364   24545101.8214   24545099.7754
       213.000         149.000
 117962513.11848  91918825.48548  22447533.1604   22447534.9824   22447532.7974
       237.000         197.000
 108188482.27748  84302706.26948  20587588.1214   20587590.2014   20587587.7344
       249.000         232.000
 126637641.84848  98678678.43148  24098343.7334   24098345.0464   24098342.5004
       218.000         165.000
 09  1 30  0  7 30.0000000  0 10G 5G 9G18G26G17G27G28G12G15G22
 123528232.74548  96255746.97048  23506655.9814   23506659.3294   23506655.8024
       223.000         178.000
 107313734.36148  83621087.14448  20421130.9114   20421133.8424   20421131.1564
       248.000         223.000
 117371764.18548  91458503.05548  22335115.4734   22335117.6244   22335115.8264
       236.000         194.000
 114137369.60948  88938192.88548  21719633.5594   21719636.4374   21719633.6694
       242.000         207.000
 122186891.03348  95210556.47648  23251397.8064   23251399.8734   23251397.3574
       229.000         192.000
 129139831.18748 100628425.25148  24574503.8724   24574508.0644   24574504.3664
       214.000         162.000
 129079334.24248 100581293.69248  24562985.7974   24562986.7484   24562985.3064
       210.000         149.000
 117870044.79848  91846772.27148  22429936.7874   22429938.8034   22429936.8904
       237.000         199.000
 108223955.63748  84330347.83848  20594338.5634   20594340.5204   20594338.2374
       250.000         232.000
 126573705.93848  98628858.26448  24086177.8034   24086178.2464   24086178.4694
       221.000         170.000
 09  1 30  0  8  0.0000000  0 10G 5G 9G18G26G17G27G28G12G15G22
 123422411.61148  96173288.93348  23486518.8574   23486522.2904   23486519.1694
       224.000         177.000
 107272930.43548  83589291.88248  20413366.2104   20413369.2154   20413366.2324
       248.000         223.000
 117355538.37048  91445859.55648  22332027.7004   22332029.9714   22332028.1324
       235.000         195.000
 114217563.62748  89000681.72648  21734894.1214   21734897.0204   21734894.1754
       241.000         206.000
 122175484.83548  95201668.52348  23249227.5574   23249229.2484   23249226.9724
       233.000         192.000
 129208590.68148 100682004.04548  24587587.1954   24587592.1134   24587587.2124
       214.000         161.000
 129173425.61948 100654611.61848  24580889.5714   24580891.4984   24580890.2594
       211.000         146.000
 117777887.58348  91774961.47048  22412400.1274   22412402.0134   22412399.7304
       238.000         200.000
 108259888.04348  84358347.10048  20601176.4834   20601178.2424   20601176.5284
       249.000         231.000
 126510199.66248  98579372.86748  24074093.5974   24074093.6344   24074094.1474
       220.000         169.000
 09  1 30  0  8 30.0000000  0 10G 5G 9G18G26G17G27G28G12G15G22
 123316795.61348  96090990.76948  23466420.4304   23466424.3974   23466421.4654
       223.000         176.000
 107232445.57048  83557745.23948  20405662.2414   20405665.1084   20405662.4714
       249.000         223.000
 117339887.73548  91433664.24148  22329049.6534   22329051.8174   22329050.2404
       236.000         195.000
 114298083.50648  89063424.47848  21750216.3194   21750219.1834   21750216.1934
       241.000         206.000
 122164613.98148  95193197.71648  23247159.0144   23247160.6944   23247158.8484
       233.000         192.000
 129277385.28948 100735610.18948  24600678.9274   24600683.5734   24600679.0904
       213.000         160.000
 129267619.04048 100728009.07348  24598814.7364   24598815.4004   24598814.5984
       211.000         146.000
 117686043.56348  91703394.71548  22394922.5994   22394924.7504   22394922.4544
       236.000         200.000
 108296279.07948  84386703.73548  20608101.3694   20608103.3674   20608101.1134
       250.000         231.000
 126447124.16748  98530223.09848  24062089.9674   24062090.0784   24062088.6484
       218.000         168.000
 09  1 30  0  9  0.0000000  0 10G 5G 9G18G26G17G27G28G12G15G22
 123211386.46248  96008853.76748  23446361.9754   23446365.4574   23446362.5814
       226.000         178.000
 107192280.01948  83526447.40748  20398019.1054   20398021.9164   20398019.4744
       249.000         223.000
 117324812.71548  91421917.45848  22326180.8774   22326183.1364   22326181.3454
       237.000         195.000
 114378928.01748  89126420.19248  21765600.5464   21765603.6424   21765600.1674
       241.000         206.000
 122154279.19948  95185144.64748  23245192.3514   23245194.1364   23245192.0784
       232.000         192.000
 129346214.89348 100789243.63348  24613776.6164   24613780.2384   24613776.2554
       215.000         160.000
 129361912.76148 100801484.70248  24616758.1604   24616759.5484   24616758.2164
       207.000         146.000
 117594514.14648  91632073.12348  22377504.9534   22377507.4164   22377504.9064
       236.000         199.000
 108333128.41748  84415417.48548  20615113.7124   20615115.5994   20615113.4924
       250.000         231.000
 126384481.35448  98481410.53148  24050169.1554   24050170.5044   24050169.1684
       223.000         173.000
 09  1 30  0  9 30.0000000  0 10G 5G 9G18G26G17G27G28G12G15G22
 123106185.53548  95926879.04148  23426343.1694   23426346.1824   23426343.5544
       226.000         180.000
 107152433.79648  83495398.40348  20390436.5424   20390439.3424   20390436.7094
       248.000         223.000
 117310313.07448  91410619.01748  22323421.8164   22323423.6214   22323422.2904
       236.000         194.000
 114460095.32548  89189667.43948  21781046.3044   21781049.0804   21781046.2544
       242.000         206.000
 122144480.91848  95177509.62148  23243327.8504   23243329.5934   23243327.6464
       233.000         192.000
 129415078.91948 100842903.90348  24626881.7434   24626885.4294   24626882.2084
       213.000         162.000
 129456304.08248 100875036.31348  24634719.6564   24634722.1144   24634720.8204
       206.000         146.000
 117503300.59148  91560997.62448  22360147.8024   22360150.1744   22360147.4034
       237.000         200.000
 108370435.83448  84444488.19048  20622212.9484   20622214.9004   20622212.7734
       249.000         231.000
 126322272.82848  98432936.34248  24038332.0464   24038332.2934   24038333.0564
       222.000         171.000
 09  1 30  0 10  0.0000000  0 10G 5G 9G18G26G17G27G28G12G15G22
 123001194.19548  95845067.62848  23406364.1104   23406367.4394   23406365.0154
       226.000         180.000
 107112906.76648  83464598.12348  20382914.7714   20382917.6824   20382914.7704
       248.000         223.000
 117296389.02748  91399769.08948  22320772.0514   22320774.0384   22320772.6194
       235.000         193.000
 114541584.32348  89253165.36348  21796553.1094   21796555.8484   21796553.2814
       242.000         205.000
 122135220.17748  95170293.48248  23241565.7414   23241567.2874   23241565.5054
       233.000         192.000
 129483977.23048 100896590.86748  24639991.7564   24639996.7224   24639992.3594
       215.000         162.000
 129550791.01748 100948662.44148  24652700.6804   24652702.7474   24652701.9484
       207.000         149.000
 117412404.20648  91490169.27448  22342850.9524   22342853.0104   22342851.1174
       240.000         202.000
 108408200.57948  84473915.25748  20629399.1104   20629401.2934   20629398.7344
       249.000         230.000
 126260500.08748  98384801.77048  24026576.4004   24026577.0564   24026575.9524
       220.000         169.000
 09  1 30  0 10 30.0000000  0 10G 5G 9G18G26G17G27G28G12G15G22
 122896414.77448  95763421.35248  23386424.8234   23386428.6564   23386425.7464
       225.000         179.000
 107073699.85648  83434047.28448  20375453.9764   20375456.7624   20375454.0014
       249.000         223.000
 117283041.02248  91389368.03148  22318231.9464   22318234.0874   22318233.0214
       235.000         193.000
 114623394.05448  89316913.20048  21812120.8414   21812123.9074   21812120.6254
       242.000         205.000
 122126498.10148  95163497.05948  23239906.0424   23239907.5534   23239905.6364
       231.000         192.000
 129552910.03848 100950304.73948  24653110.5754   24653113.3584   24653111.5214
       217.000         162.000
 129645371.58148 101022361.58448  24670698.4804   24670700.5734   24670697.4224
       205.000         149.000
 117321827.58948  91419590.08848  22325615.0604   22325616.7734   22325614.8914
       241.000         202.000
 108446423.14348  84503699.06148  20636672.6034   20636674.8194   20636672.2044
       249.000         230.000
 126199165.37648  98337008.45248  24014905.4304   24014905.4774   24014905.4374
       221.000         169.000
 09  1 30  0 11  0.0000000  0 10G 5G 9G18G26G17G27G28G12G15G22
 122791849.40248  95681941.88348  23366526.3684   23366530.4754   23366526.5714
       225.000         179.000
 107034814.44148  83403746.96648  20368054.4204   20368057.2574   20368054.9624
       249.000         223.000
 117270269.81248  91379416.42448  22315801.7024   22315803.6444   22315802.1144
       236.000         193.000
 114705523.73048  89380910.34648  21827749.8754   21827752.5834   21827750.0424
       241.000         204.000
 122118315.82748  95157121.26948  23238348.8114   23238350.5774   23238348.4174
       229.000         192.000
 129621878.22248 101004046.13148  24666234.5184   24666238.7104   24666234.9734
       215.000         161.000
 129740044.31648 101096132.48648  24688713.3924   24688717.4544   24688713.5004
       207.000         149.000
 117231572.60648  91349261.51548  22308440.2124   22308441.7974   22308440.1394
       240.000         203.000
 108485103.68848  84533839.73248  20644033.3204   20644035.6734   20644032.9714
       249.000         231.000
 126138271.24048  98289558.48148  24003317.5204   24003318.0734   24003317.9944
       220.000         166.000
 09  1 30  0 11 30.0000000  0 10G 5G 9G18G26G17G27G28G12G15G22
 122687500.10748  95600630.75248  23346669.6454   23346673.3764   23346670.0724
       225.000         180.000
 106996250.63548  83373697.24448  20360715.9754   20360718.5824   20360715.9614
       249.000         224.000
 117258075.66048  91369914.46248  22313481.4294   22313483.2724   22313481.9384
       236.000         194.000
 114787972.38648  89445156.05248  21843439.1064   21843441.9974   21843439.0164
       241.000         205.000
 122110674.30548  95151166.84848  23236894.4604   23236896.3274   23236893.7574
       229.000         192.000
 129690882.02448 101057815.27748  24679364.2754   24679369.2824   24679364.7754
       212.000         161.000
 129834807.75648 101169974.08948  24706747.0774   24706749.2934   24706748.8424
       205.000         149.000
 117141641.35748  91279185.22848  22291326.4224   22291328.5524   22291326.5384
       237.000         201.000
 108524242.18448  84564337.24848  20651481.2624   20651483.4274   20651480.8494
       249.000         231.000
 126077819.61048  98242453.28948  23991812.8494   23991814.4424   23991814.2244
       220.000         166.000
 09  1 30  0 12  0.0000000  0 10G 5G 9G18G26G17G27G28G12G15G22
 122583368.69248  95519489.38648  23326854.4044   23326857.8704   23326855.0074
       228.000         181.000
 106958009.10248  83343898.65048  20353438.8614   20353441.4704   20353439.1974
       249.000         223.000
 117246459.13748  91360862.60148  22311270.7484   22311272.6314   22311271.4194
       234.000         194.000
 114870738.88248  89509649.41448  21859189.2474   21859192.1134   21859189.1184
       241.000         204.000
 122103574.69348  95145634.67548  23235543.7274   23235545.2224   23235543.0824
       231.000         193.000
 129759921.68548 101111612.39448  24692502.8654   24692507.1854   24692502.2684
       214.000         162.000
 129929659.59048 101243884.55948  24724796.9224   24724799.7704   24724797.0354
       206.000         151.000
 117052035.37648  91209362.39948  22274274.7804   22274277.2504   22274274.3924
       239.000         202.000
 108563838.57448  84595191.56448  20659016.3334   20659018.3884   20659015.9964
       249.000         231.000
 126017812.37348  98195694.33248  23980394.0874   23980394.6064   23980392.9014
       223.000         171.000
 09  1 30  0 12 30.0000000  0 10G 5G 9G18G26G17G27G28G12G15G22
 122479456.92048  95438519.17148  23307080.7054   23307084.2264   23307081.8774
       226.000         182.000
 106920089.83448  83314351.17548  20346223.0554   20346225.5564   20346223.3214
       248.000         223.000
 117235420.02248  91352260.67848  22309169.8934   22309172.1114   22309170.6854
       235.000         193.000
 114953821.86948  89574389.39948  21874999.1134   21875002.2514   21874998.7414
       241.000         204.000
 122097017.19748  95140524.92648  23234295.9884   23234297.6824   23234296.3604
       231.000         194.000
 129828997.14348 101165437.38548  24705647.2504   24705652.0534   24705646.5414
       218.000         164.000
 130024597.98048 101317862.53448  24742863.0014   24742865.7054   24742862.3234
       206.000         152.000
 116962756.52248  91139794.47348  22257286.0044   22257288.0864   22257286.1544
       240.000         204.000
 108603892.27648  84626402.23148  20666638.2824   20666640.4744   20666638.0464
       250.000         231.000
 125958251.16848  98149283.00848  23969060.6104   23969061.8114   23969060.5924
       222.000         171.000
 09  1 30  0 13  0.0000000  0 10G 5G 9G18G26G17G27G28G12G15G22
 122375765.33448  95357720.51748  23287348.5094   23287352.5904   23287349.1324
       225.000         180.000
 106882492.48648  83285054.55448  20339068.2724   20339071.3164   20339068.2354
       249.000         224.000
 117224957.64848  91344108.15148  22307179.1004   22307181.0644   22307179.7134
       235.000         194.000
 115037219.41948  89639374.49648  21890869.3984   21890872.3144   21890869.3844
       241.000         204.000
 122091001.97148  95135837.73548  23233151.2364   23233153.0174   23233151.2714
       229.000         192.000
 129898107.27848 101219289.40348  24718799.1934   24718803.0334   24718799.5724
       220.000         163.000
 130119620.08048 101391905.68248  24760944.8494   24760948.3374   24760946.5224
       203.000         150.000
 116873805.46248  91070481.95948  22240359.3704   22240361.1434   22240359.3854
       241.000         204.000
 108644402.18548  84657968.38248  20674347.1344   20674349.2164   20674346.8294
       249.000         230.000
 125899136.74148  98103219.79848  23957811.3214   23957812.5024   23957812.1234
       217.000         168.000
 09  1 30  0 13 30.0000000  0 10G 5G 9G18G26G17G27G28G12G15G22
 122272296.65748  95277095.54248  23267659.1444   23267662.9714   23267658.9994
       226.000         181.000
 106845218.25448  83256009.70748  20331975.3954   20331978.1444   20331975.5744
       249.000         223.000
 117215072.39648  91336405.33848  22305298.3554   22305300.3094   22305298.5894
       237.000         195.000
 115120930.87748  89704604.20348  21906798.9814   21906801.9464   21906799.1554
       240.000         203.000
 122085530.40248  95131574.17048  23232109.7694   23232111.7254   23232109.9894
       230.000         192.000
 129967253.08048 101273169.21148  24731956.9414   24731961.1404   24731957.3234
       217.000         163.000
 130214724.43748 101466012.93048  24779042.6514   24779045.9254   24779042.7234
       204.000         151.000
 116785184.63948  91001426.77248  22223495.3644   22223496.9054   22223495.1244
       241.000         204.000
 108685368.70448  84689890.33648  20682142.5964   20682144.7454   20682142.2054
       249.000         230.000
 125840471.53248  98057506.64148  23946648.1434   23946648.3884   23946648.8584
       223.000         171.000
 09  1 30  0 14  0.0000000  0 10G 5G 9G18G26G17G27G28G12G15G22
 122169052.25848  95196645.36548  23248012.7904   23248016.4904   23248013.7014
       227.000         182.000
 106808267.18748  83227216.67648  20324943.6624   20324946.5274   20324943.9014
       249.000         224.000
 117205764.32348  91329152.28448  22303527.2354   22303528.9374   22303528.2004
       237.000         195.000
 115204954.80148  89770077.39248  21922788.2684   21922790.8814   21922788.1754
       241.000         202.000
 122080602.87148  95127734.52048  23231172.4154   23231174.3674   23231172.9814
       231.000         193.000
 130036434.40548 101327076.74448  24745122.3464   24745125.2324   24745123.0234
       214.000         162.000
 130309909.06348 101540182.75048  24797155.7554   24797158.9254   24797155.9624
       201.000         150.000
 116696895.04848  90932629.69748  22206694.0454   22206696.0614   22206693.8654
       239.000         203.000
 108726791.38948  84722167.73948  20690025.0954   20690027.2484   20690024.8164
       248.000         230.000
 125782256.81548  98012144.55948  23935570.3664   23935570.5294   23935571.6784
       221.000         173.000
 09  1 30  0 14 30.0000000  0 10G 5G 9G18G26G17G27G28G12G15G22
 122066034.59748  95116371.84048  23228409.0084   23228412.9164   23228410.0904
       226.000         182.000
 106771640.22048  83198676.19448  20317973.8534   20317976.6834   20317974.0954
       249.000         224.000
 117197034.29148  91322349.64248  22301865.7244   22301867.6294   22301866.1144
       236.000         195.000
 115289290.34648  89835793.39748  21938836.9474   21938839.7124   21938837.0244
       240.000         203.000
 122076220.72648  95124319.86148  23230338.0744   23230340.4084   23230337.9024
       231.000         191.000
 130105652.18948 101381012.63448  24758293.3054   24758297.3204   24758292.6864
       215.000         163.000
 130405172.54448 101614413.97748  24815283.4544   24815287.3944   24815282.3934
       197.000         149.000
 116608939.18048  90864092.67348  22189956.2754   22189958.5134   22189955.9034
       238.000         203.000
 108768670.14448  84754800.51748  20697994.3284   20697996.7114   20697994.0424
       249.000         230.000
 125724495.53548  97967135.76848  23924578.1694   23924579.3294   23924576.7194
       220.000         171.000
 09  1 30  0 15  0.0000000  0 10G 5G 9G18G26G17G27G28G12G15G22
 121963246.08948  95036276.86648  23208848.7704   23208852.8484   23208849.0504
       227.000         182.000
 106735338.68548  83170389.28348  20311066.0104   20311068.6404   20311066.3174
       249.000         224.000
 117188883.03548  91315997.98848  22300314.4724   22300316.7424   22300314.8204
       236.000         195.000
 115373937.39448  89901752.12948  21954944.7704   21954947.5574   21954944.7194
       241.000         203.000
 122072385.34548  95121331.24948  23229608.5334   23229610.2194   23229608.3084
       230.000         191.000
 130174907.00848 101434977.40248  24771472.4974   24771475.4464   24771472.4854
       213.000         163.000
 130500513.69948 101688705.71848  24833426.2314   24833430.0064   24833425.3814
       202.000         154.000
 116521319.73148  90795817.78748  22173282.8394   22173285.0174   22173282.6834
       239.000         204.000
 108811006.23048  84787789.66148  20706050.6794   20706052.9704   20706050.3814
       249.000         229.000
 125667190.31548  97922482.33848  23913673.8894   23913673.8234   23913673.3124
       224.000         170.000
 09  1 30  0 15 30.0000000  0 10G 5G 9G18G26G17G27G28G12G15G22
 121860686.95248  94956360.64448  23189332.5394   23189336.6434   23189332.7414
       226.000         182.000
 106699361.11648  83142354.81448  20304219.4474   20304222.4444   20304219.7074
       249.000         224.000
 117181308.61148  91310095.82848  22298873.4424   22298875.5034   22298874.0734
       236.000         196.000
 115458892.89648  89967951.22848  21971111.3554   21971113.9884   21971111.5054
       240.000         202.000
 122069096.18848  95118768.26548  23228982.6554   23228984.2484   23228982.8714
       231.000         191.000
 130244197.42448 101488969.88948  24784657.7734   24784662.3304   24784657.6154
       216.000         164.000
 130595929.05948 101763055.33848  24851583.3784   24851587.3774   24851582.6744
       201.000         154.000
 116434036.62148  90727804.98348  22156673.8464   22156675.5274   22156673.5134
       240.000         204.000
 108853797.29848  84821133.35848  20714193.5704   20714195.7404   20714193.2374
       248.000         229.000
 125610340.94548  97878184.14248  23902855.8634   23902855.9494   23902858.5134
       223.000         171.000
 09  1 30  0 16  0.0000000  0 10G 5G 9G18G26G17G27G28G12G15G22
 121758358.94648  94876624.51648  23169860.0924   23169864.2324   23169860.7874
       229.000         182.000
 106663708.10348  83114573.24848  20297435.0694   20297437.8454   20297435.1634
       250.000         224.000
 117174311.42648  91304643.46448  22297541.8114   22297543.6714   22297542.4014
       236.000         195.000
 115544155.61648  90034389.71548  21987336.1904   21987339.1164   21987336.2074
       241.000         203.000
 122066353.39348  95116631.02748  23228460.3114   23228462.4334   23228460.0084
       229.000         190.000
 130313523.49148 101542990.24648  24797850.0444   24797853.3904   24797850.3734
       213.000         162.000
 130691416.44648 101837461.01648  24869754.3994   24869758.3084   24869754.1094
       204.000         155.000
 116347091.43048  90660055.48548  22140128.8914   22140130.5714   22140129.0484
       240.000         205.000
 108897042.98248  84854831.30648  20722422.9004   20722425.0394   20722422.5584
       249.000         229.000
 125553949.14248  97834242.45548  23892124.2734   23892125.0374   23892125.0644
       221.000         171.000
 09  1 30  0 16 30.0000000  0 10G 5G 9G18G26G17G27G28G12G15G22
 121656264.78848  94797070.59148  23150432.0824   23150436.2354   23150432.5664
       226.000         180.000
 106628381.34948  83087045.91048  20290712.5784   20290715.4644   20290712.7804
       250.000         224.000
 117167892.05848  91299641.33248  22296320.3194   22296322.1974   22296320.9834
       235.000         194.000
 115629725.47348  90101067.52448  22003619.6464   22003622.4214   22003619.6934
       241.000         202.000
 122064158.41148  95114920.66248  23228042.7734   23228044.5884   23228042.1984
       231.000         190.000
 130382886.26648 101597039.15348  24811049.0424   24811053.1544   24811049.2294
       213.000         160.000
 130786975.48048 101911922.56748  24887938.6644   24887941.3164   24887938.8344
       205.000         154.000
 116260486.72348  90592571.29848  22123648.5764   22123650.2714   22123648.2674
       240.000         206.000
 108940743.92648  84888883.99248  20730739.0104   20730741.0574   20730738.6864
       249.000         229.000
 125498017.50648  97790659.35448  23881481.5024   23881482.1514   23881480.8254
       225.000         174.000
 09  1 30  0 17  0.0000000  0 10G 5G 9G18G26G17G27G28G12G15G22
 121554405.76148  94717699.91048  23131048.8134   23131052.9484   23131049.7654
       226.000         180.000
 106593380.65948  83059772.63548  20284052.2594   20284054.8994   20284052.4204
       249.000         225.000
 117162050.25048  91295089.24748  22295208.3664   22295210.6204   22295208.5704
       236.000         194.000
 115715600.59448  90167983.19548  22019960.8974   22019963.7774   22019960.6934
       240.000         201.000
 122062511.79548  95113637.59948  23227729.6684   23227731.4054   23227729.2114
       230.000         191.000
 130452285.82648 101651116.73348  24824254.9414   24824259.6834   24824255.0214
       214.000         161.000
 130882603.53148 101986437.90248  24906136.3994   24906138.9404   24906136.8494
       209.000         156.000
 116174223.79148  90525353.44848  22107233.1204   22107235.0154   22107233.1684
       240.000         205.000
 108984899.53248  84923290.96948  20739141.5284   20739143.6574   20739141.2494
       249.000         229.000
 125442547.56348  97747436.02148  23870925.4984   23870925.6884   23870926.4884
       224.000         169.000
 09  1 30  0 17 30.0000000  0 10G 5G 9G18G26G17G27G28G12G15G22
 121452783.55548  94638513.76348  23111710.8634   23111714.9114   23111711.1564
       227.000         182.000
 106558706.17048  83032753.55448  20277453.9544   20277456.6804   20277454.1664
       252.000         225.000
 117156786.05348  91290987.25748  22294206.6464   22294208.9354   22294207.3724
       236.000         195.000
 115801779.61948  90235135.67848  22036360.4584   22036363.1774   22036360.3564
       241.000         202.000
 122061413.97648  95112782.16448  23227520.5894   23227522.7834   23227520.3194
       232.000         192.000
 130521721.99948 101705222.83848  24837469.6444   24837472.7034   24837469.8904
       211.000         159.000
 130978298.43648 102061005.31848  24924346.4924   24924348.7394   24924346.4894
       206.000         156.000
 116088304.03348  90458403.00648  22090883.0194   22090884.8034   22090883.0364
       240.000         205.000
 109029509.11448  84958051.70348  20747630.3894   20747632.5224   20747630.2504
       249.000         228.000
 125387540.97348  97704573.74848  23860458.1584   23860458.3474   23860459.7624
       223.000         173.000
 09  1 30  0 18  0.0000000  0 10G 5G 9G18G26G17G27G28G12G15G22
 121351399.83448  94559513.46648  23092418.2934   23092422.3974   23092418.9224
       226.000         181.000
 106524358.08848  83005988.81248  20270917.7284   20270920.3854   20270917.8354
       251.000         225.000
 117152099.11448  91287335.09448  22293314.9714   22293317.0864   22293315.7114
       235.000         194.000
 115888261.41148  90302524.06848  22052817.4754   22052820.3084   22052817.5034
       240.000         202.000
 122060865.48848  95112354.77748  23227416.3274   23227418.3324   23227416.3774
       232.000         192.000
 130591195.05448 101759357.67848  24850688.8874   24850692.8364   24850689.0334
       214.000         159.000
 131074058.60448 102135623.61548  24942569.2394   24942570.9034   24942569.4904
       209.000         156.000
 116002729.38748  90391721.48448  22074598.6584   22074600.3724   22074598.5654
       240.000         204.000
 109074572.27548  84993165.86048  20756205.5424   20756207.7044   20756205.2384
       248.000         228.000
 125332999.32648  97662073.72648  23850079.1804   23850079.9124   23850078.2934
       224.000         177.000
 09  1 30  0 18 30.0000000  0 10G 5G 9G18G26G17G27G28G12G15G22
 121250256.50948  94480700.51048  23073171.2284   23073175.4034   23073171.8954
       229.000         183.000
 106490337.35748  82979479.15148  20264443.8274   20264446.6344   20264444.0874
       252.000         225.000
 117147989.47448  91284132.74948  22292532.6364   22292534.8554   22292533.1184
       235.000         194.000
 115975044.58348  90370147.31148  22069331.4944   22069334.7214   22069331.4924
       239.000         200.000
 122060866.55048  95112355.63248  23227416.1304   23227418.3534   23227415.8694
       230.000         190.000
 130660705.05248 101813521.27648  24863915.4334   24863920.6764   24863916.2734
       213.000         158.000
 131169882.33148 102210291.46348  24960804.1414   24960805.2934   24960804.1404
       213.000         158.000
 115917501.27948  90325309.97448  22058380.2274   22058381.9834   22058379.9034
       240.000         205.000
 109120088.72848  85028633.23448  20764867.1474   20764869.1624   20764866.8204
       249.000         228.000
 125278924.12048  97619937.18948  23839788.8894   23839789.8404   23839789.1114
       223.000         171.000
 09  1 30  0 19  0.0000000  0 10G 5G 9G18G26G17G27G28G12G15G22
 121149355.10048  94402076.04148  23053970.6674   23053974.6224   23053971.7974
       229.000         184.000
 106456644.46548  82953224.95048  20258032.2134   20258034.9404   20258032.5924
       252.000         225.000
 117144456.70648  91281379.93348  22291860.4774   22291862.6194   22291861.2164
       235.000         195.000
 116062127.93548  90438004.45248  22085903.0564   22085906.0274   22085902.9734
       239.000         200.000
 122061417.88948  95112785.22448  23227521.1314   23227523.0534   23227520.6684
       229.000         191.000
 130730251.88548 101867713.61348  24877150.3714   24877154.0474   24877150.5884
       215.000         160.000
 131265767.60048 102285007.25548  24979050.2734   24979051.8984   24979051.6734
       212.000         158.000
 115832621.14348  90259169.63048  22042227.8634   22042230.0934   22042227.9924
       239.000         206.000
 109166058.10248  85064453.54648  20773614.7364   20773616.9534   20773614.5564
       248.000         228.000
 125225316.91848  97578165.36048  23829588.1554   23829588.0814   23829588.6304
       225.000         174.000
 09  1 30  0 19 30.0000000  0 10G 5G 9G18G26G17G27G28G12G15G22
 121048697.25148  94323641.36448  23034816.1094   23034820.2014   23034816.3384
       227.000         183.000
 106423279.23448  82927226.06148  20251682.9444   20251685.8424   20251683.1424
       251.000         224.000
 117141500.49748  91279076.38848  22291298.1984   22291299.9384   22291298.4384
       238.000         195.000
 116149510.08848  90506094.42448  22102531.2714   22102534.2284   22102530.8914
       239.000         200.000
 122062519.80048  95113643.86148  23227730.9714   23227732.8894   23227731.1144
       231.000         190.000
 130799835.81248 101921934.82148  24890392.3354   24890395.7854   24890392.6594
       218.000         163.000
 131361712.39548 102359769.38548  24997307.6044   24997309.7374   24997309.0584
       208.000         156.000
 115748090.56248  90193301.65748  22026142.3694   22026144.7254   22026141.8654
       240.000         207.000
 109212479.80648  85100626.31848  20782448.5074   20782450.7604   20782448.1164
       249.000         228.000
 125172179.63448  97536759.66648  23819477.2714   23819476.5784   23819478.0004
       223.000         174.000
 09  1 30  0 20  0.0000000  0 10G 5G 9G18G26G17G27G28G12G15G22
 120948285.36548  94245398.37548  23015708.1544   23015712.1214   23015708.5594
       228.000         182.000
 106390242.99748  82901483.54148  20245396.3974   20245399.0744   20245396.5544
       251.000         225.000
 117139121.53348  91277222.64148  22290845.5494   22290847.3424   22290846.0044
       237.000         195.000
 116237190.29148  90574416.65148  22119216.3384   22119219.0134   22119216.3234
       241.000         199.000
 122064173.33548  95114932.31448  23228045.1614   23228047.5184   23228045.5784
       229.000         189.000
 130869457.58148 101976185.58348  24903641.1874   24903645.0984   24903642.0394
       219.000         165.000
 131457715.58348 102434577.03448  25015576.0764   25015578.5764   25015576.6644
       208.000         156.000
 115663911.61148  90127707.68548  22010123.5644   22010125.8514   22010123.6444
       238.000         206.000
 109259354.22548  85137151.87848  20791368.6024   20791370.5664   20791368.3874
       249.000         228.000
 125119514.24448  97495721.73548  23809453.8274   23809455.3784   23809454.4654
       222.000         174.000
 09  1 30  0 20 30.0000000  0 10G 5G 9G18G26G17G27G28G12G15G22
 120848121.81648  94167348.86448  22996647.7174   22996651.4804   22996648.8264
       226.000         182.000
 106357536.81348  82875998.19048  20239172.6644   20239175.3984   20239172.9574
       252.000         225.000
 117137320.18048  91275818.96748  22290502.4564   22290504.7074   22290503.3154
       235.000         194.000
 116325168.12748  90642970.78848  22135958.0174   22135960.8424   22135957.7924
       239.000         199.000
 122066379.90748  95116651.72048  23228465.4034   23228467.4354   23228465.1394
       230.000         190.000
 130939118.06448 102030466.45648  24916896.6234   24916900.8944   24916897.1964
       217.000         161.000
 131553776.15348 102509429.41948  25033856.0674   25033858.5834   25033855.7544
       208.000         157.000
 115580086.94248  90062389.75748  21994172.1614   21994174.3094   21994171.5724
       238.000         206.000
 109306681.33748  85174030.17648  20800374.5174   20800376.5064   20800374.2464
       249.000         228.000
 125067323.32248  97455053.46548  23799522.6934   23799523.6254   23799522.4974
       225.000         177.000
 09  1 30  0 21  0.0000000  0 10G 5G 9G18G26G17G27G28G12G15G22
 120748207.04048  94089493.20448  22977634.8244   22977638.1174   22977634.8854
       230.000         183.000
 106325159.64048  82850769.21648  20233011.4764   20233014.1294   20233011.6654
       252.000         225.000
 117136094.87548  91274864.16248  22290269.3994   22290271.2224   22290269.5394
       237.000         194.000
 116413440.81448  90711754.68148  22152755.5754   22152758.7184   22152755.5354
       239.000         200.000
 122069138.48448  95118801.24848  23228990.4204   23228992.4634   23228989.9114
       229.000         191.000
 131008816.11448 102084776.59648  24930159.6824   24930163.2294   24930159.9174
       217.000         161.000
 131649890.92248 102584324.04148  25052145.9974   25052149.2184   25052146.9784
       210.000         158.000
 115496616.52848  89997347.89148  21978288.3434   21978290.5844   21978288.1414
       239.000         207.000
 109354459.27248  85211259.77048  20809466.3604   20809468.5164   20809466.2334
       249.000         228.000
 125015606.89148  97414754.92948  23789681.9224   23789682.2874   23789681.9584
       220.000         176.000
 09  1 30  0 21 30.0000000  0 10G 5G 9G18G26G17G27G28G12G15G22
 120648542.67048  94011832.67248  22958669.2864   22958672.7484   22958670.3564
       228.000         184.000
 106293111.98248  82825797.01948  20226912.9854   20226915.7664   20226913.0714
       252.000         225.000
 117135445.74048  91274358.33948  22290145.9484   22290147.5704   22290146.6414
       236.000         194.000
 116502007.18848  90780767.43648  22169609.2854   22169612.4614   22169609.3304
       240.000         199.000
 122072449.27548  95121381.07448  23229620.3304   23229622.8244   23229619.6894
       229.000         191.000
 131078551.63448 102139115.93048  24943430.0014   24943434.1574   24943430.8724
       213.000         160.000
 131746058.00948 102659259.42548  25070446.1634   25070449.5584   25070447.7664
       208.000         156.000
 115413501.89548  89932583.24348  21962472.4874   21962474.5904   21962472.3354
       240.000         208.000
 109402687.48748  85248840.21148  20818643.7944   20818646.0554   20818643.5244
       248.000         228.000
 124964366.52148  97374827.37448  23779930.4524   23779931.4774   23779928.8584
       227.000         179.000
 09  1 30  0 22  0.0000000  0 10G 5G 9G18G26G17G27G28G12G15G22
 120549129.84648  93934368.14648  22939751.3744   22939755.1494   22939751.6934
       226.000         184.000
 106261393.86848  82801081.61148  20220877.1704   20220880.0564   20220877.3634
       252.000         225.000
 117135370.91848  91274300.02448  22290132.0224   22290133.6174   22290132.7574
       236.000         194.000
 116590865.08248  90850007.35448  22186518.5454   22186521.2954   22186518.4644
       238.000         198.000
 122076312.27948  95124391.22748  23230355.2764   23230357.7964   23230354.9804
       228.000         188.000
 131148324.11048 102193484.08048  24956706.8894   24956711.4744   24956706.3734
       212.000         159.000
 131842275.03448 102734233.70348  25088755.5164   25088758.8894   25088755.7504
       210.000         157.000
 115330743.90248  89868096.50648  21946724.0284   21946726.1134   21946723.6934
       241.000         208.000
 109451365.37448  85286771.04248  20827906.9574   20827908.9464   20827906.7884
       249.000         227.000
 124913603.03648  97335271.38448  23770271.4944   23770271.3914   23770271.8504
       228.000         180.000
 09  1 30  0 22 30.0000000  0 10G 5G 9G18G26G17G27G28G12G15G22
 120449971.05548  93857101.56548  22920881.6754   22920886.0444   22920882.2304
       227.000         184.000
 106230006.54348  82776623.96048  20214904.4214   20214907.2284   20214904.4414
       252.000         225.000
 117135871.96248  91274690.43348  22290226.8764   22290229.1294   22290227.7354
       236.000         194.000
 116680014.20548  90919474.19748  22203482.5394   22203485.8744   22203482.5794
       238.000         198.000
 122080728.44048  95127832.40448  23231195.2884   23231198.1094   23231194.9324
       230.000         189.000
 131218134.73048 102247881.93348  24969991.9964   24969996.1614   24969992.1354
       213.000         156.000
 131938540.89848 102809246.03048  25107073.9424   25107077.8494   25107076.2004
       211.000         156.000
 115248345.09948  89803889.63548  21931044.4904   21931046.1434   21931044.4904
       241.000         209.000
 109500493.04848  85325052.33248  20837255.5394   20837257.6784   20837255.4664
       248.000         227.000
 124863318.83548  97296088.92048  23760701.9344   23760702.9534   23760701.0434
       223.000         177.000
 09  1 30  0 23  0.0000000  0 10G 5G 9G18G26G17G27G28G12G15G22
 120351068.24648  93780034.46348  22902061.2104   22902065.2324   22902062.1574
       229.000         185.000
 106198950.53648  82752424.47648  20208994.7044   20208997.5234   20208994.8684
       253.000         226.000
 117136948.23048  91275529.06448  22290431.8724   22290433.8354   22290431.9344
       236.000         195.000
 116769453.35348  90989167.03548  22220502.3944   22220505.5724   22220502.3304
       238.000         198.000
 122085698.48548  95131705.16048  23232141.1764   23232143.7284   23232141.0424
       229.000         188.000
 131287984.14348 102302310.04448  24983283.8984   24983287.0634   24983283.5974
       212.000         160.000
 132034854.32848 102884295.44948  25125402.0684   25125405.4254   25125404.3234
       212.000         155.000
 115166307.06148  89739963.87548  21915433.1084   21915434.7384   21915433.3364
       240.000         208.000
 109550070.00548  85363683.70748  20846689.6604   20846691.7604   20846689.3494
       247.000         227.000
 124813515.89948  97257281.40848  23751225.1244   23751225.2904   23751223.6254
       228.000         178.000
 09  1 30  0 23 30.0000000  0 10G 5G 9G18G26G17G27G28G12G15G22
 120252421.87648  93703167.17048  22883289.7294   22883293.5334   22883289.9524
       230.000         187.000
 106168225.01448  82728482.51448  20203147.8544   20203150.6604   20203147.8454
       253.000         226.000
 117138598.16548  91276814.71648  22290746.1144   22290747.8474   22290746.5264
       237.000         195.000
 116859180.25148  91059084.08648  22237576.8794   22237579.9304   22237576.8004
       237.000         197.000
 122091221.54848  95136008.83848  23233192.6844   23233194.5494   23233192.3724
       230.000         188.000
 131357871.10048 102356767.46748  24996582.6774   24996587.0734   24996582.5194
       213.000         160.000
 132131212.17148 102959379.49548  25143738.3554   25143741.7544   25143738.7744
       208.000         156.000
 115084630.16748  89676319.53948  21899890.1114   21899892.1334   21899889.9954
       239.000         208.000
 109600094.63648  85402663.92148  20856209.0304   20856211.2034   20856208.5964
       248.000         227.000
 124764194.59248  97218849.22448  23741839.4234   23741839.6614   23741840.0214
       224.000         175.000
 09  1 30  0 24  0.0000000  0 11G 5G 9G30G18G26G17G27G28G12G15G22
 120154034.11748  93626501.39648  22864567.2514   22864571.3184   22864568.1274
       230.000         187.000
 106137830.96548  82704798.84648  20197364.0834   20197366.8914   20197364.4934
       253.000         226.000
 132141171.11448 102967132.65248  25145638.8844   25145642.1394   25145639.3014
       212.000         146.000
 117140821.76648  91278547.37748  22291169.2884   22291171.1264   22291170.0654
       236.000         196.000
 116949193.67348  91129224.42248  22254706.0724   22254708.9114   22254706.1714
       238.000         197.000
 122097297.98348  95140743.73048  23234349.1614   23234350.7394   23234348.9434
       229.000         187.000
 131427796.30748 102411254.65348  25009889.5724   25009892.8314   25009888.8664
       214.000         158.000
 132227613.19048 103034497.15348  25162082.5724   25162086.0384   25162081.6084
       209.000         156.000
 115003316.65848  89612958.36048  21884416.6234   21884419.0424   21884416.6524
       240.000         209.000
 109650566.93148  85441992.96848  20865813.6294   20865815.8364   20865813.1974
       248.000         227.000
 124715356.64148  97180793.64048  23732545.5774   23732545.6874   23732545.3524
       225.000         174.000
 09  1 30  0 24 30.0000000  0 11G 5G 9G30G18G26G17G27G28G12G15G22
 120055906.05648  93550037.97648  22845894.1644   22845898.2974   22845894.8474
       230.000         186.000
 106107768.27248  82681373.36548  20191643.3664   20191646.1854   20191643.4574
       253.000         226.000
