     2.11           OBSERVATION DATA    G (GPS)             RINEX VERSION / TYPE
teqc  2008Oct2      gpsops              20090111 00:05:41UTCPGM / RUN BY / DATE
    30.0000                                                 INTERVAL
     1     1                                                WAVELENGTH FACT L1/2
     7    L1    L2    P1    P2    C1    S1    S2            # / TYPES OF OBSERV
Linux 2.4.20-8|Pentium IV|gcc -static|Linux|486/DX+         COMMENT
     2.10           OBSERVATION DATA    GPS                 COMMENT
soc2rnx ver 1.20    gpsops              11-Jan-2009 00:05:36COMMENT
S1, if present, is the SNR for the C/A data stream on L1.   COMMENT
 SNR is mapped to RINEX snr flag value [1,4-9]              COMMENT
    SNR:   >316  >100  >31.6  >10  >3.2    >0 bad=0         COMMENT
L1 & L2:      9     8     7     6     5     4     1         COMMENT
                                                            COMMENT
This data is provided as a public service by NASA/JPL.      COMMENT
No warranty is expressed or implied regarding suitability   COMMENT
for use.  For further information, contact:                 COMMENT
Dave Stowers, NASA/JPL m/s 238-600                          COMMENT
4800 Oak Grove Drive, Pasadena CA 91109 USA                 COMMENT
                                                            COMMENT
Forced Modulo Decimation to 30 seconds                      COMMENT
  2009     1    10     0     0    0.0000000     GPS         TIME OF FIRST OBS
DSN                 JPL                                     OBSERVER / AGENCY
451-U               AOAD/M_T        NONE                    ANT # / TYPE
  4849202.3940  -360328.9929  4114913.1862                  APPROX POSITION XYZ
        0.0254        0.0000        0.0000                  ANTENNA: DELTA H/E/N
LP03574             ASHTECH Z-XII3      CC00                REC # / TYPE / VERS
MADR                                                        MARKER NAME
13407S012                                                   MARKER NUMBER
                                                            END OF HEADER
 09  1 10  0  0  0.0000000  0 11G 9G24G18G27G15G21G 8G28G26G17G10
 119331472.63248  92985549.15448  22708037.4614   22708039.2074   22708036.9684
       231.000         185.000
 130459444.14148 101656686.43948  24825626.9574   24825629.0904   24825624.9904
       207.000         144.000
 127934276.10148  99689042.93848  24345086.3914   24345088.6024   24345084.0724
       209.000         160.000
 122719178.88848  95625324.63048  23352690.7504   23352693.2014   23352690.5854
       232.000         191.000
 108857741.68048  84824204.00148  20714948.7604   20714950.3654   20714948.4534
       251.000         233.000
 129209505.25248 100682745.68748  24587740.4564   24587741.9244   24587740.2874
       214.000         156.000
 124878665.95248  97308037.17248  23763629.7904   23763634.4554   23763630.2334
       215.000         161.000
 115880154.20148  90296216.38548  22051266.0694   22051268.0944   22051266.9644
       243.000         207.000
 105729584.72148  82386657.65148  20119697.7704   20119700.1054   20119697.4774
       251.000         228.000
 131087252.83148 102145905.82248  24945079.3944   24945080.5114   24945079.6074
       214.000         164.000
 117526932.87248  91579415.53348  22364641.3074   22364644.5804   22364641.9664
       237.000         198.000
 09  1 10  0  0 30.0000000  0 11G 9G24G18G27G15G21G 8G28G26G17G10
 119241710.93448  92915604.99848  22690955.8214   22690958.4354   22690956.4504
       230.000         186.000
 130533226.29148 101714179.02448  24839665.8704   24839668.5814   24839666.9504
       211.000         144.000
 127839868.14048  99615478.30548  24327120.9374   24327123.2814   24327119.5584
       214.000         159.000
 122789674.17848  95680256.02648  23366105.2924   23366107.8664   23366105.5174
       232.000         189.000
 108820144.88548  84794907.79448  20707794.1444   20707795.8174   20707793.9474
       250.000         233.000
 129237018.57648 100704184.60248  24592974.6424   24592976.9064   24592976.8764
       206.000         153.000
 124968051.86648  97377688.48248  23780639.6054   23780644.0014   23780639.9364
       212.000         161.000
 115921128.35048  90328144.29348  22059063.3784   22059065.0924   22059064.0614
       243.000         207.000
 105741709.34648  82396105.40348  20122005.1534   20122007.3784   20122004.9294
       252.000         228.000
 131012360.88648 102087548.52548  24930826.7874   24930828.3504   24930827.1824
       215.000         164.000
 117623294.06348  91654502.17048  22382978.0624   22382981.7904   22382978.5324
       237.000         198.000
 09  1 10  0  1  0.0000000  0 11G 9G24G18G27G15G21G 8G28G26G17G10
 119152165.26548  92845829.18148  22673914.9674   22673918.4914   22673915.3564
       229.000         187.000
 130607105.65548 101771747.32248  24853724.8494   24853727.8084   24853725.0894
       215.000         149.000
 127745707.16748  99542106.12148  24309203.2274   24309205.0804   24309204.2404
       218.000         162.000
 122860205.11848  95735215.18748  23379526.0584   23379529.0154   23379526.0984
       230.000         186.000
 108782844.78048  84765842.77548  20700696.1104   20700697.8044   20700695.8914
       250.000         233.000
 129264956.58348 100725954.39448  24598291.6354   24598293.8824   24598290.9704
       210.000         157.000
 125057488.98348  97447379.73748  23797659.7974   23797663.6294   23797659.2424
       217.000         161.000
 115962577.25048  90360442.13448  22066950.9174   22066952.8154   22066951.5604
       242.000         207.000
 105754217.95048  82405852.36848  20124385.3694   20124387.7604   20124385.2754
       251.000         228.000
 130937580.96148 102029278.39948  24916596.5954   24916599.3764   24916596.6224
       213.000         160.000
 117719931.08148  91729803.73448  22401367.8584   22401371.3244   22401368.7254
       237.000         199.000
 09  1 10  0  1 30.0000000  0 11G 9G24G18G27G15G21G 8G28G26G17G10
 119062835.51348  92776221.59748  22656916.2434   22656919.3384   22656916.4884
       231.000         187.000
 130681078.18948 101829388.24348  24867801.5064   24867805.3274   24867802.2504
       210.000         151.000
 127651794.97048  99468927.77648  24291332.2064   24291333.7084   24291333.2504
       215.000         160.000
 122930770.03048  95790200.80148  23392953.8894   23392956.7334   23392953.9364
       232.000         186.000
 108745841.73648  84737009.23148  20693654.6234   20693656.2704   20693654.3264
       251.000         233.000
 129293316.74148 100748053.23248  24603688.2464   24603690.4764   24603688.8964
       215.000         156.000
 125146975.60948  97517109.55648  23814688.3254   23814692.3704   23814689.2914
       218.000         162.000
 116004498.31048  90393107.89648  22074928.1464   22074930.0134   22074928.3594
       243.000         206.000
 105767109.79048  82415897.94748  20126838.7234   20126841.0214   20126838.6404
       251.000         228.000
 130862915.28348 101971097.36448  24902387.6794   24902390.3314   24902387.9064
       212.000         159.000
 117816840.40248  91805317.49048  22419808.8714   22419812.6604   22419809.5824
       238.000         198.000
 09  1 10  0  2  0.0000000  0 11G 9G24G18G27G15G21G 8G28G26G17G10
 118973722.87348  92706783.18548  22639958.7564   22639961.7454   22639959.0474
       232.000         188.000
 130755141.87048 101887100.16848  24881894.5134   24881899.2244   24881893.9064
       208.000         150.000
 127558134.72048  99395945.76148  24273509.1034   24273510.8144   24273508.5804
       212.000         158.000
 123001368.89048  95845212.89548  23406389.0074   23406391.5964   23406389.3124
       233.000         189.000
 108709138.17948  84708409.05348  20686670.2904   20686671.8234   20686669.9394
       252.000         233.000
 129322097.62348 100770479.89248  24609165.4434   24609167.1734   24609165.4194
       212.000         156.000
 125236511.09348  97586877.46448  23831727.0534   23831730.1164   23831728.2964
       216.000         163.000
 116046890.46848  90426140.75148  22082995.2024   22082997.0944   22082995.5274
       243.000         207.000
 105780386.14048  82426243.15948  20129364.9914   20129367.3694   20129364.9164
       251.000         228.000
 130788367.45948 101913008.17948  24888201.7984   24888204.1354   24888201.1604
       215.000         165.000
 117914020.40848  91881042.16648  22438301.6994   22438305.1264   22438302.5294
       237.000         198.000
 09  1 10  0  2 30.0000000  0 11G 9G24G18G27G15G21G 8G28G26G17G10
 118884829.13848  92637515.35948  22623043.2624   22623046.0524   22623043.7494
       232.000         189.000
 130829294.52048 101944881.43048  24896005.5644   24896010.1384   24896005.0464
       208.000         153.000
 127464729.73348  99323162.66048  24255734.1064   24255736.1814   24255735.3314
       214.000         157.000
 123072001.79548  95900251.53348  23419830.2344   23419832.9104   23419830.5204
       233.000         189.000
 108672735.86348  84680043.60948  20679743.1524   20679744.5954   20679742.9794
       253.000         233.000
 129351298.16348 100793233.53148  24614721.7004   24614723.4464   24614723.6334
       213.000         155.000
 125326094.69048  97656682.84448  23848774.1294   23848777.7844   23848774.2954
       216.000         162.000
 116089752.86748  90459540.02348  22091151.6474   22091153.5124   22091151.9974
       242.000         206.000
 105794048.21848  82436888.92348  20131964.9154   20131967.1964   20131964.8134
       252.000         228.000
 130713941.04748 101855013.60448  24874039.7264   24874041.3764   24874039.6974
       218.000         165.000
 118011469.23348  91956976.30448  22456845.5704   22456848.9344   22456846.3174
       235.000         196.000
 09  1 10  0  3  0.0000000  0 11G 9G24G18G27G15G21G 8G28G26G17G10
 118796154.58548  92568418.31248  22606169.2784   22606171.6864   22606169.3564
       233.000         188.000
 130903532.73748 102002729.38748  24910131.4344   24910137.3134   24910132.1094
       205.000         151.000
 127371582.07448  99250580.04348  24238009.3714   24238011.3714   24238009.6634
       215.000         159.000
 123142667.64848  95955315.81748  23433276.7604   23433280.0064   23433277.0774
       231.000         187.000
 108636635.95948  84651913.81048  20672873.6344   20672874.9314   20672873.3734
       252.000         233.000
 129380916.11048 100816312.45548  24620357.6914   24620360.0304   24620356.8614
       209.000         152.000
 125415725.14448  97726524.71748  23865830.1974   23865834.3354   23865830.3454
       217.000         163.000
 116133083.71248  90493304.31648  22099397.1384   22099398.9314   22099397.8384
       242.000         207.000
 105808095.85348  82447835.12848  20134638.1144   20134640.4814   20134638.1354
       251.000         228.000
 130639638.81648 101797115.78848  24859899.8074   24859901.8464   24859899.4804
       217.000         163.000
 118109184.03048  92033117.70148  22475440.1764   22475443.6874   22475440.5844
       236.000         197.000
 09  1 10  0  3 30.0000000  0 11G 9G24G18G27G15G21G 8G28G26G17G10
 118707700.46048  92499493.03348  22589336.9724   22589339.5564   22589337.4274
       233.000         189.000
 130977854.16248 102060642.16948  24924274.8434   24924280.0034   24924274.1614
       209.000         149.000
 127278695.01048  99178200.50748  24220334.4724   24220335.8904   24220333.8024
       219.000         164.000
 123213366.13448  96010405.53648  23446730.3244   23446733.6694   23446730.1924
       230.000         186.000
 108600840.00448  84624020.86148  20666061.8794   20666063.1434   20666061.7134
       253.000         233.000
 129410949.79648 100839715.26448  24626073.9324   24626074.8054   24626075.6064
       210.000         156.000
 125505401.79448  97796402.62548  23882895.9024   23882899.1394   23882896.9484
       215.000         163.000
 116176881.95448  90527432.81548  22107731.6784   22107733.5974   22107732.0424
       242.000         206.000
 105822529.87348  82459082.41448  20137384.7954   20137387.1744   20137384.5954
       251.000         228.000
 130565464.22748 101739317.39348  24845785.9654   24845786.2234   24845785.7624
       219.000         163.000
 118207162.49248  92109464.55748  22494084.7864   22494088.5414   22494085.5704
       237.000         197.000
 09  1 10  0  4  0.0000000  0 11G 9G24G18G27G15G21G 8G28G26G17G10
 118619467.03548  92430739.73448  22572546.5664   22572549.5024   22572546.8744
       232.000         189.000
 131052255.42448 102118617.13048  24938432.3194   24938437.8454   24938432.8594
       212.000         146.000
 127186070.38648  99106025.49048  24202708.6314   24202709.8184   24202710.4514
       218.000         165.000
 123284096.15748  96065519.80748  23460189.6754   23460193.2294   23460190.3394
       229.000         187.000
 108565348.95748  84596365.49848  20659308.2334   20659309.6044   20659308.1724
       253.000         233.000
 129441396.75348 100863440.16048  24631866.9854   24631868.9234   24631866.6594
       210.000         155.000
 125595123.58748  97866315.66848  23899968.7424   23899972.1394   23899968.3674
       215.000         160.000
 116221145.64848  90561923.99248  22116154.9854   22116156.7144   22116155.4344
       243.000         206.000
 105837350.12848  82470630.65248  20140204.9654   20140207.3874   20140204.9904
       251.000         228.000
 130491419.59748 101681620.28148  24831695.1284   24831696.4994   24831695.0864
       218.000         162.000
 118305401.51148  92186014.43648  22512779.2934   22512782.8074   22512780.0444
       237.000         197.000
 09  1 10  0  4 30.0000000  0 11G 9G24G18G27G15G21G 8G28G26G17G10
 118531454.70948  92362158.71148  22555798.4484   22555801.3444   22555798.8264
       231.000         190.000
 131126733.40248 102176651.93048  24952604.8184   24952610.1034   24952605.7584
       209.000         139.000
 127093710.30048  99034056.57348  24185132.7564   24185133.9124   24185132.6844
       214.000         161.000
 123354856.54648  96120657.78148  23473655.5294   23473658.4524   23473655.2074
       232.000         188.000
 108530163.97148  84568948.62248  20652612.8264   20652614.2054   20652612.6444
       252.000         233.000
 129472254.78548 100887485.32848  24637739.7684   24637740.6604   24637739.1974
       213.000         156.000
 125684888.56348  97936262.35548  23917050.5304   23917053.8674   23917051.9974
       216.000         160.000
 116265872.51548  90596776.09948  22124666.4304   22124667.7094   22124666.9264
       242.000         207.000
 105852556.66148  82482479.89648  20143098.6404   20143101.1074   20143098.4924
       252.000         229.000
 130417507.48048 101624026.47348  24817629.9234   24817631.7794   24817630.0884
       215.000         163.000
 118403898.36848  92262765.23048  22531522.3044   22531526.0824   22531523.1234
       236.000         196.000
 09  1 10  0  5  0.0000000  0 11G 9G24G18G27G15G21G 8G28G26G17G10
 118443665.20048  92293751.32748  22539091.9634   22539095.6984   22539091.6384
       230.000         189.000
 131201285.93748 102234744.86448  24966792.8374   24966795.2424   24966792.2174
       201.000         134.000
 127001618.23348  98962296.55348  24167607.7484   24167609.7404   24167608.3324
       217.000         163.000
 123425647.61348  96175819.63648  23487126.2944   23487129.7094   23487127.0534
       230.000         185.000
 108495287.37448  84541772.05548  20645975.7864   20645977.4184   20645975.5644
       252.000         233.000
 129503522.78048 100911850.02848  24643688.0234   24643690.5944   24643689.7424
       210.000         151.000
 125774696.26348  98006242.40648  23934140.6464   23934143.2164   23934141.7464
       211.000         160.000
 116311061.59548  90631988.36648  22133265.2554   22133267.0764   22133265.3074
       243.000         207.000
 105868150.58048  82494630.99848  20146066.1394   20146068.5644   20146066.0514
       252.000         229.000
 130343731.81548 101566538.91048  24803591.3894   24803592.3014   24803590.4154
       219.000         168.000
 118502651.44748  92339715.67848  22550314.4414   22550318.0854   22550315.5394
       236.000         195.000
 09  1 10  0  5 30.0000000  0 11G 9G24G18G27G15G21G 8G28G26G17G10
 118356099.03748  92225517.97248  22522428.5864   22522432.2964   22522428.6524
       231.000         189.000
 131275910.26248 102292893.63348  24980993.1164   24980996.2414   24980994.6054
       204.000         134.000
 126909796.68548  98890747.29048  24150135.2714   24150136.2904   24150135.3354
       218.000         161.000
 123496468.72248  96231004.88748  23500602.8614   23500606.3504   23500602.6914
       233.000         188.000
 108460720.40248  84514836.74848  20639397.8974   20639399.5374   20639397.5354
       252.000         234.000
 129535198.73548 100936532.59548  24649716.7584   24649718.9264   24649716.5454
       215.000         152.000
 125864545.56848  98076254.80248  23951238.3294   23951241.4854   23951237.5504
       216.000         160.000
 116356711.29548  90667559.56148  22141952.2444   22141954.0054   22141953.0174
       242.000         207.000
 105884132.23748  82507084.22948  20149107.4344   20149109.8004   20149107.3864
       252.000         229.000
 130270095.09448 101509159.63948  24789578.1824   24789580.6244   24789578.1094
       214.000         164.000
 118601658.23448  92416863.81148  22569154.6184   22569158.4814   22569155.5744
       235.000         194.000
 09  1 10  0  6  0.0000000  0 11G 9G24G18G27G15G21G 8G28G26G17G10
 118268756.50648  92157458.88548  22505808.1584   22505811.0064   22505808.8714
       231.000         188.000
 131350602.70448 102351095.52848  24995207.3314   24995209.6254   24995208.0494
       214.000         142.000
 126818247.39148  98819410.16348  24132713.3994   24132715.2234   24132715.3084
       215.000         160.000
 123567318.52448  96286212.54248  23514086.6574   23514088.6084   23514087.1984
       234.000         188.000
 108426463.71848  84488143.23548  20632879.0974   20632880.7584   20632878.7924
       252.000         234.000
 129567279.80748 100961530.81348  24655822.4564   24655823.6554   24655823.1284
       205.000         148.000
 125954434.82648  98146298.34448  23968342.9284   23968346.6784   23968344.2844
       211.000         160.000
 116402819.44848  90703488.00448  22150726.2014   22150728.2874   22150726.0364
       243.000         207.000
 105900501.15548  82519839.22748  20152222.2804   20152224.6884   20152222.1644
       251.000         229.000
 130196599.89548 101451890.69348  24775592.0454   24775594.4384   24775591.7944
       210.000         163.000
 118700915.27848  92494206.96048  22588042.7584   22588046.3704   22588043.4834
       235.000         194.000
 09  1 10  0  6 30.0000000  0 11G 9G24G18G27G15G21G 8G28G26G17G10
 118181639.24348  92089575.30448  22489230.4614   22489233.1084   22489230.4484
       232.000         188.000
 131425361.38248 102409349.01648  25009434.2754   25009436.7294   25009434.0854
       211.000         144.000
 126726973.99348  98748288.05748  24115344.7384   24115346.2204   24115344.9934
       217.000         162.000
 123638197.31448  96341442.73348  23527573.0974   23527576.6204   23527573.8704
       226.000         185.000
 108392519.62948  84461693.29248  20626419.7924   20626421.3474   20626419.5294
       253.000         234.000
 129599764.86448 100986843.79148  24662003.4544   24662006.3304   24662003.0804
       199.000         146.000
 126044363.75748  98216372.81348  23985456.4614   23985459.3564   23985456.1494
       213.000         160.000
 116449385.40748  90739773.15448  22159587.5164   22159589.4204   22159588.0794
       242.000         206.000
 105917258.67948  82532897.02848  20155411.0284   20155413.5334   20155410.9084
       251.000         228.000
 130123250.18448 101394735.06848  24761633.8854   24761635.9484   24761633.8524
       219.000         163.000
 118800420.83148  92571743.74848  22606978.2854   22606981.6534   22606978.6784
       236.000         194.000
 09  1 10  0  7  0.0000000  0 11G 9G24G18G27G15G21G 8G28G26G17G10
 118094747.91148  92021867.78048  22472695.7304   22472698.2424   22472695.8614
       232.000         188.000
 131500183.47248 102467651.91848  25023671.6824   25023675.0674   25023671.8854
       209.000         145.000
 126635979.35948  98677383.14848  24098029.1274   24098030.0644   24098029.3764
       212.000         160.000
 123709104.57148  96396695.12748  23541066.7824   23541069.6214   23541066.2854
       233.000         188.000
 108358889.43948  84435487.95148  20620020.1894   20620021.6474   20620019.8784
       253.000         234.000
 129632651.70448 101012469.88048  24668261.6964   24668262.8624   24668262.0694
       207.000         149.000
 126134331.61148  98286477.61448  24002575.7554   24002579.9344   24002576.9994
       209.000         160.000
 116496407.28148  90776413.57948  22168535.3304   22168537.0594   22168535.4144
       242.000         206.000
 105934405.13248  82546257.89248  20158673.8414   20158676.3464   20158673.7364
       251.000         228.000
 130050048.57848 101337694.82148  24747704.9884   24747705.6704   24747705.4194
       214.000         161.000
 118900172.35948  92649472.20548  22625960.3794   22625963.6254   22625961.7884
       235.000         194.000
 09  1 10  0  7 30.0000000  0 11G 9G24G18G27G15G21G 8G28G26G17G10
 118008082.80748  91954336.53248  22456203.9004   22456206.0944   22456203.9864
       231.000         189.000
 131575065.52348 102526001.55948  25037920.9374   25037924.5954   25037922.0994
       210.000         150.000
 126545265.56548  98606697.07748  24080766.9594   24080768.0034   24080767.1894
       215.000         161.000
 123780039.53448  96451969.13148  23554565.8354   23554567.9674   23554566.3864
       233.000         186.000
 108325574.54948  84409528.30348  20613680.5504   20613682.0814   20613680.2524
       253.000         234.000
 129665938.34648 101038407.50348  24674596.3854   24674597.9274   24674597.4794
       212.000         150.000
 126224337.08548  98356611.71348  24019704.2604   24019707.2184   24019703.2074
       210.000         158.000
 116543883.35148  90813407.91548  22177569.8984   22177571.5604   22177570.4074
       242.000         205.000
 105951940.58748  82559921.87248  20162010.7994   20162013.2964   20162010.7994
       250.000         228.000
 129976998.46448 101280772.72848  24733803.7554   24733806.0654   24733803.4504
       217.000         168.000
 119000167.03748  92727390.12548  22644988.3034   22644992.1184   22644989.0814
       234.000         193.000
 09  1 10  0  8  0.0000000  0 11G 9G24G18G27G15G21G 8G28G26G17G10
 117921645.28048  91886982.63948  22439755.0154   22439758.0634   22439755.6574
       232.000         191.000
 131650005.04248 102584395.95448  25052182.1104   25052185.4654   25052182.0014
       212.000         152.000
 126454835.05348  98536231.76448  24063557.6064   24063559.7554   24063558.1774
       213.000         161.000
 123851001.67248  96507264.28548  23568068.8304   23568071.6624   23568068.8174
       231.000         187.000
 108292576.35848  84383815.42848  20607401.3634   20607402.6604   20607401.0924
       252.000         234.000
 129699622.51548 101064654.90048  24681005.5424   24681007.7954   24681007.1974
       206.000         144.000
 126314379.07148  98426774.26648  24036837.2884   24036842.1884   24036837.1214
       210.000         159.000
 116591811.78848  90850754.73948  22186690.4144   22186692.0364   22186691.0684
       242.000         205.000
 105969865.38948  82573889.24448  20165421.7334   20165424.2384   20165421.5964
       251.000         228.000
 129904102.64748 101223970.78448  24719932.4004   24719934.1194   24719931.8174
       213.000         162.000
 119100402.63248  92805495.78148  22664062.6124   22664066.2794   22664062.9724
       233.000         192.000
 09  1 10  0  8 30.0000000  0 11G 9G24G18G27G15G21G 8G28G26G17G10
 117835436.27548  91819806.82748  22423350.2334   22423353.2414   22423350.4474
       232.000         193.000
 131725000.07748 102642833.61448  25066452.6454   25066456.3974   25066452.7164
       209.000         145.000
 126364691.18048  98465989.78548  24046403.8174   24046406.7374   24046403.3084
       213.000         160.000
 123921990.85848  96562580.52848  23581577.9054   23581580.6864   23581578.3954
       233.000         188.000
 108259896.72848  84358350.77748  20601182.6604   20601184.0684   20601182.3834
       253.000         234.000
 129733703.00448 101091211.09448  24687491.1334   24687492.3394   24687490.2954
       204.000         141.000
 126404456.99948  98496964.85348  24053979.0044   24053982.9074   24053978.4704
       213.000         161.000
 116640191.26648  90888453.03748  22195896.4824   22195898.2784   22195897.0414
       240.000         203.000
 105988180.55148  82588160.79748  20168907.0394   20168909.4514   20168907.0764
       251.000         228.000
 129831364.50948 101167291.77448  24706089.9494   24706092.3354   24706088.9094
       213.000         164.000
 119200876.62548  92883787.19148  22683182.2394   22683185.6114   22683182.6774
       235.000         192.000
 09  1 10  0  9  0.0000000  0 11G 9G24G18G27G15G21G 8G28G26G17G10
 117749455.56248  91752808.89048  22406988.3804   22406991.4274   22406988.0544
       234.000         193.000
 131800046.56348 102701311.34748  25080732.8584   25080737.2904   25080732.7904
       205.000         143.000
 126274835.30648  98395972.25348  24029304.9104   24029307.5194   24029307.4324
       215.000         161.000
 123993005.39148  96617916.51648  23595091.7294   23595094.2404   23595091.9374
       232.000         187.000
 108227535.92048  84333134.56148  20595024.6444   20595025.9464   20595024.4374
       253.000         235.000
 129768176.29048 101118073.41348  24694050.4434   24694051.8444   24694051.4534
       206.000         139.000
 126494568.72548  98567181.76848  24071127.1934   24071130.5724   24071127.7764
       208.000         156.000
 116689019.41648  90926500.94048  22205188.1404   22205189.9094   22205188.5724
       243.000         204.000
 106006885.11048  82602735.76348  20172466.4804   20172468.8214   20172466.3334
       251.000         228.000
 129758785.88448 101110736.97848  24692279.4574   24692281.2784   24692279.3424
       213.000         165.000
 119301585.77048  92962261.84748  22702346.8594   22702349.8984   22702347.8904
       235.000         192.000
 09  1 10  0  9 30.0000000  0 11G 9G24G18G27G15G21G 8G28G26G17G10
 117663703.30548  91685988.96748  22390670.7044   22390673.2074   22390670.9274
       234.000         192.000
 131875141.19448 102759826.56148  25095022.6434   25095028.1974   25095023.5804
       204.000         138.000
 126185269.44248  98326180.68648  24012261.3404   24012263.5014   24012263.2344
       219.000         161.000
 124064044.26148  96673271.46448  23608609.5374   23608612.8534   23608609.6944
       231.000         186.000
 108195494.84248  84308167.48948  20588927.2594   20588928.7824   20588927.1884
       253.000         235.000
 129803040.02948 101145239.91348  24700686.1994   24700685.9954   24700686.1234
       202.000         137.000
 126584713.13048  98637424.15048  24088280.8134   24088284.3284   24088281.6044
       205.000         157.000
 116738293.68148  90964896.47248  22214564.9304   22214566.7174   22214565.8404
       241.000         203.000
 106025978.86148  82617614.00848  20176099.9194   20176102.2924   20176099.9324
       251.000         228.000
 129686369.29048 101054308.46648  24678498.4084   24678501.0654   24678498.1304
       213.000         165.000
 119402526.83548  93040917.22248  22721555.0664   22721558.3614   22721556.2504
       233.000         191.000
 09  1 10  0 10  0.0000000  0 11G 9G24G18G27G15G21G 8G28G26G17G10
 117578180.75548  91619348.04048  22374395.9414   22374398.6624   22374396.6134
       233.000         190.000
 131950281.49448 102818377.47448  25109320.9124   25109326.0974   25109320.4924
       200.000         136.000
 126095996.81848  98256617.56848  23995273.6324   23995275.2534   23995275.8724
       216.000         160.000
 124135107.51448  96728645.39748  23622132.2484   23622135.5814   23622132.2974
       231.000         185.000
 108163775.60348  84283451.19648  20582891.2414   20582892.7944   20582891.0744
       252.000         235.000
 129838292.31048 101172709.28148  24707393.6724   24707396.0094   24707393.9314
       213.000         149.000
 126674889.42348  98707691.37748  24105440.7554   24105444.3834   24105442.1744
       209.000         158.000
 116788013.10248  91003638.87848  22224026.1154   22224027.8644   22224026.5644
       241.000         203.000
 106045462.74748  82632796.24348  20179807.5484   20179810.0034   20179807.4314
       252.000         228.000
 129614118.46748 100998009.12048  24664749.9144   24664752.2864   24664749.7634
       219.000         170.000
 119503697.77548  93119751.71348  22740807.1524   22740810.7464   22740807.6634
       232.000         191.000
 09  1 10  0 10 30.0000000  0 11G 9G24G18G27G15G21G 8G28G26G17G10
 117492889.23248  91552887.12148  22358165.4804   22358168.1524   22358165.8744
       235.000         193.000
 132025464.84848 102876961.96948  25123630.2744   25123634.0244   25123629.1484
       207.000         136.000
 126007020.14048  98187285.11048  23978340.8804   23978343.5934   23978342.3904
       216.000         159.000
 124206194.68048  96784038.00548  23635660.3784   23635662.7714   23635660.5434
       231.000         185.000
 108132379.69148  84258986.84648  20576916.7814   20576918.3504   20576916.4944
       253.000         235.000
 129873931.44448 101200479.98748  24714176.0864   24714178.6804   24714175.6974
       210.000         153.000
 126765096.89248  98777982.85448  24122606.8454   24122610.6874   24122607.6114
       210.000         159.000
 116838175.90448  91042726.77348  22233571.7604   22233573.4974   22233571.8964
       241.000         202.000
 106065337.37448  82648282.96348  20183589.5364   20183591.9584   20183589.6024
       251.000         228.000
 129542036.50748 100941841.39048  24651033.3024   24651035.8854   24651033.7984
       216.000         168.000
 119605096.68848  93198763.84248  22760102.7384   22760106.4434   22760103.6454
       233.000         191.000
 09  1 10  0 11  0.0000000  0 11G 9G24G18G27G15G21G 8G28G26G17G10
 117407829.60548  91486606.89548  22341979.6134   22341982.2524   22341980.0974
       235.000         195.000
 132100688.41448 102935577.69648  25137944.2564   25137948.3934   25137944.3494
       208.000         140.000
 125918342.35648  98118185.56148  23961466.4544   23961469.1394   23961466.7584
       216.000         163.000
 124277305.40548  96839448.94048  23649191.5674   23649194.8954   23649191.8324
       228.000         184.000
 108101308.70248  84234775.69048  20571004.0714   20571005.7324   20571003.8324
       252.000         235.000
 129909955.37848 101228550.53448  24721031.7014   24721033.1584   24721032.9044
       214.000         159.000
 126855334.47248  98848297.83648  24139778.9604   24139782.7124   24139780.3864
       216.000         160.000
 116888780.73548  91082159.10948  22243201.5844   22243202.9184   22243202.3704
       242.000         202.000
 106085603.11348  82664074.43748  20187445.8834   20187448.3724   20187445.7584
       251.000         228.000
 129470126.50048 100885807.60748  24637348.4154   24637351.5214   24637348.5724
       219.000         167.000
 119706720.80148  93277951.45648  22779441.1254   22779444.6494   22779441.9284
       233.000         189.000
 09  1 10  0 11 30.0000000  0 11G 9G24G18G27G15G21G 8G28G26G17G10
 117323002.50448  91420507.87348  22325837.0894   22325840.4674   22325837.2564
       232.000         194.000
 132175949.79748 102994222.96448  25152265.3794   25152269.1604   25152265.4974
       209.000         141.000
 125829966.07448  98049320.93448  23944649.9394   23944652.0394   23944649.6914
       219.000         164.000
 124348439.24148  96894877.89148  23662728.1434   23662730.9664   23662728.2184
       231.000         184.000
 108070564.26648  84210818.98348  20565153.7554   20565155.1304   20565153.4354
       253.000         235.000
 129946362.10848 101256919.45148  24727958.5794   24727960.9014   24727959.0664
       216.000         157.000
 126945601.93748  98918636.10548  24156956.6814   24156959.4504   24156956.2734
       216.000         160.000
 116939825.97048  91121934.62348  22252915.0714   22252916.9494   22252915.6154
       239.000         202.000
 106106260.21948  82680170.88348  20191376.8044   20191379.3574   20191376.7184
       251.000         228.000
 129398391.59148 100829910.25148  24623698.9534   24623700.0984   24623699.3894
       218.000         169.000
 119808567.61048  93357312.59948  22798821.9494   22798825.6504   22798822.4924
       233.000         191.000
 09  1 10  0 12  0.0000000  0 11G 9G24G18G27G15G21G 8G28G26G17G10
 117238408.44048  91354590.44648  22309739.4484   22309742.7224   22309739.6984
       233.000         194.000
 132251245.93748 103052895.22948  25166594.6194   25166599.3124   25166594.6624
       209.000         146.000
 125741893.41548  97980692.89348  23927890.0304   23927891.7524   23927891.0174
       219.000         165.000
 124419595.16248  96950324.05048  23676268.8724   23676271.7384   23676269.4364
       228.000         183.000
 108040146.87148  84187117.11448  20559365.4984   20559366.9434   20559365.2914
       253.000         235.000
 129983148.65748 101285584.26648  24734958.7354   24734961.0614   24734958.2514
       212.000         153.000
 127035897.67348  98988996.41248  24174139.1614   24174142.2114   24174141.7874
       210.000         157.000
 116991309.11448  91162051.35348  22262712.0994   22262714.1774   22262712.5224
       241.000         202.000
 106127308.73048  82696572.30648  20195382.3594   20195384.8214   20195382.3944
       251.000         228.000
 129326834.27048 100774151.36048  24610081.9624   24610083.7234   24610082.8404
       218.000         169.000
 119910634.06648  93436844.89148  22818244.8834   22818248.3534   22818245.9554
       234.000         191.000
 09  1 10  0 12 30.0000000  0 11G 9G24G18G27G15G21G 8G28G26G17G10
 117154048.07848  91288855.12748  22293686.0814   22293689.4474   22293685.8184
       233.000         192.000
 132326574.15848 103111592.49248  25180927.9274   25180934.2044   25180929.0794
       204.000         145.000
 125654126.93748  97912303.45848  23911188.6554   23911189.5594   23911188.4004
       219.000         164.000
 124490773.05848  97005787.31748  23689813.2144   23689816.4994   23689812.6744
       231.000         184.000
 108010058.78948  84163671.85248  20553640.0124   20553641.4214   20553639.8574
       253.000         235.000
 130020313.50448 101314543.89548  24742031.4484   24742033.3364   24742031.3544
       211.000         149.000
 127126220.94048  99059378.13048  24191327.1204   24191330.3464   24191327.3874
       210.000         157.000
 117043228.58448  91202508.08948  22272592.0364   22272593.8074   22272592.6394
       240.000         201.000
 106148749.14448  82713279.11648  20199462.3474   20199464.6484   20199462.3784
       251.000         228.000
 129255457.72048 100718533.23648  24596498.8714   24596500.5004   24596498.5124
       216.000         166.000
 120012917.90948  93516546.58948  22837708.7084   22837712.1134   22837709.5314
       231.000         188.000
 09  1 10  0 13  0.0000000  0 11G 9G24G18G27G15G21G 8G28G26G17G10
 117069923.24948  91223303.34448  22277677.4674   22277680.4974   22277677.4714
       235.000         192.000
 132401932.27248 103170313.08448  25195267.9124   25195273.2984   25195269.0974
       206.000         148.000
 125566670.21448  97844155.33548  23894546.2914   23894547.0364   23894545.6384
       221.000         165.000
 124561973.20248  97061267.93548  23703362.3164   23703365.2204   23703363.0934
       226.000         182.000
 107980301.66048  84140484.47848  20547977.3384   20547978.8304   20547977.1304
       253.000         236.000
 130057855.26848 101343797.17248  24749175.3704   24749177.4924   24749176.3254
       206.000         146.000
 127216571.04048  99129780.80048  24208520.0134   24208523.1664   24208521.1104
       210.000         157.000
 117095583.41648  91243304.05948  22282554.6964   22282556.2304   22282554.7964
       241.000         201.000
 106170582.31148  82730291.97048  20203616.9284   20203619.3434   20203616.8764
       251.000         228.000
 129184265.47948 100663058.81748  24582951.4564   24582953.6714   24582951.4354
       218.000         169.000
 120115416.92248  93596415.95148  22857213.4454   22857216.9224   22857213.9384
       232.000         188.000
 09  1 10  0 13 30.0000000  0 11G 9G24G18G27G15G21G 8G28G26G17G10
 116986033.10748  91157934.42048  22261713.7774   22261716.7244   22261714.4664
       235.000         193.000
 132477316.19048 103229053.73048  25209614.8754   25209618.4594   25209614.4354
       210.000         148.000
 125479524.43148  97776249.56148  23877962.4494   23877964.4924   23877964.0564
       219.000         165.000
 124633193.57848  97116764.32848  23716914.7834   23716918.0634   23716914.5684
       227.000         181.000
 107950875.46548  84117554.97548  20542377.7304   20542379.1064   20542377.5134
       253.000         236.000
 130095770.05548 101373341.12148  24756390.5324   24756392.3894   24756391.6704
       206.000         148.000
 127306946.00848  99200202.84348  24225717.8054   24225721.2064   24225718.3164
       211.000         160.000
 117148370.51948  91284436.86648  22292599.9254   22292601.1664   22292600.8634
       240.000         201.000
 106192806.90948  82747609.83148  20207846.2184   20207848.5454   20207846.0604
       251.000         228.000
 129113259.24548 100607729.25048  24569439.6624   24569441.0764   24569440.3344
       214.000         164.000
 120218127.97148  93676450.52448  22876758.8034   22876762.2834   22876759.9364
       230.000         187.000
 09  1 10  0 14  0.0000000  0 11G 9G24G18G27G15G21G 8G28G26G17G10
 116902379.38748  91092749.72148  22245795.0904   22245798.1654   22245795.0034
       235.000         194.000
 132552723.71648 103287812.82048  25223964.4854   25223967.4084   25223964.3514
       207.000         142.000
 125392692.74748  97708588.45648  23861439.9194   23861440.9534   23861439.7744
       220.000         163.000
 124704434.63648  97172276.82248  23730471.8214   23730474.7964   23730471.9394
       227.000         179.000
 107921782.93648  84094885.46848  20536841.6504   20536842.9754   20536841.3874
       252.000         236.000
 130134056.39348 101403174.57748  24763676.5954   24763678.2634   24763676.1354
       205.000         149.000
 127397345.75748  99270644.16648  24242920.4474   24242924.0434   24242919.8934
       216.000         162.000
 117201588.90048  91325905.73448  22302726.8854   22302728.9614   22302727.0774
       241.000         202.000
 106215424.40348  82765233.84548  20212150.1544   20212152.5824   20212149.9994
       251.000         228.000
 129042443.00648 100552547.77948  24555962.9994   24555965.6694   24555962.1574
       219.000         167.000
 120321048.90248  93756648.63648  22896343.5914   22896347.3844   22896344.0974
       230.000         186.000
 09  1 10  0 14 30.0000000  0 11G 9G24G18G27G15G21G 8G28G26G17G10
 116818962.12548  91027749.27248  22229921.4044   22229924.3374   22229921.4284
       236.000         195.000
 132628151.56948 103346587.72848  25238317.4044   25238320.6224   25238317.5784
       201.000         131.000
 125306176.81148  97641173.49848  23844976.0654   23844977.6364   23844977.1334
       221.000         167.000
 124775695.20648  97227804.51848  23744032.0074   23744035.2664   23744032.3764
       227.000         179.000
 107893024.32148  84072476.16148  20531368.9114   20531370.4844   20531368.8134
       251.000         236.000
 130172711.46948 101433295.42548  24771031.5914   24771033.9844   24771032.5694
       208.000         149.000
 127487768.48548  99341103.40948  24260127.2414   24260131.1074   24260129.4394
       212.000         161.000
 117255235.84848  91367708.55748  22312935.6224   22312937.8784   22312936.1734
       240.000         202.000
 106238434.18948  82783163.54548  20216528.8224   20216531.3164   20216528.6794
       251.000         228.000
 128971819.02648 100497516.06848  24542525.0534   24542526.6574   24542525.4434
       219.000         170.000
 120424176.01148  93837007.41148  22915968.4634   22915972.1554   22915969.3294
       232.000         188.000
 09  1 10  0 15  0.0000000  0 11G 9G24G18G27G15G21G 8G28G26G17G10
 116735781.73048  90962933.41148  22214092.3704   22214095.7364   22214092.8184
       234.000         194.000
 132703596.93048 103405376.34848  25252674.2254   25252677.0554   25252674.8914
       187.000         123.000
 125219979.57148  97574006.80848  23828573.2384   23828574.5864   23828573.2074
       221.000         168.000
 124846974.42948  97283346.76648  23757596.3454   23757599.5404   23757596.5944
       228.000         181.000
 107864601.14548  84050328.22648  20525960.3024   20525961.6374   20525959.9904
       251.000         236.000
 130211732.87848 101463701.70248  24778457.3854   24778460.0144   24778458.3834
       205.000         147.000
 127578213.29248  99411579.85248  24277338.4324   24277341.9454   24277339.5884
       212.000         159.000
 117309309.54148  91409843.90448  22323225.4874   22323227.2994   22323225.8594
       242.000         202.000
 106261836.50148  82801399.11048  20220982.0934   20220984.5024   20220982.0204
       251.000         228.000
 128901390.13548 100442636.43448  24529122.1994   24529124.3464   24529122.2704
       215.000         165.000
 120527507.05848  93917525.10048  22935631.7534   22935635.0994   22935632.4204
       232.000         189.000
 09  1 10  0 15 30.0000000  0 10G 9G18G27G15G21G 8G28G26G17G10
 116652840.03148  90898303.54548  22198309.0134   22198312.4264   22198309.4104
       236.000         196.000
 125134104.36748  97507091.07348  23812231.1584   23812232.6954   23812233.4074
       223.000         166.000
 124918273.09848  97338904.14548  23771163.7834   23771167.0944   23771164.0464
       226.000         179.000
 107836515.79448  84028443.54048  20520615.8264   20520617.2264   20520615.6274
       251.000         236.000
 130251119.73148 101494392.71248  24785951.3684   24785954.5494   24785952.1044
       203.000         140.000
 127668680.70348  99482073.90548  24294553.5064   24294556.8444   24294553.2944
       215.000         159.000
 117363809.32148  91452311.26448  22333596.5364   22333598.1514   22333597.1574
       241.000         201.000
 106285632.27048  82819941.25748  20225510.5284   20225512.7554   20225510.5364
       252.000         228.000
 128831160.46348 100387911.97048  24515757.9324   24515759.7454   24515757.7484
       215.000         167.000
 120631040.46848  93998200.47648  22955333.6034   22955336.9524   22955334.4114
       231.000         186.000
 09  1 10  0 16  0.0000000  0 10G 9G18G27G15G21G 8G28G26G17G10
 116570136.98348  90833859.62048  22182571.8644   22182574.5634   22182571.8054
       239.000         198.000
 125048553.16948  97440427.83348  23795951.5614   23795953.4964   23795951.9354
       224.000         168.000
 124989589.77748  97394475.58348  23784734.9904   23784738.2784   23784735.5334
       225.000         179.000
 107808768.65748  84006822.39148  20515335.6984   20515337.0864   20515335.3294
       251.000         236.000
 130290868.38648 101525365.71248  24793516.4444   24793517.7174   24793518.2814
       197.000         132.000
 127759168.51048  99552583.89148  24311773.1064   24311776.3524   24311773.7764
       211.000         158.000
 117418732.19548  91495108.30648  22344048.0094   22344049.6334   22344048.4294
       241.000         202.000
 106309821.22048  82838789.78048  20230113.3864   20230115.7374   20230113.3974
       251.000         227.000
 128761131.64748 100333344.11448  24502430.9364   24502434.4644   24502430.7914
       213.000         166.000
 120734772.71348  94079030.79848  22975073.1044   22975076.3614   22975074.1094
       231.000         186.000
 09  1 10  0 16 30.0000000  0 10G 9G18G27G15G21G 8G28G26G17G10
 116487673.68948  90769602.52248  22166879.6764   22166882.2094   22166879.9624
       237.000         197.000
 124963328.90648  97374019.29648  23779734.3704   23779736.0274   23779734.3174
       221.000         169.000
 125060924.78548  97450061.28448  23798309.5544   23798312.9794   23798309.6314
       227.000         179.000
 107781361.84648  83985466.42948  20510120.3754   20510121.7584   20510120.0584
       251.000         236.000
 130330977.33548 101556619.38148  24801149.6054   24801150.4224   24801147.8604
       191.000         127.000
 127849676.18748  99623109.32848  24328995.8154   24328999.5874   24328996.2334
       213.000         159.000
 117474076.62348  91538233.84548  22354579.7654   22354581.8344   22354580.3684
       242.000         202.000
 106334403.90848  82857945.11248  20234791.2394   20234793.6584   20234791.0474
       251.000         227.000
 128691307.53148 100278935.68648  24489144.9324   24489147.1934   24489144.5734
       217.000         169.000
 120838701.70848  94160014.41448  22994850.4434   22994853.2734   22994851.4844
       232.000         185.000
 09  1 10  0 17  0.0000000  0 10G 9G18G27G15G21G 8G28G26G17G10
 116405449.88548  90705532.05448  22151232.5784   22151235.3944   22151232.8904
       236.000         195.000
 124878433.06448  97307866.72148  23763578.3964   23763581.0574   23763578.7914
       220.000         166.000
 125132276.57248  97505660.06048  23811887.6364   23811890.6254   23811888.0104
       228.000         179.000
 107754295.61848  83964375.86748  20504969.8684   20504971.1464   20504969.6704
       251.000         237.000
 130371443.23648 101588151.21848  24808849.6184   24808851.1494   24808851.6484
       186.000         125.000
 127940202.16948  99693649.03848  24346222.8064   24346225.8124   24346224.3734
       210.000         160.000
 117529840.25548  91581686.03048  22365191.1564   22365193.3494   22365192.0574
       240.000         201.000
 106359379.71848  82877406.77748  20239543.9524   20239546.4794   20239543.8314
       251.000         228.000
 128621690.01048 100224688.27148  24475897.4664   24475899.3384   24475897.5914
       216.000         168.000
 120942823.71948  94241148.45648  23014664.1554   23014666.9844   23014665.5314
       230.000         184.000
 09  1 10  0 17 30.0000000  0  9G 9G18G27G15G 8G28G26G17G10
 116323467.78648  90641649.91748  22135631.9384   22135634.6464   22135632.3734
       236.000         197.000
 124793869.68748  97241973.16748  23747486.7924   23747488.3134   23747486.5924
       225.000         168.000
 125203646.11648  97561272.66748  23825468.8294   23825472.1224   23825469.5504
       226.000         178.000
 107727572.85148  83943552.92848  20499884.6784   20499885.9974   20499884.3314
       252.000         237.000
 128030747.25848  99764203.61648  24363452.4004   24363456.2444   24363451.6824
       212.000         161.000
 117586022.23048  91625464.19048  22375882.2814   22375884.0204   22375882.7884
       240.000         201.000
 106384750.30748  82897176.05848  20244372.0494   20244374.3584   20244371.9284
       252.000         228.000
 128552283.98848 100170605.64248  24462690.0534   24462691.6484   24462690.2634
       216.000         166.000
 121047138.02848  94322432.32548  23034514.3734   23034517.5004   23034515.0194
       230.000         185.000
 09  1 10  0 18  0.0000000  0  9G 9G18G27G15G 8G28G26G17G10
 116241726.74248  90577955.63148  22120077.0714   22120080.1464   22120077.0904
       236.000         197.000
 124709639.98348  97176339.63648  23731459.0174   23731460.2144   23731460.3964
       222.000         169.000
 125275031.80748  97616897.87448  23839052.9524   23839056.1054   23839052.7374
       226.000         178.000
 107701193.71648  83922997.75648  20494864.8784   20494866.3404   20494864.7284
       251.000         237.000
 128121309.09548  99834771.26148  24380686.0144   24380689.4724   24380686.2674
       213.000         162.000
 117642619.74548  91669566.15848  22386652.3414   22386654.0204   22386652.6964
       242.000         201.000
 106410514.52648  82917252.06448  20249274.8344   20249277.0854   20249274.9074
       252.000         227.000
 128483090.58548 100116688.72948  24449522.2214   24449524.1704   24449522.7024
       216.000         165.000
 121151640.66948  94403862.94048  23054400.5974   23054404.1834   23054401.1134
       230.000         186.000
 09  1 10  0 18 30.0000000  0  9G 9G18G27G15G 8G28G26G17G10
 116160228.84348  90514450.79448  22104568.3414   22104571.1774   22104567.6424
       236.000         196.000
 124625747.78448  97110969.12748  23715494.4234   23715496.2594   23715494.0074
       222.000         168.000
 125346434.26048  97672536.12548  23852640.4984   23852643.7824   23852640.8344
       228.000         177.000
 107675160.57248  83902712.18648  20489910.8744   20489912.4004   20489910.5784
       252.000         237.000
 128211887.52748  99905351.84848  24397922.3774   24397926.5334   24397922.8574
       212.000         163.000
 117699631.67148  91713991.03148  22397501.2824   22397503.1144   22397502.1944
       239.000         201.000
 106436673.45748  82937635.63748  20254252.7604   20254254.8164   20254252.5604
       252.000         227.000
 128414114.00348 100062940.74748  24436396.6804   24436398.7484   24436396.3914
       214.000         168.000
 121256329.61248  94485438.72148  23074322.4904   23074325.8744   23074323.5214
       229.000         186.000
 09  1 10  0 19  0.0000000  0  9G 9G18G27G15G 8G28G26G17G10
 116078973.92248  90451135.28448  22089106.1944   22089108.8574   22089106.4834
       236.000         198.000
 124542194.50248  97045862.67348  23699594.2234   23699596.5384   23699594.1254
       223.000         169.000
 125417852.18148  97728186.41048  23866230.8364   23866234.1094   23866230.7994
       225.000         177.000
 107649474.07148  83882696.73348  20485022.9204   20485024.4924   20485022.5874
       252.000         237.000
 128302481.07748  99975944.17948  24415162.1684   24415165.8564   24415161.6424
       217.000         166.000
 117757055.46448  91758736.84748  22408428.6884   22408431.1644   22408429.1024
       239.000         201.000
 106463226.68548  82958326.45548  20259305.4634   20259307.8344   20259305.4804
       252.000         227.000
 128345356.48148 100009363.46248  24423312.5234   24423314.5164   24423311.6854
       218.000         170.000
 121361202.30348  94567157.69348  23094279.0544   23094282.3934   23094279.8794
       228.000         185.000
 09  1 10  0 19 30.0000000  0  9G 9G18G27G15G 8G28G26G17G10
 115997962.73448  90388009.70448  22073690.1834   22073693.1874   22073690.5274
       236.000         197.000
 124458983.10748  96981022.63248  23683760.2674   23683761.5564   23683760.6964
       223.000         170.000
 125489285.41048  97783848.66248  23879823.5664   23879827.1414   23879823.5714
       224.000         176.000
 107624135.98948  83862952.76948  20480201.2734   20480202.7934   20480201.0904
       252.000         238.000
 128393089.48148 100046548.12148  24432404.1014   24432408.1754   24432404.8044
       214.000         166.000
 117814889.46348  91803802.30848  22419434.2964   22419436.7674   22419434.3714
       239.000         201.000
 106490174.68448  82979324.89048  20264433.5004   20264435.8944   20264433.2834
       252.000         227.000
 128276821.02048  99955959.23148  24410270.6794   24410273.0244   24410270.6174
       217.000         170.000
 121466255.75748  94649017.50648  23114269.7534   23114273.6584   23114270.1004
       229.000         184.000
 09  1 10  0 20  0.0000000  0  9G 9G18G27G15G 8G28G26G17G10
 115917196.26448  90325074.79648  22058320.7874   22058323.8524   22058321.3704
       237.000         197.000
 124376116.12648  96916450.94548  23667991.6034   23667992.5064   23667991.0844
       222.000         171.000
 125560733.21548  97839522.27148  23893420.5964   23893423.4704   23893420.8864
       225.000         176.000
 107599147.33348  83843481.08148  20475446.2644   20475447.6104   20475446.1054
       252.000         238.000
 128483711.93248 100117163.00248  24449649.1744   24449652.8054   24449650.1254
       216.000         166.000
 117873131.49148  91849185.70048  22430517.2254   22430519.1314   22430517.8864
       239.000         200.000
 106517517.29248  83000630.80848  20269636.6724   20269639.0794   20269636.6764
       251.000         227.000
 128208510.79248  99902730.46248  24397271.6324   24397273.8744   24397271.0914
       217.000         171.000
 121571487.25548  94731016.07648  23134294.6324   23134298.3834   23134295.5054
       228.000         183.000
 09  1 10  0 20 30.0000000  0  9G 9G18G27G15G 8G28G26G17G10
 115836674.35948  90262330.47048  22042998.1244   22043000.8644   22042998.5724
       237.000         198.000
 124293595.40748  96852149.14048  23652287.7684   23652289.6724   23652288.0874
       223.000         170.000
 125632194.99948  97895206.78548  23907019.0474   23907022.0254   23907019.7984
       224.000         175.000
 107574509.05248  83824282.41648  20470757.8844   20470759.1614   20470757.8044
       253.000         238.000
 128574347.20548 100187787.83548  24466896.9904   24466900.3334   24466897.4234
       218.000         166.000
 117931779.10548  91894885.13948  22441677.3974   22441679.0084   22441678.2994
       238.000         200.000
 106545254.36948  83022244.11348  20274914.9644   20274917.2324   20274914.7734
       251.000         227.000
 128140427.75548  99849678.78148  24384315.6084   24384317.8464   24384315.3544
       216.000         171.000
 121676893.79148  94813151.02848  23154352.4654   23154356.7544   23154352.8134
       227.000         183.000
 09  1 10  0 21  0.0000000  0  9G 9G18G27G15G 8G28G26G17G10
 115756397.96748  90199777.44148  22027721.9794   22027725.0124   22027722.4684
       237.000         200.000
 124211424.02048  96788119.48948  23636651.2884   23636653.3184   23636652.4534
       224.000         172.000
 125703670.68548  97950902.08848  23920620.1514   23920623.4764   23920620.2254
       223.000         176.000
 107550222.72948  83805358.00248  20466136.3184   20466137.6634   20466136.1034
       253.000         238.000
 128664993.93748 100258421.64948  24484146.2184   24484149.3734   24484146.5834
       218.000         165.000
 117990830.67048  91940899.35248  22452914.5834   22452916.2514   22452914.7024
       238.000         199.000
 106573386.09648  83044164.93048  20280268.2134   20280270.5024   20280268.0814
       251.000         227.000
 128072575.34448  99796806.78248  24371404.5964   24371406.4854   24371403.9004
       220.000         173.000
 121782473.32148  94895420.78948  23174443.2824   23174447.6014   23174444.5514
       226.000         181.000
 09  1 10  0 21 30.0000000  0  9G 9G18G27G15G 8G28G26G17G10
 115676367.96848  90137416.41748  22012492.9514   22012495.6634   22012492.9314
       238.000         200.000
 124129603.98248  96724363.63248  23621080.9054   23621082.8474   23621081.6494
       223.000         169.000
 125775159.94648  98006607.98048  23934224.3474   23934227.8114   23934224.7024
       225.000         177.000
 107526289.75948  83786708.92248  20461581.9074   20461583.3504   20461581.5924
       252.000         238.000
 128755651.83848 100329064.17248  24501397.5104   24501401.0944   24501397.8904
       220.000         167.000
 118050284.02648  91987226.64348  22464228.2154   22464230.2544   22464228.9984
       239.000         199.000
 106601912.93548  83066393.63948  20285696.5844   20285698.8954   20285696.5194
       252.000         227.000
 128004956.79348  99744116.97548  24358536.6334   24358538.5944   24358537.2384
       217.000         172.000
 121888223.33748  94977823.38248  23194566.8874   23194571.4264   23194567.5144
       227.000         181.000
 09  1 10  0 22  0.0000000  0  9G 9G18G27G15G 8G28G26G17G10
 115596585.03648  90075247.91448  21997310.7354   21997313.5194   21997310.6604
       237.000         200.000
 124048137.92548  96660883.57548  23605579.0794   23605579.7574   23605579.6684
       226.000         173.000
 125846662.21348  98062324.02748  23947830.8254   23947833.9904   23947830.9234
       226.000         176.000
 107502711.81048  83768336.49148  20457095.1644   20457096.5754   20457094.9584
       253.000         238.000
 128846319.77948 100399714.49548  24518652.3494   24518655.1024   24518653.8184
       217.000         166.000
 118110137.53148  92033865.74048  22475618.0034   22475620.3234   22475619.0124
       238.000         198.000
 106630834.96748  83088930.27948  20291200.4034   20291202.5864   20291200.3234
       252.000         227.000
 127937574.66748  99691611.41848  24345714.5964   24345716.1784   24345714.2564
       218.000         174.000
 121994140.77648  95060356.45848  23214722.9254   23214726.3954   23214723.3284
       227.000         180.000
 09  1 10  0 22 30.0000000  0  9G 9G18G27G15G 8G28G26G17G10
 115517050.70148  90013273.12148  21982175.7214   21982178.3894   21982176.2974
       237.000         199.000
 123967029.56648  96597682.25448  23590144.9284   23590145.6684   23590145.9034
       223.000         172.000
 125918178.07448  98118050.65848  23961439.9864   23961442.4914   23961440.6024
       223.000         173.000
 107479490.75748  83750242.15748  20452676.4904   20452677.7714   20452676.2674
       253.000         238.000
 128936997.84648 100470372.71248  24535906.8044   24535910.5234   24535907.5624
       217.000         165.000
 118170389.79248  92080815.55948  22487083.5014   22487085.3054   22487083.7224
       239.000         197.000
 106660153.01148  83111775.50648  20296779.4214   20296781.7444   20296779.3084
       253.000         227.000
 127870433.12848  99639293.35748  24332937.6164   24332939.4214   24332937.2544
       218.000         169.000
 122100224.09748  95143018.77648  23234909.5524   23234913.3284   23234910.2294
       225.000         180.000
 09  1 10  0 23  0.0000000  0  9G 9G18G27G15G 8G28G26G17G10
 115437765.15148  89951492.17248  21967088.1184   21967090.8994   21967088.0064
       237.000         201.000
 123886280.70748  96534761.07848  23574778.4414   23574780.1004   23574779.1364
       224.000         173.000
 125989706.60148  98173787.16048  23975051.0024   23975053.7674   23975051.2694
       222.000         170.000
 107456627.32348  83732426.48648  20448325.5944   20448327.0904   20448325.3144
       253.000         238.000
 129027684.84648 100541037.86448  24553164.2784   24553167.8614   24553164.0904
       217.000         166.000
 118231038.46948  92128074.26548  22498624.7154   22498625.3964   22498624.9844
       237.000         196.000
 106689866.67248  83134928.99848  20302433.8784   20302436.0954   20302433.9444
       252.000         227.000
 127803534.33848  99587164.47048  24320207.0164   24320209.6544   24320207.0824
       217.000         171.000
 122206470.15748  95225807.88248  23255127.3924   23255131.4064   23255128.2224
       226.000         179.000
 09  1 10  0 23 30.0000000  0  9G 9G18G27G15G 8G28G26G17G10
 115358728.49648  89889905.18848  21952047.7814   21952051.1084   21952048.2084
       238.000         201.000
 123805893.32748  96472121.56648  23559481.5994   23559483.3994   23559481.4454
       224.000         174.000
 126061247.02248  98229532.95048  23988664.5804   23988667.3624   23988665.2764
       222.000         170.000
 107434122.65148  83714890.37448  20444043.0804   20444044.6044   20444042.8214
       253.000         238.000
 129118379.95048 100611709.37848  24570422.3624   24570426.4484   24570422.4684
