     2.11           OBSERVATION DATA    G (GPS)             RINEX VERSION / TYPE
teqc  2008Oct2      gpsops              20090113 00:05:44UTCPGM / RUN BY / DATE
    30.0000                                                 INTERVAL
     1     1                                                WAVELENGTH FACT L1/2
     7    L1    L2    P1    P2    C1    S1    S2            # / TYPES OF OBSERV
Linux 2.4.20-8|Pentium IV|gcc -static|Linux|486/DX+         COMMENT
     2.10           OBSERVATION DATA    GPS                 COMMENT
soc2rnx ver 1.20    gpsops              13-Jan-2009 00:05:42COMMENT
S1, if present, is the SNR for the C/A data stream on L1.   COMMENT
 SNR is mapped to RINEX snr flag value [1,4-9]              COMMENT
    SNR:   >316  >100  >31.6  >10  >3.2    >0 bad=0         COMMENT
L1 & L2:      9     8     7     6     5     4     1         COMMENT
                                                            COMMENT
This data is provided as a public service by NASA/JPL.      COMMENT
No warranty is expressed or implied regarding suitability   COMMENT
for use.  For further information, contact:                 COMMENT
Dave Stowers, NASA/JPL m/s 238-600                          COMMENT
4800 Oak Grove Drive, Pasadena CA 91109 USA                 COMMENT
                                                            COMMENT
Forced Modulo Decimation to 30 seconds                      COMMENT
  2009     1    12     0     0    0.0000000     GPS         TIME OF FIRST OBS
DSN                 JPL                                     OBSERVER / AGENCY
451-U               AOAD/M_T        NONE                    ANT # / TYPE
  4849202.3940  -360328.9929  4114913.1862                  APPROX POSITION XYZ
        0.0254        0.0000        0.0000                  ANTENNA: DELTA H/E/N
LP03574             ASHTECH Z-XII3      CC00                REC # / TYPE / VERS
MADR                                                        MARKER NAME
13407S012                                                   MARKER NUMBER
                                                            END OF HEADER
 09  1 12  0  0  0.0000000  0 11G 9G24G26G15G28G17G 8G27G21G18G10
 117885497.33348  91858814.90648  22432875.4724   22432878.5664   22432875.7034
       234.000         193.000
 131678414.88448 102606536.40148  25057585.6814   25057589.8884   25057584.4334
       208.000         149.000
 105978866.86948  82580915.26448  20167124.5004   20167126.7764   20167124.5644
       250.000         228.000
 108267517.27748  84364296.40248  20602625.5174   20602626.9004   20602625.0504
       250.000         234.000
 116619057.68848  90871989.79148  22191870.2664   22191872.0864   22191871.0434
       239.000         204.000
 129874170.05348 101200637.06648  24714244.8294   24714246.4804   24714244.2124
       211.000         162.000
 126335690.53248  98443376.02948  24040897.7734   24040902.2294   24040897.5414
       213.000         159.000
 123294661.64948  96073750.36148  23462203.4934   23462206.0424   23462203.1834
       232.000         190.000
 129714182.53548 101076004.68248  24683769.9974   24683771.7934   24683768.7724
       204.000         143.000
 126455971.59848  98537113.32648  24063775.9954   24063778.9734   24063776.5674
       215.000         162.000
 119102560.62248  92807175.48548  22664473.2534   22664476.4954   22664474.1354
       234.000         192.000
 09  1 12  0  0 30.0000000  0 11G 9G24G26G15G28G17G 8G27G21G18G10
 117799380.34948  91791710.80448  22416487.5724   22416490.7174   22416487.6374
       233.000         192.000
 131753421.57548 102664983.15548  25071857.8654   25071862.8194   25071857.8014
       202.000         145.000
 105997363.32748  82595328.08148  20170644.3654   20170646.6274   20170644.2854
       251.000         228.000
 108235134.45348  84339063.03348  20596463.2884   20596464.5454   20596463.1534
       251.000         234.000
 116667641.35848  90909847.20148  22201115.2144   22201116.9634   22201115.5284
       239.000         202.000
 129801507.70348 101144017.04848  24700418.3224   24700419.8414   24700418.5994
       217.000         167.000
 126425771.89148  98513569.31248  24058040.5054   24058043.6754   24058040.7604
       210.000         159.000
 123364903.29148  96128484.13348  23475570.0904   23475572.3824   23475570.5644
       231.000         190.000
 129748439.12848 101102698.07648  24690288.7064   24690289.5644   24690288.9894
       206.000         140.000
 126365867.15848  98466902.07048  24046629.7284   24046631.9344   24046628.8464
       217.000         161.000
 119203033.06448  92885465.69348  22683592.5694   22683595.8864   22683593.2944
       235.000         192.000
 09  1 12  0  1  0.0000000  0 11G 9G24G26G15G28G17G 8G27G21G18G10
 117713490.99948  91724784.06848  22400143.2974   22400146.3954   22400143.4334
       235.000         193.000
 131828477.30948 102723468.10148  25086140.1714   25086145.9674   25086141.2324
       197.000         141.000
 106016248.54248  82610043.82448  20174238.1644   20174240.3594   20174238.2024
       250.000         228.000
 108203070.43648  84314078.08548  20590361.5424   20590362.9584   20590361.3944
       251.000         234.000
 116716671.91348  90948052.82648  22210445.6114   22210447.3424   22210446.4024
       239.000         203.000
 129729005.54848 101087521.86848  24686621.3444   24686623.6414   24686621.7904
       211.000         162.000
 126515885.94748  98583788.06148  24075188.5094   24075191.6254   24075189.5754
       213.000         157.000
 123435174.22848  96183240.69048  23488940.7864   23488944.5334   23488941.3454
       228.000         187.000
 129783086.36948 101129695.93148  24696881.7214   24696883.4414   24696882.9274
       203.000         136.000
 126276049.90148  98396914.61748  24029537.8304   24029540.3594   24029540.3854
       218.000         160.000
 119303739.46048  92963938.21048  22702756.5654   22702759.7094   22702757.4684
       235.000         192.000
 09  1 12  0  1 30.0000000  0 11G 9G24G26G15G28G17G 8G27G21G18G10
 117627831.43248  91658036.37048  22383843.3384   22383845.7084   22383843.6974
       233.000         191.000
 131903580.49648 102781990.04548  25100431.8354   25100437.2064   25100431.7084
       201.000         136.000
 106035523.63548  82625063.36748  20177906.0634   20177908.3634   20177905.9044
       251.000         228.000
 108171327.91048  84289343.64748  20584321.0864   20584322.5254   20584320.9214
       250.000         235.000
 116766148.45448  90986605.97348  22219860.6674   22219862.5044   22219861.2834
       239.000         202.000
 129656667.68948 101031154.67448  24672856.0174   24672858.2484   24672856.2234
       216.000         169.000
 126606032.89848  98654032.40048  24092342.9804   24092346.2304   24092343.6214
       212.000         156.000
 123505474.78948  96238020.34348  23502319.1934   23502322.4184   23502318.8924
       231.000         189.000
 129818123.56748 101156997.63748  24703549.5334   24703551.3944   24703549.0454
       211.000         145.000
 126186523.83548  98327154.05348  24012502.1874   24012503.8494   24012503.7344
       220.000         162.000
 119404678.61548  93042592.08648  22721964.3634   22721967.7524   22721965.3154
       232.000         190.000
 09  1 12  0  2  0.0000000  0 11G 9G24G26G15G28G17G 8G27G21G18G10
 117542401.82948  91591467.87748  22367586.0444   22367588.7784   22367586.6364
       234.000         190.000
 131978727.96448 102840546.52648  25114730.9514   25114737.1924   25114730.5314
       209.000         133.000
 106055188.45648  82640386.60248  20181648.0514   20181650.4204   20181648.0894
       250.000         228.000
 108139907.68148  84264860.35048  20578341.9934   20578343.5224   20578341.6464
       251.000         235.000
 116816068.89348  91025505.02348  22229360.2214   22229361.8654   22229360.4664
       239.000         202.000
 129584496.72348 100974917.55048  24659122.9174   24659124.5514   24659123.4404
       216.000         169.000
 126696211.44148  98724301.39648  24109503.1844   24109506.9914   24109504.9864
       210.000         160.000
 123575804.09348  96292822.39648  23515702.5804   23515705.4844   23515702.9814
       229.000         187.000
 129853548.10848 101184601.15248  24710291.0114   24710293.3124   24710291.2584
       209.000         150.000
 126097291.36348  98257622.21548  23995522.1264   23995523.1894   23995524.3334
       218.000         160.000
 119505847.29848  93121424.81748  22741216.0924   22741219.5764   22741216.5844
       232.000         191.000
 09  1 12  0  2 30.0000000  0 11G 9G24G26G15G28G17G 8G27G21G18G10
 117457203.39848  91525079.50348  22351373.6254   22351376.1784   22351374.0344
       237.000         193.000
 132053917.84748 102899136.09848  25129040.5814   25129044.8784   25129042.1224
       208.000         137.000
 106075244.55948  82656014.72648  20185464.5764   20185466.8674   20185464.4694
       251.000         228.000
 108108812.07448  84240630.01148  20572424.6384   20572426.1864   20572424.2834
       250.000         235.000
 116866432.34148  91064749.26548  22238944.0854   22238945.5904   22238944.2774
       239.000         201.000
 129512496.27048 100918813.31548  24645421.1574   24645423.5484   24645421.1804
       216.000         167.000
 126786421.44648  98794594.86048  24126670.3694   24126673.2804   24126671.2844
       213.000         161.000
 123646162.57648  96347647.16648  23529090.8194   23529093.9184   23529090.9154
       230.000         186.000
 129889358.88048 101212505.57348  24717106.2754   24717107.7864   24717106.2784
       217.000         158.000
 126008355.32748  98188321.41448  23978597.3064   23978599.2494   23978598.6724
       217.000         159.000
 119607243.94448  93200435.18348  22760511.6274   22760514.8824   22760512.2614
       233.000         191.000
 09  1 12  0  3  0.0000000  0 11G 9G24G26G15G28G17G 8G27G21G18G10
 117372236.93348  91458871.88548  22335205.2364   22335207.9884   22335205.7434
       235.000         194.000
 132129147.15348 102957756.32048  25143356.4244   25143362.0454   25143356.8854
       209.000         139.000
 106095691.87848  82671947.68748  20189355.5014   20189357.8884   20189355.3994
       251.000         228.000
 108078042.34848  84216653.58948  20566569.4714   20566570.7944   20566569.1254
       251.000         235.000
 116917237.03648  91104337.34548  22248612.0304   22248613.3454   22248612.9614
       240.000         202.000
 129440669.47948 100862844.36248  24631752.9694   24631754.6824   24631753.1924
       217.000         166.000
 126876661.48448  98864911.77748  24143842.1504   24143845.8284   24143843.6464
       209.000         160.000
 123716549.44948  96402494.07448  23542485.5524   23542488.1394   23542485.6254
       232.000         187.000
 129925553.28148 101240708.97648  24723993.2194   24723995.1694   24723994.6574
       214.000         159.000
 125919718.40348  98119253.70048  23961730.4964   23961732.9034   23961730.5194
       216.000         163.000
 119708865.87648  93279621.08348  22779849.2934   22779852.8534   22779850.5864
       233.000         190.000
 09  1 12  0  3 30.0000000  0 11G 9G24G26G15G28G17G 8G27G21G18G10
 117287503.94948  91392846.21248  22319080.5624   22319084.0374   22319080.3334
       233.000         193.000
 132204413.43948 103016405.39348  25157678.7254   25157684.2394   25157679.8644
       207.000         143.000
 106116531.24948  82688186.14848  20193321.2804   20193323.6354   20193321.2524
       251.000         228.000
 108047600.39648  84192932.58848  20560776.5564   20560777.9094   20560776.3464
       251.000         235.000
 116968481.55748  91144268.14448  22258363.3024   22258365.3134   22258363.4014
       239.000         202.000
 129369019.92548 100807013.55348  24618118.6504   24618120.2294   24618118.6294
       219.000         169.000
 126966931.36348  98935251.92148  24161020.3384   24161022.9114   24161020.2744
       210.000         159.000
 123786964.98548  96457363.31348  23555884.7954   23555888.0444   23555885.5554
       229.000         186.000
 129962129.84848 101269210.16548  24730952.8754   24730954.8354   24730952.2984
       212.000         156.000
 125831383.87348  98050421.61448  23944921.2844   23944923.3994   23944920.8484
       220.000         164.000
 119810710.99648  93358980.91548  22799229.7294   22799233.5764   22799230.2174
       233.000         191.000
 09  1 12  0  4  0.0000000  0 11G 9G24G26G15G28G17G 8G27G21G18G10
 117203004.17048  91327002.24948  22303000.9694   22303004.1884   22303001.2844
       232.000         193.000
 132279713.29048 103075080.57148  25172008.9274   25172013.7814   25172009.4894
       203.000         145.000
 106137762.02648  82704729.60348  20197361.3734   20197363.6854   20197361.3404
       251.000         228.000
 108017486.71948  84169467.37848  20555046.2254   20555047.5224   20555045.9704
       251.000         235.000
 117020163.31748  91184539.64648  22268198.3104   22268200.0724   22268198.9614
       240.000         202.000
 129297549.45948 100751322.26148  24604518.4734   24604519.7614   24604517.4654
       216.000         165.000
 127057229.04548  99005613.73348  24178202.6654   24178206.5124   24178205.2694
       205.000         158.000
 123857407.73948  96512253.74048  23569289.6254   23569292.7274   23569289.3984
       229.000         185.000
 129999085.59048 101298006.80848  24737985.5404   24737987.3094   24737984.5074
       211.000         151.000
 125743353.22048  97981826.31348  23928169.7664   23928170.8634   23928170.5764
       220.000         165.000
 119912775.90848  93438512.00348  22818652.3704   22818655.9944   22818653.3454
       233.000         191.000
 09  1 12  0  4 30.0000000  0 11G 9G24G26G15G28G17G 8G27G21G18G10
 117118738.68448  91261340.86548  22286965.5954   22286968.7154   22286965.5144
       231.000         192.000
 132355044.26848 103133779.96148  25186343.3734   25186349.6014   25186343.4634
       206.000         148.000
 106159384.92348  82721578.61048  20201476.0484   20201478.2404   20201476.1214
       251.000         228.000
 107987703.15648  84146259.40448  20549378.5004   20549379.9114   20549378.3714
       251.000         235.000
 117072281.01248  91225150.83348  22278115.7434   22278117.2884   22278116.1764
       238.000         201.000
 129226261.40848 100695773.12448  24590952.4654   24590954.1324   24590951.9554
       212.000         166.000
 127147554.13048  99075996.89448  24195391.7474   24195394.3014   24195391.7584
       209.000         158.000
 123927877.38748  96567165.12948  23582699.6824   23582702.5444   23582699.7534
       230.000         185.000
 130036418.69248 101327097.51648  24745089.6344   24745091.9844   24745090.8054
       206.000         148.000
 125655629.35148  97913470.08348  23911476.4354   23911477.1364   23911475.7764
       219.000         163.000
 120015058.04048  93518212.36848  22838115.9444   22838119.3594   22838116.7974
       231.000         189.000
 09  1 12  0  5  0.0000000  0 11G 9G24G26G15G28G17G 8G27G21G18G10
 117034708.36248  91195862.71848  22270974.9304   22270977.8194   22270975.4014
       234.000         192.000
 132430403.33048 103192501.25448  25200684.2774   25200688.6774   25200684.8514
       208.000         150.000
 106181400.10148  82738733.29948  20205665.3864   20205667.6314   20205665.2454
       251.000         228.000
 107958251.23148  84123309.84848  20543774.0284   20543775.3384   20543773.8434
       251.000         235.000
 117124832.81048  91266100.29248  22288116.1334   22288117.2654   22288116.5294
       241.000         201.000
 129155159.15848 100640368.77348  24577422.5654   24577424.2054   24577421.6804
       218.000         169.000
 127237905.80548  99146400.78848  24212585.2634   24212587.9714   24212585.3704
       212.000         158.000
 123998373.23148  96622096.95148  23596114.8554   23596117.3314   23596115.1414
       228.000         184.000
 130074126.77848 101356480.40248  24752265.6124   24752268.1254   24752267.0474
       204.000         144.000
 125568214.95248  97845354.93548  23894842.1244   23894842.5214   23894841.4454
       222.000         165.000
 120117555.24748  93598080.32048  22857620.2404   22857623.7764   22857620.7574
       232.000         187.000
 09  1 12  0  5 30.0000000  0 11G 9G24G26G15G28G17G 8G27G21G18G10
 116950913.06048  91130567.70348  22255029.4524   22255032.2994   22255029.6274
       234.000         193.000
 132505787.02148 103251241.75448  25215029.7304   25215033.6784   25215029.9504
       208.000         148.000
 106203807.11048  82756193.29348  20209929.3664   20209931.5524   20209929.1924
       251.000         227.000
 107929131.31348  84100618.99548  20538232.6734   20538234.0064   20538232.5044
       251.000         236.000
 117177816.12548  91307385.98948  22298198.5354   22298199.9144   22298199.1774
       239.000         202.000
 129084244.51248 100585110.58648  24563926.9044   24563929.4854   24563925.9084
       213.000         165.000
 127328282.35048  99216824.06448  24229782.6654   24229785.6614   24229783.1004
       213.000         162.000
 124068894.10748  96677048.27148  23609534.1224   23609537.1434   23609534.3754
       226.000         184.000
 130112207.13148 101386153.33848  24759513.0894   24759513.4434   24759512.1124
       207.000         148.000
 125481111.71148  97777482.32248  23878266.3454   23878268.5364   23878268.0304
       222.000         165.000
 120220264.19948  93678113.25348  22877165.2624   22877168.7004   22877166.6634
       229.000         187.000
 09  1 12  0  6  0.0000000  0 11G 9G24G26G15G28G17G 8G27G21G18G10
 116867354.36548  91065457.04948  22239128.7884   22239131.6844   22239128.7234
       234.000         195.000
 132581193.14348 103309999.73748  25229378.8194   25229383.1264   25229379.2844
       199.000         136.000
 106226606.57348  82773959.10548  20214267.9234   20214270.2384   20214267.8274
       251.000         227.000
 107900345.45148  84078188.44948  20532754.7914   20532756.2994   20532754.6744
       251.000         236.000
 117231229.39448  91349006.71048  22308362.6544   22308364.9054   22308363.0144
       239.000         202.000
 129013521.03148 100530001.37448  24550469.9604   24550471.4934   24550469.1524
       219.000         171.000
 127418683.28448  99287266.32348  24246985.7614   24246989.3024   24246986.5034
       213.000         161.000
 124139439.88848  96732018.99048  23622958.7364   23622961.6604   23622958.7794
       228.000         183.000
 130150657.61348 101416114.72648  24766829.2284   24766831.4464   24766829.2134
       206.000         151.000
 125394322.77948  97709854.54248  23861751.8044   23861752.6654   23861751.8694
       221.000         164.000
 120323182.58148  93758309.37448  22896749.5314   22896753.3064   22896749.9724
       228.000         186.000
 09  1 12  0  6 30.0000000  0 11G 9G24G26G15G28G17G 8G27G21G18G10
 116784031.97248  91000530.53748  22223273.2094   22223276.0254   22223273.4234
       235.000         195.000
 132656618.00048 103368772.37048  25243732.6434   25243735.8794   25243732.4464
       189.000         129.000
 106249798.27048  82792030.54748  20218681.1034   20218683.4974   20218681.0064
       250.000         227.000
 107871894.27448  84056018.69348  20527340.8624   20527342.1134   20527340.4954
       251.000         236.000
 117285070.20448  91390960.59948  22318608.1764   22318610.1914   22318608.5434
       240.000         201.000
 128942991.13848 100475043.00648  24537048.8234   24537050.1804   24537048.8914
       213.000         166.000
 127509107.06348  99357726.37048  24264192.9564   24264196.4534   24264193.2844
       213.000         160.000
 124210009.50448  96787008.27748  23636388.0924   23636390.5014   23636388.3654
       228.000         183.000
 130189475.32548 101446362.26648  24774215.2504   24774218.2324   24774216.5874
       207.000         151.000
 125307849.97448  97642473.17748  23845296.3914   23845297.6454   23845297.3154
       219.000         167.000
 120426307.43748  93838666.39848  22916373.9964   22916377.5914   22916374.5074
       232.000         188.000
 09  1 12  0  7  0.0000000  0 10G 9G26G15G28G17G 8G27G21G18G10
 116700947.31448  90935789.28148  22207462.1564   22207465.5414   22207462.3964
       233.000         194.000
 106273382.91748  82810408.18648  20223169.2404   20223171.4484   20223169.1334
       251.000         227.000
 107843779.87648  84034111.36548  20521990.8464   20521992.2054   20521990.5374
       251.000         236.000
 117339337.28248  91433246.62748  22328935.0234   22328936.5014   22328935.4584
       240.000         202.000
 128872658.30848 100420238.16748  24523664.3134   24523665.8864   24523663.3134
       216.000         165.000
 127599553.24548  99428203.89948  24281403.8944   24281407.4584   24281404.5344
       209.000         160.000
 124280603.13748  96842016.28048  23649821.3504   23649824.0274   23649821.3734
       229.000         183.000
 130228658.83748 101476894.82848  24781671.8464   24781674.2334   24781671.9614
       201.000         143.000
 125221696.25748  97575340.40848  23828901.7854   23828903.0034   23828901.4164
       220.000         168.000
 120529636.45848  93919182.50948  22936036.9674   22936040.4634   22936037.9514
       232.000         188.000
 09  1 12  0  7 30.0000000  0 10G 9G26G15G28G17G 8G27G21G18G10
 116618101.20048  90871233.90648  22191697.2814   22191700.5974   22191697.6004
       236.000         198.000
 106297360.44948  82829091.96648  20227732.0914   20227734.2334   20227732.1294
       251.000         227.000
 107816003.31248  84012467.28248  20516705.1324   20516706.4274   20516704.7794
       251.000         236.000
 117394028.88448  91475863.45548  22339342.5194   22339343.8554   22339343.0684
       240.000         201.000
 128802525.21148 100365589.02148  24510318.2404   24510319.7624   24510318.2844
       211.000         163.000
 127690020.75848  99498698.04748  24298619.6204   24298622.3274   24298619.9494
       213.000         160.000
 124351220.01948  96897042.40148  23663259.9834   23663262.2354   23663260.3104
       228.000         183.000
 130268205.41448 101507710.34648  24789197.9134   24789200.1244   24789198.5324
       200.000         138.000
 125135864.50648  97508458.53748  23812567.9014   23812569.3594   23812569.9864
       220.000         165.000
 120633166.89248  93999855.56748  22955738.3294   22955741.5824   22955739.0844
       231.000         186.000
 09  1 12  0  8  0.0000000  0 10G 9G26G15G28G17G 8G27G21G18G10
 116535493.65248  90806864.40248  22175978.2854   22175980.7124   22175978.3784
       237.000         198.000
 106321731.16648  82848082.12948  20232369.5854   20232371.8114   20232369.5084
       251.000         227.000
 107788565.88348  83991087.47048  20511483.9964   20511485.2564   20511483.6364
       251.000         236.000
 117449142.89548  91518809.44548  22349830.3824   22349831.8614   22349830.9804
       240.000         202.000
 128732594.90448 100311097.84548  24497011.1234   24497013.4114   24497010.0014
       220.000         168.000
 127780508.39248  99569207.89348  24315838.5274   24315841.5784   24315839.3594
       210.000         160.000
 124421859.66148  96952086.27148  23676701.8434   23676704.1274   23676702.1604
       227.000         182.000
 130308113.01948 101538807.13448  24796790.0044   24796792.1264   24796791.5684
       184.000         129.000
 125050357.08848  97441829.41848  23796296.5434   23796298.1644   23796297.1754
       221.000         168.000
 120736896.07948  94080683.49948  22975477.1334   22975480.4444   22975478.2304
       231.000         185.000
 09  1 12  0  8 30.0000000  0 10G 9G26G15G28G17G 8G27G21G18G10
 116453125.83948  90742681.72548  22160303.8114   22160306.6644   22160303.9784
       234.000         196.000
 106346495.43648  82867378.94848  20237081.9064   20237084.3794   20237081.6354
       251.000         227.000
 107761469.02848  83969973.03548  20506327.6574   20506328.8374   20506327.4254
       251.000         236.000
 117504677.15048  91562082.89148  22360398.1964   22360400.1794   22360399.1774
       239.000         201.000
 128662870.56748 100256767.19048  24483743.4784   24483745.3684   24483743.6004
       218.000         167.000
 127871015.73748  99639733.06848  24333061.8694   24333064.6804   24333062.1034
       216.000         160.000
 124492521.71948  97007147.58248  23690148.0354   23690150.8414   23690148.5694
       225.000         179.000
 130348379.31748 101570183.43548  24804452.0714   24804453.1424   24804454.8894
       194.000         126.000
 124965176.18448  97375454.65648  23780087.5794   23780089.2534   23780087.4674
       220.000         169.000
 120840821.62748  94161664.43948  22995253.7584   22995256.7514   22995255.0074
       232.000         185.000
 09  1 12  0  9  0.0000000  0  9G 9G26G15G28G17G 8G27G18G10
 116370998.70348  90678686.58048  22144675.2654   22144678.0684   22144675.8304
       235.000         195.000
 106371653.58848  82886982.69348  20241869.5214   20241871.8094   20241869.4284
       251.000         227.000
 107734714.73448  83949125.53048  20501236.4634   20501237.7064   20501236.2054
       251.000         236.000
 117560630.52348  91605682.92248  22371045.7304   22371047.6164   22371046.3164
       240.000         201.000
 128593355.36848 100202599.51748  24470515.2154   24470515.9854   24470515.1174
       216.000         165.000
 127961542.06048  99710273.05048  24350288.3414   24350291.5804   24350288.6144
       208.000         160.000
 124563206.16848  97062226.35948  23703598.8374   23703601.7924   23703599.0734
       227.000         179.000
 124880324.91248  97309336.82948  23763940.0904   23763942.5404   23763940.1574
       217.000         165.000
 120944941.28948  94242796.65748  23015067.0484   23015069.9944   23015068.5154
       230.000         185.000
 09  1 12  0  9 30.0000000  0  9G 9G26G15G28G17G 8G27G18G10
 116289113.10348  90614879.64848  22129093.0714   22129096.0524   22129093.4834
       236.000         197.000
 106397205.99848  82906893.64648  20246732.1134   20246734.2724   20246732.0694
       251.000         227.000
 107708304.59048  83928546.19848  20496210.8154   20496212.0894   20496210.5404
       251.000         236.000
 117617001.35048  91649608.25248  22381772.7034   22381774.2424   22381773.0994
       239.000         201.000
 128524052.30948 100148597.14648  24457326.2064   24457327.7724   24457326.9454
       214.000         163.000
 128052086.74148  99780827.33648  24367518.0194   24367521.4184   24367516.9744
       212.000         160.000
 124633912.39448  97117322.10748  23717053.7314   23717056.6744   23717054.1564
       228.000         180.000
 124795805.93548  97243477.87148  23747856.9194   23747858.2854   23747856.5224
       223.000         167.000
 121049252.27648  94324077.93948  23034916.6714   23034920.0744   23034917.1024
       229.000         185.000
 09  1 12  0 10  0.0000000  0  9G 9G26G15G28G17G 8G27G18G10
 116207469.45448  90551261.25848  22113556.7114   22113559.5524   22113556.6134
       235.000         196.000
 106423152.60048  82927111.77648  20251669.5644   20251671.6244   20251669.5964
       252.000         227.000
 107682239.20348  83908235.50448  20491250.6404   20491252.0364   20491250.2494
       252.000         237.000
 117673786.97048  91693856.77848  22392578.6044   22392580.1984   22392579.5194
       238.000         200.000
 128454963.85848 100094761.97848  24444179.6914   24444180.9474   24444178.8834
       216.000         168.000
 128142648.41948  99851394.84348  24384751.7374   24384755.0964   24384752.5764
       214.000         163.000
 124704639.76948  97172434.33948  23730512.6484   23730516.1534   23730513.1964
       225.000         180.000
 124711621.50248  97177879.61248  23731837.9294   23731838.9394   23731839.3614
       221.000         170.000
 121153751.75648  94405506.09848  23054802.3274   23054805.7604   23054803.0764
       230.000         186.000
 09  1 12  0 10 30.0000000  0  9G 9G26G15G28G17G 8G27G18G10
 116126068.59148  90487832.03448  22098066.4554   22098069.1634   22098065.9434
       236.000         196.000
 106449493.56348  82947637.18748  20256682.1224   20256684.1754   20256682.0264
       251.000         227.000
 107656520.08148  83888194.61848  20486356.4774   20486357.9274   20486356.2644
       252.000         237.000
 117730985.94748  91738427.41148  22403463.1264   22403465.2444   22403463.5144
       240.000         200.000
 128386093.27448 100041096.60148  24431073.7264   24431075.9394   24431072.9594
       216.000         168.000
 128233226.45448  99921975.12248  24401987.6554   24401991.5334   24401988.2834
       213.000         163.000
 124775387.97048  97227562.79548  23743975.3844   23743979.0414   23743975.5264
       223.000         179.000
 124627774.28648  97112544.14548  23715881.9024   23715883.5934   23715881.3764
       219.000         169.000
 121258437.46248  94487079.35848  23074723.7944   23074726.8514   23074724.7254
       230.000         186.000
 09  1 12  0 11  0.0000000  0  9G 9G26G15G28G17G 8G27G18G10
 116044911.17748  90424592.51248  22082622.7894   22082625.6784   22082622.9814
       236.000         197.000
 106476229.14948  82968470.10248  20261769.5604   20261771.8734   20261769.4714
       251.000         227.000
 107631148.75948  83868424.75848  20481528.5254   20481529.8724   20481528.3744
       252.000         237.000
 117788595.99848  91783318.36348  22414426.1494   22414428.4814   22414426.4974
       239.000         201.000
 128317443.59748  99987603.34248  24418011.0214   24418011.7654   24418010.7724
       218.000         173.000
 128323819.80148  99992567.32948  24419227.8404   24419231.0554   24419227.8424
       216.000         165.000
 124846156.34348  97282706.96948  23757441.8634   23757445.7274   23757442.5954
       223.000         179.000
 124544266.64048  97047473.23948  23699990.5464   23699992.7374   23699990.5124
       222.000         170.000
 121363306.47248  94568795.46648  23094679.4184   23094682.8124   23094680.3484
       229.000         185.000
 09  1 12  0 11 30.0000000  0  9G 9G26G15G28G17G 8G27G18G10
 115963997.10848  90361542.61348  22067225.1704   22067228.3334   22067225.8644
       236.000         196.000
 106503358.82748  82989610.09648  20266932.2554   20266934.5714   20266932.1694
       252.000         227.000
 107606126.09548  83848926.57548  20476766.9704   20476768.2464   20476766.7754
       253.000         238.000
 117846614.53848  91828527.61648  22425466.6494   22425468.8914   22425466.8904
       240.000         200.000
 128249017.24248  99934284.11448  24404988.9004   24404991.3144   24404988.8054
       214.000         169.000
 128414427.08048 100063170.37948  24436469.3364   24436473.0164   24436470.1164
       218.000         164.000
 124916944.19248  97337866.32948  23770912.5614   23770916.2624   23770912.8594
       223.000         179.000
 124461100.53748  96982668.47448  23684165.2384   23684166.2244   23684165.4624
       221.000         170.000
 121468356.11048  94650652.31148  23114669.3204   23114673.3084   23114670.1934
       227.000         184.000
 09  1 12  0 12  0.0000000  0  9G 9G26G15G28G17G 8G27G18G10
 115883327.61448  90298683.27748  22051874.5744   22051877.3254   22051875.1844
       236.000         197.000
 106530883.21648  83011057.66348  20272169.9754   20272172.2864   20272169.9014
       251.000         227.000
 107581453.83348  83829701.42848  20472072.1194   20472073.3464   20472072.0164
       252.000         238.000
 117905040.19148  91874054.09648  22436584.6234   22436586.1714   22436585.5014
       240.000         200.000
 128180817.47948  99881141.46048  24392011.0514   24392013.2374   24392010.1944
       217.000         169.000
 128505048.05648 100133784.09848  24453713.8294   24453717.6054   24453715.0814
       215.000         165.000
 124987751.42348  97393040.76648  23784386.7514   23784390.2424   23784386.8714
       224.000         178.000
 124378278.97648  96918132.17748  23668405.1174   23668406.0364   23668404.5494
       220.000         172.000
 121573583.57948  94732647.73748  23134693.2384   23134697.2274   23134694.1794
       227.000         184.000
 09  1 12  0 12 30.0000000  0  9G 9G26G15G28G17G 8G27G18G10
 115802903.71748  90236015.33648  22036570.2714   22036573.1784   22036570.6794
       237.000         199.000
 106558802.69948  83032813.08948  20277482.9444   20277485.1624   20277482.8194
       251.000         227.000
 107557133.46648  83810750.49148  20467444.1024   20467445.3654   20467443.9264
       252.000         238.000
 117963871.24548  91919896.47848  22447779.5554   22447781.0854   22447779.9574
       240.000         199.000
 128112846.95748  99828177.42548  24379076.8734   24379078.9164   24379076.8484
       219.000         175.000
 128595682.01148 100204407.93148  24470961.9554   24470964.6424   24470961.6514
       214.000         166.000
 125058577.50948  97448229.92548  23797864.9574   23797868.0644   23797865.2764
       224.000         179.000
 124295804.70148  96853866.54548  23652710.1754   23652712.0894   23652710.5134
       222.000         172.000
 121678986.85148  94814780.15548  23154750.4694   23154754.8444   23154750.9334
       227.000         182.000
 09  1 12  0 13  0.0000000  0  9G 9G26G15G28G17G 8G27G18G10
 115722725.37448  90173538.71748  22021312.9364   22021315.7024   22021313.1964
       238.000         199.000
 106587116.62748  83054875.87948  20282870.8554   20282873.0744   20282870.7734
       251.000         227.000
 107533165.68048  83792074.28848  20462883.0604   20462884.4454   20462882.7664
       252.000         238.000
 118023105.12748  91966052.76348  22459051.6014   22459053.2464   22459051.8544
       240.000         199.000
 128045108.40348  99775394.11448  24366187.4074   24366188.4404   24366187.6194
       218.000         170.000
 128686327.28248 100275040.62348  24488210.4404   24488213.4024   24488210.6194
       218.000         165.000
 125129421.73348  97503433.20648  23811346.4944   23811349.3724   23811346.9434
       224.000         178.000
 124213679.66748  96789872.99848  23637082.5854   23637084.3784   23637083.7134
       223.000         173.000
 121784562.31648  94897046.75748  23174841.0394   23174845.0414   23174841.5784
       228.000         181.000
 09  1 12  0 13 30.0000000  0  9G 9G26G15G28G17G 8G27G18G10
 115642793.61848  90111254.24748  22006102.5684   22006105.0464   22006102.6074
       236.000         199.000
 106615825.57348  83077246.47248  20288334.0284   20288336.1604   20288333.9534
       251.000         227.000
 107509551.96648  83773673.98948  20458389.5034   20458390.8134   20458389.2584
       252.000         238.000
 118082740.04448  92012521.52748  22470399.7524   22470401.9234   22470400.8734
       239.000         199.000
 127977604.98448  99722794.07148  24353340.9464   24353343.0234   24353340.8874
       218.000         173.000
 128776983.37148 100345681.70748  24505462.3424   24505465.1904   24505463.1094
       219.000         167.000
 125200283.76048  97558650.36748  23824830.8214   23824833.8094   23824831.0584
       225.000         178.000
 124131906.18348  96726153.40848  23621520.9524   23621522.3844   23621521.5274
       223.000         171.000
 121890307.93448  94979445.93548  23194963.5344   23194967.9804   23194964.6544
       227.000         181.000
 09  1 12  0 14  0.0000000  0  9G 9G26G15G28G17G 8G27G18G10
 115563109.21148  90049162.52048  21990939.0544   21990941.7794   21990939.2864
       237.000         199.000
 106644929.69948  83099925.00348  20293872.3224   20293874.5994   20293872.2984
       251.000         227.000
 107486293.91848  83755550.82748  20453963.7754   20453965.0184   20453963.5504
       252.000         238.000
 118142773.95948  92059301.20948  22481823.8374   22481825.7984   22481824.4104
       237.000         198.000
 127910340.02848  99670379.86048  24340540.9284   24340543.0114   24340540.8464
       217.000         172.000
 128867649.71348 100416330.77548  24522716.1574   24522718.5824   24522717.5884
       217.000         166.000
 125271163.40548  97613881.24848  23838319.0014   23838321.9574   23838319.2744
       225.000         177.000
 124050487.28248  96662710.07948  23606028.2344   23606028.7184   23606028.8104
       227.000         172.000
 121996221.13548  95061975.70448  23215118.4684   23215122.3904   23215119.1384
       227.000         181.000
 09  1 12  0 14 30.0000000  0  9G 9G26G15G28G17G 8G27G18G10
 115483673.04048  89987264.22848  21975822.6044   21975825.1674   21975822.8654
       237.000         199.000
 106674429.41048  83122911.78148  20299486.1264   20299488.2554   20299486.0514
       252.000         227.000
 107463393.18148  83737706.09148  20449605.8234   20449607.2074   20449605.5454
       252.000         238.000
 118203205.25648  92106390.52848  22493323.4434   22493324.7394   22493323.4994
       238.000         197.000
 127843316.41048  99618153.64648  24327787.2504   24327788.3904   24327786.6354
       218.000         171.000
 128958325.72048 100486987.36548  24539970.0524   24539973.6894   24539970.0324
       217.000         164.000
 125342060.37548  97669125.61848  23851810.1034   23851813.0814   23851810.4364
       223.000         177.000
 123969425.39948  96599544.96548  23590603.0414   23590603.5144   23590603.8034
       224.000         173.000
 122102299.36248  95144634.06648  23235304.5244   23235308.3694   23235305.4444
       225.000         179.000
 09  1 12  0 15  0.0000000  0  9G 9G26G15G28G17G 8G27G18G10
 115404485.58248  89925559.75648  21960753.6704   21960756.8154   21960753.7384
       237.000         200.000
 106704324.72648  83146206.82648  20305175.0194   20305177.1684   20305175.0554
       252.000         227.000
 107440851.14348  83720140.85948  20445316.2314   20445317.5754   20445316.0164
       252.000         238.000
 118264032.23848  92153788.16848  22504898.3714   22504898.8324   22504898.2474
       238.000         196.000
 127776537.01948  99566117.76148  24315078.9184   24315081.2614   24315078.9154
       218.000         168.000
 129049010.53848 100557650.85448  24557226.9974   24557230.7254   24557227.0324
       217.000         164.000
 125412974.29048  97724383.21348  23865304.3454   23865307.3534   23865305.0864
       221.000         175.000
 123888723.37748  96536660.27448  23575245.3994   23575246.8384   23575245.9224
       224.000         174.000
 122208540.55748  95227419.40548  23255521.1524   23255525.0484   23255522.2204
       224.000         178.000
 09  1 12  0 15 30.0000000  0  9G 9G26G15G28G17G 8G27G18G10
 115325547.59848  89864049.66348  21945732.2824   21945735.4034   21945732.9354
       238.000         201.000
 106734615.84848  83169810.28348  20310939.2624   20310941.3754   20310939.2864
       252.000         227.000
 107418668.85948  83702855.95248  20441095.0924   20441096.4284   20441094.8544
       252.000         238.000
 118325252.54048  92201492.29048  22516548.5034   22516548.7844   22516548.7524
       239.000         197.000
 127710004.70548  99514274.38548  24302418.9304   24302419.8644   24302419.1724
       215.000         171.000
 129139703.35248 100628320.54548  24574484.6864   24574488.6904   24574485.2524
       217.000         165.000
 125483904.76648  97779653.68848  23878802.0294   23878805.3034   23878802.3784
       223.000         176.000
 123808383.54748  96474057.80248  23559957.4994   23559959.0054   23559957.6004
       225.000         175.000
 122314941.65848  95310329.34448  23275769.0584   23275772.5844   23275769.1354
       225.000         180.000
 09  1 12  0 16  0.0000000  0  9G 9G26G15G28G17G 8G27G18G10
 115246859.48448  89802734.26248  21930758.6614   21930761.5904   21930758.7004
       239.000         201.000
 106765302.27048  83193721.77448  20316778.5904   20316780.8034   20316778.5514
       252.000         227.000
 107396847.08548  83685851.96748  20436942.5604   20436943.8534   20436942.4384
       252.000         238.000
 118386863.65248  92249500.94048  22528272.7404   22528273.9184   22528274.0384
       239.000         198.000
 127643721.88648  99462625.48348  24289804.5074   24289807.5984   24289803.7014
       218.000         173.000
 129230403.12248 100698995.63748  24591744.7504   24591748.3264   24591745.4864
       216.000         161.000
 125554850.76548  97834936.27448  23892303.0104   23892306.1034   23892303.1014
       224.000         176.000
 123728407.80848  96411739.04348  23544738.6854   23544739.7304   23544739.6134
       224.000         174.000
 122421499.47948  95393361.40848  23296046.6994   23296050.2364   23296047.1124
       227.000         181.000
 09  1 12  0 16 30.0000000  0  9G 9G26G15G28G17G 8G27G18G10
 115168421.90248  89741614.09548  21915832.4654   21915835.0884   21915832.9764
       238.000         200.000
 106796384.29048  83217941.51848  20322693.3274   20322695.5744   20322693.2434
       252.000         227.000
 107375387.58148  83669130.27448  20432858.8694   20432860.2734   20432858.6744
       252.000         238.000
 118448863.57148  92297812.57348  22540070.7894   22540073.1544   22540071.5684
       238.000         200.000
 127577691.84348  99411173.51748  24277240.0174   24277241.6544   24277240.1584
       216.000         167.000
 129321108.60548 100769675.22648  24609005.0134   24609008.4564   24609004.9474
       212.000         160.000
 125625812.15948  97890230.86148  23905806.5654   23905809.7734   23905806.5594
       225.000         176.000
 123648798.57748  96349705.88148  23529589.1454   23529591.0124   23529589.6724
       225.000         177.000
 122528211.52448  95476513.64048  23316353.0774   23316356.5964   23316354.0574
       227.000         180.000
 09  1 12  0 17  0.0000000  0 10G 9G26G15G28G17G 8G12G27G18G10
 115090235.57948  89680689.71148  21900954.1954   21900956.5124   21900954.2104
       239.000         201.000
 106827862.07948  83242469.65548  20328683.3804   20328685.7034   20328683.3214
       251.000         227.000
 107354291.84348  83652692.03048  20428844.5704   20428845.8864   20428844.2704
       252.000         238.000
 118511250.40148  92346425.69748  22551942.4364   22551945.5594   22551942.5744
       238.000         200.000
 127511917.66948  99359920.90948  24264723.7734   24264726.0584   24264723.5134
       218.000         167.000
 129411819.59448 100840359.08648  24626266.3264   24626269.8344   24626267.0484
       212.000         159.000
 131307460.49358 102317488.74458  24986988.5465   24986991.5025   24986987.1175
       208.000         155.000
 125696789.06148  97945537.52148  23919312.9594   23919316.1314   23919313.4094
       223.000         176.000
 123569558.99648  96287960.74448  23514510.6574   23514512.3624   23514509.9514
       224.000         176.000
 122635075.69248  95559784.41948  23336688.7704   23336692.5634   23336689.5864
       227.000         181.000
 09  1 12  0 17 30.0000000  0 10G 9G26G15G28G17G 8G12G27G18G10
 115012301.71148  89619962.04948  21886123.7514   21886126.2364   21886124.2214
       238.000         201.000
 106859735.89048  83267306.38348  20334748.6904   20334751.0814   20334748.6054
       251.000         227.000
 107333561.28648  83636538.34548  20424899.5964   20424900.9074   20424899.4174
       252.000         238.000
 118574022.42548  92395338.96948  22563887.7014   22563890.8454   22563888.2754
       239.000         200.000
 127446402.22348  99308869.90348  24252256.5414   24252257.4324   24252256.7914
       218.000         165.000
 129502535.78648 100911047.01148  24643530.1224   24643532.4144   24643530.6404
       216.000         161.000
 131192303.01648 102227755.70048  24965075.2374   24965077.1174   24965074.9604
       212.000         154.000
 125767780.89248  98000855.82148  23932822.0654   23932825.2414   23932822.1224
       224.000         174.000
 123490691.35348  96226505.43248  23499502.5544   23499504.1324   23499501.7044
       224.000         177.000
 122742089.77148  95643172.00848  23357052.8054   23357056.5624   23357053.5574
       227.000         179.000
 09  1 12  0 18  0.0000000  0 10G 9G26G15G28G17G 8G12G27G18G10
 114934619.73648  89559430.64948  21871341.2644   21871343.7194   21871341.1124
       237.000         200.000
 106892004.99848  83292451.13448  20340889.2034   20340891.6054   20340889.2004
       251.000         227.000
 107313196.26948  83620669.49048  20421024.3384   20421025.6084   20421024.1674
       252.000         238.000
 118637177.04348  92444550.36048  22575905.8024   22575908.6724   22575905.9904
       238.000         199.000
 127381147.51248  99258022.08248  24239838.9284   24239840.6474   24239838.8944
       218.000         168.000
 129593255.21048 100981737.45148  24660793.6984   24660796.6174   24660794.9664
       215.000         165.000
 131077187.40848 102138055.23848  24943170.4014   24943171.2244   24943170.0274
       212.000         153.000
 125838786.47548  98056184.81848  23946333.8244   23946337.0714   23946334.2924
       220.000         172.000
 123412197.37748  96165341.29048  23484565.8394   23484567.3524   23484564.6934
       226.000         176.000
 122849249.34148  95726672.98248  23377444.5634   23377447.8704   23377445.4794
       225.000         177.000
 09  1 12  0 18 30.0000000  0 10G 9G26G15G28G17G 8G12G27G18G10
 114857191.26548  89499096.77448  21856607.1294   21856609.2724   21856607.5274
       237.000         200.000
 106924670.11948  83317904.46748  20347105.1554   20347107.4754   20347105.0994
       251.000         226.000
 107293199.21648  83605087.36948  20417218.9854   20417220.2524   20417218.7544
       252.000         239.000
 118700712.76248  92494058.71548  22587996.1914   22587998.7044   22587996.6454
       238.000         198.000
 127316157.30848  99207380.36448  24227471.5564   24227473.3474   24227471.5034
       220.000         165.000
 129683977.99348 101052430.49248  24678057.1374   24678060.7314   24678057.2674
       213.000         163.000
 130962117.01948 102048390.04048  24921272.4034   24921273.2524   24921271.9954
       211.000         153.000
 125909806.30948  98111524.94948  23959848.5594   23959851.6554   23959847.8254
       222.000         174.000
 123334080.27548  96104470.81448  23469700.9194   23469702.2974   23469701.5724
       227.000         179.000
 122956553.33048  95810286.46248  23397863.3604   23397867.7844   23397864.2624
       224.000         178.000
 09  1 12  0 19  0.0000000  0 10G 9G26G15G28G17G 8G12G27G18G10
 114780016.46948  89438960.59548  21841921.1424   21841924.1334   21841921.2914
       239.000         202.000
 106957731.17648  83343666.32448  20353396.4124   20353398.7754   20353396.4074
       251.000         226.000
 107273570.93348  83589792.59748  20413483.9224   20413485.1194   20413483.6784
       252.000         239.000
 118764626.93748  92543861.97348  22600158.8014   22600160.8224   22600159.6144
       237.000         195.000
 127251434.04048  99156946.71448  24215154.7664   24215157.0614   24215154.6494
       215.000         165.000
 129774702.93548 101123125.19748  24695321.6514   24695325.0064   24695321.2174
       214.000         162.000
 130847093.68148 101958761.48448  24899384.8074   24899384.6044   24899385.0794
       208.000         150.000
 125980839.90448  98166875.77848  23973365.9654   23973369.0564   23973365.8154
       223.000         176.000
 123256342.20148  96043895.69248  23454907.6444   23454909.1124   23454907.6764
       226.000         177.000
 123063998.74748  95894010.14948  23418310.1384   23418313.6934   23418310.9424
       225.000         177.000
 09  1 12  0 19 30.0000000  0 10G 9G26G15G28G17G 8G12G27G18G10
 114703096.18948  89379022.72348  21827284.0094   21827286.6654   21827284.4154
       238.000         203.000
 106991187.94648  83369736.52448  20359763.2234   20359765.3804   20359763.1044
       251.000         226.000
 107254312.46948  83574786.00448  20409819.1284   20409820.4064   20409818.9024
       252.000         239.000
 118828917.63448  92593958.61248  22612392.7624   22612394.0384   22612393.6004
       238.000         193.000
 127186980.38848  99106723.07248  24202889.0864   24202891.6814   24202888.7974
       217.000         167.000
 129865429.21148 101193820.95748  24712586.6004   24712589.5184   24712587.2714
       216.000         159.000
 130732119.55148 101869171.30348  24877505.7354   24877505.4794   24877506.8274
       210.000         150.000
 126051886.65948  98222236.86648  23986885.5464   23986889.1124   23986886.0174
       222.000         174.000
 123178985.47548  95983617.72048  23440187.1434   23440188.0814   23440188.9924
       224.000         177.000
 123171582.52148  95977841.67748  23438782.6244   23438785.6284   23438783.7114
       226.000         177.000
 09  1 12  0 20  0.0000000  0 10G 9G26G15G28G17G 8G12G27G18G10
 114626430.52348  89319283.25748  21812694.9544   21812697.8384   21812694.6554
       238.000         203.000
 107025040.19748  83396114.89848  20366205.0704   20366207.4244   20366204.9524
       251.000         227.000
 107235424.96348  83560068.46848  20406224.9584   20406226.2224   20406224.7684
       253.000         239.000
 118893582.41648  92644346.73848  22624698.1264   22624698.6234   22624699.3884
       236.000         191.000
 127122799.38948  99056711.89748  24190677.4524   24190678.6584   24190676.5844
       219.000         168.000
 129956155.90548 101264517.06048  24729851.0244   24729854.2364   24729851.5734
       213.000         159.000
 130617196.91748 101779621.21648  24855636.5514   24855636.4834   24855637.8014
       208.000         149.000
 126122946.16948  98277607.90348  24000407.7794   24000410.4684   24000407.8034
       222.000         171.000
 123102012.12148  95923638.49148  23425539.3704   23425540.8634   23425539.4274
       227.000         177.000
 123279302.09448  96061779.00248  23459280.8144   23459284.4364   23459282.1284
       226.000         177.000
 09  1 12  0 20 30.0000000  0 10G 9G26G15G28G17G 8G12G27G18G10
 114550020.91748  89259743.31448  21798154.6034   21798157.4664   21798155.0744
       239.000         203.000
 107059288.80448  83422802.11748  20372722.2724   20372724.8524   20372722.1814
       251.000         227.000
 107216910.43548  83545641.56148  20402701.6774   20402703.0004   20402701.4954
       253.000         239.000
 118958619.92248  92695025.29848  22637074.1474   22637073.6644   22637074.7394
       236.000         189.000
 127058894.40348  99006915.80948  24178515.7254   24178518.1714   24178515.8814
       217.000         170.000
 130046882.87848 101335213.39048  24747116.0774   24747119.7554   24747116.5914
       220.000         162.000
 130502328.49148 101690113.39448  24833777.1494   24833778.4304   24833777.9854
       209.000         149.000
 126194018.62448  98332989.03248  24013932.3124   24013934.7914   24013932.0674
       222.000         169.000
 123025425.17248  95863960.35848  23410965.4514   23410966.9434   23410967.2304
       228.000         178.000
 123387155.09448  96145820.31648  23479804.1494   23479807.8524   23479804.6914
       224.000         176.000
 09  1 12  0 21  0.0000000  0 10G 9G26G15G28G17G 8G12G27G18G10
 114473868.05848  89200403.43248  21783663.0044   21783665.8784   21783663.2404
       238.000         203.000
 107093933.79648  83449798.20948  20379315.2304   20379317.5674   20379315.3074
       252.000         227.000
 107198770.35648  83531506.43548  20399249.8104   20399251.0464   20399249.7464
       253.000         239.000
 119024028.26148  92745992.82448  22649521.0994   22649519.9494   22649521.3894
       236.000         189.000
 126995268.43948  98957337.13648  24166408.7604   24166410.9904   24166408.1954
       222.000         173.000
 130137609.87348 101405909.72648  24764380.7194   24764384.1814   24764382.2674
       217.000         160.000
 130387516.63948 101600649.62648  24811928.7264   24811930.6454   24811928.8944
       204.000         153.000
 126265104.02448  98388380.22948  24027459.7134   24027462.0244   24027460.2514
       220.000         170.000
 122949227.55748  95804585.60048  23396465.1094   23396467.1174   23396466.2574
       227.000         179.000
 123495139.47948  96229963.97148  23500352.4124   23500356.8054   23500353.3834
       222.000         173.000
 09  1 12  0 21 30.0000000  0 10G 9G26G15G28G17G 8G12G27G18G10
 114397972.31048  89141263.90848  21769220.5614   21769223.2924   21769220.3244
       238.000         203.000
 107128974.71248  83477102.80948  20385983.2274   20385985.4694   20385983.2144
       251.000         226.000
 107181005.55548  83517663.72848  20395869.2624   20395870.5284   20395869.1414
       252.000         239.000
 119089804.83048  92797247.27848  22662037.9304   22662037.2964   22662038.4414
       236.000         189.000
 126931923.93048  98907977.80248  24154355.1114   24154355.9834   24154355.9314
       220.000         172.000
 130228335.74048 101476605.15648  24781645.1974   24781649.0014   24781645.7224
       218.000         163.000
 130272763.33348 101511231.49748  24790092.1114   24790093.8014   24790090.3974
       205.000         152.000
 126336201.51748  98443780.85448  24040989.0034   24040991.3074   24040989.5914
       224.000         171.000
 122873421.11048  95745515.61248  23382040.5384   23382041.8034   23382040.9584
       228.000         179.000
 123603252.09748  96314207.58148  23520926.4434   23520929.7014   23520927.6624
       223.000         173.000
 09  1 12  0 22  0.0000000  0 10G 9G26G15G28G17G 8G12G27G18G10
 114322333.93148  89082324.91748  21754827.0274   21754829.5724   21754827.4694
       238.000         203.000
 107164411.18348  83504715.64048  20392726.4594   20392728.7164   20392726.3144
       251.000         226.000
 107163616.97148  83504114.17648  20392560.3224   20392561.5654   20392560.0984
       252.000         239.000
 119155947.32548  92848786.88048  22674624.3324   22674624.6134   22674624.3634
       236.000         190.000
 126868863.20648  98858839.57148  24142354.2524   24142356.3184   24142353.6654
       219.000         173.000
 130319059.24048 101547298.76448  24798909.5974   24798912.9424   24798909.8164
       217.000         160.000
 130158070.38548 101421860.38848  24768266.7574   24768269.7174   24768266.0024
       213.000         155.000
 126407310.29548  98499190.27648  24054520.8084   24054523.0554   24054521.0434
       227.000         171.000
 122798007.87348  95686752.05648  23367689.3424   23367691.0234   23367690.6714
       227.000         179.000
 123711489.92348  96398548.75048  23541523.3344   23541526.5834   23541524.1524
       223.000         172.000
 09  1 12  0 22 30.0000000  0 10G 9G26G15G28G17G 8G12G27G18G10
 114246954.39848  89023587.63148  21740482.6664   21740485.4994   21740482.4814
       239.000         203.000
 107200243.79648  83532637.15148  20399545.1804   20399547.4934   20399545.0684
       252.000         226.000
 107146606.58748  83490859.32748  20389323.3074   20389324.6214   20389323.1124
       253.000         239.000
 119222454.29448  92900610.48348  22687280.1924   22687281.4244   22687280.7754
       236.000         191.000
 126806090.15948  98809925.52048  24130409.5104   24130411.4164   24130409.3954
       219.000         173.000
 130409780.26548 101617990.43548  24816172.7764   24816175.8744   24816172.9244
       218.000         160.000
 130043440.98748 101332538.77948  24746454.3974   24746456.2864   24746455.2864
       211.000         157.000
 126478430.93048  98554608.94448  24068054.1304   24068057.4554   24068054.4494
       223.000         173.000
 122722990.76448  95628297.16148  23353414.1364   23353415.3184   23353414.2684
       228.000         178.000
 123819851.03748  96482985.96548  23562143.9444   23562147.3804   23562144.0504
       225.000         175.000
 09  1 12  0 23  0.0000000  0 10G 9G26G15G28G17G 8G12G27G18G10
 114171833.84548  88965052.14548  21726187.7714   21726190.4504   21726188.0914
       238.000         202.000
 107236472.54448  83560867.34448  20406439.2984   20406441.6774   20406439.3464
       251.000         226.000
 107129975.42948  83477899.98148  20386158.6014   20386159.7904   20386158.3234
       253.000         239.000
 119289323.34348  92952716.24148  22700004.8804   22700006.8294   22700005.2274
       235.000         192.000
 126743607.04548  98761237.36448  24118519.4744   24118521.0144   24118519.0174
       220.000         173.000
 130500498.16648 101688679.67248  24833436.1384   24833439.7624   24833436.7944
       217.000         157.000
 129928877.38248 101243268.48748  24724653.4504   24724655.1384   24724652.5684
       209.000         156.000
 126549562.90848  98610036.43848  24081589.9354   24081593.8564   24081590.2484
       223.000         171.000
 122648372.12048  95570152.74648  23339215.0844   23339215.7574   23339214.6564
       227.000         177.000
 123928332.91048  96567517.32648  23582787.3144   23582790.6604   23582787.9404
       222.000         174.000
 09  1 12  0 23 30.0000000  0 10G 9G26G15G28G17G 8G12G27G18G10
 114096970.30448  88906716.94148  21711941.5994   21711944.4794   21711941.7494
       238.000         203.000
 107273094.70148  83589404.08948  20413408.3384   20413410.6804   20413408.2164
       251.000         226.000
 107113721.96748  83465234.94248  20383065.6834   20383066.8654   20383065.4564
       253.000         239.000
 119356549.54148  93005100.29548  22712797.4534   22712800.0484   22712797.6094
       236.000         193.000
 126681413.98848  98712775.27948  24106684.1754   24106685.3614   24106684.0224
       219.000         169.000
 130591209.32648 101759363.66448  24850698.5554   24850700.6184   24850698.8864
       218.000         163.000
 129814378.86448 101154048.88348  24702864.4914   24702867.0844   24702864.2254
       208.000         156.000
 126620703.11848  98665470.33448  24095127.4324   24095131.0154   24095127.4924
       220.000         170.000
 122574151.70148  95512318.66048  23325090.8514   23325092.2794   23325091.4394
       226.000         178.000
 124036929.87448  96652138.34348  23603452.1364   23603455.8304   23603452.6034
       224.000         172.000
 09  1 12  0 24  0.0000000  0 10G 9G26G15G28G17G 8G12G27G18G10
 114022368.11948  88848585.38148  21697745.4434   21697748.1784   21697745.5244
       238.000         203.000
 107310113.68948  83618250.05448  20420452.7924   20420455.1154   20420452.7424
       251.000         226.000
 107097851.25348  83452868.14548  20380045.5434   20380046.8354   20380045.3254
       253.000         239.000
 119424134.56548  93057763.95148  22725658.6064   22725661.2524   22725659.2504
       236.000         194.000
 126619517.76148  98664544.43948  24094905.3124   24094907.1334   24094905.3264
       218.000         171.000
 130681916.94648 101830044.90148  24867959.1984   24867962.3414   24867959.5084
       219.000         162.000
 129699951.37548 101064884.63848  24681089.0204   24681091.5794   24681089.1124
       213.000         155.000
 126691855.04748  98720913.38348  24108667.7854   24108670.4204   24108667.5184
       222.000         167.000
 122500335.20748  95454799.31448  23311043.9624   23311045.3254   23311043.6534
       226.000         178.000
 124145643.30148  96736850.11248  23624140.2904   23624143.1574   23624141.3474
       225.000         174.000
 09  1 12  0 24 30.0000000  0 10G 9G26G15G28G17G 8G12G27G18G10
 113948027.36148  88790657.53348  21683598.7174   21683601.5864   21683598.7514
       238.000         203.000
 107347528.89748  83647404.75648  20427572.5734   20427574.9484   20427572.6004
       251.000         226.000
 107082363.79948  83440799.99348  20377098.3484   20377099.7434   20377098.1124
       253.000         239.000
 119492075.75948  93110705.13248  22738587.4834   22738590.1304   22738588.0744
       235.000         194.000
 126557920.44048  98616546.55848  24083183.7724   24083185.4964   24083183.6764
       217.000         168.000
