     2.11           OBSERVATION DATA    G (GPS)             RINEX VERSION / TYPE
teqc  2008Oct2      gpsops              20090104 00:05:45UTCPGM / RUN BY / DATE
    30.0000                                                 INTERVAL
     1     1                                                WAVELENGTH FACT L1/2
     7    L1    L2    P1    P2    C1    S1    S2            # / TYPES OF OBSERV
Linux 2.4.20-8|Pentium IV|gcc -static|Linux|486/DX+         COMMENT
     2.10           OBSERVATION DATA    GPS                 COMMENT
soc2rnx ver 1.20    gpsops               4-Jan-2009 00:05:43COMMENT
S1, if present, is the SNR for the C/A data stream on L1.   COMMENT
 SNR is mapped to RINEX snr flag value [1,4-9]              COMMENT
    SNR:   >316  >100  >31.6  >10  >3.2    >0 bad=0         COMMENT
L1 & L2:      9     8     7     6     5     4     1         COMMENT
                                                            COMMENT
This data is provided as a public service by NASA/JPL.      COMMENT
No warranty is expressed or implied regarding suitability   COMMENT
for use.  For further information, contact:                 COMMENT
Dave Stowers, NASA/JPL m/s 238-600                          COMMENT
4800 Oak Grove Drive, Pasadena CA 91109 USA                 COMMENT
                                                            COMMENT
Forced Modulo Decimation to 30 seconds                      COMMENT
  2009     1     3     0     0    0.0000000     GPS         TIME OF FIRST OBS
DSN                 JPL                                     OBSERVER / AGENCY
451-U               AOAD/M_T        NONE                    ANT # / TYPE
  4849202.3940  -360328.9929  4114913.1862                  APPROX POSITION XYZ
        0.0254        0.0000        0.0000                  ANTENNA: DELTA H/E/N
LP03574             ASHTECH Z-XII3      CC00                REC # / TYPE / VERS
MADR                                                        MARKER NAME
13407S012                                                   MARKER NUMBER
                                                            END OF HEADER
 09  1  3  0  0  0.0000000  0  9G24G26G10G 9G28G 8G21G15G27
 126495043.33748  98567547.81048  24071220.7784   24071224.5914   24071220.5714
       222.000         168.000
 105673221.49248  82342738.10148  20108974.0714   20108976.3424   20108973.9494
       251.000         227.000
 112632163.10248  87765306.91448  21433199.5914   21433202.7044   21433200.3464
       245.000         213.000
 124826360.91748  97267287.90748  23753671.4704   23753674.7924   23753672.1584
       224.000         171.000
 114346185.48148  89100915.03048  21759362.0114   21759363.6514   21759362.9774
       242.000         209.000
 119918115.30348  93442692.40148  22819653.2024   22819655.6494   22819653.8794
       228.000         185.000
 128399555.32348 100051617.84348  24433610.5444   24433599.5784   24433608.5414
       189.000         123.000
 111412803.72548  86815161.59448  21201158.6464   21201160.6944   21201158.2444
       246.000         224.000
 120641661.85248  94006484.48148  22957346.3704   22957348.2124   22957346.1514
       232.000         194.000
 09  1  3  0  0 30.0000000  0  9G24G26G10G 9G28G 8G21G15G27
 126558434.03948  98616943.13148  24083283.1954   24083287.5804   24083283.7154
       220.000         168.000
 105663986.42548  82335541.94148  20107216.7924   20107219.0664   20107216.7964
       250.000         227.000
 112709185.62848  87825324.45348  21447856.3734   21447859.6954   21447857.0444
       245.000         213.000
 124725674.46748  97188830.95348  23734510.7804   23734514.2014   23734511.2854
       220.000         168.000
 114357710.79348  89109895.79548  21761554.9704   21761556.8414   21761555.6014
       242.000         209.000
 120002460.30848  93508415.78048  22835703.5134   22835705.5664   22835704.0614
       228.000         185.000
 138400035.18458  90051970.61258  24433716.4095   24433718.5465   24433720.4625
       191.000         125.000
 111360748.58148  86774599.14948  21191252.8654   21191254.8584   21191252.6704
       246.000         225.000
 120712516.55048  94061695.94148  22970829.4924   22970831.9524   22970829.4144
       233.000         194.000
 09  1  3  0  1  0.0000000  0  9G24G26G10G 9G28G 8G21G15G27
 126622084.75648  98666541.08248  24095395.7794   24095400.0604   24095395.8884
       223.000         168.000
 105655104.11448  82328620.65848  20105526.4474   20105528.8424   20105526.2594
       251.000         227.000
 112786612.46948  87885657.04548  21462590.1364   21462593.8094   21462591.0444
       245.000         214.000
 124625150.68548  97110500.79848  23715381.2674   23715385.0344   23715380.7304
       221.000         168.000
 114369768.80348  89119291.65548  21763849.8524   21763851.2914   21763850.4064
       241.000         209.000
 120086934.35648  93574239.69848  22851778.3154   22851780.8724   22851779.0134
       228.000         186.000
 138401105.87648  90052804.94548  24433921.8144   24433923.5264   24433924.7054
       196.000         136.000
 111308913.97948  86734208.54648  21181389.2014   21181390.9534   21181388.7674
       247.000         225.000
 120783435.09348  94116957.13448  22984324.3574   22984328.0734   22984324.7324
       231.000         194.000
 09  1  3  0  1 30.0000000  0  9G24G26G10G 9G28G 8G21G15G27
 126685994.23748  98716340.63948  24107557.6974   24107561.7464   24107557.6974
       222.000         168.000
 105646576.74948  82321975.95848  20103903.8834   20103906.1264   20103903.7634
       251.000         228.000
 112864443.10248  87946304.27848  21477400.8784   21477404.7084   21477401.4574
       245.000         214.000
 124524792.37248  97032299.52248  23696284.0974   23696287.0014   23696284.8264
       220.000         166.000
 114382360.40348  89129103.29748  21766245.4424   21766247.4674   21766246.0264
       241.000         209.000
 120171536.69248  93640163.58448  22867877.1574   22867881.0114   22867877.8614
       225.000         187.000
 138402677.07348  90054029.23048  24434220.8274   24434222.4914   24434221.5134
       191.000         132.000
 111257302.74448  86693991.99848  21171567.8784   21171569.6464   21171567.8694
       246.000         225.000
 120854418.08748  94172268.54448  22997832.0374   22997835.4764   22997832.5134
       232.000         193.000
 09  1  3  0  2  0.0000000  0  9G24G26G10G 9G28G 8G21G15G27
 126750159.85648  98766339.81048  24119767.8064   24119771.9284   24119768.1014
       219.000         167.000
 105638405.17248  82315608.49748  20102348.9594   20102350.9994   20102348.9034
       251.000         228.000
 112942675.46748  88007264.55948  21492288.2114   21492291.7424   21492288.8604
       245.000         213.000
 124424600.72748  96954228.15748  23677217.7614   23677221.7014   23677217.8144
       220.000         164.000
 114395485.47948  89139330.63748  21768743.2524   21768745.0094   21768743.6574
       242.000         209.000
 120256266.26448  93706186.61948  22884000.7244   22884004.1514   22884000.7734
       228.000         186.000
 138404748.35148  90055643.27348  24434614.7524   24434616.9134   24434614.8264
       199.000         133.000
 111205916.52448  86653950.78348  21161789.5514   21161791.1774   21161789.2804
       247.000         225.000
 120925464.62948  94227629.49148  23011352.2894   23011354.5314   23011352.4734
       232.000         193.000
 09  1  3  0  2 30.0000000  0  9G24G26G10G 9G28G 8G21G15G27
 126814578.09848  98816535.79648  24132026.4624   24132030.4674   24132026.9734
       219.000         168.000
 105630589.51048  82309518.36548  20100861.7274   20100863.7094   20100861.7814
       251.000         228.000
 113021306.92548  88068535.81548  21507251.1694   21507254.7044   21507252.0144
       245.000         213.000
 124324576.15148  96876286.96848  23658183.1254   23658187.2904   23658183.6904
       217.000         164.000
 114409142.86848  89149972.75448  21771342.0514   21771344.1074   21771342.4684
       241.000         209.000
 120341120.94048  93772307.14748  22900147.8444   22900151.1794   22900148.9564
       226.000         185.000
 138407318.45548  90057645.95348  24435102.9124   24435104.8684   24435106.2814
       204.000         137.000
 111154755.77748  86614085.26548  21152053.9044   21152055.4994   21152053.7884
       247.000         225.000
 120996573.21548  94283038.77448  23024883.6494   23024886.2734   23024883.8084
       231.000         192.000
 09  1  3  0  3  0.0000000  0  9G24G26G10G 9G28G 8G21G15G27
 126879246.21048  98866926.48748  24144331.8054   24144336.4864   24144331.9134
       217.000         167.000
 105623130.18848  82303705.90648  20099442.2594   20099444.3714   20099442.1344
       251.000         228.000
 113100335.75048  88130116.69748  21522290.0374   21522293.4834   21522290.8664
       244.000         213.000
 124224719.35748  96798476.51148  23639181.8434   23639185.2544   23639181.2424
       223.000         169.000
 114423331.90948  89161029.16248  21774042.1574   21774044.1614   21774042.4074
       241.000         209.000
 120426098.94348  93838523.76748  22916319.0104   22916322.0794   22916319.3104
       229.000         186.000
 138410386.30048  90060036.46348  24435686.4824   24435689.1914   24435690.9844
       204.000         140.000
 111103821.59648  86574396.29748  21142361.2954   21142363.2694   21142360.8564
       248.000         226.000
 121067742.39548  94338495.27348  23038426.2854   23038429.6744   23038426.5634
       230.000         192.000
 09  1  3  0  3 30.0000000  0  9G24G26G10G 9G28G 8G21G15G27
 126944161.24348  98917509.57248  24156684.8134   24156689.5094   24156684.7454
       217.000         167.000
 105616027.49448  82298171.33348  20098090.6754   20098092.8184   20098090.5054
       251.000         228.000
 113179759.36748  88192005.22448  21537403.8334   21537407.2514   21537404.4164
       244.000         213.000
 124125031.47548  96720797.65148  23620212.1924   23620215.3914   23620213.2464
       224.000         170.000
 114438051.92948  89172499.31048  21776843.2714   21776845.2004   21776843.6754
       241.000         209.000
 120511198.75848  93904835.30548  22932513.0784   22932516.2254   22932513.6924
       227.000         185.000
 138413950.89048  90062814.01248  24436365.5134   24436366.6394   24436366.3674
       206.000         142.000
 111053114.92748  86534884.60248  21132712.1814   21132713.8614   21132711.9754
       248.000         225.000
 121138971.08748  94393998.14048  23051980.7244   23051984.0224   23051980.8604
       231.000         192.000
 09  1  3  0  4  0.0000000  0  9G24G26G10G 9G28G 8G21G15G27
 127009321.09948  98968283.41948  24169084.4424   24169088.8564   24169084.2114
       216.000         165.000
 105609282.89448  82292915.80048  20096807.0824   20096809.5174   20096807.1694
       251.000         228.000
 113259576.27548  88254200.20348  21552592.4714   21552595.8524   21552593.2994
       244.000         212.000
 124025513.79348  96643251.46648  23601274.7574   23601277.9974   23601274.7714
       226.000         175.000
 114453302.66148  89184383.00748  21779745.5874   21779747.2694   21779745.9264
       242.000         209.000
 120596419.51048  93971241.07048  22948730.0034   22948733.5564   22948730.0674
       228.000         186.000
 138418012.05148  90065978.54048  24437139.7434   24437139.7384   24437139.5674
       207.000         142.000
 111002637.77348  86495551.76248  21123106.7004   21123108.2954   21123106.3464
       248.000         225.000
 121210259.12248  94449547.24748  23065546.4734   23065549.3724   23065546.4034
       230.000         191.000
 09  1  3  0  4 30.0000000  0  9G24G26G10G 9G28G 8G21G15G27
 127074722.07648  99019245.20348  24181529.9434   24181533.9044   24181529.9414
       221.000         165.000
 105602896.04048  82287939.03048  20095591.6704   20095594.0964   20095591.5804
       251.000         228.000
 113339783.50348  88316699.33048  21567855.5114   21567858.8164   21567856.2574
       245.000         212.000
 123926166.74848  96565838.18048  23582369.4294   23582372.7064   23582369.7744
       225.000         171.000
 114469082.98348  89196679.36548  21782748.4384   21782750.1964   21782748.8434
       241.000         209.000
 120681758.45148  94037738.92548  22964969.5424   22964972.9294   22964970.3944
       228.000         186.000
 138422567.93948  90069528.53048  24438005.0854   24438006.6204   24438007.4804
       214.000         146.000
 110952390.72348  86456398.21848  21113544.9194   21113546.7524   21113544.6594
       248.000         225.000
 121281604.54748  94505141.08548  23079123.1244   23079125.9754   23079123.4904
       230.000         191.000
 09  1  3  0  5  0.0000000  0  9G24G26G10G 9G28G 8G21G15G27
 127140361.17548  99070392.51248  24194020.8504   24194025.1374   24194020.9384
       220.000         163.000
 105596867.32148  82283241.32948  20094444.3744   20094446.9844   20094444.2684
       251.000         228.000
 113420378.86148  88379500.90548  21583192.1924   21583196.0584   21583193.3514
       244.000         212.000
 123826991.08048  96488558.48448  23563497.1404   23563500.1754   23563497.5304
       223.000         171.000
 114485392.17848  89209387.83848  21785852.0854   21785853.8254   21785852.2874
       243.000         209.000
 120767214.15248  94104327.79248  22981231.3034   22981234.0554   22981231.5924
       227.000         186.000
 138427617.43148  90073463.21148  24438965.9114   24438967.7904   24438968.0544
       210.000         148.000
 110902374.49948  86417424.54148  21104027.1184   21104028.8074   21104026.9554
       248.000         225.000
 121353006.20048  94560778.73348  23092710.2894   23092713.5054   23092710.5454
       230.000         191.000
 09  1  3  0  5 30.0000000  0  9G24G26G10G 9G28G 8G21G15G27
 127206236.42648  99121723.87748  24206556.1814   24206560.5654   24206557.2214
       219.000         163.000
 105591198.26048  82278823.86948  20093365.7044   20093368.1294   20093365.7264
       251.000         228.000
 113501361.49948  88442604.24248  21598602.5504   21598606.4374   21598603.4304
       244.000         211.000
 123727988.51248  96411413.64348  23544657.2734   23544660.1994   23544657.4664
       224.000         170.000
 114502230.19448  89222508.37748  21789056.3164   21789057.8884   21789056.6744
       242.000         209.000
 120852786.12348  94171007.22748  22997515.2344   22997518.2354   22997515.6394
       229.000         186.000
 138433160.84548  90077782.73148  24440020.3534   24440022.2534   24440019.7814
       206.000         148.000
 110852591.55048  86378632.63748  21094553.7734   21094555.4784   21094553.5614
       248.000         226.000
 121424463.80448  94616459.98148  23106308.0994   23106311.3054   23106308.4154
       231.000         190.000
 09  1  3  0  6  0.0000000  0  9G24G26G10G 9G28G 8G21G15G27
 127272345.01448  99173237.00948  24219135.9614   24219140.7724   24219136.4694
       221.000         161.000
 105585889.51348  82274687.17848  20092355.5684   20092357.9034   20092355.6634
       251.000         228.000
 113582728.45548  88506007.05648  21614086.3614   21614089.6864   21614087.2604
       243.000         210.000
 123629160.26548  96334404.61748  23525850.7274   23525853.8584   23525851.4364
       225.000         170.000
 114519596.72048  89236040.74048  21792360.8874   21792362.5554   21792361.3794
       241.000         209.000
 120938472.08248  94237775.49348  23013820.3604   23013824.1024   23013821.9774
       228.000         186.000
 138439197.20348  90082486.36348  24441168.8044   24441172.0044   24441168.8264
       202.000         149.000
 110803043.19348  86340023.52948  21085125.1404   21085126.7884   21085124.7514
       248.000         226.000
 121495976.35448  94672184.04148  23119916.8634   23119919.3724   23119916.9914
       230.000         190.000
 09  1  3  0  6 30.0000000  0  9G24G26G10G 9G28G 8G21G15G27
 127338684.03348  99224929.75448  24231759.9544   24231764.4534   24231760.2644
       217.000         161.000
 105580941.77948  82270831.79848  20091413.9974   20091416.4214   20091413.8954
       251.000         228.000
 113664478.07248  88569708.04748  21629642.7274   21629646.0314   21629643.2774
       243.000         210.000
 123530507.12248  96257532.03848  23507077.7364   23507080.7194   23507078.3584
       224.000         171.000
 114537490.63648  89249984.06048  21795765.8184   21795767.6314   21795766.2514
       241.000         209.000
 121024271.13348  94304631.87648  23030147.8444   23030150.6414   23030147.5024
       230.000         184.000
 138445725.45048  90087573.30348  24442411.4744   24442413.9064   24442409.1134
       209.000         153.000
 110753730.42148  86301597.99748  21075741.2914   21075742.8324   21075740.8444
       248.000         226.000
 121567543.11448  94727950.34448  23133535.5364   23133538.4604   23133535.3904
       230.000         191.000
 09  1  3  0  7  0.0000000  0  9G24G26G10G 9G28G 8G21G15G27
 127405250.63348  99276799.78948  24244427.9894   24244431.7704   24244427.7534
       220.000         160.000
 105576355.20548  82267257.84048  20090541.1914   20090543.5804   20090541.2544
       251.000         228.000
 113746607.61848  88633705.07948  21645271.7334   21645275.0214   21645272.4794
       243.000         210.000
 123432029.80448  96180796.45948  23488337.5504   23488340.8054   23488337.2614
       224.000         170.000
 114555911.71348  89264338.15248  21799271.3484   21799273.0024   21799271.9304
       241.000         209.000
 121110181.84848  94371575.28948  23046495.9324   23046498.7364   23046497.6014
       226.000         182.000
 138452744.59948  90093042.75148  24443748.1464   24443749.0614   24443747.6034
       214.000         155.000
 110704654.60748  86263357.10048  21066402.4944   21066403.9724   21066402.2194
       249.000         226.000
 121639162.98048  94783758.02448  23147164.1024   23147167.3784   23147164.6494
       230.000         190.000
 09  1  3  0  7 30.0000000  0  9G24G26G10G 9G28G 8G21G15G27
 127472040.82848  99328844.06648  24257137.6284   24257141.4634   24257137.6844
       216.000         160.000
 105572129.48648  82263965.07348  20089737.1064   20089739.4184   20089737.0984
       250.000         228.000
 113829114.53548  88697996.17348  21660972.2764   21660975.6554   21660973.8774
       244.000         210.000
 123333728.57248  96104198.09748  23469631.7804   23469635.1334   23469632.5464
       224.000         172.000
 114574857.56248  89279101.15648  21802876.3184   21802878.5214   21802876.9014
       241.000         209.000
 121196201.40048  94438603.50148  23062864.7224   23062867.6774   23062864.6824
       227.000         181.000
 138460252.46248  90098892.99348  24445176.8484   24445177.9154   24445179.5584
       215.000         156.000
 110655816.00748  86225301.05248  21057108.7074   21057110.6014   21057108.5004
       249.000         226.000
 121710834.07748  94839605.61948  23160802.8214   23160805.6874   23160802.6244
       231.000         190.000
 09  1  3  0  8  0.0000000  0  9G24G26G10G 9G28G 8G21G15G27
 127539052.40848  99381060.82548  24269888.8144   24269893.1684   24269889.3924
       212.000         158.000
 105568265.64848  82260954.28348  20089001.9204   20089004.0804   20089001.9384
       250.000         228.000
 113911996.87148  88762579.79648  21676744.0824   21676747.5614   21676745.0674
       242.000         209.000
 123235604.52848  96027737.83848  23450959.4064   23450962.7314   23450958.9404
       224.000         172.000
 114594328.08348  89294273.00648  21806581.6894   21806583.5154   21806582.1084
       242.000         209.000
 121282328.97848  94505715.89248  23079254.2014   23079257.4364   23079254.9234
       228.000         182.000
 138468248.28748  90105123.52148  24446698.2844   24446699.3934   24446699.3394
       214.000         157.000
 110607216.07448  86187430.97548  21047860.4604   21047862.1554   21047860.2734
       249.000         226.000
 121782555.69448  94895492.58748  23174451.4364   23174453.6054   23174452.1864
       230.000         189.000
 09  1  3  0  8 30.0000000  0  9G24G26G10G 9G28G 8G21G15G27
 127606283.09048  99433448.32048  24282682.6374   24282687.0904   24282682.7454
       216.000         162.000
 105564765.07248  82258226.55948  20088335.6554   20088337.9564   20088335.5634
       250.000         228.000
 113995252.92548  88827454.63948  21692587.1214   21692590.7054   21692587.3234
       241.000         209.000
 123137659.57248  95951417.13448  23432320.9194   23432324.2684   23432321.2634
       223.000         171.000
 114614323.00948  89309853.47148  21810386.4444   21810388.2124   21810387.1224
       240.000         208.000
 121368563.50748  94572911.63248  23095664.0994   23095667.2584   23095664.7624
       227.000         180.000
 138476731.98648  90111734.14848  24448312.3314   24448314.0604   24448312.7434
       216.000         159.000
 110558856.99548  86149748.57748  21038657.9894   21038659.6724   21038657.6784
       248.000         227.000
 121854327.64748  94951418.78648  23188108.8874   23188111.6254   23188109.3454
       227.000         189.000
 09  1  3  0  9  0.0000000  0  9G24G26G10G 9G28G 8G21G15G27
 127673730.02748  99486004.33348  24295517.6414   24295521.7364   24295517.3664
       217.000         161.000
 105561628.31448  82255782.33048  20087738.7794   20087741.0114   20087738.7524
       251.000         227.000
 114078880.42048  88892618.91448  21708500.9534   21708504.4714   21708501.7114
       242.000         208.000
 123039894.59548  95875236.66948  23413716.9804   23413720.3894   23413717.0364
       225.000         171.000
 114634841.91248  89325842.23848  21814290.9254   21814292.9164   21814291.3044
       241.000         208.000
 121454903.62848  94640189.63348  23112094.1294   23112097.5154   23112094.3644
       227.000         180.000
 138485702.51448  90118724.16348  24450019.7884   24450020.9614   24450019.9724
       213.000         157.000
 110510739.83448  86112254.68348  21029501.5174   21029503.5314   21029500.8824
       249.000         227.000
 121926149.01948  95007383.48748  23201775.8564   23201779.0494   23201775.5424
       229.000         188.000
 09  1  3  0  9 30.0000000  0  9G24G26G10G 9G28G 8G21G15G27
 127741389.92348  99538726.30048  24308393.0424   24308396.7284   24308392.3534
       217.000         159.000
 105558855.29248  82253621.53048  20087211.0064   20087213.3034   20087210.9514
       250.000         228.000
 114162876.71648  88958070.56748  21724484.9224   21724488.4894   21724486.2174
       241.000         208.000
 122942309.81048  95799196.60748  23395147.0494   23395150.3594   23395147.3654
       225.000         170.000
 114655883.29448  89342238.12448  21818295.0764   21818296.9154   21818295.6124
       242.000         208.000
 121541346.86148  94707547.99248  23128544.1864   23128546.8174   23128544.9424
       225.000         179.000
 138495158.30948  90126092.31748  24451818.2224   24451820.3054   24451819.4214
       211.000         155.000
 110462865.69748  86074950.15948  21020391.5034   21020393.1714   21020391.1664
       249.000         227.000
 121998018.35048  95063385.55548  23215452.4744   23215455.1254   23215453.0474
       228.000         188.000
 09  1  3  0 10  0.0000000  0  9G24G26G10G 9G28G 8G21G15G27
 127809260.23248  99591612.22748  24321308.1784   24321311.8064   24321308.7544
       216.000         159.000
 105556446.73548  82251744.72948  20086752.7254   20086754.9494   20086752.5404
       250.000         227.000
 114247240.21748  89023808.34748  21740538.5644   21740542.4504   21740539.0634
       241.000         208.000
 122844906.14048  95723297.65448  23376612.3564   23376614.3504   23376612.5154
       229.000         172.000
 114677446.32948  89359040.50248  21822398.7084   21822400.3364   21822399.0954
       242.000         208.000
 121627892.38548  94774986.05048  23145012.9334   23145016.0824   23145012.4154
       228.000         180.000
 138505098.33748  90133837.77148  24453710.0884   24453711.4504   24453709.4014
       208.000         153.000
 110415235.96048  86037836.08348  21011327.9564   21011329.4714   21011327.8324
       249.000         228.000
 122069935.03448  95119424.52048  23229137.4544   23229140.2344   23229137.4684
       227.000         187.000
 09  1  3  0 10 30.0000000  0  9G24G26G10G 9G28G 8G21G15G27
 127877338.17348  99644659.96448  24334262.7024   24334266.8244   24334263.1674
       214.000         156.000
 105554403.44748  82250152.55348  20086363.9484   20086366.1244   20086363.7944
       251.000         228.000
 114331968.56248  89089830.42648  21756661.9074   21756665.7344   21756662.5064
       241.000         207.000
 122747685.03148  95647540.93448  23358111.8154   23358113.6534   23358112.1784
       229.000         172.000
 114699530.78148  89376249.17148  21826600.9834   21826602.7764   21826601.4364
       242.000         208.000
 121714538.88148  94842502.78048  23161501.3914   23161504.6684   23161502.6774
       226.000         179.000
 138515521.52048  90141959.74648  24455693.7074   24455695.7924   24455692.8604
       211.000         155.000
 110367852.31048  86000913.75748  21002311.2654   21002312.8104   21002310.9944
       249.000         228.000
 122141898.25748  95175499.75648  23242831.3224   23242834.8284   23242831.5914
       225.000         188.000
 09  1  3  0 11  0.0000000  0  9G24G26G10G 9G28G 8G21G15G27
 127945621.00048  99697867.30748  24347256.7644   24347260.7654   24347256.7094
       213.000         156.000
 105552726.09148  82248845.51848  20086044.7974   20086047.0334   20086044.7254
       251.000         228.000
 114417059.25148  89156134.85048  21772854.1284   21772857.9204   21772854.6094
       241.000         207.000
 122650647.54548  95571927.32048  23339646.3844   23339648.1834   23339646.5334
       228.000         173.000
 114722135.57848  89393863.30348  21830902.8434   21830904.3754   21830903.4464
       241.000         208.000
 121801285.07548  94910097.19348  23178008.5424   23178011.8264   23178008.8734
       226.000         178.000
 138526426.96648  90150457.47248  24457769.6134   24457771.0284   24457768.7704
       210.000         153.000
 110320715.61948  85964183.86948  20993341.3194   20993343.0984   20993340.8324
       250.000         228.000
 122213906.92348  95231610.39148  23256534.2214   23256537.8454   23256534.2404
       227.000         189.000
 09  1  3  0 11 30.0000000  0  9G24G26G10G 9G28G 8G21G15G27
 128014105.29948  99751231.64748  24360287.8104   24360292.7814   24360287.9324
       211.000         153.000
 105551414.88548  82247823.79448  20085795.3844   20085797.5684   20085795.3694
       251.000         228.000
 114502509.93548  89222719.78848  21789114.6394   21789118.5154   21789115.4864
       240.000         206.000
 122553794.06548  95496457.14448  23321215.4654   23321218.3324   23321216.0794
       225.000         176.000
 114745259.48848  89411881.93948  21835302.7184   21835304.6164   21835303.2014
       241.000         209.000
 121888128.95248  94977767.74248  23194534.1524   23194537.0604   23194534.6674
       224.000         177.000
 138537813.11548  90159329.81848  24459935.5804   24459937.3264   24459937.1504
       211.000         156.000
 110273826.95948  85927647.24848  20984418.6994   20984420.2924   20984418.3524
       250.000         228.000
 122285959.83348  95287755.49648  23270245.8944   23270249.0464   23270246.2114
       227.000         189.000
 09  1  3  0 12  0.0000000  0  9G24G26G10G 9G28G 8G21G15G27
 128082788.54448  99804751.05448  24373359.2464   24373362.4024   24373359.8944
       213.000         153.000
 105550470.47348  82247087.89048  20085615.6564   20085617.9144   20085615.7384
       251.000         228.000
 114588318.48948  89289583.58248  21805443.4464   21805447.3224   21805444.5574
       240.000         207.000
 122457125.49548  95421131.01148  23302819.5884   23302823.4594   23302819.5204
       226.000         175.000
 114768901.71148  89430304.45948  21839801.9094   21839803.7204   21839802.2844
       242.000         209.000
 121975069.07648  95045513.28548  23211078.3594   23211081.4144   23211079.2264
       225.000         177.000
 138549678.99748  90168575.88948  24462194.3954   24462195.8604   24462194.9914
       218.000         159.000
 110227187.55848  85891304.85848  20975543.5194   20975544.9994   20975543.3414
       250.000         228.000
 122358056.59248  95343934.78048  23283965.5504   23283968.6004   23283965.9384
       227.000         188.000
 09  1  3  0 12 30.0000000  0  9G24G26G10G 9G28G 8G21G15G27
 128151667.27248  99858422.75948  24386466.9744   24386470.5754   24386467.4784
       211.000         155.000
 105549892.98048  82246637.89248  20085505.6374   20085507.8614   20085505.6844
       250.000         227.000
 114674482.40248  89356724.28548  21821840.3924   21821843.8074   21821841.4554
       240.000         206.000
 122360642.53748  95345949.50348  23284459.5704   23284463.1674   23284459.9154
       226.000         176.000
 114793060.97648  89449129.86248  21844399.5334   21844401.1234   21844399.9364
       242.000         209.000
 122062103.82948  95113332.54748  23227640.3244   23227644.0214   23227640.7894
       226.000         177.000
 138562023.09548  90178194.65948  24464543.5964   24464544.1834   24464546.5894
       220.000         162.000
 110180799.05148  85855157.97048  20966716.2384   20966717.6634   20966715.9194
       250.000         228.000
 122430195.64348  95400147.01148  23297692.5364   23297696.2544   23297692.9994
       226.000         186.000
 09  1  3  0 13  0.0000000  0  9G24G26G10G 9G28G 8G21G15G27
 128220739.14048  99912244.98048  24399610.2504   24399614.2644   24399610.3374
       211.000         152.000
 105549683.62548  82246474.75748  20085465.9494   20085467.9774   20085465.7694
       251.000         228.000
 114760999.61248  89424140.28748  21838304.1254   21838307.3454   21838304.6664
       241.000         206.000
 122264347.09648  95270914.14448  23266134.6784   23266138.8724   23266134.2324
       225.000         175.000
 114817736.84348  89468357.81548  21849094.9564   21849096.9214   21849095.3094
       242.000         209.000
 122149232.33048  95181224.88148  23244220.5664   23244224.4164   23244221.5034
       224.000         176.000
 138574844.32648  90188185.24848  24466982.5274   24466984.0644   24466983.3604
       206.000         154.000
 110134662.93348  85819207.74248  20957936.8844   20957938.2024   20957936.5034
       250.000         228.000
 122502376.77648  95456392.02248  23311428.2814   23311431.8794   23311428.5534
       226.000         186.000
 09  1  3  0 13 30.0000000  0  9G24G26G10G 9G28G 8G21G15G27
 128290002.65748  99966216.54748  24412790.8064   24412794.2214   24412790.6174
       213.000         153.000
 105549844.01448  82246599.73848  20085496.2754   20085498.4924   20085496.3064
       250.000         227.000
 114847869.22848  89491830.88548  21854834.6164   21854838.2504   21854835.6004
       240.000         205.000
 122168241.06148  95196026.34648  23247846.3874   23247850.2484   23247846.8204
       225.000         174.000
 114842929.75948  89487988.66548  21853889.2684   21853890.7064   21853889.7484
       242.000         209.000
 122236454.63548  95249190.29548  23260818.5244   23260821.9174   23260817.6624
       227.000         175.000
 138588142.94448  90198547.82248  24469512.4044   24469514.7974   24469510.0324
       207.000         148.000
 110088781.87548  85783456.27048  20949205.9204   20949207.4414   20949205.8284
       249.000         229.000
 122574600.30948  95512670.10148  23325171.9044   23325175.3174   23325171.8144
       227.000         186.000
 09  1  3  0 14  0.0000000  0  9G24G26G10G 9G28G 8G21G15G27
 128359453.31848 100020333.92048  24426006.6234   24426010.3614   24426006.0754
       214.000         152.000
 105550373.12448  82247012.02248  20085596.9094   20085599.1914   20085596.6984
       250.000         227.000
 114935087.33848  89559793.03148  21871431.5054   21871435.2924   21871432.2374
       239.000         205.000
 122072323.50348  95121285.43348  23229594.4044   23229597.5544   23229595.1094
       227.000         176.000
 114868637.16848  89508020.41748  21858780.9804   21858782.3334   21858781.2254
       241.000         208.000
 122323767.65948  95317226.41648  23277433.4764   23277436.4724   23277434.6564
       226.000         176.000
 138601916.12248  90209280.08448  24472133.9254   24472136.3864   24472134.9974
       208.000         153.000
 110043155.14248  85747902.97448  20940523.2604   20940525.1004   20940523.1744
       249.000         229.000
 122646863.86548  95568979.35448  23338922.8724   23338926.1974   23338923.6744
       226.000         186.000
 09  1  3  0 14 30.0000000  0  9G24G26G10G 9G28G 8G21G15G27
 128429088.15848 100074594.83848  24439257.0564   24439261.8824   24439258.5584
       210.000         151.000
 105551271.22048  82247711.83848  20085767.8114   20085770.1664   20085767.6744
       251.000         228.000
 115022650.91148  89628024.37748  21888094.3664   21888097.8614   21888094.9404
       241.000         204.000
 121976595.15248  95046691.93848  23211378.0284   23211381.2244   23211378.9194
       226.000         175.000
 114894857.43548  89528451.80248  21863770.1974   21863772.1354   21863770.7664
       240.000         207.000
 122411169.32048  95385331.58148  23294065.7724   23294068.8804   23294065.1304
       227.000         173.000
 138616161.83748  90220380.63248  24474845.2744   24474846.9444   24474846.5784
       212.000         155.000
 109997783.97548  85712548.81748  20931889.5534   20931891.2054   20931889.1784
       250.000         229.000
 122719166.33348  95625318.92948  23352682.4174   23352685.0444   23352682.5094
       228.000         188.000
 09  1  3  0 15  0.0000000  0  9G24G26G10G 9G28G 8G21G15G27
 128498904.28748 100128996.95748  24452542.5564   24452547.5574   24452541.6774
       210.000         150.000
 105552539.15248  82248699.83748  20086009.1684   20086011.5014   20086009.1954
       251.000         228.000
 115110558.28648  89696523.62348  21904822.6754   21904826.2434   21904823.4534
       240.000         205.000
 121881057.30048  94972246.87748  23193197.7834   23193200.8104   23193197.9914
       225.000         176.000
 114921590.03348  89549282.41048  21868857.1154   21868859.1734   21868857.4824
       242.000         208.000
 122498658.92848  95453505.30048  23310714.5484   23310717.6074   23310715.3684
       228.000         175.000
 138630879.44948  90231848.91148  24477645.6934   24477647.2964   24477645.6804
       210.000         156.000
 109952670.00148  85677395.06948  20923304.6364   20923306.2974   20923304.3974
       249.000         229.000
 122791506.90648  95681688.19748  23366448.2944   23366451.4644   23366448.3574
       227.000         187.000
 09  1  3  0 15 30.0000000  0  9G24G26G10G 9G28G 8G21G15G27
 128568899.69748 100183538.81648  24465861.8404   24465866.8174   24465862.6224
       207.000         149.000
 105554178.23348  82249977.03748  20086321.0284   20086323.3654   20086320.9474
       250.000         228.000
 115198808.13648  89765289.73148  21921616.1394   21921619.9814   21921616.7544
       239.000         205.000
 121785711.57648  94897951.55948  23175053.5894   23175056.9394   23175053.2554
       221.000         177.000
 114948834.70548  89570512.02948  21874042.0164   21874043.7374   21874042.8164
       242.000         207.000
 122586235.54648  95521746.82248  23327380.0394   23327383.0444   23327380.8444
       228.000         174.000
 138646068.61748  90243684.61448  24480536.4654   24480538.1854   24480535.1914
       215.000         156.000
 109907815.36048  85642443.39548  20914769.0614   20914770.7134   20914768.8374
       250.000         229.000
 122863885.59548  95738087.15948  23380220.9694   23380224.7984   23380221.3844
       226.000         186.000
 09  1  3  0 16  0.0000000  0  9G24G26G10G 9G28G 8G21G15G27
 128639071.48848 100238218.10148  24479215.8464   24479221.5044   24479215.6084
       211.000         151.000
 105556188.71048  82251543.63948  20086703.5704   20086706.0264   20086703.3474
       251.000         228.000
 115287397.71148  89834320.56748  21938474.2334   21938477.7584   21938475.0424
       241.000         204.000
 121690558.55848  94823806.42448  23156945.8314   23156949.9164   23156946.0804
       222.000         176.000
 114976589.93848  89592139.48548  21879323.5934   21879325.0034   21879324.3154
       241.000         208.000
 122673898.11248  95590055.32748  23344061.3564   23344064.4724   23344061.8084
       226.000         173.000
 138661727.37848  90255886.25348  24483515.7664   24483516.7884   24483518.7954
       213.000         152.000
 109863221.22248  85607694.71948  20906283.1474   20906284.7654   20906282.9154
       249.000         229.000
 122936301.31448  95794514.97448  23394001.2494   23394004.7174   23394001.0244
       226.000         186.000
 09  1  3  0 16 30.0000000  0  9G24G26G10G 9G28G 8G21G15G27
 128709416.00948 100293032.01248  24492602.2584   24492607.2224   24492603.1784
       212.000         152.000
 105558570.62848  82253399.68048  20087156.8624   20087159.2654   20087156.7364
       251.000         228.000
 115376324.39148  89903614.06648  21955396.4744   21955399.7754   21955397.4314
       241.000         204.000
 121595598.48748  94749811.60248  23138875.8794   23138879.1454   23138875.7714
       226.000         178.000
 115004854.47748  89614163.80748  21884702.4234   21884703.8594   21884702.8884
       242.000         208.000
 122761644.47848  95658429.10148  23360758.7484   23360762.3174   23360758.8394
       225.000         172.000
 138677854.01248  90268452.41248  24486584.6904   24486586.3064   24486585.1424
       214.000         154.000
 109818888.58248  85573149.80248  20897846.7894   20897848.4634   20897846.5064
       249.000         229.000
 123008752.88148  95850970.71848  23407788.6714   23407791.7014   23407788.5644
       226.000         188.000
 09  1  3  0 17  0.0000000  0  9G24G26G10G 9G28G 8G21G15G27
 128779931.01548 100347978.74148  24506020.9314   24506025.7834   24506020.5454
       215.000         153.000
 105561324.82148  82255545.80548  20087680.9614   20087683.3034   20087680.8574
       250.000         227.000
 115465585.96348  89973168.53748  21972382.3724   21972385.7274   21972383.0984
       240.000         204.000
 121500832.88848  94675968.30348  23120843.2514   23120845.7824   23120843.5504
       227.000         180.000
 115033627.63948  89636584.45148  21890178.0664   21890179.2174   21890178.8504
       242.000         209.000
 122849473.46048  95726867.26648  23377472.0264   23377475.9484   23377472.5104
       228.000         174.000
 138694447.68848  90281382.49448  24489743.5974   24489744.4964   24489743.0264
       209.000         150.000
 109774818.94848  85538809.82748  20889460.7044   20889462.3314   20889460.3604
       250.000         229.000
 123081239.94448  95907454.14748  23421582.7454   23421585.5974   23421582.8934
       229.000         187.000
 09  1  3  0 17 30.0000000  0  9G24G26G10G 9G28G 8G21G15G27
 128850612.85448 100403055.47748  24519471.5154   24519476.0024   24519472.2704
       212.000         152.000
 105564451.28048  82257981.99748  20088275.8794   20088278.1494   20088275.7814
       250.000         227.000
 115555179.10648  90042981.36248  21989431.6654   21989434.9484   21989432.4834
       240.000         204.000
 121406261.96448  94602276.71548  23102847.2464   23102850.0204   23102847.4264
       227.000         181.000
 115062907.47248  89659399.90548  21895749.5314   21895751.1494   21895750.0914
       242.000         208.000
 122937383.20748  95795368.35748  23394200.9364   23394204.5544   23394201.0494
       228.000         173.000
 138711505.91548  90294674.63948  24492988.4534   24492990.2354   24492990.0484
       208.000         150.000
 109731012.97048  85504675.29748  20881124.6784   20881126.2514   20881124.5584
       250.000         229.000
 123153760.92148  95963964.00448  23435383.1274   23435385.8714   23435383.5264
       229.000         186.000
 09  1  3  0 18  0.0000000  0  9G24G26G10G 9G28G 8G21G15G27
 128921459.58248 100458260.71248  24532952.4854   24532957.3114   24532952.8474
       213.000         152.000
 105567951.41348  82260709.37748  20088941.9664   20088944.2154   20088941.9064
       250.000         228.000
 115645102.62048  90113051.62548  22006543.3724   22006546.8704   22006544.3334
       240.000         203.000
 121311887.58848  94528738.25048  23084888.0994   23084890.9534   23084888.0704
       228.000         181.000
 115092693.85048  89682610.07848  21901417.4814   21901419.2734   21901418.2674
       241.000         207.000
 123025373.15448  95863931.97048  23410945.1614   23410947.8904   23410945.8194
       228.000         170.000
 138729028.45948  90308328.53948  24496322.5924   24496325.4744   24496321.9644
       204.000         146.000
 109687472.88848  85470747.95548  20872839.3044   20872840.8204   20872839.0734
       250.000         229.000
 123226316.08648  96020500.46548  23449189.3894   23449192.7144   23449190.0154
       225.000         185.000
 09  1  3  0 18 30.0000000  0  9G24G26G10G 9G28G 8G21G15G27
 128992468.03648 100513591.95948  24546465.9914   24546470.5004   24546465.6864
       215.000         155.000
 105571825.54648  82263728.17748  20089679.2194   20089681.5514   20089679.1474
       250.000         228.000
 115735353.96148  90183377.33348  22023717.4874   22023720.9064   22023717.9484
       240.000         203.000
 121217710.47048  94455353.47948  23066966.8664   23066969.9144   23066967.8684
       227.000         182.000
 115122985.49548  89706213.96548  21907181.6694   21907183.3494   21907182.3064
       240.000         206.000
 123113441.80748  95932556.89248  23427703.8024   23427706.6244   23427704.6954
       225.000         171.000
 138747013.66348  90322342.98548  24499745.4554   24499747.3804   24499746.3394
       212.000         150.000
 109644199.85648  85437028.71048  20864604.7034   20864606.2444   20864604.3434
       250.000         230.000
 123298904.44748  96077062.80648  23463002.4354   23463005.8834   23463002.4824
       228.000         187.000
 09  1  3  0 19  0.0000000  0  9G24G26G10G 9G28G 8G21G15G27
 129063634.97148 100569046.72548  24560007.7314   24560012.9004   24560008.1554
       212.000         156.000
 105576073.78148  82267038.49048  20090487.4874   20090490.0504   20090487.2414
       251.000         228.000
 115825930.73148  90253956.63048  22040953.7494   22040957.1774   22040954.6344
       239.000         202.000
 121123731.00848  94382122.77748  23049082.4974   23049086.3084   23049082.5144
       225.000         179.000
 115153780.88448  89730210.37348  21913041.6294   21913043.6324   21913042.2024
       240.000         206.000
 123201587.77648  96001242.04448  23444477.1544   23444481.0944   23444477.7944
       225.000         173.000
 138765459.93648  90336716.66648  24503255.5694   24503257.2784   24503256.6524
       211.000         150.000
 109601195.08448  85403518.50348  20856421.1024   20856422.7094   20856420.6994
       250.000         230.000
 123371524.77648  96133650.07248  23476822.5504   23476824.9754   23476822.9014
       231.000         189.000
 09  1  3  0 19 30.0000000  0  9G24G26G10G 9G28G 8G21G15G27
 129134958.00848 100624623.09548  24573580.5004   24573585.3894   24573580.7884
       213.000         158.000
 105580697.19548  82270641.14648  20091367.3754   20091369.8534   20091367.2824
       250.000         228.000
 115916830.55848  90324787.65348  22058251.3294   22058254.6314   22058252.1774
       239.000         202.000
 121029950.54948  94309047.11748  23031236.2614   23031240.6654   23031235.7624
       226.000         179.000
 115185079.22248  89754598.69348  21918997.7314   21918999.5084   21918998.2874
       239.000         206.000
 123289810.03648  96069986.63448  23461265.2774   23461269.3624   23461265.3624
       226.000         174.000
 138784365.91248  90351448.56148  24506853.7984   24506854.7454   24506854.1244
       211.000         149.000
 109558460.35848  85370218.71248  20848288.9724   20848290.5414   20848288.7054
       250.000         230.000
 123444176.64548  96190261.91948  23490647.9404   23490650.2454   23490648.7314
       228.000         187.000
 09  1  3  0 20  0.0000000  0 10G24G26G10G 9G28G17G 8G21G15G27
 129206434.22748 100680318.84348  24587181.4054   24587187.0334   24587181.8304
       213.000         155.000
 105585695.98148  82274536.29748  20092318.6244   20092321.0384   20092318.3334
       251.000         228.000
 116008051.47948  90395868.88448  22075610.2414   22075613.5864   22075610.8924
       239.000         203.000
 120936370.09048  94236127.28148  23013428.6094   23013432.7074   23013429.0964
       225.000         179.000
 115216879.11148  89779377.82448  21925048.8854   21925050.7514   21925049.4314
       239.000         206.000
 142412514.42258  93178573.86558  25197269.9985   25197273.0015   25197270.5445
       215.000         155.000
 123378107.15948  96138789.57148  23478068.8154   23478071.3304   23478069.2184
       230.000         175.000
 138803730.15248  90366537.59248  24510538.3774   24510540.1714   24510540.9564
       211.000         147.000
 109515996.88248  85337130.28848  20840208.5394   20840210.1434   20840208.2244
       250.000         230.000
 123516859.34848  96246897.77948  23504477.7044   23504481.0664   23504477.7394
       225.000         184.000
 09  1  3  0 20 30.0000000  0 10G24G26G10G 9G28G17G 8G21G15G27
 129278060.36548 100736131.37848  24600810.7054   24600816.1124   24600810.5324
       210.000         153.000
 105591070.49848  82278724.23348  20093341.4234   20093343.7354   20093341.4874
       250.000         228.000
 116099590.28448  90467197.81548  22093029.7634   22093032.9174   22093030.7774
       240.000         202.000
 120842990.01948  94163363.58948  22995659.2554   22995663.3764   22995659.3114
       226.000         180.000
 115249179.17148  89804546.71548  21931195.4474   21931197.3524   21931195.8144
       240.000         206.000
 142336040.77248  93118983.95148  25182717.3874   25182719.6084   25182717.2464
       214.000         160.000
 123466477.80648  96207649.82848  23494885.2014   23494887.3194   23494886.4214
       229.000         174.000
 138823550.79648  90381982.19948  24514309.2954   24514310.9144   24514310.8804
       201.000         147.000
 109473805.71848  85304254.05448  20832179.8454   20832181.4814   20832179.5394
       250.000         230.000
 123589571.86348  96303556.84948  23518314.5954   23518318.0444   23518314.5484
       227.000         184.000
 09  1  3  0 21  0.0000000  0 10G24G26G10G 9G28G17G 8G21G15G27
 129349834.31348 100792059.13748  24614468.5984   24614474.0784   24614469.5634
       210.000         153.000
 105596821.95548  82283205.88648  20094435.8334   20094438.2324   20094435.8684
       250.000         228.000
 116191445.52648  90538773.32848  22110508.8284   22110512.3824   22110509.7764
       239.000         201.000
 120749812.13448  94090757.48648  22977928.3854   22977931.8224   22977928.5794
       226.000         180.000
 115281979.00148  89830105.02448  21937436.8284   21937439.1564   21937437.5084
       240.000         206.000
 142259627.75448  93059441.37248  25168176.4794   25168178.9004   25168175.4054
       212.000         160.000
 123554921.28748  96276566.81548  23511715.1274   23511717.7744   23511715.3754
       226.000         171.000
 138843827.17448  90397781.94148  24518167.8434   24518170.2174   24518165.5704
       207.000         146.000
 109431888.85248  85271591.55848  20824203.4814   20824204.8844   20824203.2914
       250.000         230.000
 123662314.42348  96360239.35148  23532157.4964   23532160.4614   23532158.1044
       229.000         187.000
 09  1  3  0 21 30.0000000  0 10G24G26G10G 9G28G17G 8G21G15G27
 129421752.32448 100848099.14048  24628154.9054   24628160.0274   24628155.6584
       212.000         156.000
 105602950.06948  82287981.03048  20095602.0484   20095604.3804   20095601.8484
       251.000         228.000
 116283614.02048  90610592.92148  22128047.6404   22128051.8734   22128048.1574
       237.000         201.000
 120656836.01148  94018308.58448  22960235.9214   22960238.8594   22960236.2124
       228.000         181.000
 115315276.23448  89856050.92848  21943773.5524   21943775.1444   21943773.9544
       241.000         207.000
 142183277.63648  92999947.82748  25153647.7364   25153650.3714   25153647.3184
       217.000         162.000
 123643435.53548  96345538.92748  23528558.1264   23528561.4904   23528558.9924
       225.000         168.000
 138864556.69748  90413934.79148  24522113.8374   24522114.8164   24522116.4014
       210.000         146.000
 109390246.88748  85239143.27548  20816279.1784   20816280.7594   20816278.8394
       250.000         230.000
 123735085.06848  96416943.76748  23546006.0224   23546008.2124   23546006.3914
       230.000         188.000
 09  1  3  0 22  0.0000000  0 10G24G26G10G 9G28G17G 8G21G15G27
 129493813.26948 100904250.50748  24641867.6474   24641872.5294   24641867.1194
       210.000         153.000
 105609456.69748  82293051.13248  20096840.2424   20096842.5704   20096840.1764
       251.000         228.000
 116376094.88748  90682655.92048  22145646.2324   22145650.3054   22145647.1494
       239.000         200.000
 120564064.30648  93946018.95048  22942582.0314   22942584.9294   22942582.5974
       227.000         182.000
 115349071.58848  89882384.96648  21950204.4714   21950206.4074   21950204.9714
       241.000         207.000
 142106994.65248  92940506.48748  25139131.7404   25139132.8474   25139131.1074
       218.000         160.000
 123732020.56848  96414566.23148  23545415.5894   23545418.0204   23545415.7854
       226.000         170.000
 138885739.40748  90430440.82548  24526143.3774   24526144.8954   24526144.7324
       209.000         145.000
 109348882.70448  85206911.44248  20808407.7634   20808409.3904   20808407.4934
       250.000         230.000
 123807884.76448  96473670.79348  23559858.7684   23559861.6934   23559858.8914
       228.000         186.000
 09  1  3  0 22 30.0000000  0 10G24G26G10G 9G28G17G 8G21G15G27
 129566012.64248 100960509.74048  24655607.5074   24655611.4674   24655608.1934
       213.000         155.000
 105616340.99348  82298415.51448  20098150.2894   20098152.6474   20098150.1924
       250.000         228.000
 116468884.06948  90754959.16648  22163303.6404   22163307.3214   22163304.3694
       237.000         200.000
 120471496.41448  93873888.17548  22924966.7034   22924969.8854   22924966.5734
       230.000         184.000
 115383362.14048  89909104.88648  21956729.6784   21956731.4184   21956730.3274
       240.000         206.000
 142030780.46248  92881118.81048  25124628.6324   25124630.1904   25124628.4804
       213.000         157.000
 123820673.90348  96483646.75248  23562285.9494   23562288.6954   23562286.1324
       227.000         171.000
 138907372.27948  90447297.56148  24530261.2974   24530262.1734   24530260.4144
       211.000         149.000
 109307796.50848  85174896.22748  20800589.1984   20800590.8644   20800588.8864
       250.000         230.000
 123880711.44348  96530418.83648  23573716.7834   23573720.3634   23573716.8364
       228.000         185.000
 09  1  3  0 23  0.0000000  0 11G24G26G10G 9G18G28G17G 8G21G15G27
 129638346.00348 101016873.39648  24669372.3874   24669376.4114   24669372.5884
       212.000         154.000
 105623602.09348  82304073.50848  20099532.1584   20099534.3934   20099532.0524
       251.000         228.000
 116561977.64048  90827499.61548  22181019.0334   22181022.1364   22181019.1754
       238.000         200.000
 120379131.93948  93801915.88148  22907390.2704   22907393.4464   22907390.7934
       229.000         183.000
 138899605.28658  90441247.73558  24528781.5405   24528781.6445   24528781.7475
       217.000         158.000
 115418145.14248  89936208.51848  21963348.4474   21963350.5744   21963349.0634
       239.000         206.000
 141954636.26148  92821785.67448  25110138.8174   25110140.1164   25110138.3874
       217.000         158.000
 123909392.54048  96552778.14948  23579168.5564   23579171.4204   23579169.1394
       225.000         171.000
 138929452.19748  90464502.65548  24534462.5874   24534464.0234   24534463.0064
       205.000         147.000
 109266987.60648  85143097.08148  20792823.6414   20792825.2774   20792823.2494
       250.000         230.000
 123953562.97748  96587186.25648  23587580.0944   23587583.3584   23587580.3184
       228.000         186.000
 09  1  3  0 23 30.0000000  0 11G24G26G10G 9G18G28G17G 8G21G15G27
 129710811.68048 101073340.13848  24683161.8234   24683166.3274   24683161.3034
       212.000         155.000
 105631241.28148  82310026.12548  20100985.7674   20100988.1044   20100985.8004
       251.000         228.000
 116655374.67448  90900276.52848  22198791.9234   22198795.1054   22198792.7624
       239.000         200.000
 120286972.80048  93730103.61048  22889852.3544   22889855.9654   22889852.2634
       231.000         181.000
 138802762.88948  90365786.21348  24510351.9064   24510352.8094   24510354.6284
       211.000         157.000
 115453420.28948  89963695.65248  21970061.4554   21970063.2924   21970061.5974
       240.000         206.000
 141878566.44548  92762510.44648  25095663.8434   25095665.2044   25095664.3454
       215.000         165.000
 123998176.73048  96621960.63248  23596063.3934   23596066.7044   23596064.3974
       222.000         169.000
 138951978.82548  90482055.79748  24538748.6774   24538750.5094   24538749.2224
       198.000         140.000
 109226458.88648  85111516.26248  20785111.2444   20785112.8054   20785110.9384
       250.000         230.000
 124026439.57048  96643973.20648  23601448.4014   23601451.1004   23601448.3054
       230.000         187.000
 09  1  3  0 24  0.0000000  0 11G24G26G10G 9G18G28G17G 8G21G15G27
 129783407.21248 101129908.10948  24696977.3684   24696980.6904   24696978.3234
       213.000         156.000
 105639259.51648  82316274.09548  20102511.4974   20102513.7994   20102511.5384
       250.000         228.000
 116749073.01848  90973288.21348  22216622.0344   22216625.5654   22216623.5194
       239.000         200.000
 120195020.23148  93658452.26248  22872354.6964   22872357.8934   22872355.0794
       231.000         182.000
 138706140.99248  90290496.45348  24491965.0634   24491967.4424   24491965.7174
       213.000         158.000
 115489186.94948  89991565.76748  21976867.7744   21976869.4004   21976868.3824
       240.000         206.000
 141802574.08648  92703295.60448  25081202.7454   25081204.2604   25081203.3304
       212.000         163.000
 124087025.96348  96691193.77048  23612969.9394   23612973.9884   23612969.9434
       221.000         166.000
 138974950.71548  90499955.95248  24543119.6764   24543121.2344   24543118.3654
       205.000         146.000
 109186212.33048  85080155.30748  20777452.6664   20777454.0774   20777452.2874
       250.000         230.000
 124099341.00748  96700779.53448  23615321.5044   23615324.0804   23615321.3184
       230.000         186.000
 09  1  3  0 24 30.0000000  0 11G24G26G10G 9G18G28G17G 8G21G15G27
 129856130.70248 101186575.79548  24710815.0344   24710819.5754   24710815.4204
       211.000         153.000
 105647658.15248  82322818.48048  20104109.6324   20104112.0184   20104109.3864
       251.000         228.000
 116843070.97248  91046533.36848  22234508.9774   22234512.8154   22234509.8494
       237.000         200.000
 120103275.75348  93586963.10348  22854896.5534   22854899.7464   22854896.9964
       231.000         182.000
 138609742.62448  90215380.82148  24473620.9904   24473623.8714   24473621.4514
       208.000         158.000
 115525444.29948  90019818.25548  21983767.1364   21983768.9274   21983767.4894
       240.000         206.000
 141726662.80548  92644144.00948  25066755.9594   25066758.9714   25066756.1554
       207.000         157.000
 124175939.10548  96760476.71648  23629890.2864   23629893.2374   23629889.8824
       222.000         170.000
 138998367.04748  90518202.37948  24547576.2124   24547577.5554   24547577.2464
       207.000         147.000
 109146249.83048  85049015.68948  20769848.0254   20769849.4764   20769847.6764
       250.000         231.000
 124172267.34548  96757605.21548  23629197.5854   23629201.7024   23629198.5004
       225.000         184.000
 09  1  3  0 25  0.0000000  0 11G24G26G10G 9G18G28G17G 8G21G15G27
 129928978.86148 101243340.59048  24724677.5054   24724681.6234   24724676.8144
       206.000         148.000
 105656437.33748  82329659.40948  20105780.2834   20105782.6314   20105780.1254
       252.000         228.000
 116937365.70748  91120009.77448  22252452.6504   22252456.4424   22252452.8944
       238.000         199.000
 120011739.79548  93515636.41648  22837477.8874   22837480.4054   22837478.0504
       229.000         181.000
 138513570.42148  90140441.52748  24455319.5944   24455322.3814   24455319.0494
       214.000         161.000
 115562191.09848  90048452.12548  21990759.7414   21990761.3234   21990760.3624
       239.000         206.000
 141650835.70048  92585057.94848  25052327.6834   25052329.6154   25052327.8724
       213.000         163.000
 124264914.72748  96829808.40248  23646822.9494   23646825.0244   23646823.4824
       228.000         171.000
 139022225.83448  90536793.68048  24552116.4244   24552117.5214   24552119.0344
       212.000         150.000
 109106572.70448  85018098.44648  20762297.8354   20762299.1824   20762297.7004
       251.000         231.000
 124245217.68348  96814449.62248  23643080.7204   23643083.5114   23643080.2814
       233.000         187.000
 09  1  3  0 25 30.0000000  0 11G24G26G10G 9G18G28G17G 8G21G15G27
 130001948.21248 101300199.83948  24738562.0084   24738566.5474   24738563.5234
       205.000         144.000
 105665597.06748  82336796.85548  20107523.4544   20107525.7744   20107523.4404
       251.000         228.000
 117031954.22548  91193715.10148  22270452.6064   22270456.0444   22270453.6454
       239.000         199.000
 119920412.48948  93444472.34148  22820098.2944   22820101.4324   22820098.4004
       227.000         181.000
 138417626.14348  90065679.73548  24437063.0354   24437065.0444   24437062.9064
       215.000         156.000
 115599424.98148  90077465.54748  21997845.0854   21997847.0074   21997845.0594
       241.000         206.000
 141575094.88648  92526039.10448  25037914.5374   25037916.5394   25037914.0564
       214.000         163.000
 124353951.35948  96899187.58648  23663764.6994   23663768.2474   23663766.5224
       216.000         163.000
 139046524.97048  90555727.94048  24556741.1044   24556742.8304   24556739.7894
       207.000         154.000
 109067181.32248  84987403.86448  20754801.8864   20754803.3014   20754801.7744
       251.000         231.000
 124318190.69648  96871311.72448  23656967.4004   23656969.7684   23656968.4814
       228.000         183.000
 09  1  3  0 26  0.0000000  0 11G24G26G10G 9G18G28G17G 8G21G15G27
 130075036.04848 101357151.39548  24752468.8104   24752475.7674   24752469.2794
       203.000         146.000
 105675137.82048  82344231.20148  20109339.1374   20109341.2984   20109338.9774
       252.000         228.000
 117126834.20648  91267647.55948  22288507.8524   22288510.9964   22288508.8864
       237.000         199.000
 119829295.49348  93373472.11948  22802759.2544   22802762.8234   22802759.0984
       230.000         182.000
 138321912.77348  89991097.85648  24418849.3164   24418849.9634   24418849.6724
       213.000         155.000
 115637145.01448  90106857.78248  22005023.2324   22005024.6524   22005024.0004
       240.000         206.000
