     2.11           OBSERVATION DATA    G (GPS)             RINEX VERSION / TYPE
teqc  2008Oct2      gpsops              20090126 00:05:56UTCPGM / RUN BY / DATE
    30.0000                                                 INTERVAL
     1     1                                                WAVELENGTH FACT L1/2
     7    L1    L2    P1    P2    C1    S1    S2            # / TYPES OF OBSERV
Linux 2.4.20-8|Pentium IV|gcc -static|Linux|486/DX+         COMMENT
     2.10           OBSERVATION DATA    GPS                 COMMENT
soc2rnx ver 1.20    gpsops              26-Jan-2009 00:05:51COMMENT
S1, if present, is the SNR for the C/A data stream on L1.   COMMENT
 SNR is mapped to RINEX snr flag value [1,4-9]              COMMENT
    SNR:   >316  >100  >31.6  >10  >3.2    >0 bad=0         COMMENT
L1 & L2:      9     8     7     6     5     4     1         COMMENT
                                                            COMMENT
This data is provided as a public service by NASA/JPL.      COMMENT
No warranty is expressed or implied regarding suitability   COMMENT
for use.  For further information, contact:                 COMMENT
Dave Stowers, NASA/JPL m/s 238-600                          COMMENT
4800 Oak Grove Drive, Pasadena CA 91109 USA                 COMMENT
                                                            COMMENT
Forced Modulo Decimation to 30 seconds                      COMMENT
  2009     1    25     0     0    0.0000000     GPS         TIME OF FIRST OBS
DSN                 JPL                                     OBSERVER / AGENCY
451-U               AOAD/M_T        NONE                    ANT # / TYPE
  4849202.3940  -360328.9929  4114913.1862                  APPROX POSITION XYZ
        0.0254        0.0000        0.0000                  ANTENNA: DELTA H/E/N
LP03574             ASHTECH Z-XII3      CC00                REC # / TYPE / VERS
MADR                                                        MARKER NAME
13407S012                                                   MARKER NUMBER
                                                            END OF HEADER
 09  1 25  0  0  0.0000000  0 10G 9G 5G18G26G10G15G27G12G17G28
 110105546.86548  85796525.24248  20952392.9634   20952395.3974   20952393.3134
       246.000         215.000
 129729440.05848 101087851.39648  24686712.6014   24686714.3874   24686712.1884
       213.000         153.000
 119115888.80148  92817574.12748  22667001.3434   22667002.5344   22667000.1334
       231.000         187.000
 110187347.01648  85860262.49148  20967960.5384   20967963.0624   20967960.4184
       248.000         220.000
 130354567.58848 101574968.21248  24805664.0934   24805668.0374   24805665.7894
       211.000         148.000
 106920885.37048  83314971.02548  20346372.4584   20346373.7954   20346372.1584
       255.000         240.000
 126826917.17248  98826161.94248  24134364.1134   24134367.4784   24134365.2604
       218.000         159.000
 123396745.51048  96153312.08448  23481615.6074   23481617.6754   23481615.7174
       226.000         183.000
 123631410.28148  96336153.21848  23526284.0984   23526285.9844   23526283.4634
       221.000         177.000
 124011093.35048  96632011.85248  23598534.4414   23598536.0634   23598534.5644
       229.000         178.000
 09  1 25  0  0 30.0000000  0 10G 9G 5G18G26G10G15G27G12G17G28
 110047538.69948  85751324.07248  20941354.5054   20941356.8294   20941354.9314
       247.000         215.000
 129615134.42448 100998782.09348  24664960.7774   24664962.5644   24664960.3934
       210.000         152.000
 119069054.22848  92781079.65248  22658089.0314   22658090.3594   22658090.0924
       230.000         186.000
 110247729.31348  85907313.62548  20979450.9924   20979453.4284   20979450.9974
       248.000         219.000
 130465477.11048 101661391.24348  24826768.9964   24826773.1414   24826770.2024
       212.000         146.000
 106930975.59948  83322833.53748  20348292.5254   20348294.0034   20348292.2654
       255.000         240.000
 126895364.30748  98879497.33348  24147389.3424   24147393.0434   24147390.3054
       215.000         160.000
 123290274.23548  96070347.47048  23461354.4474   23461356.6894   23461354.5304
       226.000         181.000
 123592149.38048  96305560.32648  23518812.8854   23518814.6414   23518812.2984
       223.000         178.000
 124096104.19148  96698254.08148  23614711.0104   23614712.4324   23614712.1414
       229.000         178.000
 09  1 25  0  1  0.0000000  0  9G 9G18G26G10G15G27G12G17G28
 109989825.46548  85706352.72448  20930372.0264   20930374.3154   20930372.4074
       247.000         215.000
 119022742.09848  92744992.26948  22649275.5454   22649277.2214   22649276.0594
       233.000         187.000
 110308488.31348  85954658.29548  20991012.9844   20991015.5664   20991012.8314
       248.000         219.000
 130576354.32848 101747789.09348  24847868.2354   24847872.5604   24847869.0164
       213.000         153.000
 106941509.80948  83331042.01248  20350297.1604   20350298.6194   20350296.9194
       255.000         240.000
 126963838.08348  98932853.51648  24160420.1684   24160423.1054   24160419.9824
       214.000         159.000
 123184006.97148  95987541.84148  23441132.7084   23441134.5704   23441133.1034
       230.000         183.000
 123553337.82448  96275317.56048  23511426.4124   23511429.3784   23511425.7934
       222.000         177.000
 124181338.14948  96764670.14448  23630930.4524   23630931.9694   23630931.3074
       229.000         179.000
 09  1 25  0  1 30.0000000  0  9G 9G18G26G10G15G27G12G17G28
 109932405.48748  85661609.89348  20919445.3524   20919447.8624   20919445.7874
       247.000         216.000
 118976951.76148  92709311.48648  22640562.2934   22640564.0704   22640563.9414
       232.000         188.000
 110369620.81548  86002293.99048  21002646.2714   21002648.6634   21002646.0244
       249.000         219.000
 130687194.17948 101834157.74448  24868961.3254   24868965.4654   24868962.0034
       215.000         160.000
 106952486.58948  83339595.34348  20352385.9234   20352387.4504   20352385.6734
       254.000         240.000
 127032336.34448  98986228.77448  24173454.4354   24173458.1364   24173453.9634
       213.000         158.000
 123077943.70448  95904895.16448  23420949.8934   23420950.9114   23420950.2504
       228.000         181.000
 123514975.73148  96245425.03148  23504127.0644   23504128.8914   23504126.5354
       224.000         178.000
 124266790.80848  96831256.62648  23647191.6894   23647192.8524   23647191.8644
       227.000         177.000
 09  1 25  0  2  0.0000000  0  9G 9G18G26G10G15G27G12G17G28
 109875279.31148  85617096.00048  20908574.5304   20908577.1884   20908574.7804
       246.000         216.000
 118931684.60648  92674038.38248  22631948.4484   22631950.2024   22631949.2534
       235.000         189.000
 110431126.72948  86050220.66848  21014350.4554   21014352.8324   21014350.4274
       248.000         219.000
 130797994.52348 101920495.63748  24890045.8454   24890049.7314   24890046.6644
       215.000         157.000
 106963906.69848  83348494.12648  20354558.9504   20354560.6704   20354558.5784
       254.000         240.000
 127100859.14948  99039623.17948  24186493.5614   24186497.4514   24186494.2004
       211.000         155.000
 122972086.76848  95822409.25748  23400805.7104   23400806.6024   23400804.9354
       228.000         181.000
 123477064.96248  96215884.19348  23496912.9064   23496915.2644   23496912.7454
       222.000         179.000
 124352460.34248  96898012.10548  23663493.5624   23663495.2834   23663494.2434
       226.000         177.000
 09  1 25  0  2 30.0000000  0  9G 9G18G26G10G15G27G12G17G28
 109818447.94448  85572811.83448  20897759.9444   20897762.3034   20897760.0754
       247.000         216.000
 118886943.16448  92639174.91948  22623434.5434   22623435.9884   22623435.7294
       234.000         189.000
 110493005.69748  86098438.04148  21026125.5744   21026127.9214   21026125.4234
       248.000         219.000
 130908753.07548 102006800.95048  24911121.6154   24911125.7924   24911123.1604
       202.000         141.000
 106975770.96348  83357739.00348  20356816.9734   20356818.3644   20356816.7704
       255.000         240.000
 127169406.60048  99093036.76548  24199538.0614   24199541.0574   24199537.7484
       217.000         158.000
 122866438.53748  95740085.97648  23380702.0054   23380702.3024   23380701.9264
       229.000         182.000
 123439608.25148  96186697.14148  23489784.8024   23489786.9994   23489784.1964
       226.000         178.000
 124438344.64448  96964934.93648  23679837.2434   23679838.5934   23679837.4314
       228.000         178.000
 09  1 25  0  3  0.0000000  0  9G 9G18G26G10G15G27G12G17G28
 109761911.23048  85528757.25848  20887001.3524   20887003.7754   20887001.8874
       247.000         216.000
 118842728.45048  92604721.89148  22615020.4934   22615022.3064   22615020.8904
       233.000         188.000
 110555256.42448  86146945.08648  21037971.5324   21037974.0774   21037971.4134
       247.000         219.000
 131019467.52548 102093071.97548  24932188.9674   24932191.6304   24932188.3594
       210.000         137.000
 106988079.75248  83367330.26648  20359159.2804   20359160.5984   20359159.1534
       254.000         240.000
 127237978.34248  99146469.27748  24212587.4614   24212590.4404   24212588.3174
       216.000         159.000
 122761000.87648  95657926.78348  23360637.0474   23360638.0794   23360637.0164
       228.000         182.000
 123402607.01748  96157865.01748  23482743.8494   23482746.0774   23482743.9994
       224.000         179.000
 124524441.12148  97032023.09748  23696220.8734   23696222.5194   23696221.8864
       226.000         177.000
 09  1 25  0  3 30.0000000  0  9G 9G18G26G10G15G27G12G17G28
 109705672.56248  85484934.92748  20876299.3224   20876301.8604   20876299.4034
       247.000         216.000
 118799044.53748  92570682.46448  22606707.7274   22606708.8794   22606707.8644
       233.000         189.000
 110617881.42848  86195743.77648  21049888.4624   21049891.3204   21049888.2094
       247.000         218.000
 131130137.72948 102179308.56148  24953250.7964   24953253.5034   24953250.5154
       216.000         154.000
 107000836.43648  83377270.53148  20361586.7854   20361588.0174   20361586.6204
       253.000         239.000
 127306577.28648  99199922.97048  24225641.2694   24225644.4604   24225640.7614
       213.000         158.000
 122655778.69348  95575935.50148  23340614.0384   23340615.7434   23340614.7344
       229.000         186.000
 123366066.18448  96129391.65648  23475790.4074   23475792.6664   23475790.6684
       224.000         179.000
 124610750.32648  97099277.02048  23712644.7524   23712646.5454   23712645.5444
       226.000         176.000
 09  1 25  0  4  0.0000000  0 10G 9G18G26G10G15G27G 5G12G17G28
 109649730.31948  85441343.57748  20865654.1624   20865656.4184   20865654.3184
       247.000         216.000
 118755890.30948  92537055.77948  22598495.7244   22598497.1154   22598495.8484
       234.000         189.000
 110680877.49348  86244831.61348  21061876.3434   21061878.8074   21061876.1634
       248.000         218.000
 131240759.37048 102265507.21348  24974300.8144   24974304.7304   24974302.0214
       214.000         157.000
 107014039.17648  83387558.37648  20364099.2014   20364100.4174   20364098.9594
       254.000         239.000
 127375200.78048  99253395.83348  24238699.3044   24238702.7564   24238699.0814
       213.000         156.000
 138817892.09058  90377566.76258  24513239.1295   24513242.1155   24513240.1985
       213.000         159.000
 122550771.82848  95494111.97948  23320632.2984   23320634.2094   23320631.6404
       229.000         186.000
 123329985.29048  96101276.68448  23468924.3324   23468926.2814   23468923.5974
       226.000         179.000
 124697268.11448  97166693.48448  23729108.6554   23729110.2424   23729108.7334
       225.000         175.000
 09  1 25  0  4 30.0000000  0 10G 9G18G26G10G15G27G 5G12G17G28
 109594084.27648  85397983.02648  20855064.7634   20855067.0894   20855065.0934
       247.000         216.000
 118713266.54048  92503842.44448  22590385.2054   22590386.4164   22590385.6704
       235.000         191.000
 110744243.27548  86294207.54148  21073934.3674   21073936.8464   21073934.2254
       248.000         218.000
 131351328.81748 102351665.14248  24995341.6504   24995345.6504   24995343.1884
       210.000         150.000
 107027688.15848  83398193.93948  20366696.3144   20366697.8084   20366696.2044
       252.000         239.000
 127443848.27948  99306887.37048  24251762.6294   24251765.9434   24251762.5774
       213.000         156.000
 138704421.39648  90289148.11548  24491646.3834   24491650.4184   24491646.6124
       216.000         162.000
 122445981.83548  95412457.46148  23300691.0764   23300693.6114   23300690.6874
       227.000         186.000
 123294365.77948  96073521.24748  23462146.5334   23462148.5264   23462146.3124
       228.000         180.000
 124783991.41148  97234270.07748  23745611.3544   23745613.0924   23745610.9844
       227.000         177.000
 09  1 25  0  5  0.0000000  0 10G 9G18G26G10G15G27G 5G12G17G28
 109538734.83248  85354853.59248  20844532.2114   20844534.6744   20844532.1494
       246.000         217.000
 118671175.09148  92471043.89948  22582375.4434   22582376.6444   22582375.7664
       235.000         191.000
 110807978.22948  86343871.13648  21086062.7314   21086065.3114   21086062.6964
       247.000         217.000
 131461843.91448 102437780.74448  25016372.2624   25016375.3314   25016374.0874
       215.000         149.000
 107041783.89548  83409177.62548  20369378.6644   20369380.0874   20369378.2914
       253.000         239.000
 127512520.06448  99360397.85748  24264830.0244   24264833.3474   24264830.3884
       206.000         154.000
 138591063.25148  90200817.15948  24470075.5954   24470079.3764   24470076.0764
       218.000         164.000
 122341410.91648  95330973.64248  23280792.1384   23280794.0914   23280791.9994
       228.000         184.000
 123259209.57548  96046126.81148  23455456.6364   23455458.4434   23455456.6514
       227.000         180.000
 124870917.92448  97302005.01548  23762153.0804   23762154.9944   23762153.4704
       227.000         177.000
 09  1 25  0  5 30.0000000  0 10G 9G18G26G10G15G27G 5G12G17G28
 109483683.02248  85311956.08748  20834055.9694   20834058.7274   20834055.9684
       247.000         217.000
 118629617.94448  92438661.69648  22574467.0024   22574468.6254   22574467.6534
       234.000         190.000
 110872082.23148  86393822.29748  21098261.3054   21098264.0174   21098261.1354
       248.000         217.000
 131572303.08148 102523852.85948  25037391.9744   25037394.4014   25037393.0554
       216.000         148.000
 107056327.51048  83420510.30648  20372146.1984   20372147.6364   20372146.0324
       253.000         238.000
 127581216.53548  99413927.56048  24277902.6304   24277906.3284   24277902.5704
       213.000         156.000
 138477820.13648  90112575.83348  24448525.9074   24448529.6094   24448527.4524
       219.000         162.000
 122237061.81048  95249662.67848  23260934.9774   23260936.8444   23260934.9984
       227.000         186.000
 123224519.40548  96019095.51148  23448855.4264   23448856.7654   23448854.8814
       228.000         180.000
 124958046.09848  97369897.08548  23778733.0754   23778735.0644   23778733.8774
       227.000         177.000
 09  1 25  0  6  0.0000000  0 10G 9G18G26G10G15G27G 5G12G17G28
 109428928.03248  85269289.87448  20823636.4944   20823639.3344   20823636.8044
       246.000         217.000
 118588594.90448  92406695.69148  22566660.5454   22566661.8934   22566661.1664
       236.000         192.000
 110936553.29748  86444059.48448  21110529.8674   21110532.3494   21110529.8494
       247.000         217.000
 131682702.66848 102609878.54348  25058400.0714   25058403.4764   25058401.5544
       211.000         149.000
 107071318.29548  83432191.43348  20374998.8404   20375000.2414   20374998.7224
       252.000         238.000
 127649936.27848  99467475.36848  24290980.2404   24290983.0184   24290980.6794
       213.000         155.000
 138364692.70848  90024424.62048  24426997.6634   24427001.4894   24426998.6874
       213.000         159.000
 122132935.06848  95168524.97248  23241120.5994   23241122.4854   23241121.0584
       229.000         186.000
 123190295.77148  95992427.75548  23442342.9144   23442344.1844   23442342.6534
       228.000         181.000
 125045372.34948  97437943.53148  23795350.4604   23795352.2714   23795350.7334
       225.000         171.000
 09  1 25  0  6 30.0000000  0 10G 9G18G26G10G15G27G 5G12G17G28
 109374472.30648  85226856.85148  20813273.9344   20813276.5154   20813273.8924
       248.000         217.000
 118548109.56248  92375148.67148  22558956.8734   22558957.9514   22558957.4424
       235.000         191.000
 111001392.46048  86494583.50248  21122868.2544   21122870.9054   21122868.1114
       248.000         218.000
 131793041.85648 102695857.06548  25079397.4264   25079402.0454   25079399.4774
       208.000         149.000
 107086758.92648  83444223.09048  20377937.0254   20377938.4534   20377936.6044
       252.000         238.000
 127718681.17248  99521042.80748  24304061.3544   24304065.3394   24304061.1494
       209.000         155.000
 138251684.84148  89936366.57248  24405492.4514   24405496.9654   24405491.8734
       212.000         158.000
 122029034.96148  95087563.85748  23221348.9764   23221350.6604   23221349.0754
       228.000         185.000
 123156542.62748  95966126.60348  23435919.6764   23435921.4704   23435919.3474
       228.000         183.000
 125132896.51348  97506144.17348  23812005.6854   23812007.5524   23812006.1114
       225.000         169.000
 09  1 25  0  7  0.0000000  0 10G 9G18G26G10G15G27G 5G12G17G28
 109320316.89348  85184657.83848  20802968.5704   20802970.9734   20802968.9764
       248.000         217.000
 118508163.41748  92344021.79548  22551355.1914   22551356.0414   22551355.7644
       235.000         192.000
 111066599.63748  86545394.27948  21135276.9954   21135279.4314   21135276.8044
       249.000         217.000
 131903319.20348 102781787.41348  25100382.6024   25100386.5764   25100383.0804
       215.000         151.000
 107102650.09348  83456605.80548  20380961.0474   20380962.5074   20380960.7364
       251.000         238.000
 127787451.57848  99574630.10748  24317148.0844   24317151.6944   24317147.6564
       209.000         154.000
 138138798.95748  89848403.59948  24384011.0574   24384015.4214   24384012.4784
       215.000         158.000
 121925363.84448  95006781.19248  23201620.4904   23201622.0974   23201619.7124
       227.000         183.000
 123123262.14048  95940193.75548  23429586.8894   23429588.9694   23429586.6004
       230.000         183.000
 125220616.84148  97574497.69148  23828698.6134   23828699.5994   23828699.0874
       226.000         168.000
 09  1 25  0  7 30.0000000  0 10G 9G18G26G10G15G27G 5G12G17G28
 109266460.45748  85142691.79348  20792720.0034   20792722.6644   20792719.9754
       248.000         217.000
 118468756.29348  92313314.94648  22543855.9874   22543857.6644   22543856.5554
       234.000         192.000
 111132172.33248  86596489.87548  21147755.0754   21147757.3584   21147755.0964
       248.000         216.000
 132013530.06948 102867666.03748  25121354.6604   25121358.1764   25121355.1914
       213.000         150.000
 107118990.80148  83469338.82048  20384070.5684   20384072.0974   20384070.1684
       252.000         238.000
 127856245.83948  99628235.99348  24330239.4234   24330242.3254   24330239.0744
       212.000         155.000
 138026035.24448  89760535.82648  24362553.5654   24362557.1704   24362555.4894
       215.000         160.000
 121821922.14248  94926177.27748  23181935.8324   23181938.0254   23181935.8184
       228.000         185.000
 123090454.47748  95914629.35148  23423343.7394   23423345.5194   23423344.0384
       227.000         183.000
 125308529.40548  97643000.99248  23845427.9284   23845429.1414   23845428.4234
       225.000         171.000
 09  1 25  0  8  0.0000000  0 10G 9G18G26G10G15G27G 5G12G17G28
 109212904.04548  85100959.53748  20782528.6214   20782531.0004   20782528.8664
       248.000         218.000
 118429889.90348  92283029.43148  22536459.7804   22536461.7814   22536459.8644
       235.000         193.000
 111198110.20248  86647870.03048  21160302.4214   21160304.8914   21160302.4224
       246.000         216.000
 132123672.86448 102953491.55948  25142313.5984   25142317.5664   25142313.0114
       210.000         146.000
 107135782.21448  83482423.03648  20387265.9474   20387267.3474   20387265.7824
       252.000         238.000
 127925064.56548  99681860.93548  24343335.2024   24343337.6214   24343336.9734
       211.000         157.000
 137913396.23548  89672765.20948  24341120.0394   24341122.2704   24341120.2624
       217.000         163.000
 121718712.82248  94845754.45048  23162296.0844   23162298.1134   23162295.8104
       227.000         186.000
 123058122.01848  95889435.23848  23417191.0924   23417192.8084   23417190.7854
       228.000         184.000
 125396632.45348  97711652.71948  23862193.6564   23862194.6334   23862193.6874
       226.000         172.000
 09  1 25  0  8 30.0000000  0 10G 9G18G26G10G15G27G 5G12G17G28
 109159648.42148  85059461.65448  20772394.6454   20772396.9404   20772394.7564
       248.000         219.000
 118391566.05448  92253166.69248  22529167.3564   22529169.0394   22529168.2394
       236.000         194.000
 111264413.21348  86699534.70048  21172919.4474   21172922.0534   21172919.2594
       248.000         216.000
 132233745.76348 103039262.60548  25163260.0554   25163263.3194   25163262.7554
       210.000         147.000
 107153024.90048  83495858.89048  20390547.1644   20390548.4964   20390547.0144
       252.000         238.000
 127993908.14748  99735505.30548  24356435.8364   24356439.0254   24356435.5534
       206.000         156.000
 137800884.41648  89585093.70948  24319709.0794   24319711.8874   24319708.8714
       218.000         164.000
 121615738.16848  94765514.48848  23142700.7574   23142702.9004   23142700.7844
       230.000         187.000
 123026267.33148  95864613.41648  23411129.3484   23411130.9224   23411129.3184
       228.000         183.000
 125484924.40448  97780451.62748  23878994.9194   23878996.2004   23878995.3584
       226.000         173.000
 09  1 25  0  9  0.0000000  0 10G 9G18G26G10G15G27G 5G12G17G28
 109106693.64848  85018198.21048  20762317.4634   20762320.1524   20762317.5084
       248.000         218.000
 118353785.65848  92223727.42048  22521977.9164   22521979.4964   22521978.6194
       236.000         193.000
 111331080.11348  86751482.92648  21185605.8104   21185608.3164   21185605.6674
       248.000         216.000
 132343745.96348 103124977.01548  25184192.2444   25184196.4544   25184194.7814
       209.000         147.000
 107170718.99948  83509646.49348  20393914.1954   20393915.6414   20393913.9804
       252.000         238.000
 128062776.26348  99789168.73648  24369540.5084   24369544.2364   24369539.7174
       209.000         158.000
 137688501.31648  89497522.49448  24298322.7834   24298326.0694   24298322.7454
       215.000         164.000
 121512999.92448  94685458.71348  23123150.8244   23123152.0944   23123151.1094
       229.000         188.000
 122994891.76148  95840164.92948  23405158.5684   23405159.8764   23405158.3484
       228.000         183.000
 125573402.71048  97849395.75348  23895831.5634   23895832.9204   23895832.2924
       223.000         169.000
 09  1 25  0  9 30.0000000  0 10G 9G18G26G10G15G27G 5G12G17G28
 109054041.01148  84977170.18448  20752297.9794   20752300.5704   20752298.2924
       247.000         219.000
 118316550.71848  92194713.17648  22514892.1364   22514894.1294   22514892.6184
       235.000         193.000
 111398110.53848  86803714.42548  21198361.3244   21198363.9064   21198361.2744
       247.000         216.000
 132453671.41848 103210633.19148  25205110.5684   25205113.1254   25205111.4674
       212.000         148.000
 107188865.82448  83523786.86748  20397367.5034   20397368.8194   20397367.0704
       253.000         238.000
 128131669.35948  99842851.65248  24382650.3504   24382654.3814   24382650.6614
       208.000         158.000
 137576249.25948  89410053.42148  24276961.1104   24276965.0494   24276960.3024
       215.000         163.000
 121410500.44648  94605589.01148  23103645.2774   23103646.5784   23103644.7584
       227.000         185.000
 122963997.30848  95816091.32448  23399279.3164   23399281.6274   23399279.5934
       230.000         184.000
 125662065.40848  97918483.56448  23912703.4614   23912704.3604   23912703.5834
       222.000         165.000
 09  1 25  0 10  0.0000000  0 10G 9G18G26G10G15G27G 5G12G17G28
 109001690.83148  84936377.84348  20742336.0454   20742338.8004   20742336.3484
       249.000         218.000
 118279861.76148  92166124.36348  22507910.4014   22507911.8524   22507910.7534
       235.000         192.000
 111465503.52548  86856228.42948  21211185.5864   21211188.4104   21211185.4174
       246.000         215.000
 132563519.62048 103296229.18148  25226013.3724   25226016.7154   25226015.2044
       211.000         144.000
 107207465.44648  83538280.07648  20400906.8954   20400908.2464   20400906.7154
       252.000         237.000
 128200587.16148  99896553.79848  24395765.3444   24395768.9254   24395765.9134
       214.000         159.000
 137464130.08348  89322687.86648  24255625.8534   24255629.5234   24255627.4184
       219.000         163.000
 121308242.31648  94525907.37648  23084186.3344   23084187.6414   23084186.7234
       229.000         186.000
 122933585.79548  95792394.06248  23393492.5454   23393494.2204   23393492.5214
       231.000         185.000
 125750910.35948  97987713.40248  23929609.8874   23929610.8154   23929609.9184
       222.000         164.000
 09  1 25  0 10 30.0000000  0 10G 9G18G26G10G15G27G 5G12G17G28
 108949641.89848  84895820.23548  20732431.5104   20732433.7974   20732431.4914
       250.000         219.000
 118243718.76248  92137960.97948  22501032.4274   22501034.7204   22501033.4974
       235.000         194.000
 111533256.88748  86909023.25148  21224078.8674   21224081.1384   21224078.8024
       246.000         216.000
 132673286.86648 103381762.06948  25246902.7364   25246904.6534   25246904.4274
       209.000         140.000
 107226516.97248  83553125.41848  20404532.1794   20404533.6514   20404531.8124
       252.000         237.000
 128269528.40948  99950274.22548  24408884.6234   24408887.5964   24408885.5064
       211.000         158.000
 137352144.45548  89235426.36148  24234316.6524   24234319.8084   24234318.6714
       218.000         165.000
 121206225.49348  94446413.75548  23064773.1194   23064774.3714   23064772.8594
       228.000         187.000
 122903657.53048  95769073.32748  23387797.5714   23387798.7854   23387797.7054
       229.000         185.000
 125839933.98248  98057082.47848  23946550.4944   23946551.0434   23946551.4914
       221.000         163.000
 09  1 25  0 11  0.0000000  0 10G 9G18G26G10G15G27G 5G12G17G28
 108897896.10248  84855498.83748  20722584.7464   20722587.1134   20722584.7124
       250.000         219.000
 118208124.43348  92110225.13348  22494259.4684   22494261.5524   22494259.6884
       236.000         194.000
 111601371.43248  86962099.51048  21237040.6444   21237043.1934   21237040.5384
       247.000         216.000
 132782972.47948 103467231.35248  25267775.5944   25267777.3574   25267775.6384
       205.000         144.000
 107246022.11548  83568324.21948  20408243.9514   20408245.3224   20408243.5774
       252.000         237.000
 128338494.71848 100004014.20448  24422008.5514   24422011.3624   24422009.3714
       210.000         158.000
 137240295.66448  89148271.50248  24213032.4304   24213035.4844   24213033.4124
       219.000         164.000
 121104453.49848  94367110.93248  23045406.1614   23045407.7164   23045406.3224
       227.000         188.000
 122874215.73248  95746131.67148  23382194.6134   23382196.6984   23382194.4604
       228.000         184.000
 125929135.63748  98126590.26848  23963524.8314   23963525.8844   23963524.7034
       219.000         163.000
 09  1 25  0 11 30.0000000  0 10G 9G18G26G10G15G27G 5G12G17G28
 108846453.47448  84815413.68248  20712795.2254   20712797.7484   20712795.4984
       250.000         219.000
 118173079.40748  92082917.32248  22487590.6644   22487592.6354   22487591.5534
       235.000         193.000
 111669845.96348  87015456.28148  21250070.8414   21250073.4254   21250070.8914
       247.000         215.000
 132892573.70848 103552634.88348  25288631.4944   25288633.9324   25288630.8824
       206.000         145.000
 107265980.97248  83583876.57148  20412042.0804   20412043.5284   20412041.8724
       252.000         237.000
 128407485.47948 100057773.21448  24435136.5824   24435139.9964   24435136.5004
       211.000         160.000
 137128585.37048  89061224.54548  24191774.2184   24191778.0724   24191774.3784
       217.000         164.000
 121002928.38048  94288000.46848  23026086.9524   23026088.7624   23026086.3684
       230.000         189.000
 122845262.06548  95723570.37848  23376685.0514   23376686.5154   23376684.4624
       229.000         185.000
 126018512.79148  98196234.81048  23980532.7974   23980533.7124   23980531.3094
       222.000         163.000
 09  1 25  0 12  0.0000000  0 10G 9G18G26G10G15G27G 5G12G17G28
 108795315.42348  84775565.85548  20703064.2214   20703066.7314   20703064.4304
       250.000         219.000
 118138585.85148  92056039.22148  22481026.4954   22481028.4354   22481027.5004
       237.000         195.000
 111738680.28848  87069093.41348  21263169.6664   21263171.9354   21263169.6994
       246.000         215.000
 133002088.69048 103637971.16948  25309471.0334   25309474.9114   25309469.6584
       207.000         145.000
 107286394.90948  83599783.53148  20415926.5364   20415928.1804   20415926.2754
       252.000         237.000
 128476501.60948 100111551.99448  24448270.0584   24448273.6014   24448270.2194
       211.000         159.000
 137017016.12748  88974287.50948  24170542.9894   24170546.7574   24170544.0124
       218.000         165.000
 120901652.66248  94209084.32448  23006815.5254   23006816.6254   23006815.2714
       230.000         189.000
 122816798.50648  95701390.98448  23371268.3864   23371269.9584   23371268.1344
       229.000         184.000
 126108063.89448  98266014.86848  23997573.9304   23997575.2454   23997575.4824
       223.000         165.000
 09  1 25  0 12 30.0000000  0 10G 9G18G26G10G15G27G 5G12G17G28
 108744480.77348  84735954.44348  20693390.6094   20693392.9324   20693391.0014
       249.000         220.000
 118104642.98548  92029590.22648  22474567.8954   22474569.5374   22474568.2144
       235.000         194.000
 111807872.01148  87123009.03548  21276336.3724   21276338.7964   21276336.1004
       246.000         215.000
 133111513.77948 103723237.44448  25330294.1764   25330296.9084   25330295.6104
       206.000         142.000
 107307262.41348  83616043.91248  20419897.5374   20419899.1034   20419897.1614
       252.000         237.000
 128545541.43148 100165349.23248  24461408.3304   24461411.6454   24461409.0714
       213.000         162.000
 136905588.29548  88887460.66248  24149339.0284   24149342.6284   24149339.6014
       220.000         166.000
 120800626.89748  94130362.96648  22987590.2244   22987592.0154   22987590.4814
       228.000         188.000
 122788825.12048  95679593.53748  23365945.5764   23365947.0874   23365945.2504
       230.000         186.000
 126197785.09248  98335927.49748  24014647.6104   24014648.8114   24014649.2054
       220.000         165.000
 09  1 25  0 13  0.0000000  0 10G 9G18G26G10G15G27G 5G12G17G28
 108693951.07748  84696580.66248  20683775.1314   20683777.6824   20683775.4404
       249.000         220.000
 118071253.09648  92003572.12848  22468214.1084   22468215.2984   22468214.8724
       236.000         193.000
 111877421.41948  87177203.37448  21289571.2744   21289573.6994   21289571.4474
       247.000         215.000
 133220847.73448 103808432.73348  25351099.3544   25351102.6754   25351099.1994
       204.000         139.000
 107328585.06648  83632658.96348  20423955.1404   20423956.6334   20423954.9734
       251.000         236.000
 128614606.26048 100219165.94948  24474551.4424   24474554.3984   24474552.0734
       215.000         163.000
 136794304.97348  88800746.41648  24128163.0274   24128165.9644   24128163.9554
       223.000         169.000
 120699854.27448  94051838.86448  22968413.6304   22968415.7404   22968413.4214
       228.000         189.000
 122761344.91948  95658180.41148  23360715.7464   23360717.6094   23360715.9034
       228.000         185.000
 126287675.44048  98405971.91648  24031753.1254   24031755.0964   24031753.5594
       220.000         164.000
 09  1 25  0 13 30.0000000  0 10G 9G18G26G10G15G27G 5G12G17G28
 108643726.05848  84657444.28548  20674217.6534   20674219.9864   20674217.7714
       250.000         220.000
 118038416.72948  91977985.34048  22461965.5594   22461966.6914   22461965.8894
       237.000         194.000
 111947326.94648  87231675.20548  21302873.8714   21302876.4084   21302874.0014
       246.000         215.000
 133330087.28048 103893554.44348  25371886.2634   25371889.9784   25371886.3014
       207.000         139.000
 107350362.84048  83649628.64948  20428099.3614   20428100.7224   20428099.1114
       251.000         236.000
 128683695.17348 100273001.44048  24487698.5724   24487701.1914   24487699.2444
       215.000         163.000
 136683167.33848  88714145.69048  24107014.5264   24107017.2224   24107014.7934
       221.000         170.000
 120599336.21148  93973513.11348  22949285.6474   22949287.5664   22949285.3174
       230.000         190.000
 122734358.80148  95637152.27848  23355580.6554   23355582.4344   23355580.3764
       229.000         186.000
 126377732.06448  98476145.90148  24048890.0874   24048892.1794   24048890.8574
       218.000         164.000
 09  1 25  0 14  0.0000000  0 10G 9G18G26G10G15G27G 5G12G17G28
 108593807.48148  84618546.70448  20664718.2304   20664721.1284   20664718.4694
       251.000         221.000
 118006136.08148  91952831.59448  22455822.6434   22455824.1134   22455823.1284
       235.000         194.000
 112017588.73548  87286424.64848  21316244.1994   21316246.8044   21316243.9614
       246.000         215.000
 133439231.28248 103978601.71548  25392657.4644   25392660.3534   25392658.9874
       203.000         139.000
 107372596.61948  83666953.66848  20432330.2544   20432331.7454   20432329.9464
       251.000         236.000
 128752809.44148 100326856.69248  24500850.3744   24500853.3014   24500850.5984
       217.000         161.000
 136572178.55848  88627660.96848  24085893.7004   24085896.7114   24085894.3104
       220.000         169.000
 120499075.81948  93895388.14248  22930206.6714   22930208.8224   22930206.5414
       231.000         190.000
 122707869.66448  95616511.39948  23350539.9594   23350541.7644   23350539.9964
       230.000         187.000
 126467954.01848  98546448.71848  24066058.5054   24066061.1804   24066058.4504
       215.000         162.000
 09  1 25  0 14 30.0000000  0 10G 9G18G26G10G15G27G 5G12G17G28
 108544194.53148  84579887.26348  20655277.5484   20655279.8404   20655277.9724
       251.000         220.000
 117974411.01548  91928110.75148  22449785.6044   22449786.9464   22449786.1464
       237.000         193.000
 112088205.23548  87341450.48448  21329682.2984   21329684.6814   21329682.5164
       246.000         214.000
 133548276.34848 104063571.86448  25413408.1184   25413410.0264   25413409.3324
       205.000         138.000
 107395286.06648  83684633.74948  20436647.9254   20436649.4654   20436647.6024
       252.000         236.000
 128821948.04748 100380730.89648  24514006.7944   24514009.5474   24514007.1644
       212.000         161.000
 136461339.46948  88541292.86448  24064801.4704   24064804.7734   24064802.8794
       220.000         169.000
 120399074.29048  93817464.86748  22911177.4694   22911178.9144   22911177.4474
       230.000         189.000
 122681877.83048  95596258.02948  23345594.1654   23345595.5154   23345594.1714
       232.000         189.000
 126558338.05448  98616877.82048  24083258.3884   24083261.0004   24083258.4424
       218.000         162.000
 09  1 25  0 15  0.0000000  0 11G 9G22G18G26G10G15G27G 5G12G17G28
 108494887.68648  84541466.34948  20645894.5524   20645897.2194   20645894.9584
       251.000         221.000
 138370416.59358  90028893.72458  24428080.0645   24428080.5415   24428080.5595
       220.000         172.000
 117943242.62748  91903823.69648  22443854.2024   22443855.6984   22443855.1524
       235.000         191.000
 112159175.28848  87396751.82848  21343187.1984   21343189.5914   21343187.2484
       247.000         213.000
 133657220.22948 104148463.15748  25434139.1084   25434141.0534   25434140.6224
       208.000         141.000
 107418431.80448  83702669.37948  20441052.5404   20441053.9424   20441052.5094
       251.000         236.000
 128891110.87648 100434624.00448  24527168.4474   24527171.0104   24527168.7904
       215.000         163.000
 136350652.02948  88455042.91548  24043738.9184   24043741.6924   24043738.9574
       220.000         170.000
 120299332.88248  93739744.30848  22892196.8654   22892199.0994   22892196.7074
       230.000         190.000
 122656384.92048  95576393.42448  23340743.0434   23340744.7544   23340743.2814
       232.000         189.000
 126648882.12148  98687431.61348  24100488.2884   24100490.4834   24100490.0104
       215.000         159.000
 09  1 25  0 15 30.0000000  0 11G 9G22G18G26G10G15G27G 5G12G17G28
 108445887.83548  84503284.65548  20636570.2874   20636572.7294   20636570.4824
       250.000         220.000
 138296420.28948  89971234.27648  24413999.6194   24413999.6614   24413998.7644
       217.000         166.000
 117912631.79048  91879971.10348  22438028.9464   22438030.5804   22438029.1514
       236.000         192.000
 112230498.41048  87452328.28248  21356759.8814   21356762.1154   21356760.0724
       246.000         214.000
 133766061.53948 104233274.53548  25454850.7014   25454852.2614   25454852.8434
       207.000         141.000
 107442034.10348  83721060.78048  20445543.7804   20445545.2364   20445543.6024
       251.000         235.000
 128960298.49448 100488536.40148  24540334.4214   24540337.1934   24540334.7784
       215.000         163.000
 136240118.36148  88368912.81648  24022704.4064   24022707.9964   24022704.5594
       220.000         171.000
 120199854.36248  93662228.59748  22873266.6164   22873269.1204   22873266.1704
       230.000         191.000
 122631392.85348  95556919.10148  23335986.9184   23335988.6884   23335986.9004
       231.000         189.000
 126739584.54948  98758108.85448  24117747.9804   24117750.4504   24117747.9774
       213.000         159.000
 09  1 25  0 16  0.0000000  0 11G 9G22G18G26G10G15G27G 5G12G17G28
 108397195.49948  84465342.57948  20627304.3934   20627306.9414   20627304.1914
       250.000         221.000
 138222801.30348  89913868.80048  24399990.5044   24399989.7344   24399992.1914
       221.000         160.000
 117882579.94548  91856554.07248  22432310.5874   22432312.3394   22432311.3854
       235.000         193.000
 112302173.92748  87508179.33248  21370398.9984   21370401.4994   21370399.1904
       245.000         214.000
 133874797.68748 104318003.96648  25475543.0564   25475545.9574   25475544.3034
       206.000         142.000
 107466093.17548  83739808.09948  20450121.9824   20450123.5694   20450121.7104
       251.000         235.000
 129029510.74148 100542468.00348  24553504.8134   24553507.3644   24553505.8054
       217.000         162.000
 136129740.50948  88282904.10448  24001700.2674   24001703.9464   24001701.1534
       219.000         172.000
 120100640.88648  93584919.39748  22854387.2464   22854389.3214   22854386.9694
       230.000         192.000
 122606903.38748  95537836.41248  23331326.6154   23331328.3294   23331326.4104
       231.000         188.000
 126830443.03048  98828907.68548  24135037.4744   24135040.5364   24135036.8034
       214.000         159.000
 09  1 25  0 16 30.0000000  0 11G 9G22G18G26G10G15G27G 5G12G17G28
 108348810.99648  84427640.37448  20618097.1724   20618099.7694   20618097.5744
       250.000         221.000
 138149561.47548  89856798.74448  24386052.9424   24386052.8204   24386054.4974
       221.000         167.000
 117853088.16848  91833573.46248  22426698.1954   22426699.8664   22426698.1684
       235.000         192.000
 112374200.78648  87564304.14748  21384105.3224   21384107.7864   21384105.2054
       246.000         213.000
 133983426.03248 104402649.39848  25496214.7514   25496217.8404   25496214.2624
       203.000         140.000
 107490609.56148  83758911.76948  20454787.4784   20454788.7934   20454787.2974
       251.000         235.000
 129098748.02548 100596419.11548  24566680.4474   24566683.2424   24566681.0824
       216.000         164.000
 136019520.58548  88197018.47248  23980725.8714   23980729.5864   23980727.0284
       221.000         171.000
 120001694.41048  93507818.24248  22835558.3864   22835560.1874   22835558.2284
       232.000         193.000
 122582917.94448  95519146.46948  23326762.5944   23326764.2874   23326762.2434
       231.000         189.000
 126921455.61848  98899826.57348  24152357.1784   24152359.2884   24152358.1084
       216.000         158.000
 09  1 25  0 17  0.0000000  0 11G 9G22G18G26G10G15G27G 5G12G17G28
 108300734.10248  84390177.86648  20608948.2054   20608951.0474   20608948.3544
       250.000         221.000
 138076702.32048  89800025.37548  24372188.0854   24372188.7454   24372186.9954
       212.000         165.000
 117824156.28248  91811029.13348  22421192.4704   22421194.3014   22421192.9634
       233.000         192.000
 112446577.10148  87620701.27548  21397878.0734   21397880.3064   21397877.9214
       245.000         213.000
 134091943.50248 104487208.42748  25516862.4094   25516867.9054   25516863.0014
       200.000         138.000
 107515582.33248  83778371.06748  20459539.5244   20459541.0834   20459539.1684
       251.000         236.000
 129168009.38948 100650388.96948  24579859.7564   24579862.9534   24579859.9624
       214.000         165.000
 135909459.45848  88111256.57048  23959782.1764   23959785.5004   23959782.6694
       221.000         171.000
 119903016.38848  93430926.29248  22816780.7004   22816782.4674   22816781.1454
       231.000         194.000
 122559437.33248  95500849.88148  23322294.3684   23322296.0974   23322293.9044
       232.000         188.000
 127012618.91248  98970862.90448  24169705.2324   24169707.3044   24169706.7344
       214.000         160.000
 09  1 25  0 17 30.0000000  0 11G 9G22G18G26G10G15G27G 5G12G17G28
 108252967.40848  84352957.06448  20599858.8774   20599861.2074   20599858.9744
       251.000         221.000
 138004228.13948  89743551.97948  24358396.5894   24358397.9524   24358395.2264
       222.000         166.000
 117795787.90748  91788923.90848  22415794.2674   22415796.2724   22415794.5414
       235.000         192.000
 112519304.57448  87677372.02848  21411717.5224   21411719.9944   21411717.4094
       246.000         213.000
 134200350.57948 104571681.42048  25537492.5314   25537495.8954   25537492.1064
       198.000         134.000
 107541014.59748  83798188.41148  20464379.2004   20464380.8494   20464378.9334
       251.000         235.000
 129237297.24548 100704379.48748  24593045.5334   24593048.5334   24593044.6914
       216.000         166.000
 135799561.45448  88025621.77648  23938869.3674   23938872.8524   23938870.3254
       222.000         171.000
 119804610.81748  93354246.63348  22798054.5104   22798056.6064   22798054.2044
       231.000         193.000
 122536465.29348  95482949.59148  23317922.7244   23317924.3934   23317922.4654
       232.000         188.000
 127103933.36748  99042017.02648  24187081.5254   24187083.8364   24187081.6974
       216.000         158.000
 09  1 25  0 18  0.0000000  0 11G 9G22G18G26G10G15G27G 5G12G17G28
 108205509.97948  84315977.25748  20590827.8444   20590830.5194   20590828.2234
       250.000         221.000
 137932139.93748  89687379.27148  24344678.9404   24344679.0734   24344679.1284
       218.000         164.000
 117767981.78548  91767256.79348  22410503.3704   22410504.8254   22410504.0804
       235.000         193.000
 112592380.57848  87734314.36248  21425623.6534   21425625.8924   21425623.6324
       246.000         213.000
 134308643.50048 104656065.49948  25558099.1144   25558103.3684   25558100.7614
       197.000         135.000
 107566904.87348  83818362.64848  20469305.8574   20469307.4664   20469305.6984
       251.000         235.000
 129306610.22048 100758389.60248  24606234.9214   24606237.9434   24606234.4684
       212.000         163.000
 135689826.91148  87940114.37648  23917987.6104   23917990.9534   23917988.2204
       223.000         172.000
 119706477.75848  93277779.31648  22779380.6454   22779382.3794   22779379.9364
       230.000         193.000
 122514001.43348  95465445.29648  23313648.0994   23313649.9794   23313647.5164
       229.000         189.000
 127195395.67648  99113286.33548  24204486.6064   24204488.6194   24204487.6324
       212.000         158.000
 09  1 25  0 18 30.0000000  0 11G 9G22G18G26G10G15G27G 5G12G17G28
 108158361.99648  84279238.57048  20581855.7974   20581858.2894   20581855.7954
       250.000         221.000
 137860439.32848  89631508.68948  24331035.3404   24331035.1194   24331034.9274
       220.000         169.000
 117740738.74648  91746028.44448  22405319.0964   22405320.3404   22405319.5734
       236.000         193.000
 112665803.97048  87791527.38648  21439595.7234   21439597.9104   21439595.6904
       245.000         213.000
 134416819.93848 104740358.78148  25578686.3164   25578690.3874   25578685.1434
       201.000         138.000
 107593252.99348  83838893.63948  20474319.7904   20474321.3244   20474319.6324
       251.000         235.000
 129375947.97148 100812418.99848  24619429.4954   24619432.6084   24619430.4764
       214.000         164.000
 135580257.58148  87854735.68948  23897137.5794   23897140.7124   23897138.1754
       226.000         173.000
 119608619.46648  93201526.11348  22760758.7394   22760760.6364   22760758.5474
       232.000         193.000
 122492047.11148  95448338.04348  23309470.1994   23309472.0534   23309469.8204
       231.000         189.000
 127287003.11748  99184668.75048  24221918.4724   24221920.9524   24221918.4494
       211.000         154.000
 09  1 25  0 19  0.0000000  0 10G 9G22G18G26G15G27G 5G12G17G28
 108111524.03748  84242741.46248  20572942.6514   20572945.4304   20572943.0784
       250.000         221.000
 137789128.66948  89575941.96148  24317464.9704   24317465.5924   24317465.2754
       215.000         166.000
 117714059.70948  91725239.58648  22400241.7544   22400243.6304   22400242.2864
       235.000         191.000
 112739573.81448  87849010.38348  21453633.4534   21453635.7884   21453633.3844
       245.000         212.000
 107620059.44848  83859781.78048  20479420.8944   20479422.4034   20479420.8144
       251.000         235.000
 129445310.52548 100866467.72448  24632629.4324   24632632.2334   24632629.8624
       218.000         165.000
 135470855.23048  87769487.11648  23876318.9994   23876322.0214   23876320.6524
       221.000         174.000
 119511037.71648  93125488.40648  22742189.5394   22742191.5314   22742189.8504
       233.000         195.000
 122470603.95648  95431629.09348  23305390.1724   23305391.4294   23305390.1024
       232.000         190.000
 127378753.66848  99256162.68148  24239378.1124   24239380.1664   24239378.3374
       215.000         156.000
 09  1 25  0 19 30.0000000  0 10G 9G22G18G26G15G27G 5G12G17G28
 108064996.68748  84206486.39148  20564088.8514   20564091.5664   20564089.0424
       250.000         221.000
 137718209.80848  89520680.51248  24303969.8404   24303970.3934   24303968.5604
       217.000         171.000
 117687945.67548  91704890.97348  22395272.5424   22395274.0524   22395272.7784
       235.000         192.000
 112813689.31348  87906762.71348  21467737.1214   21467739.6734   21467736.9344
       245.000         212.000
 107647324.26048  83881027.08348  20484609.2454   20484610.7404   20484608.8984
       251.000         234.000
 129514698.18848 100920536.00548  24645832.9044   24645835.9634   24645833.1414
       213.000         163.000
 135361621.88348  87684370.25148  23855531.7784   23855535.6554   23855531.5654
       221.000         173.000
 119413734.61148  93049667.80848  22723673.6594   22723675.2184   22723673.1384
       234.000         195.000
 122449673.44148  95415319.60848  23301406.8274   23301408.8364   23301407.1914
       232.000         190.000
 127470645.59448  99327766.78148  24256864.9554   24256865.9564   24256867.4954
       215.000         155.000
 09  1 25  0 20  0.0000000  0 10G 9G22G18G26G15G27G 5G12G17G28
 108018780.37548  84170473.68248  20555294.2724   20555296.7814   20555294.3124
       249.000         222.000
 137647685.54748  89465726.53548  24290549.7524   24290549.4064   24290550.5234
       225.000         169.000
 117662397.77448  91684983.51048  22390410.9284   22390412.5014   22390411.5394
       236.000         193.000
 112888149.65548  87964783.75648  21481906.5404   21481908.8864   21481906.5014
       244.000         212.000
 107675047.79148  83902629.82548  20489885.0314   20489886.3434   20489884.8214
       251.000         234.000
 129584111.18148 100974624.05848  24659041.7374   24659044.3214   24659041.2934
       212.000         163.000
 135252559.76148  87599386.78548  23834778.3804   23834781.8164   23834778.6354
       222.000         176.000
 119316712.29048  92974066.00248  22705210.8944   22705212.2494   22705211.3394
       233.000         195.000
 122429257.09648  95399410.78448  23297521.6524   23297523.5424   23297521.9974
       234.000         191.000
 127562677.03748  99399479.60648  24274377.6544   24274379.4904   24274379.7124
       214.000         156.000
 09  1 25  0 20 30.0000000  0  7G 9G22G27G 5G12G17G28
 107972875.72248  84134703.83548  20546558.9554   20546561.4544   20546559.1874
       249.000         222.000
 137577557.84248  89411081.56248  24277204.4024   24277204.2514   24277204.7804
       219.000         164.000
 129653549.54748 101028731.84348  24672254.9304   24672258.6054   24672254.3864
       215.000         162.000
 135143670.58348  87514538.10948  23814057.5434   23814060.6814   23814057.3994
       224.000         175.000
 119219972.73848  92898684.54248  22686801.6044   22686803.2604   22686801.4824
       231.000         194.000
 122409356.31848  95383903.69048  23293734.8144   23293736.6094   23293734.9024
       231.000         191.000
 127654845.44648  99471299.11048  24291916.3074   24291918.5854   24291917.1304
       211.000         154.000
 09  1 25  0 21  0.0000000  0 10G 9G22G18G26G15G27G 5G12G17G28
 107927282.95248  84099177.01148  20537883.0404   20537885.5004   20537883.0664
       248.000         222.000
 137507828.89748  89356747.27248  24263935.0184   24263935.6824   24263933.3494
       216.000         165.000
 117613002.46648  91646493.65248  22381011.7604   22381012.9944   22381012.5564
       236.000         192.000
 113038100.98548  88081628.94748  21510441.2774   21510443.8984   21510441.1014
       244.000         212.000
 107731871.85348  83946908.30648  20500698.1844   20500699.5414   20500697.9594
       251.000         234.000
 129723013.42648 101082859.54948  24685474.2884   24685476.9744   24685474.1344
       217.000         165.000
 135034956.37448  87429825.75248  23793369.6244   23793373.2374   23793370.5364
       225.000         176.000
 119123517.75548  92823524.83048  22668446.6324   22668448.4104   22668446.5044
       233.000         195.000
 122389972.22148  95368799.20948  23290046.2624   23290047.6854   23290045.8244
       231.000         191.000
 127747148.82348  99543223.83748  24309481.0924   24309483.0914   24309480.5544
       211.000         154.000
 09  1 25  0 21 30.0000000  0 10G 9G22G18G26G15G27G 5G12G17G28
 107882002.82448  84063893.80248  20529266.2754   20529268.8384   20529266.6284
       249.000         222.000
 137438501.15548  89302725.62448  24250742.8414   24250743.3744   24250745.4794
       219.000         166.000
 117589156.76548  91627912.58048  22376473.7184   22376475.1354   22376474.3304
       237.000         192.000
 113113590.34048  88140451.81448  21524806.3244   21524808.9374   21524806.0804
       244.000         212.000
 107760973.04348  83969584.55348  20506235.8734   20506237.2994   20506235.8094
       251.000         234.000
 129792503.08648 101137007.31148  24698697.6754   24698701.1954   24698698.3774
       214.000         165.000
 134926419.18348  87345251.33748  23772715.6224   23772719.4864   23772717.3194
       224.000         176.000
 119027349.97748  92748588.90648  22650146.9414   22650148.3294   22650146.6214
       234.000         196.000
 122371106.59048  95354098.71848  23286456.0014   23286457.7144   23286455.4764
       231.000         190.000
 127839585.51148  99615252.42148  24327071.0554   24327072.6514   24327072.1504
       213.000         150.000
 09  1 25  0 22  0.0000000  0 10G 9G22G18G26G15G27G 5G12G17G28
 107837034.49848  84028853.55348  20520709.1864   20520711.6294   20520709.3914
       249.000         222.000
 137369574.89548  89249016.84348  24237626.5154   24237626.7844   24237625.6244
       215.000         162.000
 117565878.67848  91609773.79748  22372044.0574   22372045.5684   22372044.9524
       236.000         193.000
 113189419.30948  88199539.32148  21539236.1834   21539238.6904   21539235.9944
       244.000         211.000
 107790532.12748  83992617.59948  20511860.6774   20511862.2614   20511860.3204
       250.000         234.000
 129862017.02548 101191173.97848  24711925.8814   24711928.6514   24711926.0554
       217.000         164.000
 134818059.37748  87260815.11748  23752095.4684   23752099.1864   23752096.0814
       223.000         176.000
 118931468.92148  92673876.40648  22631901.4604   22631902.8084   22631901.3894
       235.000         197.000
 122352759.32248  95339802.15248  23282964.3244   23282966.4734   23282964.0754
       231.000         190.000
 127932151.88948  99687382.03648  24344686.3534   24344687.6044   24344689.0114
       208.000         149.000
 09  1 25  0 22 30.0000000  0 10G 9G22G18G26G15G27G 5G12G17G28
 107792380.11548  83994057.93448  20512211.7084   20512214.1564   20512211.8404
       249.000         222.000
 137301054.17248  89195624.09148  24224587.5204   24224587.5394   24224587.5284
       216.000         164.000
 117543170.59848  91592079.17248  22367723.2314   22367724.5944   22367723.5654
       237.000         194.000
 113265588.79648  88258892.16048  21553730.6894   21553733.2874   21553730.6194
       244.000         212.000
 107820551.51248  84016009.32248  20517573.1874   20517574.8544   20517572.8314
       250.000         234.000
 129931557.50948 101245361.32448  24725159.1384   24725161.8114   24725158.6014
       219.000         167.000
 134709880.78048  87176520.12648  23731509.9224   23731513.2864   23731509.9444
       224.000         176.000
 118835878.76948  92599390.58748  22613711.1894   22613712.7874   22613711.1444
       235.000         196.000
 122334933.32948  95325911.79248  23279572.3384   23279574.0214   23279572.2564
       232.000         190.000
 128024847.79048  99759612.62648  24362325.3624   24362327.2304   24362325.0714
       210.000         150.000
 09  1 25  0 23  0.0000000  0 10G 9G22G18G26G15G27G 5G12G17G28
 107748039.26948  83959506.63848  20503773.9864   20503776.5544   20503774.4564
       248.000         222.000
 137232940.74348  89142548.72948  24211624.5994   24211627.0544   24211627.2424
       216.000         167.000
 117521032.47748  91574828.68448  22363510.4964   22363511.6294   22363510.8344
       238.000         195.000
 113342097.20748  88318509.09948  21568289.8964   21568292.4564   21568289.5274
       244.000         211.000
 107851030.50948  84039759.18748  20523373.2824   20523374.8074   20523373.1234
       250.000         234.000
 130001123.70648 101299568.76948  24738396.8064   24738399.3784   24738396.5994
       219.000         166.000
 134601884.65148  87092367.31148  23710958.7044   23710961.9294   23710959.3084
       226.000         176.000
 118740580.93448  92525132.53948  22595576.4154   22595578.1944   22595576.6154
       234.000         196.000
 122317629.37648  95312428.18648  23276279.6684   23276281.5724   23276279.6264
       232.000         190.000
 128117670.43148  99831941.95148  24379989.4884   24379990.8884   24379989.4104
       212.000         152.000
 09  1 25  0 23 30.0000000  0 10G 9G22G18G26G15G27G 5G12G17G28
 107704012.35848  83925199.95848  20495395.9814   20495398.4304   20495396.1834
       249.000         222.000
 137165236.00848  89089791.76048  24198742.2074   24198743.6174   24198741.6064
       216.000         168.000
 117499464.72448  91558022.64048  22359406.0804   22359407.6574   22359406.6354
       237.000         194.000
 113418943.19048  88378389.08448  21582913.2714   21582915.9034   21582913.1764
       244.000         211.000
 107881968.88948  84063867.01048  20529260.6074   20529262.1854   20529260.3584
       250.000         233.000
 130070715.47448 101353796.11348  24751639.9204   24751642.2574   24751640.1364
       217.000         168.000
 134494072.44348  87008357.81848  23690442.9744   23690446.0764   23690444.2254
       226.000         177.000
 118645576.86848  92451103.40348  22577497.5714   22577499.5574   22577497.2594
       234.000         196.000
 122300848.35948  95299352.07648  23273086.4014   23273088.0934   23273086.2434
       234.000         191.000
 128210617.61548  99904368.32948  24397677.0364   24397678.6234   24397678.1084
       214.000         152.000
 09  1 25  0 24  0.0000000  0 10G 9G22G18G26G15G27G 5G12G17G28
 107660299.69748  83891138.15848  20487077.5324   20487080.2114   20487077.8364
       249.000         222.000
 137097942.01048  89037354.93548  24185936.5904   24185937.0384   24185936.6024
       219.000         168.000
 117478467.81148  91541661.39548  22355410.6324   22355412.3974   22355410.6024
       237.000         195.000
 113496125.62048  88438531.22348  21597600.4344   21597603.1374   21597600.5734
       243.000         210.000
 107913366.64848  84088332.79148  20535235.4524   20535236.9064   20535235.0284
       250.000         233.000
 130140332.74948 101408043.30848  24764887.4704   24764889.8784   24764887.5694
       219.000         166.000
 134386446.05548  86924493.10548  23669962.5474   23669965.4724   23669962.7174
       226.000         179.000
 118550868.40048  92377304.59548  22559474.9364   22559476.8864   22559474.3734
       235.000         196.000
 122284591.36148  95286684.29348  23269992.7434   23269994.4264   23269992.8854
       233.000         191.000
 128303687.18648  99976890.09248  24415387.4794   24415388.8044   24415389.3874
       215.000         154.000
 09  1 25  0 24 30.0000000  0 10G 9G22G18G26G15G27G 5G12G17G28
 107616902.17548  83857321.91848  20478819.2894   20478821.9454   20478819.5224
       248.000         222.000
 137031061.28848  88985240.07848  24173209.9444   24173209.9174   24173210.1494
       223.000         170.000
 117458042.88548  91525745.87148  22351524.1234   22351525.5144   22351524.9024
       237.000         196.000
 113573643.74948  88498934.96248  21612351.5944   21612354.2934   21612351.4014
       244.000         211.000
