     2.11           OBSERVATION DATA    G (GPS)             RINEX VERSION / TYPE
teqc  2008Oct2      gpsops              20090115 00:05:36UTCPGM / RUN BY / DATE
    30.0000                                                 INTERVAL
     1     1                                                WAVELENGTH FACT L1/2
     7    L1    L2    P1    P2    C1    S1    S2            # / TYPES OF OBSERV
Linux 2.4.20-8|Pentium IV|gcc -static|Linux|486/DX+         COMMENT
     2.10           OBSERVATION DATA    GPS                 COMMENT
soc2rnx ver 1.20    gpsops              15-Jan-2009 00:05:34COMMENT
S1, if present, is the SNR for the C/A data stream on L1.   COMMENT
 SNR is mapped to RINEX snr flag value [1,4-9]              COMMENT
    SNR:   >316  >100  >31.6  >10  >3.2    >0 bad=0         COMMENT
L1 & L2:      9     8     7     6     5     4     1         COMMENT
                                                            COMMENT
This data is provided as a public service by NASA/JPL.      COMMENT
No warranty is expressed or implied regarding suitability   COMMENT
for use.  For further information, contact:                 COMMENT
Dave Stowers, NASA/JPL m/s 238-600                          COMMENT
4800 Oak Grove Drive, Pasadena CA 91109 USA                 COMMENT
                                                            COMMENT
Forced Modulo Decimation to 30 seconds                      COMMENT
  2009     1    14     0     0    0.0000000     GPS         TIME OF FIRST OBS
DSN                 JPL                                     OBSERVER / AGENCY
451-U               AOAD/M_T        NONE                    ANT # / TYPE
  4849202.3940  -360328.9929  4114913.1862                  APPROX POSITION XYZ
        0.0254        0.0000        0.0000                  ANTENNA: DELTA H/E/N
LP03574             ASHTECH Z-XII3      CC00                REC # / TYPE / VERS
MADR                                                        MARKER NAME
13407S012                                                   MARKER NUMBER
                                                            END OF HEADER
 09  1 14  0  0  0.0000000  0 10G 8G26G15G 9G27G18G28G17G21G10
 127803576.09148  99587191.57348  24320220.5064   24320223.3364   24320219.5464
       214.000         161.000
 106333629.04648  82857353.95448  20234632.9504   20234635.4074   20234632.6584
       251.000         226.000
 107768415.70648  83975387.82348  20507647.2814   20507648.4974   20507646.9864
       251.000         236.000
 116499184.96648  90778573.85648  22169068.7264   22169072.0804   22169068.4634
       236.000         196.000
 123862314.17148  96516078.63348  23570221.6714   23570224.3694   23570221.2244
       227.000         182.000
 125051017.68548  97442348.30348  23796418.5044   23796420.8864   23796418.4334
       220.000         168.000
 117479829.48048  91542720.75448  22355671.1864   22355673.4064   22355671.9284
       241.000         201.000
 128705880.95448 100290294.16948  24491916.2314   24491918.7224   24491916.5254
       218.000         170.000
 130324754.83248 101551732.78848  24799999.4454   24799996.8174   24799994.6344
       192.000         124.000
 120740901.17548  94083801.25648  22976243.3304   22976246.0164   22976243.9724
       230.000         184.000
 09  1 14  0  0 30.0000000  0  9G 8G26G15G 9G27G18G28G17G10
 127894078.02948  99657712.55548  24337442.1854   24337445.1984   24337443.1754
       214.000         162.000
 106358584.07548  82876799.43048  20239381.6604   20239384.1944   20239381.5504
       251.000         227.000
 107741633.66948  83954518.70348  20502550.6274   20502551.9784   20502550.3804
       252.000         236.000
 116416930.63748  90714479.59948  22153415.8584   22153419.0644   22153416.0174
       234.000         194.000
 123932263.22948  96570584.38848  23583532.5374   23583535.0064   23583532.5924
       230.000         183.000
 124965892.71848  97376017.13948  23780220.2164   23780222.0444   23780219.5694
       217.000         168.000
 117535554.68148  91586142.98448  22366275.0544   22366277.3214   22366276.0204
       238.000         200.000
 128636255.42748 100236040.53948  24478667.0274   24478668.6954   24478667.4144
       218.000         167.000
 120844820.39448  94164777.26248  22996017.9924   22996021.2894   22996018.7424
       231.000         184.000
 09  1 14  0  1  0.0000000  0  9G 8G26G15G 9G27G18G28G17G10
 127984598.42848  99728247.91848  24354667.1794   24354671.0074   24354667.6624
       214.000         162.000
 106383932.84148  82896551.70448  20244205.6244   20244207.9044   20244205.5394
       251.000         227.000
 107715194.68548  83933916.88748  20497519.5134   20497520.8994   20497519.2854
       251.000         236.000
 116334916.90148  90650572.81948  22137809.2264   22137812.1564   22137809.8624
       236.000         196.000
 124002238.98248  96625110.93748  23596848.0334   23596850.8844   23596848.3104
       228.000         182.000
 124881097.50248  97309942.95948  23764083.8994   23764086.0254   23764083.9524
       219.000         166.000
 117591697.61448  91629890.72048  22376958.7344   22376960.4294   22376959.1764
       239.000         200.000
 128566840.12048 100181950.67448  24465457.0474   24465459.0724   24465457.4254
       213.000         163.000
 120948933.12748  94245904.07048  23015830.1164   23015833.3474   23015831.0554
       230.000         184.000
 09  1 14  0  1 30.0000000  0  9G 8G26G15G 9G27G18G28G17G10
 128075136.98848  99798797.43448  24371896.3144   24371899.9554   24371896.5664
       211.000         162.000
 106409675.92948  82916611.24348  20249104.3794   20249106.6794   20249104.4414
       252.000         226.000
 107689100.43248  83913583.70148  20492553.7924   20492555.4654   20492553.4284
       251.000         236.000
 116253145.19248  90586854.63448  22122248.5954   22122251.8394   22122248.8664
       235.000         196.000
 124072241.19948  96679658.09348  23610169.0494   23610172.1024   23610169.1324
       230.000         183.000
 124796634.87048  97244127.91748  23748011.3684   23748013.2204   23748010.8554
       223.000         168.000
 117648256.92948  91673962.91848  22387721.5864   22387723.1314   22387721.5744
       241.000         200.000
 128497638.69348 100128027.50948  24452288.1134   24452290.1594   24452287.9354
       215.000         165.000
 121053237.58748  94327180.26148  23035678.3874   23035682.1594   23035679.1884
       230.000         184.000
 09  1 14  0  2  0.0000000  0  9G 8G26G15G 9G27G18G28G17G10
 128165691.94848  99869359.74348  24389128.3764   24389131.9854   24389128.7254
       211.000         163.000
 106435812.72748  82936977.57348  20254078.0304   20254080.2474   20254077.7844
       251.000         226.000
 107663351.71048  83893519.76448  20487653.9704   20487655.6554   20487653.7534
       252.000         236.000
 116171615.52548  90523325.04648  22106733.8054   22106736.6474   22106733.5694
       234.000         196.000
 124142268.94148  96734225.16148  23623494.9864   23623497.9884   23623494.9794
       230.000         184.000
 124712506.94448  97178573.68248  23732002.5764   23732004.5534   23732003.9514
       219.000         169.000
 117705230.06048  91718357.56548  22398563.2384   22398564.9314   22398564.2484
       239.000         199.000
 128428653.09648 100074272.49248  24439161.3124   24439162.2514   24439161.3034
       216.000         167.000
 121157729.99448  94408602.91548  23055562.5694   23055566.2364   23055563.3504
       229.000         184.000
 09  1 14  0  2 30.0000000  0  9G 8G26G15G 9G27G18G28G17G10
 128256263.23848  99939934.76448  24406363.0584   24406367.3124   24406362.7974
       212.000         164.000
 106462344.15848  82957651.41248  20259126.6864   20259128.9904   20259126.6654
       251.000         226.000
 107637950.46048  83873726.58348  20482820.3474   20482821.9484   20482820.0634
       252.000         237.000
 116090328.91448  90459984.85148  22091265.4204   22091268.3294   22091265.4154
       236.000         197.000
 124212321.93648  96788811.89848  23636825.9104   23636828.5984   23636826.4624
       229.000         183.000
 124628716.78348  97113282.66748  23716057.3244   23716059.9194   23716056.2874
       219.000         170.000
 117762615.35948  91763073.38048  22409483.2814   22409485.6074   22409483.7344
       239.000         200.000
 128359886.84248 100020688.42048  24426075.3984   24426077.2854   24426075.1354
       219.000         169.000
 121262408.31148  94490170.42048  23075482.4024   23075486.0224   23075483.4164
       230.000         185.000
 09  1 14  0  3  0.0000000  0  9G 8G26G15G 9G27G18G28G17G10
 128346849.10348 100010521.13948  24423601.3584   24423605.1974   24423602.4434
       215.000         165.000
 106489269.53348  82978632.21548  20264250.3524   20264252.7254   20264250.2304
       251.000         226.000
 107612897.19448  83854204.56048  20478052.9404   20478054.4634   20478052.8144
       253.000         237.000
 116009285.28748  90396833.98448  22075843.3334   22075846.4794   22075843.6984
       237.000         196.000
 124282399.34248  96843417.65848  23650160.4404   23650164.0854   23650160.7224
       228.000         181.000
 124545265.91248  97048255.99548  23700177.3994   23700179.4534   23700177.5344
       219.000         171.000
 117820410.42148  91808108.49848  22420481.4484   22420483.9854   22420481.7034
       238.000         199.000
 128291342.22948  99967277.04848  24413031.9544   24413034.1374   24413032.1164
       217.000         169.000
 121367269.57748  94571880.49148  23095436.8674   23095440.5494   23095438.3164
       228.000         184.000
 09  1 14  0  3 30.0000000  0  9G 8G26G15G 9G27G18G28G17G10
 128437449.22548 100081118.64748  24440841.7154   24440845.5984   24440842.3654
       215.000         164.000
 106516589.37548  82999920.39648  20269449.1204   20269451.5954   20269449.1364
       251.000         226.000
 107588193.56648  83834954.97848  20473352.1384   20473353.5664   20473352.0634
       253.000         237.000
 115928486.00848  90333873.51448  22060467.9664   22060470.9794   22060468.9044
       237.000         197.000
 124352501.06448  96898042.35548  23663500.6894   23663503.7724   23663500.7454
       228.000         181.000
 124462157.13248  96983495.91348  23684362.4904   23684363.8044   23684362.6564
       220.000         171.000
 117878613.77448  91853461.75748  22431556.8874   22431558.8574   22431557.3394
       239.000         197.000
 128223022.50748  99914040.88248  24400031.3894   24400032.8434   24400031.1924
       217.000         170.000
 121472311.41048  94653731.25548  23115425.5194   23115429.2954   23115426.6024
       227.000         183.000
 09  1 14  0  4  0.0000000  0  9G 8G26G15G 9G27G18G28G17G10
 128528062.49748 100151726.34648  24458084.9434   24458088.8104   24458085.5074
       215.000         166.000
 106544303.45048  83021515.77348  20274723.0034   20274725.4014   20274722.8804
       250.000         226.000
 107563840.73348  83815978.73748  20468717.9634   20468719.3364   20468717.8534
       252.000         237.000
 115847931.35848  90271103.66548  22045138.9524   22045141.8364   22045139.5844
       237.000         197.000
 124422626.00148  96952685.15548  23676845.1354   23676848.1244   23676845.5414
       228.000         183.000
 124379393.00248  96919004.37548  23668613.0724   23668615.2014   23668612.6154
       221.000         173.000
 117937222.77848  91899131.11248  22442709.6654   22442711.3064   22442710.7064
       237.000         197.000
 128154930.42748  99860982.15148  24387073.6734   24387075.3544   24387073.3914
       219.000         172.000
 121577530.73348  94735720.32348  23135448.2224   23135451.7074   23135448.6964
       227.000         183.000
 09  1 14  0  4 30.0000000  0  9G 8G26G15G 9G27G18G28G17G10
 128618688.37348 100222343.92248  24475330.8134   24475334.0144   24475331.2374
       216.000         166.000
 106572412.61748  83043419.00948  20280072.0834   20280074.4324   20280071.9464
       251.000         226.000
 107539840.75748  83797277.45448  20464150.7984   20464152.3074   20464150.5034
       252.000         237.000
 115767622.45548  90208525.31948  22029856.6054   22029859.5654   22029857.2604
       236.000         199.000
 124492774.59748  97007346.38748  23690193.5954   23690197.2094   23690193.5414
       228.000         182.000
 124296976.67048  96854783.88248  23652929.2784   23652931.8314   23652929.7784
       221.000         172.000
 117996236.45448  91945115.79348  22453939.7094   22453941.2354   22453939.7164
       239.000         197.000
 128087069.47248  99808103.49248  24374160.5754   24374162.2704   24374159.8824
       221.000         173.000
 121682925.46748  94817846.09248  23155504.0614   23155507.5734   23155504.8214
       229.000         182.000
 09  1 14  0  5  0.0000000  0  9G 8G26G15G 9G27G18G28G17G10
 128709326.12848 100292970.74648  24492578.1654   24492581.7214   24492578.7674
       215.000         164.000
 106600916.81248  83065630.07248  20285496.1574   20285498.5434   20285496.0664
       251.000         226.000
 107516194.64448  83778851.90848  20459651.0464   20459652.5194   20459650.8324
       252.000         237.000
 115687559.74348  90146138.80648  22014621.0134   22014624.1834   22014621.0534
       237.000         199.000
 124562946.21348  97062025.55348  23703546.8874   23703550.3514   23703546.9284
       226.000         182.000
 124214910.26648  96790836.03948  23637313.3174   23637315.2034   23637314.8464
       222.000         174.000
 118055652.42448  91991413.95548  22465246.0534   22465248.2124   22465246.5194
       239.000         197.000
 128019442.34648  99755407.01148  24361291.7004   24361293.0084   24361291.3794
       219.000         175.000
 121788493.09348  94900106.57448  23175592.9454   23175596.3794   23175593.6014
       227.000         181.000
 09  1 14  0  5 30.0000000  0  9G 8G26G15G 9G27G18G28G17G10
 128799974.57248 100363605.89748  24509828.7884   24509831.9334   24509829.4134
       218.000         164.000
 106629815.73848  83088148.70448  20290995.5054   20290997.8624   20290995.4624
       251.000         226.000
 107492903.33648  83760702.83248  20455219.0084   20455220.4204   20455218.8304
       252.000         237.000
 115607743.58048  90083944.41148  21999432.5374   21999435.6194   21999432.5964
       237.000         198.000
 124633139.80848  97116721.85148  23716904.2954   23716907.6874   23716904.7974
       226.000         181.000
 124133195.66748  96727162.34048  23621762.6394   23621764.9004   23621763.6234
       224.000         171.000
 118115468.12448  92038023.59248  22476628.7294   22476631.1994   22476629.6684
       238.000         197.000
 127952051.60348  99702894.76148  24348467.0184   24348469.2654   24348466.7514
       216.000         175.000
 121894230.76248  94982499.55948  23195713.9734   23195717.9024   23195715.0764
       228.000         181.000
 09  1 14  0  6  0.0000000  0  9G 8G26G15G 9G27G18G28G17G10
 128890633.17348 100434248.97148  24527080.3504   24527083.7404   24527081.9554
       215.000         164.000
 106659109.82248  83110975.25948  20296570.0354   20296572.3784   20296570.0704
       252.000         226.000
 107469968.40848  83742831.45348  20450854.5464   20450856.1064   20450854.2634
       252.000         237.000
 115528175.04948  90021942.97148  21984291.2374   21984293.9774   21984291.7434
       237.000         198.000
 124703355.31748  97171435.21548  23730266.0354   23730269.1314   23730266.2094
       226.000         180.000
 124051835.79948  96663765.01248  23606281.2334   23606282.3254   23606281.9324
       225.000         172.000
 118175682.17748  92084943.63448  22488086.9754   22488089.1334   22488087.4504
       239.000         196.000
 127884900.63848  99650569.35248  24335688.5664   24335690.7784   24335688.1484
       218.000         171.000
 122000135.75948  95065022.92948  23215866.8744   23215870.9144   23215867.6314
       228.000         180.000
 09  1 14  0  6 30.0000000  0  9G 8G26G15G 9G27G18G28G17G10
 128981301.38248 100504899.48548  24544333.8964   24544337.0944   24544334.2264
       215.000         164.000
 106688799.53648  83134110.09748  20302219.8584   20302222.2364   20302219.8104
       251.000         226.000
 107447391.82048  83725239.30548  20446558.4224   20446559.8824   20446558.1224
       252.000         237.000
 115448855.24648  89960135.33948  21969197.0894   21969199.7954   21969197.1554
       237.000         199.000
 124773592.82148  97226165.72048  23743631.8664   23743634.8584   23743632.2914
       227.000         181.000
 123970833.67948  96600646.46748  23590867.0894   23590868.1254   23590868.1014
       223.000         174.000
 118236292.90348  92132172.76848  22499620.8114   22499621.9964   22499621.2844
       238.000         195.000
 127817992.51248  99598433.17148  24322956.1094   24322958.5804   24322956.1114
       214.000         171.000
 122106206.00748  95147675.06948  23236051.4754   23236055.4364   23236052.6434
       227.000         179.000
 09  1 14  0  7  0.0000000  0 10G 8G26G15G 9G27G18G28G17G12G10
 129071978.11748 100575556.67248  24561588.9304   24561592.8664   24561589.3024
       217.000         164.000
 106718884.79548  83157553.15048  20307945.0454   20307947.2324   20307944.9744
       253.000         226.000
 107425174.36648  83707926.99948  20442330.4984   20442332.0844   20442330.2844
       251.000         237.000
 115369784.52448  89898521.80548  21954150.2904   21954153.7044   21954150.6154
       237.000         200.000
 124843851.54548  97280912.78248  23757001.5644   23757004.8264   23757001.6464
       226.000         181.000
 123890191.54048  96537808.44348  23575521.0654   23575522.9284   23575521.2614
       223.000         174.000
 118297297.93548  92179709.14148  22511229.7064   22511230.2614   22511229.8274
       239.000         194.000
 127751329.85548  99546488.24748  24310270.8754   24310271.8894   24310270.6514
       219.000         169.000
 131759430.98158 102669675.50358  25072993.5425   25072996.8125   25072994.8125
       208.000         148.000
 122212438.47148  95230453.60848  23256266.5064   23256270.4174   23256267.4134
       224.000         178.000
 09  1 14  0  7 30.0000000  0 10G 8G26G15G 9G27G18G28G17G12G10
 129162662.48948 100646219.81248  24578845.2034   24578849.4104   24578845.2394
       215.000         163.000
 106749365.48848  83181304.33048  20313745.3724   20313747.5384   20313745.4954
       251.000         226.000
 107403317.47448  83690895.64648  20438171.3364   20438172.7734   20438171.1284
       252.000         237.000
 115290963.80748  89837103.08448  21939151.3114   21939154.5764   21939152.0184
       236.000         200.000
 124914131.24848  97335676.18548  23770375.3714   23770378.4794   23770375.8324
       225.000         179.000
 123809911.82648  96475252.82448  23560244.3434   23560246.7114   23560244.6454
       225.000         174.000
 118358695.29248  92227551.23148  22522913.3954   22522914.0514   22522914.0844
       239.000         196.000
 127684915.73648  99494736.99848  24297632.5374   24297634.6704   24297632.5334
       216.000         170.000
 131644136.27748 102579835.49948  25051054.4284   25051056.5004   25051053.4284
       207.000         150.000
 122318830.51348  95313356.48048  23276512.2524   23276516.2684   23276512.6364
       225.000         180.000
 09  1 14  0  8  0.0000000  0 10G 8G26G15G 9G27G18G28G17G12G10
 129253353.16048 100716887.87648  24596103.1224   24596107.1274   24596103.7314
       212.000         161.000
 106780241.08148  83205363.22848  20319620.6434   20319622.9624   20319620.5234
       251.000         226.000
 107381821.62448  83674145.62948  20434080.7704   20434082.3544   20434080.6124
       252.000         238.000
 115212392.81148  89775878.94448  21924200.0624   21924202.8954   21924200.0024
       238.000         200.000
 124984430.53348  97390454.83848  23783752.8714   23783756.1484   23783753.3764
       222.000         178.000
 123729996.11548  96412980.83348  23545037.3484   23545038.5034   23545038.0174
       221.000         172.000
 118420482.10348  92275696.79448  22534670.9584   22534672.7114   22534671.9034
       238.000         197.000
 127618752.12148  99443180.94748  24285042.3294   24285044.3224   24285041.4184
       219.000         171.000
 131528874.78148 102490021.37648  25029120.4324   25029123.9324   25029120.1494
       209.000         155.000
 122425378.71248  95396381.03648  23296788.1974   23296792.3974   23296789.1514
       228.000         182.000
 09  1 14  0  8 30.0000000  0 10G 8G26G15G 9G27G18G28G17G12G10
 129344049.71348 100787560.52548  24613361.8844   24613365.3264   24613362.5544
       212.000         158.000
 106811512.26648  83229730.36948  20325571.3094   20325573.7274   20325571.2424
       250.000         226.000
 107360688.98048  83657678.62348  20430059.3534   20430060.9234   20430059.1084
       252.000         238.000
 115134072.73148  89714850.32248  21909295.9874   21909298.7614   21909296.3414
       237.000         199.000
 125054749.97948  97445249.19648  23797134.4094   23797137.7334   23797134.5634
       225.000         179.000
 123650447.64048  96350995.02748  23529899.3754   23529901.3304   23529899.5834
       224.000         176.000
 118482657.16648  92324144.90448  22546502.2714   22546505.3814   22546502.6244
       239.000         199.000
 127552842.96348  99391823.15748  24272499.5334   24272501.8674   24272498.6344
       214.000         170.000
 131413649.56348 102400235.51348  25007193.8924   25007197.3394   25007193.9964
       213.000         156.000
 122532081.36448  95479525.95248  23317093.1434   23317096.7574   23317094.0664
       228.000         180.000
 09  1 14  0  9  0.0000000  0 10G 8G26G15G 9G27G18G28G17G12G10
 129434752.00648 100858237.59948  24630622.4854   24630625.4714   24630622.1224
       212.000         161.000
 106843179.39148  83254406.04648  20331597.3224   20331599.7894   20331597.2764
       251.000         225.000
 107339920.96648  83641495.75648  20426107.4014   20426108.8464   20426107.1934
       253.000         238.000
 115056004.48948  89654017.95348  21894440.2114   21894442.8384   21894440.3344
       238.000         200.000
 125125089.08748  97500058.88748  23810519.3814   23810522.8754   23810519.8934
       224.000         179.000
 123571268.90148  96289297.30248  23514832.7274   23514834.2764   23514831.8304
       227.000         177.000
 118545218.45648  92372893.97448  22558407.6714   22558410.7974   22558408.3264
       239.000         200.000
 127487190.94648  99340665.75748  24260006.5014   24260008.7004   24260006.5894
       216.000         165.000
 131298462.68548 102310479.50448  24985275.2154   24985277.5814   24985276.0224
       211.000         156.000
 122638935.76348  95562789.12448  23337427.1764   23337430.4914   23337427.7944
       227.000         180.000
 09  1 14  0  9 30.0000000  0 10G 8G26G15G 9G27G18G28G17G12G10
 129525458.32848 100928917.85348  24647883.1304   24647885.8934   24647883.7684
       214.000         161.000
 106875241.87748  83279389.79248  20337698.5174   20337701.0604   20337698.5204
       251.000         225.000
 107319518.15748  83625597.46248  20422224.7094   20422226.3404   20422224.5124
       252.000         238.000
 114978187.98448  89593381.73548  21879632.2784   21879634.9734   21879632.4344
       237.000         201.000
 125195446.81348  97554883.07148  23823907.7574   23823911.6714   23823908.0834
       223.000         178.000
 123492461.81948  96227889.18048  23499836.0384   23499837.5094   23499835.5184
       223.000         177.000
 118608163.34748  92421941.94448  22570385.6384   22570389.2214   22570386.1914
       239.000         200.000
 127421798.29848  99289710.44348  24247562.5754   24247564.1464   24247562.6914
       219.000         168.000
 131183315.97948 102220754.84448  24963364.2434   24963365.0944   24963364.8384
       214.000         156.000
 122745939.02348  95646168.25848  23357789.1274   23357792.5754   23357789.8614
       227.000         179.000
 09  1 14  0 10  0.0000000  0 10G 8G26G15G 9G27G18G28G17G12G10
 129616168.98248 100999601.47448  24665145.1604   24665148.2634   24665146.0114
       212.000         164.000
 106907700.39648  83304682.13848  20343875.0564   20343877.6524   20343875.0034
       250.000         225.000
 107299482.97748  83609985.63148  20418412.1624   20418413.7404   20418411.9114
       252.000         238.000
 114900624.68148  89532942.81548  21864872.3764   21864874.7974   21864872.2694
       238.000         199.000
 125265823.72448  97609722.19948  23837300.3854   23837303.7794   23837300.0734
       224.000         177.000
 123414029.75148  96166773.27248  23484910.9944   23484912.5394   23484910.1674
       226.000         177.000
 118671490.60448  92471287.86248  22582436.5194   22582439.6024   22582436.3774
       239.000         200.000
 127356668.86248  99238960.22348  24235168.6894   24235171.1864   24235169.0724
       217.000         168.000
 131068212.63148 102131063.92348  24941460.7904   24941461.2684   24941458.9224
       212.000         155.000
 122853089.18548  95729661.89548  23378179.3554   23378181.8974   23378180.1204
       227.000         177.000
 09  1 14  0 10 30.0000000  0 10G 8G26G15G 9G27G18G28G17G12G10
 129706882.37448 101070287.19448  24682407.1104   24682410.4354   24682406.8224
       216.000         164.000
 106940554.41748  83330282.66948  20350127.0394   20350129.5194   20350126.9864
       251.000         225.000
 107279815.71148  83594660.47948  20414669.7714   20414671.1504   20414669.5604
       252.000         238.000
 114823314.43948  89472701.08348  21850160.4244   21850163.4714   21850160.6724
       238.000         201.000
 125336218.68848  97664575.39548  23850696.0954   23850699.9974   23850696.4414
       224.000         179.000
 123335974.41348  96105950.92748  23470057.8224   23470059.4934   23470058.7404
       227.000         177.000
 118735197.26148  92520929.41348  22594559.4964   22594562.4144   22594559.9104
       239.000         198.000
 127291804.75748  99188416.78748  24222825.5894   24222827.7384   24222825.6534
       216.000         167.000
 130953154.07848 102041407.91748  24919565.4074   24919566.5394   24919564.4354
       211.000         154.000
 122960382.57948  95813267.12748  23398595.9074   23398599.8794   23398596.9364
       223.000         177.000
 09  1 14  0 11  0.0000000  0 10G 8G26G15G 9G27G18G28G17G12G10
 129797598.27048 101140974.87848  24699669.8524   24699673.0704   24699669.7094
       217.000         162.000
 106973804.38248  83356191.72148  20356454.3724   20356456.7664   20356454.2714
       251.000         225.000
 107260518.10348  83579623.38148  20410997.5194   20410998.9714   20410997.2234
       252.000         238.000
 114746258.41648  89412657.44248  21835497.4544   21835500.4404   21835497.7054
       238.000         202.000
 125406631.88848  97719442.80148  23864095.3714   23864099.2694   23864096.0124
       225.000         179.000
 123258298.47148  96045424.23148  23455276.0764   23455278.1324   23455276.6154
       225.000         175.000
 118799281.95248  92570865.54048  22606754.3274   22606756.7524   22606755.0304
       239.000         196.000
 127227209.50048  99138082.83548  24210533.4114   24210536.1484   24210532.7294
       217.000         167.000
 130838143.17848 101951789.05148  24897680.4864   24897680.6314   24897680.2004
       213.000         153.000
 123067817.39648  95896982.53948  23419039.8084   23419044.1324   23419039.9194
       225.000         177.000
 09  1 14  0 11 30.0000000  0 10G 8G26G15G 9G27G18G28G17G12G10
 129888315.15248 101211663.38248  24716932.5404   24716935.7824   24716933.8084
       214.000         158.000
 107007449.79448  83382408.92148  20362857.0544   20362859.3784   20362857.0114
       251.000         225.000
 107241591.26448  83564875.18948  20407395.8974   20407397.3344   20407395.6014
       253.000         238.000
 114669456.86948  89352812.07348  21820882.6744   21820885.7114   21820882.7074
       238.000         202.000
 125477062.55748  97774323.83448  23877498.1654   23877501.6094   23877498.2434
       223.000         177.000
 123181004.13748  95985194.86548  23440567.6644   23440569.0244   23440569.6384
       226.000         175.000
 118863742.13748  92621094.24848  22619020.8734   22619022.3534   22619022.0454
       239.000         194.000
 127162885.34948  99087960.10348  24198293.5624   24198295.3864   24198292.6734
       220.000         169.000
 130723181.64148 101862208.66448  24875803.2914   24875804.3054   24875804.5164
       213.000         154.000
 123175390.34448  95980805.62048  23439511.1024   23439513.9414   23439512.0434
       228.000         177.000
 09  1 14  0 12  0.0000000  0 10G 8G26G15G 9G27G18G28G17G12G10
 129979032.31848 101282352.06648  24734195.3504   24734198.9424   24734195.9114
       214.000         157.000
 107041490.64448  83408934.25148  20369334.6894   20369337.2654   20369334.6374
       250.000         225.000
 107223036.05748  83550416.58348  20403865.0604   20403866.4434   20403864.9074
       253.000         239.000
 114592910.13848  89293165.26948  21806316.1904   21806319.3044   21806316.0334
       239.000         202.000
 125547510.00648  97829217.93648  23890903.9354   23890906.8964   23890903.8184
       223.000         175.000
 123104093.53048  95925264.52748  23425931.9294   23425933.5364   23425932.6694
       225.000         175.000
 118928575.58148  92671613.79548  22631358.1794   22631358.5124   22631359.0004
       238.000         192.000
 127098834.71448  99038050.53348  24186105.1954   24186106.7094   24186105.4834
       220.000         170.000
 130608271.50448 101772668.30848  24853936.0864   24853937.7464   24853937.1204
       208.000         151.000
 123283098.57448  96064734.09048  23460007.2064   23460010.3094   23460008.1924
       226.000         177.000
 09  1 14  0 12 30.0000000  0 10G 8G26G15G 9G27G18G28G17G12G10
 130069749.60148 101353040.87048  24751458.9304   24751462.3044   24751459.6784
       221.000         164.000
 107075927.57848  83435768.21948  20375887.7864   20375890.4104   20375887.6974
       251.000         225.000
 107204854.24448  83536248.93148  20400405.1704   20400406.5914   20400405.0214
       253.000         239.000
 114516619.72948  89233718.21448  21791798.5674   21791801.4214   21791799.2754
       238.000         202.000
 125617974.90948  97884125.63648  23904312.2694   23904315.5394   23904313.4354
       220.000         173.000
 123027569.82448  95865635.67348  23411369.7644   23411371.6034   23411371.2964
       227.000         176.000
 118993780.23748  92722422.61648  22643766.1794   22643765.5774   22643766.9854
       238.000         190.000
 127035061.64448  98988357.23448  24173969.6584   24173971.6734   24173969.7354
       219.000         172.000
 130493415.95348 101683170.54048  24832079.4114   24832081.1484   24832079.7944
       208.000         150.000
 123390940.64148  96148766.87248  23480528.3824   23480531.7074   23480529.5034
       224.000         174.000
 09  1 14  0 13  0.0000000  0 10G 8G26G15G 9G27G18G28G17G12G10
 130160466.15948 101423729.11048  24768721.3794   24768724.5174   24768722.1354
       218.000         164.000
 107110760.26748  83462910.55948  20382516.4604   20382518.8584   20382516.6234
       251.000         225.000
 107187047.24648  83522373.34448  20397016.5634   20397018.1114   20397016.3654
       254.000         239.000
 114440585.99748  89174471.17048  21777329.6564   21777332.7794   21777329.7164
       238.000         202.000
 125688456.29148  97939046.17148  23917724.7094   23917727.5444   23917725.0294
       224.000         174.000
 122951435.07048  95806309.88548  23396881.8084   23396883.6604   23396883.1634
       227.000         175.000
 119059354.51848  92773519.45148  22656244.3904   22656244.2224   22656244.6694
       237.000         191.000
 126971568.65648  98938882.19348  24161887.5674   24161889.2274   24161887.4324
       221.000         173.000
 130378617.01248 101593716.82348  24810233.8494   24810235.8314   24810232.9374
       212.000         154.000
 123498913.27748  96232901.37548  23501074.6514   23501078.4524   23501075.6774
       221.000         174.000
 09  1 14  0 13 30.0000000  0 10G 8G26G15G 9G27G18G28G17G12G10
 130251181.81548 101494416.60548  24785983.8884   24785987.5244   24785984.7024
       218.000         162.000
 107145989.29348  83490361.74148  20389220.2384   20389222.5314   20389220.0894
       251.000         224.000
 107169616.84048  83508791.20848  20393699.6334   20393701.2024   20393699.4854
       253.000         239.000
 114364810.17748  89115425.09448  21762910.2324   21762912.8774   21762910.2074
       239.000         202.000
 125758954.32548  97993979.68648  23931140.0554   23931142.5654   23931139.8814
       224.000         175.000
 122875692.13948  95747289.41348  23382468.7194   23382470.7354   23382469.0084
       227.000         176.000
 119125296.43648  92824902.75148  22668792.6224   22668793.0444   22668792.9764
       236.000         191.000
 126908358.80248  98889627.75248  24149858.9434   24149860.4454   24149859.1354
       220.000         173.000
 130263877.24148 101504309.28048  24788399.1824   24788402.1714   24788398.2184
       207.000         153.000
 123607014.66648  96317136.21248  23521646.0724   23521649.3064   23521646.2714
       222.000         173.000
 09  1 14  0 14  0.0000000  0 10G 8G26G15G 9G27G18G28G17G12G10
 130341895.33348 101565102.47148  24803246.3914   24803249.6984   24803246.9284
       214.000         161.000
 107181614.12648  83518121.34248  20395999.2604   20396001.6784   20395999.0324
       251.000         225.000
 107152563.63448  83495502.99848  20390454.3634   20390456.0674   20390454.1494
       253.000         239.000
 114289292.46948  89056580.13948  21748539.5124   21748542.3564   21748539.8904
       236.000         202.000
 125829468.51548  98048925.80148  23944558.5254   23944561.5144   23944559.3854
       224.000         175.000
 122800343.03048  95688575.81648  23368129.9474   23368131.9324   23368131.0874
       227.000         177.000
 119191603.71348  92876570.75748  22681410.3674   22681411.7724   22681410.5224
       237.000         192.000
 126845434.51748  98840595.83948  24137885.0754   24137886.1004   24137884.5604
       222.000         175.000
 130149199.01148 101414949.64848  24766577.4094   24766581.0224   24766576.8764
       213.000         157.000
 123715241.56548  96401468.87848  23542241.0614   23542243.6664   23542242.1424
       223.000         172.000
 09  1 14  0 14 30.0000000  0 10G 8G26G15G 9G27G18G28G17G12G10
 130432605.81248 101635785.94448  24820507.7104   24820510.7424   24820507.8694
       216.000         161.000
 107217634.42248  83546189.09948  20402853.8364   20402856.2534   20402853.8354
       251.000         225.000
 107135888.60148  83482509.45748  20387281.3874   20387282.8164   20387281.1264
       253.000         239.000
 114214032.90048  88997936.34148  21734217.9414   21734221.0674   21734217.7304
       237.000         202.000
 125899997.95848  98103883.79448  23957979.7424   23957982.9374   23957980.2634
       221.000         174.000
 122725390.04548  95630170.91548  23353866.8654   23353868.6384   23353867.3134
       227.000         176.000
 119258273.75348  92928521.44548  22694097.5134   22694099.4244   22694097.4244
       236.000         194.000
 126782798.39748  98791788.48248  24125965.6464   24125967.2354   24125965.8404
       222.000         174.000
 130034583.76848 101325639.09348  24744767.5844   24744769.1654   24744767.0304
       207.000         155.000
 123823591.11848  96485897.08148  23562858.9804   23562862.5264   23562859.6634
       225.000         174.000
 09  1 14  0 15  0.0000000  0 10G 8G26G15G 9G27G18G28G17G12G10
 130523313.72248 101706467.40248  24837769.4714   24837772.0064   24837769.9934
       223.000         162.000
 107254051.02948  83574565.67048  20409783.7414   20409786.1734   20409783.6954
       251.000         225.000
 107119594.04248  83469812.39248  20384180.6224   20384182.0614   20384180.3254
       253.000         239.000
 114139032.91748  88939494.81148  21719945.8924   21719949.0214   21719946.1374
       237.000         201.000
 125970543.46348  98158854.30348  23971403.8404   23971406.8524   23971404.3204
       222.000         172.000
 122650836.19848  95572076.99248  23339679.8424   23339681.3164   23339679.2464
       227.000         177.000
 119325305.32848  92980753.83848  22706853.0834   22706855.6904   22706853.2714
       236.000         194.000
 126720454.24248  98743208.62148  24114102.0844   24114103.0314   24114101.7254
       221.000         172.000
 129920034.82948 101236380.25248  24722968.5574   24722970.8554   24722967.5234
       215.000         156.000
 123932061.44648  96570419.41448  23583500.8044   23583503.9774   23583501.3424
       224.000         174.000
 09  1 14  0 15 30.0000000  0 10G 8G26G15G 9G27G18G28G17G12G10
 130614014.43848 101777143.30448  24855029.0074   24855031.5754   24855029.7544
       218.000         163.000
 107290860.42048  83603248.30148  20416788.2044   20416790.7964   20416788.0684
       250.000         225.000
 107103677.44648  83457409.85048  20381151.7424   20381153.2144   20381151.4534
       253.000         239.000
 114064289.79348  88881253.43448  21705722.8144   21705725.9894   21705722.9164
       237.000         202.000
 126041100.85448  98213834.06048  23984830.4194   23984833.7884   23984831.2134
       220.000         170.000
 122576679.81548  95514292.80648  23325568.5314   23325570.0914   23325569.1654
       227.000         177.000
 119392692.66948  93033263.45848  22719676.5764   22719679.3624   22719676.6554
       237.000         196.000
 126658401.05748  98694855.48148  24102293.3924   24102295.0874   24102293.8024
       219.000         172.000
 129805550.77548 101147171.92548  24701183.2404   24701185.4794   24701184.9734
       213.000         156.000
 124040646.13248  96655030.86348  23604163.6574   23604166.9414   23604164.5774
       223.000         173.000
 09  1 14  0 16  0.0000000  0 10G 8G26G15G 9G27G18G28G17G12G10
 130704711.81348 101847816.58248  24872287.8164   24872290.8024   24872288.4334
       218.000         164.000
 107328066.69348  83632240.20048  20423868.3334   20423870.9434   20423868.2554
       251.000         225.000
 107088144.44148  83445306.20048  20378195.9504   20378197.4644   20378195.7864
       253.000         239.000
 113989808.22648  88823215.86548  21691549.4914   21691552.5504   21691549.3504
       238.000         202.000
 126111674.26548  98268826.33048  23998260.0424   23998263.5564   23998260.4864
       221.000         171.000
 122502928.11848  95456823.95448  23311533.8614   23311535.2084   23311533.1854
       228.000         177.000
 119460437.99848  93086052.03548  22732568.0324   22732570.9654   22732568.6004
       239.000         195.000
 126596645.98348  98646734.66148  24090541.6144   24090543.2764   24090541.4074
       220.000         173.000
 129691138.31048 101058019.41448  24679410.0764   24679412.3884   24679411.5544
       212.000         155.000
 124149347.00448  96739732.82748  23624848.6754   23624852.0064   23624849.1514
       225.000         175.000
 09  1 14  0 16 30.0000000  0 10G 8G26G15G 9G27G18G28G17G12G10
 130795404.05148 101918485.85848  24889546.2914   24889549.4284   24889546.9074
       215.000         164.000
 107365669.34048  83661540.95348  20431023.8884   20431026.4714   20431023.8324
       251.000         225.000
 107072995.68448  83433501.96748  20375313.3024   20375314.7724   20375313.0264
       253.000         239.000
 113915588.59848  88765382.41048  21677425.7024   21677428.9614   21677425.6494
       238.000         203.000
 126182262.79548  98323830.37448  24011692.5944   24011696.0484   24011693.1674
       224.000         171.000
 122429582.86348  95399671.81648  23297576.6334   23297578.7824   23297577.4374
       228.000         180.000
 119528538.54848  93139117.41048  22745527.1864   22745529.9874   22745527.7594
       236.000         195.000
 126535191.55848  98598848.09648  24078847.0894   24078849.1364   24078847.0314
       220.000         172.000
 129576799.17048 100968923.99148  24657654.0924   24657654.1444   24657654.5784
       216.000         160.000
 124258161.07648  96824522.99248  23645555.0664   23645559.0744   23645555.8894
       224.000         174.000
 09  1 14  0 17  0.0000000  0 10G 8G26G15G 9G27G18G28G17G12G10
 130886090.11248 101989150.29048  24906803.0134   24906806.5804   24906803.1084
       219.000         166.000
 107403667.28448  83691149.73148  20438254.6684   20438257.2984   20438254.6084
       251.000         225.000
 107058231.31048  83421997.25448  20372503.6814   20372505.1294   20372503.3814
       254.000         239.000
 113841630.56648  88707752.78748  21663352.3554   21663355.2184   21663352.2714
       238.000         203.000
 126252865.31948  98378845.32148  24025127.9274   24025131.3534   24025128.1354
       224.000         171.000
 122356645.61448  95342837.59248  23283697.3604   23283699.0914   23283698.2374
       229.000         181.000
 119596991.33948  93192457.25148  22758553.3794   22758556.1964   22758554.0014
       237.000         196.000
 126474039.28948  98551196.97948  24067210.3424   24067212.4254   24067209.9834
       215.000         169.000
 129462534.66448 100879886.72748  24635909.5834   24635910.8344   24635908.9874
       211.000         161.000
 124367084.51948  96909398.38348  23666282.4114   23666286.7474   23666282.7324
       223.000         173.000
 09  1 14  0 17 30.0000000  0 10G 8G26G15G 9G27G18G28G17G12G10
 130976770.32048 102059810.23148  24924058.9924   24924062.2114   24924059.3624
       215.000         164.000
 107442061.60048  83721067.36548  20445561.0184   20445563.3204   20445560.9004
       251.000         225.000
 107043853.84748  83410794.02948  20369767.7894   20369769.2154   20369767.5884
       253.000         240.000
 113767935.60548  88650328.16148  21649328.4534   21649331.3614   21649328.6514
       238.000         203.000
 126323482.57748  98433871.72848  24038566.1084   24038569.7844   24038566.5164
       222.000         172.000
 122284119.43748  95286323.69048  23269895.9874   23269897.8344   23269895.8754
       230.000         180.000
 119665794.98448  93246070.48648  22771646.0954   22771649.1844   22771646.6034
       237.000         195.000
 126413193.32248  98503784.57048  24055630.7664   24055633.5434   24055630.9524
       213.000         170.000
 129348348.19848 100790910.27048  24614179.7434   24614181.9284   24614178.2454
       212.000         158.000
 124476115.94648  96994357.92848  23687030.7144   23687034.4924   23687031.8544
       220.000         173.000
 09  1 14  0 18  0.0000000  0 10G 8G26G15G 9G27G18G28G17G12G10
 131067443.28848 102130464.46948  24941313.2814   24941316.7584   24941313.6754
       221.000         170.000
 107480851.42248  83751293.19448  20452942.2564   20452944.7984   20452942.0954
       251.000         224.000
 107029863.82148  83399892.71248  20367105.4924   20367107.0614   20367105.2414
       254.000         240.000
 113694503.42248  88593108.31248  21635354.6594   21635357.7184   21635354.5504
       237.000         203.000
 126394113.45748  98488908.77848  24052006.6694   24052010.1764   24052006.9704
       222.000         169.000
 122212005.95648  95230131.36648  23256173.2274   23256175.1094   23256174.1854
       227.000         179.000
 119734946.71448  93299954.96348  22784805.6454   22784808.2174   22784806.2734
       237.000         194.000
 126352655.58548  98456612.28948  24044111.4014   24044113.8994   24044110.4364
       216.000         171.000
 129234241.52948 100701995.97348  24592465.9694   24592467.6354   24592464.5954
       213.000         160.000
 124585251.96548  97079398.97148  23707798.1464   23707802.0744   23707798.8834
       220.000         169.000
 09  1 14  0 18 30.0000000  0 10G 8G26G15G 9G27G18G28G17G12G10
 131158107.73348 102201112.07648  24958566.4524   24958569.7584   24958567.2214
       222.000         173.000
 107520036.32348  83781826.87548  20460399.0264   20460401.6554   20460398.9384
       251.000         225.000
 107016261.82748  83389293.75148  20364517.2084   20364518.6814   20364517.1214
       253.000         240.000
 113621334.56748  88536093.63448  21621431.2644   21621434.0604   21621431.5054
       238.000         203.000
 126464757.54948  98543956.10648  24065450.0304   24065452.8114   24065449.7594
       223.000         169.000
 122140307.25948  95174262.26848  23242529.0664   23242531.1764   23242530.0664
       227.000         179.000
 119804444.41548  93354109.01648  22798030.8304   22798032.9924   22798031.5864
       238.000         195.000
 126292428.49348  98409682.10748  24032651.1344   24032652.7154   24032651.5194
       219.000         172.000
 129120216.54448 100613145.33348  24570767.9604   24570769.2554   24570767.6554
       216.000         161.000
 124694489.66248  97164519.23748  23728585.1644   23728589.6474   23728585.3604
       223.000         170.000
 09  1 14  0 19  0.0000000  0 10G 8G26G15G 9G27G18G28G17G12G10
 131248763.07948 102271752.61948  24975817.2614   24975821.0884   24975818.1714
       217.000         164.000
 107559616.02348  83812668.18648  20467930.8674   20467933.3634   20467930.8084
       251.000         224.000
 107003049.16248  83378998.16648  20362002.8884   20362004.3634   20362002.6484
       253.000         240.000
 113548429.09648  88479284.19148  21607557.8134   21607560.4884   21607557.8844
       237.000         204.000
 126535414.29248  98599013.30048  24078895.5364   24078898.5464   24078895.5974
       222.000         169.000
 122069025.71548  95118718.21048  23228964.7674   23228966.4494   23228965.5514
       228.000         179.000
 119874285.55648  93408530.68048  22811321.0084   22811322.9314   22811321.5104
       236.000         192.000
 126232514.58948  98362995.94448  24021250.3484   24021252.7284   24021250.1714
       219.000         175.000
 129006275.29748 100524359.95548  24549086.5374   24549088.0664   24549085.9784
       216.000         166.000
 124803826.20348  97249716.53948  23749392.0434   23749395.3794   23749392.7774
       223.000         169.000
 09  1 14  0 19 30.0000000  0 10G 8G26G15G 9G27G18G28G17G12G10
 131339408.84948 102342385.69948  24993066.6164   24993070.1694   24993066.9414
       213.000         153.000
 107599590.54948  83843817.15548  20475537.5344   20475540.1914   20475537.4614
       251.000         224.000
 106990226.90348  83369006.78948  20359562.9564   20359564.3904   20359562.7474
       254.000         240.000
 113475788.12448  88422680.86148  21593734.3694   21593737.5274   21593734.1734
       238.000         204.000
 126606083.30148  98654080.06548  24092343.5254   24092346.3214   24092344.0044
       221.000         169.000
 121998163.23048  95063500.69548  23215480.0684   23215482.0124   23215481.9214
       227.000         179.000
 119944467.91848  93463218.23748  22824675.7884   22824677.7354   22824675.7654
       236.000         192.000
 126172916.69748  98316556.04648  24009908.8174   24009911.0894   24009909.1124
       217.000         173.000
 128892419.91848 100435641.51248  24527420.0994   24527422.3304   24527419.3914
       220.000         168.000
 124913259.34748  97334989.10848  23770215.9604   23770219.7234   23770217.3334
       221.000         170.000
 09  1 14  0 20  0.0000000  0 10G 8G26G15G 9G27G18G28G17G12G10
 131430044.77448 102413011.05048  25010313.7934   25010317.7644   25010314.4924
       205.000         139.000
 107639960.02048  83875273.88148  20483219.9664   20483222.2644   20483219.8964
       251.000         225.000
 106977796.70248  83359320.91948  20357197.5884   20357199.1244   20357197.3004
       254.000         240.000
 113403412.84648  88366284.56248  21579961.8244   21579965.0334   21579962.0844
       237.000         205.000
 126676765.01548  98709156.71848  24105793.7134   24105797.1094   24105793.8494
       223.000         170.000
 121927722.66248  95008611.94548  23202075.4134   23202077.3384   23202076.7104
       228.000         179.000
 120014989.73948  93518170.31948  22838095.8674   22838097.3434   22838096.2204
       236.000         191.000
 126113638.21748  98270365.00848  23998628.6794   23998630.3364   23998628.5334
       218.000         172.000
 128778653.21148 100346992.13248  24505770.8284   24505773.2884   24505770.6464
       217.000         167.000
 125022786.68248  97420335.05448  23791058.5974   23791063.0164   23791059.3194
       226.000         171.000
 09  1 14  0 20 30.0000000  0 10G 8G26G15G 9G27G18G28G17G12G10
 141520701.02358  92483658.19958  25027561.9345   25027561.4405   25027561.2105
       194.000         125.000
 107680724.30648  83907038.25148  20490977.0394   20490979.5264   20490977.0564
       251.000         224.000
 106965759.62948  83349941.38148  20354907.0244   20354908.5614   20354906.7824
       254.000         240.000
 113331303.25548  88310095.28848  21566240.1274   21566242.7724   21566239.7824
       241.000         206.000
 126747458.90148  98764242.85048  24119246.1944   24119249.6944   24119246.2524
       219.000         167.000
 121857706.07048  94954053.57148  23188751.3224   23188753.5984   23188752.0284
       228.000         179.000
 120085848.53548  93573384.96648  22851579.8044   22851581.2734   22851580.5434
       234.000         191.000
 126054681.62348  98224424.78348  23987409.9564   23987411.6674   23987409.3264
       219.000         174.000
 128664977.32848 100258413.52448  24484138.7484   24484141.8314   24484138.7364
       217.000         168.000
 125132405.12348  97505752.02348  23811918.4954   23811922.5434   23811920.0454
       225.000         171.000
 09  1 14  0 21  0.0000000  0  9G26G15G 9G27G18G28G17G12G10
 107721883.46048  83939110.31048  20498809.2514   20498811.8744   20498809.1814
       251.000         224.000
 106954117.28148  83340869.41648  20352691.5224   20352692.9604   20352691.2844
       254.000         240.000
 113259460.54348  88254113.96948  21552569.0454   21552571.6684   21552569.1444
       239.000         206.000
 126818165.05748  98819338.55348  24132701.3074   24132704.6634   24132700.9194
       222.000         167.000
 121788116.12848  94899827.60548  23175509.4724   23175510.9874   23175509.7484
       226.000         179.000
 120157042.96648  93628861.14248  22865127.8264   22865129.1124   22865128.3324
       235.000         191.000
 125996049.72148  98178737.61948  23976252.0594   23976253.9054   23976252.3144
       221.000         173.000
 128551395.09848 100169907.90448  24462524.6324   24462527.9494   24462523.9764
       215.000         168.000
 125242112.78048  97591238.50748  23832795.0334   23832798.9564   23832795.4804
       221.000         168.000
 09  1 14  0 21 30.0000000  0  9G26G15G 9G27G18G28G17G12G10
 107763437.26248  83971489.89548  20506716.9274   20506719.3404   20506717.0484
       251.000         224.000
 106942870.54048  83332105.71648  20350551.4004   20350552.7114   20350551.1154
       254.000         240.000
 113187884.66548  88198340.60648  21538947.9224   21538951.4274   21538947.9984
       239.000         205.000
 126888882.97848  98874443.42348  24146158.2974   24146161.4964   24146158.3674
       220.000         165.000
 121718954.89248  94845935.75248  23162348.2104   23162350.3974   23162347.9534
       228.000         180.000
 120228569.94048  93684596.45148  22878738.9844   22878740.5274   22878739.4514
       234.000         189.000
 125937745.11448  98133305.43348  23965157.8104   23965158.7284   23965157.6954
       218.000         173.000
 128437908.39848 100081476.71148  24440928.6434   24440931.4664   24440928.2574
       215.000         166.000
 125351906.92548  97676792.36548  23853688.1764   23853692.1834   23853689.1694
       224.000         171.000
 09  1 14  0 22  0.0000000  0  9G26G15G 9G27G18G28G17G12G10
 107805385.63048  84004176.92048  20514699.1084   20514701.7904   20514698.8584
       251.000         224.000
 106932020.58048  83323651.19448  20348486.7594   20348487.9884   20348486.6104
       254.000         240.000
 113116576.52048  88142775.83148  21525378.4684   21525381.8484   21525378.0454
       239.000         206.000
 126959612.68848  98929557.47748  24159617.5054   24159621.3584   24159617.5754
       216.000         165.000
 121650224.95448  94792379.94748  23149269.9164   23149271.6094   23149271.0644
       229.000         181.000
 120300427.94048  93740589.69548  22892412.7354   22892414.5974   22892413.1044
       232.000         188.000
 125879771.08448  98088130.87348  23954124.8424   23954126.9454   23954124.7734
       220.000         173.000
 128324519.62248  99993121.83648  24419350.7814   24419353.5324   24419350.8674
       218.000         164.000
 125461785.09048  97762411.70248  23874597.2664   23874601.5694   23874598.6214
       221.000         169.000
 09  1 14  0 22 30.0000000  0  9G26G15G 9G27G18G28G17G12G10
 107847727.77648  84037170.80548  20522756.8974   20522759.1684   20522756.9554
       251.000         224.000
 106921568.16848  83315506.45448  20346497.6094   20346498.9854   20346497.3414
       254.000         240.000
 113045536.25748  88087419.78848  21511860.4664   21511863.3204   21511860.6694
       239.000         207.000
 127030353.25448  98984680.00548  24173078.9554   24173082.6864   24173079.1404
       216.000         165.000
 121581927.96248  94739161.50848  23136273.0384   23136275.1784   23136274.2994
       226.000         178.000
 120372613.84048  93796838.45148  22906149.0654   22906151.1714   22906149.1654
       232.000         189.000
 125822129.33148  98043215.21648  23943156.0124   23943157.7054   23943155.8884
       220.000         174.000
 128211230.49648  99904844.60148  24397792.9014   24397794.9684   24397793.3064
       215.000         165.000
 125571743.36848  97848093.45948  23895521.7704   23895525.7914   23895522.4004
       221.000         171.000
 09  1 14  0 23  0.0000000  0  9G26G15G 9G27G18G28G17G12G10
 107890463.46348  84070471.32248  20530888.7694   20530891.5214   20530888.3784
       251.000         224.000
 106911514.52448  83307672.43948  20344584.3804   20344585.8784   20344584.0964
       254.000         240.000
 112974764.29248  88032272.83948  21498392.5714   21498396.0894   21498392.4534
       239.000         207.000
 127101104.39948  99039810.75548  24186542.9544   24186546.1754   24186543.1504
       219.000         164.000
 121514065.72048  94686281.83248  23123359.2554   23123361.4584   23123360.1384
       228.000         180.000
 120445125.78748  93853341.25748  22919947.7944   22919949.7044   22919948.1554
       233.000         188.000
 125764822.25248  97998560.35248  23932251.2124   23932252.3204   23932251.4964
       219.000         173.000
 128098043.20548  99816646.69448  24376254.1194   24376255.8534   24376253.7184
       218.000         163.000
 125681779.95848  97933836.22848  23916461.5054   23916464.5964   23916462.3984
       223.000         169.000
 09  1 14  0 23 30.0000000  0  9G26G15G 9G27G18G28G17G12G10
 107933592.87948  84104078.66048  20539096.4044   20539098.8314   20539096.4414
       250.000         224.000
 106901860.82448  83300150.06948  20342747.4484   20342748.8554   20342747.1014
       254.000         241.000
 112904261.38348  87977335.53048  21484976.6594   21484979.5894   21484976.8604
       241.000         207.000
 127171866.25948  99094949.85048  24200008.2404   24200011.4774   24200008.3454
       220.000         164.000
 121446641.02148  94633743.12748  23110528.4374   23110530.8984   23110529.8634
       226.000         178.000
 120517961.51348  93910096.36848  22933807.8024   22933809.8064   22933808.4354
       232.000         189.000
 125707853.23648  97954168.92148  23921410.2394   23921411.9524   23921410.1774
       220.000         174.000
 127984960.58048  99728530.37848  24354735.6354   24354737.3874   24354736.5374
       217.000         163.000
 125791892.36348  98019638.07148  23937414.9704   23937418.6104   23937415.9504
       219.000         165.000
 09  1 14  0 24  0.0000000  0  9G26G15G 9G27G18G28G17G12G10
 107977115.73048  84137992.55848  20547378.3734   20547381.0974   20547377.8964
       252.000         224.000
 106892608.19248  83292940.22048  20340986.8034   20340988.2394   20340986.8274
       253.000         241.000
 112834028.45948  87922608.60248  21471611.6764   21471614.6314   21471611.6994
       242.000         207.000
 127242638.54748  99150097.08748  24213475.5624   24213478.8834   24213476.0094
       217.000         161.000
 121379655.78148  94581546.85848  23097781.4454   23097783.7134   23097781.8724
       227.000         179.000
 120591118.86448  93967102.09448  22947729.5414   22947731.0184   22947730.2854
       234.000         188.000
 125651225.15048  97910043.13548  23910633.9584   23910635.6734   23910633.3764
       220.000         174.000
 127871984.77148  99640497.29348  24333237.8534   24333239.0644   24333237.3234
       221.000         166.000
 125902077.73848  98105496.83248  23958382.8304   23958385.6494   23958383.5764
       223.000         167.000
 09  1 14  0 24 30.0000000  0  9G26G15G 9G27G18G28G17G12G10
 108021032.11048  84172213.11348  20555735.4444   20555738.0434   20555735.5994
       251.000         224.000
 106883758.15448  83286044.07948  20339302.7164   20339304.2014   20339302.1964
       254.000         241.000
 112764066.29048  87868092.65848  21458298.4194   21458301.1124   21458298.6764
       241.000         207.000
 127313421.50648  99205252.64948  24226945.5984   24226948.7214   24226946.3004
       218.000         163.000
 121313112.69348  94529695.09248  23085119.2884   23085121.1064   23085119.9644
       228.000         181.000
 120664595.80348  94024356.84048  22961711.5634   22961713.3704   22961712.3884
       233.000         188.000
 125594940.70448  97866185.15148  23899923.5664   23899925.7664   23899923.2794
       220.000         177.000
 127759118.14048  99552549.26448  24311760.0954   24311761.5224   24311759.5634
       218.000         165.000
 126012334.04448  98191410.82148  23979363.4634   23979367.0414   23979364.0294
       221.000         168.000
 09  1 14  0 25  0.0000000  0  9G26G15G 9G27G18G28G17G12G10
 108065341.54348  84206739.92848  20564167.3104   20564169.8604   20564166.9264
       252.000         224.000
 106875311.39148  83279462.18948  20337695.1614   20337696.7934   20337695.2404
       253.000         241.000
 112694374.46848  87813787.36648  21445036.3234   21445039.5184   21445036.0754
       241.000         207.000
 127384214.57748  99260416.07848  24240416.9544   24240420.5474   24240417.1964
       218.000         163.000
 121247013.51348  94478189.25148  23072540.9404   23072543.1784   23072541.5284
       229.000         182.000
 120738390.49748  94081859.20348  22975754.3924   22975755.9974   22975754.5424
       232.000         187.000
 125539002.02048  97822596.56648  23889278.7544   23889280.4144   23889278.8024
       219.000         174.000
 127646362.85748  99464688.01148  24290303.0704   24290304.5254   24290303.4644
       220.000         166.000
 126122658.28848  98277377.74348  24000357.6574   24000361.4184   24000358.5774
       219.000         167.000
 09  1 14  0 25 30.0000000  0  9G26G15G 9G27G18G28G17G12G10
 108110043.91048  84241572.93348  20572673.8374   20572676.4864   20572673.8144
       251.000         224.000
 106867269.45948  83273195.74148  20336164.8884   20336166.4244   20336164.3734
       254.000         241.000
 112624954.22248  87759693.69348  21431826.2354   21431829.3034   21431826.4354
       242.000         208.000
 127455017.66348  99315587.28648  24253890.8954   24253893.7144   24253890.4944
       218.000         163.000
 121181360.42848  94427030.99448  23060047.7704   23060049.5514   23060047.8804
