     2.11           OBSERVATION DATA    G (GPS)             RINEX VERSION / TYPE
teqc  2008Oct2      gpsops              20090117 00:05:45UTCPGM / RUN BY / DATE
    30.0000                                                 INTERVAL
     1     1                                                WAVELENGTH FACT L1/2
     7    L1    L2    P1    P2    C1    S1    S2            # / TYPES OF OBSERV
Linux 2.4.20-8|Pentium IV|gcc -static|Linux|486/DX+         COMMENT
     2.10           OBSERVATION DATA    GPS                 COMMENT
soc2rnx ver 1.20    gpsops              17-Jan-2009 00:05:42COMMENT
S1, if present, is the SNR for the C/A data stream on L1.   COMMENT
 SNR is mapped to RINEX snr flag value [1,4-9]              COMMENT
    SNR:   >316  >100  >31.6  >10  >3.2    >0 bad=0         COMMENT
L1 & L2:      9     8     7     6     5     4     1         COMMENT
                                                            COMMENT
This data is provided as a public service by NASA/JPL.      COMMENT
No warranty is expressed or implied regarding suitability   COMMENT
for use.  For further information, contact:                 COMMENT
Dave Stowers, NASA/JPL m/s 238-600                          COMMENT
4800 Oak Grove Drive, Pasadena CA 91109 USA                 COMMENT
                                                            COMMENT
Forced Modulo Decimation to 30 seconds                      COMMENT
  2009     1    16     0     0    0.0000000     GPS         TIME OF FIRST OBS
DSN                 JPL                                     OBSERVER / AGENCY
451-U               AOAD/M_T        NONE                    ANT # / TYPE
  4849202.3940  -360328.9929  4114913.1862                  APPROX POSITION XYZ
        0.0254        0.0000        0.0000                  ANTENNA: DELTA H/E/N
LP03574             ASHTECH Z-XII3      CC00                REC # / TYPE / VERS
MADR                                                        MARKER NAME
13407S012                                                   MARKER NUMBER
                                                            END OF HEADER
 09  1 16  0  0  0.0000000  0 10G 8G 9G28G18G26G10G15G17G27G12
 129278353.50048 100736359.95848  24600868.0724   24600871.2154   24600867.8784
       215.000         162.000
 115176499.33048  89747909.08048  21917368.3264   21917371.4374   21917369.0344
       238.000         200.000
 118455510.11048  92302987.34348  22541340.1004   22541343.2534   22541340.1314
       238.000         200.000
 123729669.95348  96412726.91548  23544974.4124   23544976.3304   23544975.4364
       222.000         172.000
 106793738.16448  83215888.23548  20322181.4944   20322183.9384   20322181.3654
       251.000         226.000
 122431953.92048  95401508.69048  23298037.7304   23298041.8004   23298038.6914
       227.000         180.000
 107366233.19248  83661992.96348  20431120.4524   20431122.0034   20431120.2234
       253.000         238.000
 127594454.53648  99424243.66348  24280422.0994   24280425.2724   24280422.5624
       212.000         166.000
 124421695.84148  96951958.75648  23676671.1594   23676674.2554   23676671.6844
       228.000         183.000
 131515870.30348 102479875.57548  25026656.5144   25026660.4634   25026656.6374
       209.000         154.000
 09  1 16  0  0 30.0000000  0 10G 8G 9G28G18G26G10G15G17G27G12
 129369034.73748 100807020.68848  24618123.6104   24618127.2504   24618124.3054
       214.000         158.000
 115098304.07848  89686977.73448  21902488.6524   21902491.4384   21902488.5264
       239.000         201.000
 118517866.09548  92351576.43648  22553205.9444   22553209.2024   22553205.9814
       238.000         200.000
 123650190.20648  96350794.67248  23529850.0684   23529852.0464   23529850.3144
       223.000         176.000
 106825208.64248  83240410.68348  20328170.1244   20328172.6194   20328170.0734
       251.000         226.000
 122538652.05548  95484650.09048  23318341.6354   23318345.2804   23318342.7484
       227.000         180.000
 107345430.01548  83645782.69248  20427161.6664   20427163.2784   20427161.4314
       252.000         238.000
 127528676.18548  99372987.82548  24267905.6844   24267909.0074   24267904.7334
       213.000         166.000
 124491333.52248  97006221.86348  23689922.9054   23689925.7684   23689923.4904
       228.000         183.000
 131400657.44248 102390099.36248  25004732.2264   25004736.0494   25004732.8824
       211.000         156.000
 09  1 16  0  1  0.0000000  0 10G 8G 9G28G18G26G10G15G17G27G12
 129459721.16748 100877685.39648  24635381.5394   24635384.3584   24635381.7964
       215.000         162.000
 115020360.92448  89626242.83648  21887656.6054   21887659.4234   21887657.0574
       238.000         201.000
 118580607.45448  92400465.80748  22565145.4084   22565148.7704   22565146.0284
       237.000         200.000
 123571080.80548  96289150.98348  23514796.3504   23514798.7094   23514795.6384
       224.000         177.000
 106857074.98048  83265241.58948  20334234.0164   20334236.5664   20334234.0454
       251.000         226.000
 122645501.69248  95567909.54648  23338674.9784   23338678.0014   23338675.5764
       228.000         180.000
 107324992.22148  83629857.13048  20423272.4364   20423274.0774   20423272.1944
       252.000         238.000
 127463156.58648  99321933.54848  24255438.5194   24255439.5984   24255438.4544
       213.000         164.000
 124560995.36948  97060503.80948  23703178.8014   23703182.3854   23703179.1674
       226.000         182.000
 131285483.99948 102300353.87148  24982816.0804   24982818.2664   24982816.8804
       213.000         158.000
 09  1 16  0  1 30.0000000  0 10G 8G 9G28G18G26G10G15G17G27G12
 129550411.69148 100948353.36148  24652639.4724   24652642.3004   24652640.1034
       216.000         164.000
 114942670.24148  89565704.67148  21872872.4654   21872875.2654   21872872.4464
       238.000         200.000
 118643731.54248  92449653.41448  22577157.7304   22577160.8914   22577157.9054
       238.000         200.000
 123492343.74248  96227797.42448  23499813.4424   23499815.1554   23499813.0104
       222.000         176.000
 106889336.64248  83290380.54248  20340373.1034   20340375.7344   20340373.2084
       251.000         226.000
 122752500.14648  95651284.95848  23359035.8924   23359039.3684   23359036.8684
       227.000         179.000
 107304920.73148  83614217.00848  20419452.8684   20419454.4944   20419452.6114
       252.000         238.000
 127397897.61948  99271082.42148  24243020.1924   24243022.1884   24243019.8904
       216.000         168.000
 124630680.48448  97114803.88248  23716439.2344   23716442.9494   23716439.0904
       227.000         182.000
 131170351.15148 102210639.98848  24960907.8824   24960908.7074   24960907.1104
       213.000         156.000
 09  1 16  0  2  0.0000000  0 10G 8G 9G28G18G26G10G15G17G27G12
 129641105.94548 101019024.20148  24669897.8374   24669901.4624   24669898.2864
       217.000         165.000
 114865232.75948  89505363.77848  21858136.4754   21858138.9844   21858136.5774
       237.000         200.000
 118707236.77248  92499138.01448  22589242.2924   22589245.2954   22589242.3914
       237.000         198.000
 123413981.70648  96166736.11048  23484901.4864   23484903.3914   23484900.2604
       225.000         177.000
 106921993.98048  83315827.81048  20346587.6114   20346590.1354   20346587.5034
       251.000         226.000
 122859644.52448  95734774.09048  23379424.3714   23379427.8174   23379425.2784
       225.000         178.000
 107285217.17848  83598863.58748  20415703.5294   20415705.0204   20415703.3684
       252.000         238.000
 127332902.88148  99220437.17648  24230651.5704   24230653.5364   24230651.4104
       216.000         166.000
 124700388.95748  97169122.15548  23729704.2414   23729708.3024   23729704.8404
       223.000         182.000
 131055261.47048 102120959.75748  24939006.0194   24939007.3134   24939005.8514
       211.000         153.000
 09  1 16  0  2 30.0000000  0 10G 8G 9G28G18G26G10G15G17G27G12
 129731802.78748 101089697.06548  24687156.6624   24687160.0794   24687156.7454
       214.000         163.000
 114788048.61048  89445220.32248  21843448.7504   21843451.9544   21843448.7404
       239.000         202.000
 118771120.30548  92548917.39748  22601399.0534   22601401.6554   22601399.6984
       236.000         196.000
 123335996.36148  96105968.31548  23470061.6694   23470063.3364   23470062.3124
       226.000         178.000
 106955046.73148  83341583.19748  20352877.2404   20352879.8094   20352877.1734
       251.000         225.000
 122966932.33548  95818374.98848  23399840.5094   23399844.9554   23399841.1894
       225.000         178.000
 107265882.61148  83583797.69048  20412024.2944   20412025.8494   20412024.0944
       252.000         238.000
 127268174.95448  99169999.86048  24218334.2524   24218336.4984   24218334.0134
       214.000         165.000
 124770119.81348  97223457.89248  23742973.5344   23742977.8584   23742973.4094
       224.000         181.000
 130940216.98648 102031314.73048  24917114.1144   24917114.9304   24917114.2494
       212.000         153.000
 09  1 16  0  3  0.0000000  0 10G 8G 9G28G18G26G10G15G17G27G12
 129822502.01648 101160371.76848  24704416.4084   24704419.4554   24704416.8484
       216.000         160.000
 114711118.83848  89385275.06848  21828809.6654   21828812.7314   21828810.1244
       238.000         202.000
 118835380.87648  92598990.55948  22613627.2824   22613629.2504   22613627.7224
       238.000         195.000
 123258390.72548  96045496.40548  23455293.5324   23455295.1634   23455294.1674
       225.000         175.000
 106988495.20248  83367646.93448  20359242.5594   20359244.8884   20359242.4914
       251.000         226.000
 123074360.96248  95902085.59448  23420282.9334   23420287.7454   23420283.1864
       224.000         177.000
 107246918.25748  83569020.26648  20408415.5294   20408417.0554   20408415.2434
       252.000         238.000
 127203716.77948  99119772.69648  24206068.5524   24206070.0934   24206069.1154
       217.000         167.000
 124839872.93248  97277810.95848  23756247.6504   23756251.4134   23756248.0624
       227.000         181.000
 130825220.23648 101941706.89748  24895231.6504   24895231.5764   24895231.1734
       207.000         152.000
 09  1 16  0  3 30.0000000  0 10G 8G 9G28G18G26G10G15G17G27G12
 129913202.06048 101231047.12348  24721676.1234   24721679.2084   24721677.2224
       215.000         159.000
 114634443.51348  89325528.07848  21814218.7704   21814221.9914   21814218.3684
       238.000         202.000
 118900015.68248  92649355.33448  22625926.9564   22625928.2664   22625927.9044
       236.000         192.000
 123181166.70548  95985321.85948  23440598.2024   23440599.2894   23440600.0954
       225.000         175.000
 107022338.80748  83394018.56748  20365682.7434   20365685.2494   20365682.6224
       251.000         226.000
 123181927.04148  95985903.30948  23440753.1134   23440756.3524   23440753.7484
       227.000         177.000
 107228324.98748  83554532.00348  20404877.2744   20404878.8784   20404876.9334
       252.000         238.000
 127139530.83348  99069757.67648  24193855.2484   24193856.6154   24193854.6484
       218.000         167.000
 124909647.30148  97332180.59448  23769525.2594   23769528.9404   23769525.8314
       225.000         181.000
 130710273.21248 101852137.84348  24873356.9764   24873358.4744   24873356.6424
       207.000         150.000
 09  1 16  0  4  0.0000000  0 10G 8G 9G28G18G26G10G15G17G27G12
 130003901.95048 101301722.39548  24738935.5274   24738939.1084   24738935.8454
       219.000         159.000
 114558023.57448  89265980.08248  21799676.6494   21799679.5704   21799676.9244
       240.000         203.000
 118965022.32548  92700009.84648  22638297.1294   22638297.4874   22638297.9444
       235.000         189.000
 123104326.91748  95925446.70448  23425976.0574   23425977.7324   23425976.6014
       225.000         176.000
 107056577.81448  83420698.30748  20372198.0374   20372200.8594   20372197.9564
       251.000         226.000
 123289628.42948  96069826.46548  23461247.9064   23461251.2554   23461249.4204
       225.000         176.000
 107210104.13348  83540333.92948  20401410.0294   20401411.5754   20401409.9804
       252.000         239.000
 127075620.00048  99019957.02348  24181692.8174   24181694.6784   24181693.0784
       218.000         168.000
 124979442.61648  97386566.51748  23782806.7944   23782810.5224   23782806.7354
       224.000         179.000
 130595378.22748 101762609.27248  24851492.9754   24851494.5564   24851491.8884
       208.000         149.000
 09  1 16  0  4 30.0000000  0 10G 8G 9G28G18G26G10G15G17G27G12
 130094601.75448 101372397.56648  24756195.6984   24756198.8454   24756196.8064
       218.000         160.000
 114481860.28448  89206632.09148  21785183.1254   21785186.0644   21785183.4834
       238.000         203.000
 119030399.62548  92750953.19048  22650738.0594   22650737.5944   22650738.3744
       236.000         189.000
 123027874.39148  95865873.32648  23411427.4454   23411429.5804   23411429.1634
       226.000         176.000
 107091212.83048  83447686.62748  20378789.1484   20378791.7294   20378789.1104
       252.000         226.000
 123397463.33148  96153853.66048  23481767.4034   23481771.3064   23481768.1264
       222.000         174.000
 107192257.66348  83526427.58548  20398013.9194   20398015.5084   20398013.6304
       253.000         239.000
 127011987.82548  98970373.51348  24169584.4434   24169585.6144   24169584.4104
       221.000         170.000
 125049259.46348  97440969.24648  23796092.4424   23796096.0914   23796092.3964
       224.000         179.000
 130480537.88248 101673123.32148  24829639.3374   24829641.4034   24829638.4994
       207.000         150.000
 09  1 16  0  5  0.0000000  0 10G 8G 9G28G18G26G10G15G17G27G12
 130185301.37448 101443072.58848  24773454.9064   24773458.0584   24773454.9744
       217.000         162.000
 114405954.48848  89147484.75248  21770738.6174   21770741.6284   21770738.6194
       238.000         202.000
 119096145.67548  92802183.86348  22663249.0894   22663248.9034   22663249.3504
       235.000         189.000
 122951811.62848  95806603.64748  23396952.7754   23396955.3094   23396954.2004
       224.000         177.000
 107126243.89748  83474983.55548  20385455.2344   20385457.7474   20385455.2334
       251.000         225.000
 123505428.97348  96237982.72248  23502312.5294   23502316.5854   23502313.6124
       223.000         173.000
 107174786.93248  83512814.02248  20394689.4164   20394690.9104   20394689.3084
       253.000         239.000
 126948637.13148  98921009.33848  24157529.0314   24157530.5184   24157529.8564
       218.000         170.000
 125119097.56448  97495388.54148  23809382.2804   23809385.6764   23809382.2324
       226.000         180.000
 130365754.86948 101583682.02348  24807796.5074   24807799.4924   24807795.2484
       208.000         151.000
 09  1 16  0  5 30.0000000  0 10G 8G 9G28G18G26G10G15G17G27G12
 130275999.22648 101513746.22748  24790714.0054   24790717.6924   24790714.7614
       218.000         162.000
 114330306.28748  89088538.10448  21756343.2544   21756346.0644   21756343.5204
       239.000         203.000
 119162258.05948  92853699.99648  22675829.7034   22675830.2344   22675829.7304
       235.000         190.000
 122876140.39648  95747639.05348  23382553.6984   23382555.5914   23382554.1144
       228.000         178.000
 107161670.72648  83502588.86648  20392196.6624   20392199.1124   20392196.5014
       251.000         225.000
 123613522.44148  96322211.39348  23522881.9044   23522885.7624   23522882.8054
       221.000         173.000
 107157693.09648  83499494.14548  20391436.4474   20391438.0954   20391436.2404
       252.000         239.000
 126885570.50648  98871866.49448  24145528.2844   24145529.5584   24145527.7764
       217.000         173.000
 125188956.22548  97549823.83948  23822676.2874   23822679.3214   23822676.4134
       227.000         179.000
 130251030.89348 101494286.75748  24785965.1254   24785968.9634   24785965.9254
       212.000         155.000
 09  1 16  0  6  0.0000000  0 10G 8G 9G28G18G26G10G15G17G27G12
 130366694.99648 101584418.24548  24807972.7524   24807975.8974   24807973.1974
       217.000         158.000
 114254916.58048  89029792.89048  21741997.0144   21742000.1074   21741996.8264
       239.000         203.000
 119228734.71948  92905499.98948  22688479.7874   22688481.3474   22688480.2354
       235.000         191.000
 122800863.70548  95688981.88348  23368228.7864   23368230.8154   23368229.7844
       227.000         177.000
 107197493.45448  83530502.66848  20399013.5054   20399016.0114   20399013.3464
       251.000         225.000
 123721741.03648  96406537.58348  23543475.9714   23543478.9664   23543476.5704
       224.000         171.000
 107140977.48748  83486468.99148  20388255.7044   20388257.1444   20388255.3884
       253.000         239.000
 126822791.00648  98822947.41848  24133580.9464   24133583.0294   24133581.4634
       216.000         172.000
 125258835.33648  97604275.06948  23835973.8844   23835977.0324   23835974.0334
       227.000         179.000
 130136368.57348 101404939.47648  24764146.9014   24764149.9604   24764146.9094
       212.000         157.000
 09  1 16  0  6 30.0000000  0 10G 8G 9G28G18G26G10G15G17G27G12
 130457387.85848 101655088.00148  24825230.8364   24825234.1074   24825231.4484
       218.000         158.000
 114179785.54848  88971249.26048  21727700.1194   21727703.0404   21727700.3044
       238.000         202.000
 119295573.42948  92957582.10948  22701198.7334   22701200.9204   22701198.5014
       235.000         192.000
 122725983.32948  95630633.55648  23353979.7184   23353980.9374   23353980.0074
       227.000         176.000
 107233711.64048  83558724.63348  20405905.5484   20405908.1744   20405905.5714
       251.000         225.000
 123830082.04648  96490959.14248  23564092.6924   23564095.5814   23564093.6024
       226.000         174.000
 107124641.12048  83473739.35748  20385146.9204   20385148.4184   20385146.7154
       253.000         239.000
 126760301.05248  98774253.94048  24121689.7254   24121691.6804   24121689.4284
       218.000         172.000
 125328734.22948  97658741.72648  23849275.0014   23849277.8604   23849275.2214
       225.000         177.000
 130021770.17048 101315642.02948  24742339.7944   24742341.7294   24742338.3894
       209.000         156.000
 09  1 16  0  7  0.0000000  0 10G 8G 9G28G18G26G10G15G17G27G12
 130548077.32048 101725755.10748  24842489.1264   24842491.8744   24842489.8184
       220.000         164.000
 114104914.35748  88912908.09248  21713452.5044   21713455.5694   21713452.7934
       239.000         203.000
 119362772.04548  93009944.67048  22713986.1874   22713988.8854   22713986.3224
       235.000         193.000
 122651502.17848  95572596.29248  23339806.6334   23339807.4984   23339806.4014
       227.000         177.000
 107270325.65748  83587255.02848  20412873.0414   20412875.6154   20412872.8434
       251.000         225.000
 123938543.35348  96575474.45048  23584732.3664   23584735.7244   23584733.2944
       224.000         175.000
 107108685.38448  83461306.31448  20382110.6654   20382112.1554   20382110.4474
       253.000         239.000
 126698103.86548  98725788.61248  24109853.6684   24109855.0784   24109853.8474
       215.000         167.000
 125398652.68348  97713223.64948  23862579.8304   23862582.8984   23862580.1834
       222.000         175.000
 129907238.58448 101226396.66148  24720544.9874   24720546.8604   24720544.5784
       214.000         156.000
 09  1 16  0  7 30.0000000  0 10G 8G 9G28G18G26G10G15G17G27G12
 130638758.83748 101796415.98848  24859745.1414   24859747.9324   24859745.6814
       218.000         163.000
 114030299.44748  88854766.62548  21699254.0144   21699256.9404   21699253.9234
       240.000         203.000
 119430324.70648  93062583.11648  22726841.1784   22726843.9664   22726841.6524
       235.000         194.000
 122577418.54448  95514868.80648  23325708.7694   23325710.5064   23325709.7934
       227.000         178.000
 107307331.54448  83616090.77348  20419915.0994   20419917.5934   20419915.0344
       251.000         225.000
 124047118.26948  96660078.27648  23605393.6154   23605396.5884   23605394.5844
       225.000         172.000
 107093107.44248  83449167.66148  20379146.2244   20379147.8784   20379146.1014
       253.000         239.000
 126636198.34848  98677550.56448  24098073.6274   24098075.5274   24098073.2464
       217.000         171.000
 125468586.55548  97767717.55048  23875887.8824   23875891.1504   23875888.1584
       225.000         175.000
 129792771.03648 101137201.15748  24698762.3504   24698763.8954   24698764.2954
       212.000         153.000
 09  1 16  0  8  0.0000000  0 10G 8G 9G28G18G26G10G15G17G27G12
 130729437.02748 101867074.34248  24877000.6904   24877003.3994   24877000.8654
       216.000         163.000
 113955946.85148  88796829.54848  21685104.9724   21685108.0374   21685104.9764
       239.000         204.000
 119498234.85548  93115500.11148  22739764.0094   22739766.8884   22739764.5614
       235.000         194.000
 122503740.14448  95457457.07048  23311688.0004   23311689.5804   23311687.2524
       227.000         177.000
 107344734.67748  83645236.06448  20427032.5614   20427035.1394   20427032.6214
       251.000         225.000
 124155809.55648  96744772.79248  23626076.3294   23626079.8924   23626076.7014
       222.000         173.000
 107077914.09748  83437328.68648  20376255.1524   20376256.7174   20376254.9734
       252.000         239.000
 126574592.63048  98629546.13148  24086350.1724   24086352.0214   24086350.2164
       217.000         168.000
 125538540.78248  97822227.31748  23889199.7844   23889203.0064   23889200.7854
       225.000         177.000
 129678375.73948 101048062.02548  24676992.8254   24676994.2174   24676993.5634
       214.000         156.000
 09  1 16  0  8 30.0000000  0 10G 8G 9G28G18G26G10G15G17G27G12
 130820110.49048 101937728.96548  24894254.9324   24894258.4534   24894255.6994
       217.000         165.000
 113881856.55648  88739096.87148  21671006.0584   21671008.9154   21671006.1134
       240.000         204.000
 119566499.32748  93168693.21548  22752754.3504   22752757.1754   22752755.4244
       236.000         194.000
 122430468.83448  95400362.54748  23297744.8404   23297746.9364   23297745.2834
       227.000         179.000
 107382534.13648  83674690.18148  20434225.5584   20434228.2964   20434225.5394
       251.000         225.000
 124264613.90648  96829555.39548  23646780.9354   23646784.6014   23646780.8454
       224.000         173.000
 107063106.07248  83425789.96248  20373437.2584   20373438.7644   20373436.9164
       253.000         239.000
 126513288.98748  98581777.06448  24074684.0944   24074686.0764   24074684.0074
       215.000         169.000
 125608514.61848  97876752.39148  23902515.4364   23902518.6644   23902515.8824
       225.000         177.000
 129564054.43348 100958980.48148  24655238.8534   24655239.3084   24655239.2884
       213.000         159.000
 09  1 16  0  9  0.0000000  0 10G 8G 9G28G18G26G10G15G17G27G12
 130910777.69148 102008378.73148  24911508.5384   24911511.9664   24911509.1654
       220.000         165.000
 113808028.62148  88681568.63048  21656957.2184   21656959.9434   21656957.2234
       240.000         204.000
 119635115.46148  93222160.34448  22765811.5774   22765814.5634   22765812.4104
       236.000         194.000
 122357606.21248  95343586.46748  23283879.8324   23283881.6954   23283880.5284
       228.000         180.000
 107420729.45248  83704452.75948  20441493.9914   20441496.5844   20441493.8794
       251.000         225.000
 124373528.20448  96914423.66848  23667506.8904   23667510.6104   23667507.9804
       224.000         173.000
 107048683.88248  83414551.89548  20370692.8204   20370694.3094   20370692.5404
       253.000         239.000
 126452289.30048  98534244.83648  24063077.1654   24063078.6714   24063076.9424
       217.000         168.000
 125678507.12548  97931291.99748  23915834.2234   23915837.9974   23915833.7974
       224.000         176.000
 129449808.60248 100869957.78548  24633497.8584   24633499.2754   24633495.9024
       212.000         159.000
 09  1 16  0  9 30.0000000  0 10G 8G 9G28G18G26G10G15G17G27G12
 131001438.64448 102079023.62948  24928760.9004   24928764.3514   24928761.8554
       218.000         165.000
 113734463.80348  88624245.41148  21642958.0584   21642960.7984   21642958.5314
       238.000         202.000
 119704081.28248  93275899.94148  22778935.5354   22778938.2774   22778936.2574
       236.000         194.000
 122285154.70748  95287130.75348  23270092.6544   23270094.7404   23270092.3594
       230.000         181.000
 107459320.60348  83734523.78048  20448837.6014   20448840.1104   20448837.6004
       251.000         225.000
 124482550.07348  96999375.76348  23688253.2774   23688256.4854   23688254.0654
       222.000         171.000
 107034648.65848  83403615.36048  20368021.9364   20368023.5354   20368021.6604
       254.000         240.000
 126391596.90648  98486952.08748  24051526.4694   24051529.2054   24051526.2144
       217.000         168.000
 125748518.15648  97985846.03448  23929157.2814   23929160.5294   23929157.7384
       224.000         174.000
 129335640.90548 100780995.93248  24611772.4044   24611773.9544   24611770.4334
       210.000         158.000
 09  1 16  0 10  0.0000000  0 10G 8G 9G28G18G26G10G15G17G27G12
 131092092.08148 102149662.63748  24946011.5024   24946014.5644   24946012.5284
       222.000         171.000
 113661162.27148  88567127.35848  21629008.9594   21629012.0254   21629008.8204
       239.000         203.000
 119773394.11148  93329909.93248  22792125.5314   22792128.0614   22792126.2914
       235.000         193.000
 122213116.20148  95230996.86748  23256384.5074   23256386.0134   23256385.8134
       228.000         180.000
 107498306.93348  83764902.73048  20456256.4424   20456259.1504   20456256.1604
       251.000         225.000
 124591676.01748  97084408.95848  23709019.0124   23709022.2734   23709019.8474
       222.000         170.000
 107021001.47848  83392981.19548  20365425.0754   20365426.5614   20365424.9524
       254.000         240.000
 126331213.83348  98439900.32648  24040037.0654   24040038.6564   24040036.5254
       219.000         172.000
 125818546.73848  98040413.76648  23942483.2084   23942486.6234   23942483.3304
       224.000         174.000
 129221553.05248 100692096.29448  24590061.7194   24590063.4954   24590060.1794
       214.000         159.000
 09  1 16  0 10 30.0000000  0 10G 8G 9G28G18G26G10G15G17G27G12
 131182736.72848 102220294.81348  24963260.2784   24963264.1664   24963260.7544
       222.000         170.000
 113588123.43148  88510213.98448  21615110.5574   21615113.0654   21615110.6224
       239.000         204.000
 119843051.28848  93384188.25748  22805380.7314   22805383.1184   22805381.1764
       235.000         193.000
 122141492.40548  95175186.13048  23242754.4954   23242756.3454   23242755.6784
       226.000         179.000
 107537687.72248  83795589.05648  20463750.4594   20463753.1734   20463750.4594
       251.000         225.000
 124700902.74748  97169520.69748  23729803.8154   23729807.7844   23729804.5544
       222.000         170.000
 107007742.68848  83382649.67148  20362901.8534   20362903.4524   20362901.6754
       253.000         240.000
 126271142.07048  98393091.14748  24028606.3814   24028607.2264   24028606.3644
       218.000         172.000
 125888591.85248  98094994.37448  23955812.8644   23955815.7204   23955813.2874
       226.000         175.000
 129107546.62648 100603260.11248  24568368.0854   24568369.2324   24568366.8574
       214.000         162.000
 09  1 16  0 11  0.0000000  0 10G 8G 9G28G18G26G10G15G17G27G12
 131273372.60448 102290920.17648  24980507.7204   24980511.6184   24980508.5304
       218.000         160.000
 113515349.11948  88453506.74548  21601261.9664   21601264.5954   21601261.9144
       237.000         204.000
 119913051.23748  93438733.66948  22818701.0654   22818703.2574   22818701.6604
       233.000         192.000
 122070286.36948  95119700.91048  23229204.3034   23229205.9184   23229205.0194
       228.000         179.000
 107577463.77548  83826583.38348  20471319.4964   20471322.1264   20471319.4494
       251.000         225.000
 124810228.52948  97254709.61348  23750607.9424   23750611.8984   23750607.8604
       222.000         168.000
 106994874.48848  83372622.49948  20360453.2544   20360454.7414   20360452.9804
       253.000         240.000
 126211385.48048  98346527.57748  24017234.5994   24017237.1034   24017234.7624
       220.000         173.000
 125958654.27648  98149588.46548  23969145.0694   23969148.1824   23969145.5444
       223.000         174.000
 128993624.82248 100514489.88048  24546689.8054   24546691.5884   24546688.9024
       219.000         166.000
 09  1 16  0 11 30.0000000  0 10G 8G 9G28G18G26G10G15G17G27G12
 131363998.95848 102361538.07948  24997753.8494   24997756.9404   24997754.0874
       209.000         147.000
 113442839.77148  88397005.96448  21587463.6194   21587466.6994   21587463.3434
       240.000         205.000
 119983391.44048  93493544.21648  22832086.2044   22832088.1654   22832086.0914
       233.000         191.000
 121999500.15048  95064542.82948  23215734.1724   23215735.9524   23215736.1314
       228.000         179.000
 107617634.55548  83857885.28548  20478963.7564   20478966.2994   20478963.4284
       251.000         225.000
 124919650.52548  97339973.51348  23771430.1984   23771433.8114   23771431.6134
       220.000         168.000
 106982397.50148  83362900.17148  20358078.9294   20358080.6364   20358078.7754
       253.000         240.000
 126151946.14348  98300211.24248  24005923.7294   24005925.8584   24005923.2334
       219.000         171.000
 126028733.17748  98204195.38948  23982480.1244   23982483.8424   23982480.1984
       224.000         173.000
 128879790.01948 100425787.43548  24525027.7654   24525029.6494   24525028.1704
       217.000         168.000
 09  1 16  0 12  0.0000000  0  9G 9G28G18G26G10G15G17G27G12
 113370596.07148  88340712.18948  21573716.2944   21573719.1564   21573716.5784
       241.000         205.000
 120054070.24548  93548618.61248  22845536.1594   22845537.7884   22845536.7324
       234.000         191.000
 121929136.14248  95009713.72848  23202344.0794   23202345.9984   23202345.1594
       228.000         177.000
 107658200.29448  83889494.94548  20486683.2184   20486685.7514   20486683.3114
       251.000         224.000
 125029166.66748  97425310.73648  23792270.4904   23792274.6824   23792270.5934
       223.000         171.000
 106970313.24548  83353483.86748  20355779.4764   20355781.1284   20355779.1474
       254.000         241.000
 126092827.32848  98254144.61748  23994673.7494   23994675.1354   23994673.2944
       216.000         170.000
 126098828.72748  98258815.30948  23995818.6944   23995822.5634   23995819.1194
       221.000         172.000
 128766043.89948 100337154.11048  24503382.2824   24503384.4744   24503381.7684
       218.000         168.000
 09  1 16  0 12 30.0000000  0 10G 8G 9G28G18G26G10G15G17G27G12
 141545245.88258  92502778.94658  25032238.4295   25032243.0585   25032239.4255
       184.000         126.000
 113298618.97148  88284626.13548  21560019.7784   21560022.1764   21560019.6944
       239.000         205.000
 120125085.44548  93603955.12648  22859049.7924   22859051.5174   22859050.1744
       232.000         190.000
 121859196.82448  94955215.56548  23189034.7754   23189036.9484   23189035.4724
       227.000         179.000
 107699160.89448  83921412.28948  20494477.7854   20494480.3264   20494477.7044
       251.000         224.000
 125138774.25948  97510719.25248  23813128.6394   23813132.2314   23813130.4364
       223.000         169.000
 106958623.15948  83344374.70548  20353554.9134   20353556.4374   20353554.6914
       253.000         240.000
 126034032.00848  98208330.07548  23983486.3124   23983487.5234   23983485.9904
       219.000         172.000
 126168940.79748  98313448.10148  24009160.6754   24009163.9364   24009160.9824
       224.000         171.000
 128652389.21348 100248592.02048  24481754.7234   24481757.2054   24481753.1814
       216.000         169.000
 09  1 16  0 13  0.0000000  0  9G 9G28G18G26G10G15G17G27G12
 113226908.32548  88228747.72848  21546373.4534   21546376.1364   21546373.5344
       239.000         205.000
 120196434.20548  93659551.55348  22872627.4984   22872628.8114   22872627.9594
       233.000         191.000
 121789683.81648  94901049.55348  23175807.5054   23175809.1324   23175807.7984
       226.000         180.000
 107740515.52748  83953636.67148  20502347.3074   20502349.8084   20502347.3244
       251.000         225.000
 125248469.96148  97596196.41748  23834002.7344   23834005.9404   23834003.7934
       220.000         167.000
 106947327.64348  83335573.00448  20351405.4294   20351406.8874   20351405.1424
       254.000         240.000
 125975562.00448  98162769.00148  23972358.7994   23972360.3684   23972359.0954
       217.000         169.000
 126239068.34448  98368092.92248  24022505.9314   24022508.9244   24022506.2374
       221.000         170.000
 128538827.68848 100160102.54448  24460144.4264   24460147.3284   24460143.4004
       218.000         168.000
 09  1 16  0 13 30.0000000  0  9G 9G28G18G26G10G15G17G27G12
 113155465.21948  88173077.79348  21532777.9504   21532781.1674   21532777.7824
       239.000         206.000
 120268115.03148  93715406.73348  22886267.5724   22886269.5874   22886267.8734
       232.000         190.000
 121720600.13548  94847218.12448  23162661.0314   23162663.4384   23162661.2264
       228.000         180.000
 107782264.72348  83986168.51048  20510291.8414   20510294.4274   20510291.8694
       250.000         224.000
 125358251.92648  97681740.80848  23854893.6314   23854896.8624   23854893.6714
       222.000         170.000
 106936428.51548  83327080.17648  20349331.4074   20349332.7744   20349331.1964
       254.000         240.000
 125917420.81748  98117464.20048  23961294.7204   23961296.1904   23961295.1554
       217.000         170.000
 126309211.94548  98422750.26648  24035853.4714   24035856.5064   24035853.5444
       223.000         170.000
 128425362.25048 100071687.90748  24438552.3314   24438555.0644   24438551.6684
       217.000         165.000
 09  1 16  0 14  0.0000000  0  9G 9G28G18G26G10G15G17G27G12
 113084289.94648  88117616.54248  21519234.0194   21519236.9504   21519233.8744
       240.000         206.000
 120340125.59448  93771518.86148  22899970.4694   22899972.4224   22899970.4414
       228.000         189.000
 121651947.77648  94793722.77248  23149597.2194   23149599.4254   23149598.2684
       228.000         181.000
 107824408.26748  84019007.63448  20518311.7294   20518314.0114   20518311.3324
       252.000         225.000
 125468117.54948  97767350.36748  23875800.4914   23875804.5074   23875802.3724
       222.000         168.000
 106925926.95648  83318897.14148  20347332.9584   20347334.4274   20347332.7194
       254.000         240.000
 125859611.24648  98072417.75448  23950293.6444   23950295.8974   23950293.6394
       215.000         169.000
 126379371.17348  98477419.81448  24049204.5404   24049207.0474   24049204.6594
       222.000         169.000
 128311995.13248  99983349.91848  24416978.6774   24416981.2374   24416978.1824
       217.000         165.000
 09  1 16  0 14 30.0000000  0  9G 9G28G18G26G10G15G17G27G12
 113013382.22648  88062363.79548  21505740.7584   21505743.7554   21505740.9924
       239.000         206.000
 120412462.76248  93827885.47748  22913735.6534   22913737.9324   22913735.3624
       232.000         190.000
 121583728.16648  94740564.63748  23136614.9914   23136617.3774   23136616.2504
       228.000         179.000
 107866945.05548  84052153.17148  20526405.8934   20526408.4084   20526406.1524
       250.000         224.000
 125578063.50248  97853022.51148  23896722.3054   23896726.9684   23896723.7054
       222.000         170.000
 106915823.19348  83311024.07548  20345410.1354   20345411.6894   20345409.8544
       254.000         240.000
 125802134.76848  98027630.91648  23939356.4334   23939357.9654   23939356.3184
       220.000         170.000
 126449545.09148  98532100.78848  24062558.0044   24062561.6174   24062558.3294
       225.000         171.000
 128198727.84848  99895089.70048  24395424.9414   24395426.4264   24395424.6514
       218.000         166.000
 09  1 16  0 15  0.0000000  0  9G 9G28G18G26G10G15G17G27G12
 112942743.72648  88007320.81948  21492298.5044   21492301.6674   21492298.4484
       242.000         207.000
 120485125.32848  93884505.64848  22927563.1294   22927564.8524   22927563.8804
       232.000         188.000
 121515944.35148  94687746.07448  23123716.6684   23123718.5714   23123717.7114
       227.000         179.000
 107909875.73848  84085605.65248  20534575.6484   20534577.9274   20534575.2064
       252.000         225.000
 125688087.44848  97938755.44148  23917659.4504   23917663.1814   23917659.5854
       222.000         167.000
 106906119.27048  83303462.57248  20343563.6264   20343565.0724   20343563.1964
       254.000         240.000
 125744994.95148  97983106.38248  23928483.3854   23928484.9594   23928482.9344
       221.000         173.000
 126519734.13948  98586793.56048  24075914.5474   24075918.2634   24075915.0784
       223.000         171.000
 128085563.24148  99806909.48348  24373890.7894   24373891.5434   24373891.0314
       216.000         164.000
 09  1 16  0 15 30.0000000  0  9G 9G28G18G26G10G15G17G27G12
 112872374.28048  87952487.49248  21478907.8814   21478910.7334   21478908.0404
       241.000         206.000
 120558110.33248  93941377.07348  22941451.9144   22941453.3824   22941452.2764
       234.000         188.000
 121448597.91548  94635268.35148  23110900.5674   23110902.8094   23110902.1334
       227.000         178.000
 107953199.51148  84119364.42148  20542819.4754   20542822.3294   20542819.5314
       250.000         224.000
 125798186.55148  98024546.93448  23938610.4754   23938614.0144   23938610.9504
       219.000         165.000
 106896815.47248  83296212.85648  20341793.3294   20341794.6824   20341793.3394
       254.000         240.000
 125688193.99448  97938845.92648  23917673.9374   23917676.1984   23917674.7794
       217.000         170.000
 126589937.43648  98641497.42048  24089274.2094   24089277.0134   24089274.1314
       223.000         169.000
 127972503.03548  99718810.66548  24352376.4394   24352377.2654   24352377.4274
       215.000         162.000
 09  1 16  0 16  0.0000000  0  9G 9G28G18G26G10G15G17G27G12
 112802274.87748  87897864.60048  21465568.4444   21465571.1694   21465568.6004
       241.000         207.000
 120631415.83948  93998498.24248  22955401.3444   22955402.8874   22955402.3284
       232.000         188.000
 121381691.07148  94583133.15948  23098168.6874   23098170.7904   23098169.4754
       229.000         181.000
 107996916.61148  84153429.69848  20551139.0484   20551141.4004   20551138.8124
       252.000         225.000
 125908358.61448  98110395.29248  23959576.4914   23959578.7594   23959576.3814
       224.000         166.000
 106887913.49148  83289276.23748  20340099.3434   20340100.7584   20340098.9664
       253.000         240.000
 125631734.95448  97894851.85548  23906930.4864   23906931.9694   23906930.8664
       215.000         171.000
 126660155.13648  98696212.49948  24102635.8764   24102639.2884   24102636.3214
       223.000         167.000
 127859550.10748  99630795.40548  24330882.5514   24330883.3504   24330882.4144
       219.000         165.000
 09  1 16  0 16 30.0000000  0  9G 9G28G18G26G10G15G17G27G12
 112732445.99048  87843452.49648  21452280.4764   21452283.3154   21452280.4174
       240.000         208.000
 120705039.83948  94055867.57348  22969411.4734   22969413.1854   22969412.3104
       230.000         187.000
 121315226.45948  94531342.54048  23085521.4874   23085523.1244   23085522.4964
       227.000         179.000
 108041026.81248  84187801.26948  20559532.5684   20559535.3094   20559532.4844
       251.000         225.000
 126018601.08948  98196298.50348  23980554.5784   23980557.0344   23980556.2584
       222.000         167.000
 106879414.46348  83282653.62548  20338481.8164   20338483.3524   20338481.8174
       254.000         240.000
 125575620.59648  97851126.38448  23896252.9064   23896253.9154   23896252.8194
       216.000         171.000
 126730386.99748  98750938.63048  24116000.4204   24116003.7794   24116001.0614
       221.000         166.000
 127746706.48848  99542865.30748  24309409.1264   24309410.2254   24309408.8814
       219.000         164.000
 09  1 16  0 17  0.0000000  0  9G 9G28G18G26G10G15G17G27G12
 112662888.56648  87789251.91248  21439044.0384   21439047.1354   21439044.0724
       240.000         207.000
 120778980.39348  94113483.59648  22983481.9484   22983483.5404   22983481.9264
       232.000         187.000
 121249206.67648  94479898.57148  23072957.5774   23072960.3804   23072957.9404
       228.000         180.000
 108085530.24548  84222479.27148  20568001.5844   20568004.1334   20568001.5124
       251.000         225.000
 126128910.95448  98282254.24248  24001545.5554   24001548.5724   24001546.9154
       219.000         166.000
 106871319.67548  83276345.98748  20336941.4824   20336942.9274   20336940.9434
       254.000         240.000
 125519853.64548  97807671.58148  23885639.9344   23885642.1364   23885639.8714
       220.000         174.000
 126800633.24048  98805675.97048  24129367.9394   24129371.4034   24129367.9944
       223.000         167.000
 127633974.95648  99455022.54948  24287956.7324   24287957.9214   24287957.3394
       220.000         165.000
 09  1 16  0 17 30.0000000  0  9G 9G28G18G26G10G15G17G27G12
 112593602.96748  87735263.15148  21425859.3104   21425862.4404   21425859.4174
       241.000         208.000
 120853234.88648  94171344.24048  22997612.2034   22997613.9484   22997612.7754
       230.000         186.000
 121183633.35648  94428802.45948  23060479.9014   23060481.4974   23060479.8144
       227.000         180.000
 108130426.22948  84257463.15048  20576544.9364   20576547.5594   20576544.8014
       252.000         225.000
 126239286.24448  98368260.93148  24022549.0944   24022553.9434   24022549.7834
       222.000         167.000
 106863630.28948  83270354.24848  20335478.2114   20335479.8094   20335478.0864
       253.000         241.000
 125464436.47148  97764489.36448  23875094.4884   23875096.6654   23875094.5624
       219.000         172.000
 126870893.29248  98860424.04248  24142738.1434   24142742.1554   24142738.6074
       221.000         167.000
 127521357.52548  99367268.71648  24266525.9644   24266527.9914   24266528.0384
       219.000         167.000
 09  1 16  0 18  0.0000000  0  9G 9G28G18G26G10G15G17G27G12
 112524590.44848  87681487.16448  21412726.8674   21412729.6114   21412727.2064
       241.000         208.000
 120927801.88948  94229448.38548  23011801.6824   23011803.8314   23011801.4704
       231.000         186.000
 121118509.39248  94378056.52248  23048087.4944   23048088.8694   23048087.2764
       227.000         180.000
 108175715.56448  84292753.53948  20585163.5044   20585165.6534   20585163.5714
       251.000         225.000
 126349724.68748  98454316.85548  24043565.0074   24043569.6274   24043565.1284
       221.000         164.000
 106856347.95748  83264679.69948  20334092.4754   20334094.0524   20334092.1284
       254.000         241.000
 125409372.45448  97721582.36548  23864616.2244   23864618.8394   23864616.2214
       219.000         174.000
 126941167.47448  98915183.15048  24156110.8814   24156114.0884   24156111.3134
       220.000         164.000
 127408856.94948  99279605.97448  24245117.4054   24245120.0794   24245117.5954
       218.000         166.000
 09  1 16  0 18 30.0000000  0  9G 9G28G18G26G10G15G17G27G12
 112455851.21448  87627924.12648  21399646.0964   21399648.9834   21399646.5964
       241.000         208.000
 121002678.53648  94287793.82448  23026050.4294   23026052.1564   23026050.5094
       232.000         187.000
 121053836.64748  94327662.18348  23035780.3554   23035781.9234   23035781.0434
       227.000         181.000
 108221397.11948  84328349.55048  20593856.2114   20593858.7684   20593856.2014
       252.000         225.000
 126460223.32548  98540419.67348  24064591.8624   24064595.6104   24064592.3844
       219.000         163.000
 106849473.07248  83259322.64048  20332784.3374   20332785.7134   20332784.0704
       254.000         240.000
 125354663.74748  97678952.16448  23854205.7694   23854207.8384   23854205.3954
       219.000         174.000
 127011455.14248  98969952.78748  24169485.8234   24169489.7984   24169486.4524
       216.000         164.000
 127296474.85248  99192035.53348  24223732.5214   24223734.5554   24223732.1184
       220.000         170.000
 09  1 16  0 19  0.0000000  0  9G 9G28G18G26G10G15G17G27G12
 112387385.55848  87574574.27648  21386617.2894   21386620.5194   21386617.4964
       241.000         208.000
 121077862.63348  94346378.83148  23040357.4554   23040359.1414   23040357.7884
       232.000         186.000
 120989616.84248  94277620.79148  23023559.6194   23023561.6054   23023560.3844
       230.000         181.000
 108267470.65448  84364250.99748  20602623.5604   20602626.0484   20602623.4764
       251.000         224.000
 126570779.17248  98626567.06648  24085630.2124   24085633.3644   24085630.7274
       223.000         165.000
 106843006.56448  83254283.79748  20331553.7584   20331555.2164   20331553.5244
       254.000         240.000
 125300312.94848  97636600.91148  23843863.5634   23843865.4304   23843863.8944
       219.000         174.000
 127081756.08448  99024732.73148  24182863.5584   24182867.2024   24182863.0904
       219.000         162.000
 127184213.82748  99104559.42348  24202370.5414   24202372.0384   24202369.9344
       220.000         168.000
 09  1 16  0 19 30.0000000  0  9G 9G28G18G26G10G15G17G27G12
 112319193.21948  87521437.39148  21373640.8214   21373643.8914   21373640.8644
       241.000         209.000
 121153351.63948  94405201.43448  23054722.3644   23054723.9514   23054723.1374
       230.000         185.000
 120925851.55348  94227933.55248  23011425.6164   23011427.5524   23011426.5954
       229.000         182.000
 108313935.64148  84400457.47448  20611465.7834   20611467.9894   20611465.6734
       252.000         225.000
 126681389.45848  98712756.91248  24106679.0694   24106681.5794   24106680.5134
       221.000         161.000
 106836949.11848  83249563.70248  20330401.0934   20330402.4824   20330400.9074
       254.000         240.000
 125246321.89448  97594529.98848  23833587.9714   23833590.3324   23833587.3224
       217.000         172.000
 127152069.66448  99079522.53448  24196244.2284   24196247.6004   24196245.1254
       220.000         164.000
 127072075.64348  99017179.02448  24181030.5254   24181032.3214   24181030.5504
       222.000         166.000
 09  1 16  0 20  0.0000000  0 10G 5G 9G28G18G26G10G15G17G27G12
 143643994.88158  94138161.93558  25431619.6545   25431622.0175   25431618.8875
       199.000         143.000
 112251275.36448  87468514.40448  21360716.3424   21360719.5674   21360716.9974
       241.000         208.000
 121229143.21948  94464259.80348  23069144.9464   23069146.8484   23069144.9204
       229.000         186.000
 120862543.30748  94178602.47948  22999378.2024   22999380.3724   22999378.6314
       230.000         182.000
 108360791.67848  84436968.66548  20620382.1694   20620384.6374   20620382.2024
       251.000         224.000
 126792052.04248  98798987.48248  24127736.6264   24127739.7594   24127738.1044
       220.000         161.000
 106831301.93748  83245163.29648  20329326.4524   20329327.8164   20329326.0554
       255.000         240.000
 125192693.66248  97552741.73348  23823383.8714   23823385.2434   23823382.8064
       219.000         171.000
 127222395.83948  99134322.11548  24209627.4754   24209630.6954   24209628.2784
       222.000         164.000
 126960062.25748  98929895.85148  24159715.2944   24159716.5624   24159716.3634
       222.000         170.000
 09  1 16  0 20 30.0000000  0 10G 5G 9G28G18G26G10G15G17G27G12
 143527576.41148  94047446.30748  25409466.0314   25409468.8524   25409464.2434
       200.000         142.000
 112183632.40348  87415805.61948  21347844.5214   21347847.3774   21347844.7324
       242.000         209.000
 121305235.34948  94523552.36048  23083624.7144   23083626.4894   23083625.0084
       230.000         185.000
 120799693.93148  94129628.92648  22987418.8874   22987420.4594   22987419.5664
       229.000         183.000
 108408038.41448  84473784.29548  20629372.8914   20629375.3074   20629372.8264
       252.000         224.000
 126902763.85548  98885256.39448  24148804.8574   24148808.1384   24148805.8984
       218.000         164.000
 106826066.21748  83241083.51148  20328330.2684   20328331.5454   20328330.1704
       255.000         240.000
 125139430.69248  97511238.10048  23813248.7814   23813250.2184   23813248.7704
       218.000         171.000
 127292734.39648  99189131.39448  24223011.9954   24223014.8934   24223011.9634
       218.000         164.000
 126848176.24248  98842711.93748  24138424.3984   24138425.9844   24138424.6464
       222.000         171.000
 09  1 16  0 21  0.0000000  0 10G 5G 9G28G18G26G10G15G17G27G12
 143411187.35048  93956753.54648  25387318.0274   25387320.2144   25387316.9524
       199.000         141.000
 112116265.10948  87363311.64748  21335024.8804   21335027.7654   21335025.2444
       241.000         209.000
 121381625.91048  94583077.47348  23098161.6254   23098163.3374   23098162.4464
       230.000         186.000
 120737306.21948  94081015.11648  22975547.1194   22975548.7754   22975548.3124
       231.000         183.000
 108455676.21148  84510904.65348  20638438.0184   20638440.4864   20638438.0044
       251.000         224.000
 127013523.10048  98971562.28748  24169881.7244   24169885.6234   24169882.1954
       218.000         161.000
 106821243.33648  83237325.41748  20327412.5454   20327413.8284   20327412.3634
       254.000         241.000
 125086536.04948  97470021.51748  23803182.1474   23803184.1754   23803182.3514
       216.000         172.000
 127363085.64348  99243950.52948  24236399.1014   24236402.6784   24236398.7594
       214.000         160.000
 126736420.20548  98755629.31048  24117157.8984   24117159.6754   24117157.8624
       220.000         169.000
 09  1 16  0 21 30.0000000  0 10G 5G 9G28G18G26G10G15G17G27G12
 143294829.58148  93866085.21248  25365175.3344   25365179.1034   25365173.9314
       198.000         141.000
 112049174.22248  87311033.05448  21322257.6524   21322261.0004   21322257.4804
       241.000         209.000
 121458312.74648  94642833.43148  23112754.5014   23112756.4354   23112754.4254
       230.000         186.000
 120675381.81448  94032762.36248  22963763.1474   22963765.5414   22963764.2434
       231.000         185.000
 108503704.51248  84548329.29548  20647577.3364   20647579.8784   20647577.2154
       250.000         224.000
 127124326.91548  99057902.87248  24190965.8334   24190970.6894   24190966.3924
       217.000         163.000
 106816834.32048  83233889.81648  20326573.4824   20326574.9354   20326573.3064
       254.000         241.000
 125034011.99048  97429093.67648  23793187.6424   23793189.6264   23793187.4434
       218.000         173.000
 127433449.30548  99298779.35848  24249788.8274   24249791.8964   24249789.3934
       215.000         159.000
 126624796.34148  98668649.69648  24095916.3614   24095918.2514   24095915.9444
       223.000         172.000
 09  1 16  0 22  0.0000000  0 10G 5G 9G28G18G26G10G15G17G27G12
 143178505.52148  93775443.08848  25343038.4494   25343043.1454   25343039.1424
       205.000         142.000
 111982360.61248  87258970.51048  21309543.8124   21309546.6224   21309543.7384
       242.000         209.000
 121535293.96848  94702818.78848  23127403.6394   23127405.3324   23127404.3084
       231.000         186.000
 120613923.42048  93984872.70148  22952067.7464   22952069.5364   22952069.5024
       229.000         182.000
 108552123.58048  84586058.43548  20656791.1484   20656793.8204   20656790.8654
       251.000         224.000
 127235172.88748  99144276.33348  24212059.9064   24212063.9424   24212060.3304
       220.000         165.000
 106812840.41548  83230777.67648  20325813.4724   20325814.8554   20325813.1514
       255.000         241.000
 124981861.69548  97388457.09648  23783263.2724   23783266.2624   23783263.4264
       217.000         174.000
 127503825.62348  99353618.02848  24263181.3054   24263184.7384   24263181.2344
       215.000         159.000
 126513307.31548  98581775.17348  24074700.4424   24074702.1674   24074700.6534
       221.000         170.000
 09  1 16  0 22 30.0000000  0 10G 5G 9G28G18G26G10G15G17G27G12
 143062216.20348  93684828.03648  25320909.5214   25320915.1154   25320912.4054
       199.000         142.000
 111915824.31148  87207124.05448  21296882.0744   21296884.7764   21296881.6984
       242.000         208.000
 121612566.33148  94763031.00948  23142108.3534   23142109.8394   23142109.6914
       229.000         184.000
 120552931.99848  93937346.92448  22940461.6104   22940463.3784   22940462.7964
       231.000         185.000
 108600932.21448  84624091.13748  20666079.3344   20666081.8844   20666079.1794
       250.000         224.000
 127346057.90648  99230680.26148  24233160.8994   24233164.4264   24233162.0804
       221.000         161.000
 106809262.03748  83227989.32548  20325132.5914   20325133.8784   20325132.3984
       255.000         241.000
 124930086.71648  97348112.92448  23773411.2774   23773412.7064   23773411.2874
       218.000         174.000
 127574213.48348  99408465.70048  24276575.6014   24276579.0764   24276574.8084
       213.000         159.000
 126401954.75648  98495006.97548  24053510.5644   24053512.1634   24053510.7604
       222.000         169.000
 09  1 16  0 23  0.0000000  0 10G 5G 9G28G18G26G10G15G17G27G12
 142945964.05848  93594241.99848  25298787.0134   25298792.9044   25298785.6264
       197.000         142.000
 111849565.88548  87155494.13648  21284273.6164   21284276.4824   21284273.2374
       243.000         210.000
 121690128.39248  94823468.97348  23156867.5704   23156869.1814   23156867.8664
       229.000         183.000
 120492410.29348  93890187.15248  22928944.3084   22928946.5484   22928945.2374
       229.000         185.000
 108650130.53548  84662427.49148  20675441.4124   20675443.9704   20675441.2974
       250.000         224.000
 127456980.10948  99317113.14648  24254268.0204   24254271.1114   24254268.6344
       219.000         157.000
 106806100.59248  83225525.85848  20324531.0044   20324532.3484   20324530.7234
       254.000         241.000
 124878689.98748  97308063.54848  23763630.7774   23763632.8094   23763630.4254
       219.000         175.000
 127644612.98648  99463322.45148  24289972.4964   24289976.0484   24289973.6724
       213.000         159.000
 126290741.27648  98408347.10948  24032347.2944   24032348.8754   24032346.9634
       224.000         171.000
 09  1 16  0 23 30.0000000  0 10G 5G 9G28G18G26G10G15G17G27G12
 142829751.74848  93503686.94648  25276673.2864   25276678.4594   25276672.5944
       198.000         142.000
 111783586.39848  87104081.56248  21271718.4854   21271720.8124   21271719.2174
       244.000         209.000
 121767978.50648  94884131.39748  23171682.1264   23171683.6964   23171682.4574
       228.000         184.000
 120432360.87348  93843395.40548  22917517.5604   22917519.5224   22917517.6784
       231.000         185.000
 108699718.76148  84701067.65948  20684877.7064   20684880.3554   20684877.5454
       251.000         224.000
 127567937.36148  99403573.32148  24275382.8284   24275385.8544   24275383.9744
       221.000         160.000
 106803357.55048  83223388.41848  20324008.9054   20324010.4034   20324008.7124
       254.000         241.000
 124827674.70748  97268311.38148  23753922.7264   23753924.8664   23753922.0944
       220.000         178.000
 127715024.86448  99518188.83348  24303371.1654   24303374.5274   24303371.4584
       210.000         159.000
 126179669.54048  98321797.71048  24011210.7504   24011213.0424   24011210.4694
       220.000         168.000
 09  1 16  0 24  0.0000000  0 10G 5G 9G28G18G26G10G15G17G27G12
 142713580.28048  93413163.75448  25254567.1264   25254571.0904   25254568.4634
       204.000         147.000
 111717885.49048  87052886.07248  21259215.8554   21259218.2764   21259216.4144
       243.000         209.000
 121846113.19648  94945015.57048  23186550.5684   23186552.1164   23186550.7694
       229.000         181.000
 120372784.91748  93796972.58948  22906180.8124   22906182.5644   22906181.4344
       230.000         185.000
 108749695.52948  84740010.58848  20694387.9864   20694390.6854   20694387.8024
       250.000         224.000
 127678925.71348  99490057.75648  24296503.5234   24296506.7674   24296505.1154
       221.000         160.000
 106801033.14048  83221577.19248  20323566.4084   20323568.0884   20323566.0744
       254.000         241.000
 124777042.48448  97228857.69948  23744288.0534   23744289.8094   23744288.0944
       222.000         177.000
 127785448.08648  99573064.03248  24316771.6144   24316775.6384   24316771.8854
       214.000         158.000
 126068740.86148  98235359.78648  23990101.9924   23990103.8924   23990101.4154
       222.000         170.000
 09  1 16  0 24 30.0000000  0 10G 5G 9G28G18G26G10G15G17G27G12
 142597451.47048  93322673.80448  25232469.4574   25232472.8564   25232471.4174
       207.000         147.000
 111652463.78748  87001908.13548  21246766.2594   21246769.1024   21246766.7894
       244.000         210.000
 121924530.46948  95006119.93248  23201472.9334   23201474.1814   23201473.9964
       229.000         182.000
 120313684.06548  93750919.96448  22894934.3114   22894935.9704   22894934.4924
       232.000         187.000
 108800060.56348  84779256.07048  20703972.0794   20703974.7274   20703971.9784
       251.000         223.000
 127789943.16448  99576564.84048  24317628.7824   24317632.9244   24317630.1994
       216.000         161.000
 106799128.01948  83220092.68248  20323203.9074   20323205.5644   20323203.6914
       254.000         241.000
 124726795.76248  97189704.43048  23734726.0134   23734728.5784   23734726.0364
       221.000         177.000
 127855882.40348  99627947.89448  24330175.5094   24330178.5034   24330177.1404
       213.000         155.000
 125957957.60848  98149035.18348  23969021.1354   23969022.6264   23969020.3074
       223.000         171.000
 09  1 16  0 25  0.0000000  0 10G 5G 9G28G18G26G10G15G17G27G12
 142481367.40448  93232218.72448  25210378.7654   25210382.5804   25210381.4404
       205.000         147.000
 111587321.89448  86951148.23048  21234370.2614   21234373.0404   21234370.7284
       242.000         209.000
 122003227.98848  95067442.66748  23216448.6334   23216450.1904   23216449.5624
       228.000         181.000
 120255060.52348  93705239.29048  22883778.3194   22883780.2454   22883779.3024
       231.000         186.000
 108850813.43148  84818803.75348  20713630.2144   20713632.6184   20713630.1734
       251.000         223.000
 127900986.92248  99663092.41848  24338759.4104   24338764.0184   24338759.2194
       218.000         161.000
 106797643.43648  83218935.86048  20322921.5184   20322923.1194   20322921.2974
       254.000         241.000
 124676937.00148  97150853.44148  23725238.6494   23725240.8334   23725238.1004
       223.000         178.000
